%time,field.linear.x,field.linear.y,field.linear.z,field.angular.x,field.angular.y,field.angular.z
1385577499129100736,-0.0,0.0,0.0,1.0,0.0,0.0
1385577499619334246,-0.0,0.0,6.78920619366e-08,1.0,0.0,0.278127554131
1385577500119261926,-0.158548570665,0.0359249554819,-0.00185899950613,1.0,0.0,0.0853871808611
1385577500620459277,-0.0528923321227,0.0101615746787,0.0158253816805,1.0,0.0,-0.00264438082176
1385577501120332559,0.0593587601846,-0.0157623459781,0.0393683180467,1.0,0.0,-0.0372842037703
1385577501620234689,0.10425631097,-0.0243253520842,0.0647407755769,1.0,0.0,-0.0163376332084
1385577502120473615,0.0618767662967,-0.0182659139823,0.089282234006,1.0,0.0,0.013084663487
1385577502620288018,-0.0643411320126,-0.000796162639574,0.107689084747,1.0,0.0,0.0276956862644
1385577503120287977,-0.170843424126,0.00461990199315,0.0915534958186,1.0,0.0,0.0306382793759
1385577503620282783,-0.205631243277,0.000634385633289,0.0714145005872,1.0,0.0,0.0280611667262
1385577504120342801,-0.122325153939,-0.0137471110156,0.0964194681122,1.0,0.0,0.0231677888892
1385577504620390741,0.0423119090082,-0.0383776963695,0.141951331149,1.0,0.0,0.0198130894007
1385577505120185752,0.17087337399,-0.053879713556,0.163987194037,1.0,0.0,0.017487894685
1385577505620303175,0.169493463239,-0.0419291907348,0.152777635609,1.0,0.0,0.0139930815848
1385577506119215931,0.0394527357901,-0.0214013204845,0.122738906378,1.0,0.0,0.00974607326098
1385577506620237915,-0.147954073319,-0.0010933691154,0.0905206959404,1.0,0.0,0.00503763003396
1385577507120188362,-0.271437085613,-0.0015020354073,0.0630063687057,1.0,0.0,0.00234198623023
1385577507620857389,-0.24119881465,-0.0254985306549,0.0449817197455,1.0,0.0,0.00274227746357
1385577508120251919,-0.065613025704,-0.0551838642037,0.0450475199398,1.0,0.0,0.00431979572332
1385577508620283748,0.160854073363,-0.0771000237724,0.0597647193998,1.0,0.0,0.00677451166465
1385577509120172774,0.287537460912,-0.0523199055941,0.0638926588791,1.0,0.0,0.00689857688388
1385577509620298290,0.217685220165,0.00488926956411,0.0495940380724,1.0,0.0,0.00359431386881
1385577510120192919,-0.0106480579913,0.0488316457724,0.0285944967804,1.0,0.0,-0.00101215998614
1385577510620192687,-0.270656407877,0.0538040634913,0.0143325867416,1.0,0.0,-0.00452690159574
1385577511119700939,-0.398101116839,0.0108661793352,0.00340176020085,1.0,0.0,-0.00503860971671
1385577511619567485,-0.289032857502,-0.0584307579374,0.00367273673258,1.0,0.0,-0.00387901630404
1385577512120067349,0.0220841769388,-0.110429054206,0.0301329456253,1.0,0.0,-0.00240979666201
1385577512618943240,0.355400148837,-0.106769210566,0.0598132567065,1.0,0.0,-0.000813101869984
1385577513119877634,0.457568942494,-0.0292288751681,0.0585389891288,1.0,0.0,-0.00137862597967
1385577513619979545,0.259490077266,0.0629878760192,0.03549520246,1.0,0.0,-0.00409414662769
1385577514120077573,-0.0993686810581,0.108264477725,0.0168622706025,1.0,0.0,-0.00815927419136
1385577514619954567,-0.439936266616,0.0701638160848,0.01646440729,1.0,0.0,-0.00971762814345
1385577515119846523,-0.519351994076,-0.0361949292585,0.00557903920138,1.0,0.0,-0.00876188977283
1385577515619874130,-0.241891419927,-0.130831660446,-0.00635852584928,1.0,0.0,-0.00586695076351
1385577516119918949,0.194825342486,-0.157762945868,0.0167180926709,1.0,0.0,-0.00320519719959
1385577516619942854,0.542129151189,-0.0808566019993,0.0367498760949,1.0,0.0,-0.00157835873205
1385577517119923746,0.507305446414,0.067457665786,0.0260273709442,1.0,0.0,-0.00299251480813
1385577517618929902,0.120092988791,0.173972103335,0.00563978568374,1.0,0.0,-0.00624243393248
1385577518119538026,-0.341275936665,0.164648188354,0.010298078959,1.0,0.0,-0.0114736967105
1385577518618824672,-0.614389311234,0.042632621536,0.00985501784575,1.0,0.0,-0.0128889946651
1385577519118789445,-0.449299196166,-0.120846646223,-0.00111662942295,1.0,0.0,-0.0123428357627
1385577519619829933,0.0303315137591,-0.231814292716,0.00129694748897,1.0,0.0,-0.00997405754959
1385577520120164927,0.535577940898,-0.198942782734,0.0250877270835,1.0,0.0,-0.00625653411169
1385577520619956656,0.694640356374,-0.00592547385091,0.0121743476296,1.0,0.0,-0.003277177907
1385577521120104267,0.337779119152,0.204414093813,-0.00415161668753,1.0,0.0,-0.00446878560796
1385577521619999655,-0.236581170279,0.298366646572,0.00426277043263,1.0,0.0,-0.0108012211224
1385577522119900011,-0.67269536379,0.209420916018,0.0198637810299,1.0,0.0,-0.0135961930499
1385577522619878463,-0.604510381007,-0.039822741015,0.0171763140418,1.0,0.0,-0.0150219164318
1385577523119992479,-0.0861951722802,-0.274699870032,0.0103464017689,1.0,0.0,-0.0152732398209
1385577523619085171,0.475456041999,-0.357558107841,0.0148996567758,1.0,0.0,-0.0157165049918
1385577524119682183,0.726556151395,-0.193701789818,-0.000216495241496,1.0,0.0,-0.0104500145105
1385577524619309922,0.416415472306,0.130882440609,-0.0144941713835,1.0,0.0,-0.00738890044877
1385577525119124814,-0.192213866951,0.399580495352,-0.00680254510452,1.0,0.0,-0.0122767687012
1385577525620167609,-0.667226315139,0.430106540182,0.0055669369535,1.0,0.0,-0.0170349433197
1385577526120142466,-0.63245599289,0.153448140105,0.00525820544088,1.0,0.0,-0.0175361928867
1385577526620196943,-0.109902932253,-0.230429250404,0.0158398378236,1.0,0.0,-0.0181263797592
1385577527120223636,0.485588386946,-0.48921617381,0.030905716638,1.0,0.0,-0.0205191746852
1385577527620299786,0.725966551011,-0.388160150554,0.00984282070458,1.0,0.0,-0.0147539190448
1385577528120205845,0.38178515326,0.0189841282861,-0.016895484235,1.0,0.0,-0.0106100811454
1385577528620130888,-0.22889617772,0.41194106031,-0.0160573574333,1.0,0.0,-0.0128758285345
1385577529120190888,-0.685818160789,0.552189241372,-0.00829971183503,1.0,0.0,-0.0154737638449
1385577529620152340,-0.612233807193,0.250549724805,-0.0144211480854,1.0,0.0,-0.0139094967512
1385577530119695734,-0.0544997583491,-0.225493192528,-0.00175250770284,1.0,0.0,-0.0137635014976
1385577530619461952,0.531483318717,-0.590751369947,0.0270196468059,1.0,0.0,-0.015212567541
1385577531119378483,0.744307042958,-0.509603474257,0.00986964453866,1.0,0.0,-0.0096891005138
1385577531619491882,0.350398320773,-0.023312891956,-0.015477400883,1.0,0.0,-0.00480043462951
1385577532119522416,-0.302949129568,0.459739975906,-0.00448914699137,1.0,0.0,-0.00903651234102
1385577532618604873,-0.736540007073,0.634283219891,-0.00136398969285,1.0,0.0,-0.0119555996609
1385577533119652595,-0.582905441644,0.274231626134,-0.0106726089274,1.0,0.0,-0.0100458353633
1385577533619428139,0.0255250358288,-0.286519491598,-0.0105757672098,1.0,0.0,-0.0114131781586
1385577534118427087,0.60657891972,-0.665916435153,0.0178901997731,1.0,0.0,-0.0142067160422
1385577534619573766,0.764409359534,-0.527690820462,0.00119216215028,1.0,0.0,-0.0104450043865
1385577535119699020,0.274325605995,0.029575751747,-0.0202405004556,1.0,0.0,-0.00803136072746
1385577535619620957,-0.430078523799,0.550283414717,0.00591307413122,1.0,0.0,-0.0139749418788
1385577536118810044,-0.817672894696,0.691644609768,0.004851238302,1.0,0.0,-0.0150336855706
1385577536619083032,-0.537810439678,0.240098885639,-0.00466929624381,1.0,0.0,-0.0133032060839
1385577537118799971,0.154429106227,-0.383500757072,-0.00567830978225,1.0,0.0,-0.0129948718109
1385577537619697611,0.7129023845,-0.738074554843,0.0218091294136,1.0,0.0,-0.0148377479175
1385577538119677431,0.738200757847,-0.492692375745,0.00176065948088,1.0,0.0,-0.0104640128407
1385577538619500223,0.145117929627,0.148732753723,-0.0180498555055,1.0,0.0,-0.00723612384929
1385577539119686465,-0.582464396596,0.684699505269,0.00331670509414,1.0,0.0,-0.0138426311443
1385577539619714501,-0.884833226145,0.73127965849,-0.00589423130266,1.0,0.0,-0.0130381987098
1385577540119519641,-0.444738856027,0.160064439884,-0.0153906128133,1.0,0.0,-0.0116237767009
1385577540619647616,0.341229900982,-0.535901615946,0.0095553064669,1.0,0.0,-0.0108280992636
1385577541119639567,0.861246633181,-0.842916943705,0.029858537556,1.0,0.0,-0.0105847125637
1385577541619487236,0.680572587193,-0.428900030256,0.0089788668685,1.0,0.0,-0.00686555759023
1385577542119527511,-0.0579543138897,0.327318881179,-0.0137291638654,1.0,0.0,-0.00725236389262
1385577542619364118,-0.758898720152,0.812156069138,-0.00173395258078,1.0,0.0,-0.0144973516806
1385577543119743983,-0.903540876912,0.655990598376,-0.0125453098047,1.0,0.0,-0.0110450001062
1385577543618766780,-0.268541829158,-0.0545565852329,-0.0210937704208,1.0,0.0,-0.00957119651847
1385577544119541820,0.586437296582,-0.752244114239,0.0176723341441,1.0,0.0,-0.00956653732607
1385577544619557319,0.989126200567,-0.89970297545,0.0171952838805,1.0,0.0,-0.00850761997642
1385577545119583828,0.546684349308,-0.277711004841,-0.00553961016884,1.0,0.0,-0.0069068703486
1385577545619896929,-0.335933486178,0.54046199998,-0.0083296753226,1.0,0.0,-0.0109133664608
1385577546119769614,-0.92206796347,0.912380297777,0.00952959541147,1.0,0.0,-0.0195087070869
1385577546619550097,-0.758384686813,0.486375443639,-0.000454449737065,1.0,0.0,-0.0185083455536
1385577547119632173,0.0545362099622,-0.366091522016,-0.0128787677248,1.0,0.0,-0.0143304174353
1385577547619645889,0.875064199117,-0.948690211898,-0.00540484448975,1.0,0.0,-0.0106358391643
1385577548120574660,1.04753776901,-0.792618731467,-0.0242120955457,1.0,0.0,-0.00429490058712
1385577548618683459,0.310198114188,0.0117530697934,-0.0374637873079,1.0,0.0,-0.0037361415344
1385577549118647192,-0.692397014742,0.815318481334,0.0331932882132,1.0,0.0,-0.0108466010794
1385577549619660921,-1.11537244511,0.965815076067,0.0310657923145,1.0,0.0,-0.0124452288891
1385577550118984310,-0.565496787316,0.225550277988,0.0228071136372,1.0,0.0,-0.0112735703956
1385577550619930933,0.44108937079,-0.723725152314,-0.00586642226818,1.0,0.0,-0.0105408671803
1385577551119835150,1.05335057242,-1.12531733897,-0.011255317594,1.0,0.0,-0.0122434618634
1385577551619733345,0.824571391108,-0.597677406994,-0.035838933995,1.0,0.0,-0.00726066274801
1385577552119788001,-0.138591836076,0.390850380364,-0.0391636521777,1.0,0.0,-0.00679447472469
1385577552619940313,-1.02805358959,1.01888297264,0.0358013783609,1.0,0.0,-0.0118661773233
1385577553119748472,-1.07807070636,0.757387533467,0.0278996836907,1.0,0.0,-0.00865662167419
1385577553619806228,-0.214871047394,-0.223923809285,0.00394242766932,1.0,0.0,-0.0092927557202
1385577554119903787,0.835335712927,-1.08572301824,-0.0250743548383,1.0,0.0,-0.0116127873233
1385577554619839687,1.22230577026,-1.16057714991,-0.0332616370744,1.0,0.0,-0.00925527078812
1385577555119934437,0.505284982928,-0.242534113771,-0.0409330680681,1.0,0.0,-0.00803470789775
1385577555619828822,-0.665808290882,0.881645925382,0.0353998169366,1.0,0.0,-0.0139686930531
1385577556119928684,-1.26358417259,1.24820146158,0.0416072830843,1.0,0.0,-0.0202895279839
1385577556619787694,-0.78211794094,0.453055468303,0.0357748392479,1.0,0.0,-0.0197494551538
1385577557119828316,0.353634461409,-0.758768541429,0.00368521568519,1.0,0.0,-0.0201902641572
1385577557619857471,1.19936431831,-1.34417276642,-0.0120364954131,1.0,0.0,-0.0204403404494
1385577558119779015,1.04765258412,-0.821609512695,-0.0346561775079,1.0,0.0,-0.016496269318
1385577558619856177,-0.0666232317016,0.40491732097,-0.0409353420966,1.0,0.0,-0.0149385036537
1385577559119802993,-1.19182677088,1.27916303256,0.0322193150712,1.0,0.0,-0.0181895537885
1385577559619823323,-1.34010192597,1.03634322044,0.0276336651643,1.0,0.0,-0.0147695716563
1385577560119913503,-0.335522485092,-0.168136788559,0.00324011924739,1.0,0.0,-0.0149690330851
1385577560619731894,0.960328050882,-1.30622129163,-0.012132494308,1.0,0.0,-0.0163593077328
1385577561119022760,1.45236202702,-1.42720445929,-0.0087175144063,1.0,0.0,-0.0130887120816
1385577561619498690,0.611967856127,-0.264890141103,-0.0229322990881,1.0,0.0,-0.00995305808373
1385577562119853811,-0.792345142303,1.14731499583,0.0294637879795,1.0,0.0,-0.0156092724126
1385577562619940650,-1.49302237776,1.57246326792,0.0265218725542,1.0,0.0,-0.0280209887446
1385577563119896493,-0.907732103769,0.553901402637,0.0124988300521,1.0,0.0,-0.0286394724395
1385577563619751080,0.449803521401,-0.965284389054,-0.00548427637856,1.0,0.0,-0.0278797272057
1385577564119918880,1.45370260094,-1.66809294555,0.0132956974589,1.0,0.0,-0.0258801522944
1385577564619912104,1.20722805903,-0.908641527895,-0.0103657984782,1.0,0.0,-0.0175127050983
1385577565120080842,-0.166235832551,0.67859383135,-0.026787311301,1.0,0.0,-0.014258896353
1385577565619790626,-1.46107182327,1.67045213192,0.00712606736808,1.0,0.0,-0.0167076747166
1385577566120214652,-1.54916304254,1.19858227213,-0.00296750685253,1.0,0.0,-0.0124223617274
1385577566619763850,-0.266240505821,-0.399832464881,-0.0158192171445,1.0,0.0,-0.0112382387577
1385577567119824447,1.29764459632,-1.74540045298,0.0122965504695,1.0,0.0,-0.0103481972959
1385577567620265717,1.76660724431,-1.61103068329,0.00715546650514,1.0,0.0,-0.00460421726824
1385577568119453203,0.594929690703,-0.00718919596612,-0.00838161323188,1.0,0.0,-0.000889084371533
1385577568620416002,-1.15862966909,1.6699580717,0.030998064611,1.0,0.0,-0.00985598706636
1385577569119569893,-1.85000729399,1.90378794836,0.0016174670674,1.0,0.0,-0.0200408402829
1385577569618444242,-0.895163727151,0.335335072075,-0.0109485953117,1.0,0.0,-0.0168961066007
1385577570118674259,0.845449076032,-1.5949490058,-0.0206586300738,1.0,0.0,-0.0135226147085
1385577570619495877,1.85044512001,-2.17483500778,0.00906018939247,1.0,0.0,-0.0131670202242
1385577571118496931,1.21995323154,-0.783883118363,-0.0138485688167,1.0,0.0,-0.00656073118101
1385577571618483773,-0.58101388863,1.32125959171,-0.0249230079529,1.0,0.0,-0.00561727167769
1385577572120548693,-1.93027044417,2.20505313284,0.014607417913,1.0,0.0,-0.00823739675496
1385577572618441380,-1.5991009516,1.05483362972,0.00647060115488,1.0,0.0,-0.00398587119281
1385577573119369708,0.195204619514,-1.15905135313,-0.00861708002615,1.0,0.0,-9.49180470684e-05
1385577573619804109,1.89496236229,-2.43291880619,-0.00172106608348,1.0,0.0,0.00164804630979
1385577574120011934,1.95677808039,-1.56897655738,-0.0192692699661,1.0,0.0,0.00490316878953
1385577574619098678,0.156131635057,0.740506614908,-0.0300357777208,1.0,0.0,0.00234609075577
1385577575119486155,-1.9005763718,2.40227056521,0.0387988167704,1.0,0.0,-0.00661928566338
1385577575618579220,-2.29500928849,1.86584642722,0.024162007743,1.0,0.0,-0.00631287879707
1385577576119510598,-0.591508032449,-0.497601833117,-0.00735999603552,1.0,0.0,-0.00551068791669
1385577576619428247,1.64815100736,-2.55687529992,-0.0483893972163,1.0,0.0,-0.00836412165698
1385577577119479957,2.42220847818,-2.48662668513,-0.0191089105522,1.0,0.0,-0.0109392829068
1385577577619646416,0.943129734485,-0.104000034608,-0.00956656603566,1.0,0.0,-0.0111579818135
1385577578119457267,-1.51669271134,2.47477397679,0.0725728595434,1.0,0.0,-0.0194568288923
1385577578619529309,-2.63222545051,2.78882364261,0.0331555969889,1.0,0.0,-0.0304670995708
1385577579119465017,-1.3477738381,0.413957169584,0.0144707790623,1.0,0.0,-0.0306406624248
1385577579619342316,1.17957491714,-2.47528689255,-0.0212998227813,1.0,0.0,-0.0272807932376
1385577580118631118,2.68956702365,-3.21952489442,-0.0101078754091,1.0,0.0,-0.0243743865894
1385577580619096815,1.77934480709,-1.00626608513,-0.0348147299743,1.0,0.0,-0.017888237409
1385577581119691006,-0.866521687424,2.17954563622,-0.0484933100661,1.0,0.0,-0.0152340226711
1385577581619688927,-2.81103677656,3.32230534427,0.0339104413134,1.0,0.0,-0.0181043857171
1385577582119763395,-2.22013862627,1.31225309046,0.0341294616848,1.0,0.0,-0.013956474706
1385577582619718542,0.453521024372,-2.08041392013,0.0183309252464,1.0,0.0,-0.0104244746185
1385577583119753513,2.85138604101,-3.69623264627,-0.0223174607427,1.0,0.0,-0.00751555895569
1385577583619708472,2.7193605601,-1.96649164502,-0.0421552880576,1.0,0.0,-0.00384880249754
1385577584119695487,-0.0207013900398,1.65513413092,-0.0445743987364,1.0,0.0,-0.00349926185287
1385577584619745407,-2.93250780417,3.80878413221,0.0488420528472,1.0,0.0,-0.00919838024297
1385577585119713326,-3.24117676511,2.37711976124,0.0471619431632,1.0,0.0,-0.00781000716043
1385577585619827735,-0.514255004982,-1.44804640038,0.0186627012004,1.0,0.0,-0.00697929712714
1385577586119704350,2.78331073526,-4.12392033932,-0.0463416544126,1.0,0.0,-0.00858712968116
1385577586618875216,3.59312411981,-3.14253266147,-0.0370056757029,1.0,0.0,-0.0102752716711
1385577587119296136,0.987001079271,0.860292145115,-0.0254456034583,1.0,0.0,-0.0104975710285
1385577587619212239,-2.69047192273,4.21494969615,0.0778875336598,1.0,0.0,-0.0160099729214
1385577588120315323,-3.9343632356,3.63769605662,0.0479313661815,1.0,0.0,-0.027194431683
1385577588620258089,-1.47781885521,-0.522520133087,0.0194505858871,1.0,0.0,-0.0277809415424
1385577589120470512,2.42604826045,-4.45241025114,-0.0709776730928,1.0,0.0,-0.027507990826
1385577589620256390,4.18695083613,-4.50740174585,-0.0374959129523,1.0,0.0,-0.027418583472
1385577590120334187,2.08780981234,-0.2522277037,-0.0414841933618,1.0,0.0,-0.0208622349771
1385577590619525215,-2.13470655972,4.44176316708,0.0678433338858,1.0,0.0,-0.0213304012297
1385577591119206679,-4.46699388701,5.04998811531,0.0552253827878,1.0,0.0,-0.0281597387289
1385577591620360029,-2.60869535897,0.740458479383,0.051642770507,1.0,0.0,-0.0266796221105
1385577592120339896,1.83481263633,-4.53349751843,0.0143648662913,1.0,0.0,-0.0226552014719
1385577592619725670,4.78798840772,-5.70828401993,-0.0473280987564,1.0,0.0,-0.0178602330416
1385577593123282035,3.40359420649,-1.52194064669,-0.0785012860078,1.0,0.0,-0.00953929128749
1385577593619472738,-1.2841947132,4.26456162122,-0.0709017049546,1.0,0.0,-0.00454243521387
1385577594119378067,-4.97390587618,6.14311234768,0.0692503286392,1.0,0.0,-0.00940839582135
1385577594619451391,-4.01247039761,2.11603912343,0.077830294647,1.0,0.0,-0.00768885888129
1385577595119687385,0.876937848112,-4.22568788477,0.0452665290044,1.0,0.0,-0.00613043951541
1385577595619457016,5.25047982681,-6.80385007774,-0.0679621622629,1.0,0.0,-0.00542338382145
1385577596119592584,4.94898136534,-3.05891037585,-0.0963970843403,1.0,0.0,-0.0031925410126
1385577596619605281,-0.107826176759,3.78657153749,-0.100803054907,1.0,0.0,-0.00199249674857
1385577597119429612,-5.33142904796,7.23760867185,0.0914760503985,1.0,0.0,-0.0092459881446
1385577597619441506,-5.62728549919,3.79096542985,0.098847613205,1.0,0.0,-0.00978866969625
1385577598119453405,-0.457188303335,-3.58936369616,0.0725555349633,1.0,0.0,-0.00989737018988
1385577598618871848,5.48460970039,-7.88966636926,-0.0879157538085,1.0,0.0,-0.0101315178897
1385577599119459818,6.56511064551,-4.95323549268,-0.11812051346,1.0,0.0,-0.0092168577916
1385577599619858520,1.3936011151,2.90892246404,-0.140939080001,1.0,0.0,-0.00863144412985
1385577600119579157,-5.30834457105,8.20879951671,0.0281953526724,1.0,0.0,-0.0191659468676
1385577600619846496,-7.06738443681,5.77905083637,0.131238927241,1.0,0.0,-0.0308339236497
1385577601119667257,-1.90952378743,-2.48884695576,0.11417995575,1.0,0.0,-0.028846033403
1385577601619618132,5.38305724625,-8.92621161749,-0.0675047818208,1.0,0.0,-0.0273932132563
1385577602119679781,7.92283827967,-7.2147597557,-0.171405887092,1.0,0.0,-0.0280279485895
1385577602619708361,3.13429698856,1.5622151771,-0.195112006765,1.0,0.0,-0.0220804188052
1385577603119724005,-4.88311398158,9.12942519674,-0.00153873691681,1.0,0.0,-0.0244445384918
1385577603619705986,-8.45767143698,8.17951428717,0.160761372941,1.0,0.0,-0.0335336542127
1385577604120690208,-3.78212316364,-0.893119117677,0.173564886072,1.0,0.0,-0.0314882447045
1385577604619608004,4.85941691606,-9.80240051992,-0.0470886370679,1.0,0.0,-0.0305882482379
1385577605119395733,9.32144198819,-9.86392236362,-0.208214702181,1.0,0.0,-0.0336517147874
1385577605620433998,5.23570344958,-0.415911322512,-0.237713514641,1.0,0.0,-0.0309970037567
1385577606120425412,-4.08031640932,9.83954707859,0.0145937297643,1.0,0.0,-0.0319821432924
1385577606618652412,-9.85498151766,11.0067133917,0.209108703481,1.0,0.0,-0.0376125044149
1385577607119751884,-6.02407773146,1.41725528151,0.216652718463,1.0,0.0,-0.0316810854469
1385577607619634119,4.00017638476,-10.1923766799,0.115362522951,1.0,0.0,-0.0232722435555
1385577608119413736,10.8375490466,-12.4209023556,-0.218806741736,1.0,0.0,-0.0189925496883
1385577608619664008,7.83133162033,-2.83383867675,-0.275783094229,1.0,0.0,-0.0145171931582
1385577609120437435,-2.94919938191,9.95976727843,-0.333757803656,1.0,0.0,-0.0175802799901
1385577609619553465,-11.2668203618,13.7000058523,0.173800249055,1.0,0.0,-0.0186832123545
1385577610119734285,-8.86827059233,3.99424085853,0.340465115937,1.0,0.0,-0.0192748103793
1385577610619543342,2.75486145901,-9.9956768938,0.20752777988,1.0,0.0,-0.00317320360152
1385577611119310699,12.3690095479,-15.0454582941,-0.198935202635,1.0,0.0,0.00559694274935
1385577611618937083,10.9130780143,-5.75786452755,-0.265631073126,1.0,0.0,0.0137547160845
1385577612118787976,-1.2904020229,9.76686672852,-0.324590561342,1.0,0.0,0.0145670857991
1385577612619819503,-12.8841025908,16.5669206592,-0.314112207559,1.0,0.0,0.0120638694173
1385577613119779549,-12.1956200583,7.31721147033,-0.292799881214,1.0,0.0,0.00996443033907
1385577613619906435,0.742041634706,-9.80344763858,-0.278853528767,1.0,0.0,0.00943306760633
1385577614119824289,13.9476023232,-18.3878282792,-0.272949365248,1.0,0.0,0.00989757487815
1385577614619724854,14.6530516215,-9.61490629037,-0.219034927492,1.0,0.0,0.00129904880267
1385577615119773410,0.921826272874,9.2833163811,-0.204519672717,1.0,0.0,-0.000882598007374
1385577615619744925,-14.3080098529,20.0557616175,-0.201450424523,1.0,0.0,-0.000335711525329
1385577616119680436,-16.1376184589,11.5912431312,-0.204131621543,1.0,0.0,0.00125804336147
1385577616619795021,-1.96681564981,-8.91727159368,-0.207629205323,1.0,0.0,0.00211987151473
1385577617120001460,15.2629834076,-22.0037886928,-0.209568910875,1.0,0.0,0.00211140621661
1385577617619700793,18.693266238,-14.2508982969,-0.210166753017,1.0,0.0,0.00176179016102
1385577618120508792,4.06663561078,7.990215339,-0.210063090918,1.0,0.0,0.00151319355793
1385577618619299822,-15.2898076383,23.6457644828,-0.209788788588,1.0,0.0,0.00147440024696
