%time,field.header.seq,field.header.stamp,field.header.frame_id,field.child_frame_id,field.transform.translation.x,field.transform.translation.y,field.transform.translation.z,field.transform.rotation.x,field.transform.rotation.y,field.transform.rotation.z,field.transform.rotation.w
1385577495335703253,1386953,1385577495335703253,/world,vicon/Archie/Archie,0.0824218088561,0.272423018015,0.11422830937,-0.00747439719165,-0.0165360602026,0.680997833739,0.732060545681
1385577495345719869,1386954,1385577495345719869,/world,vicon/Archie/Archie,0.0824172807812,0.272418651013,0.114226020869,-0.00749550701646,-0.0165053309423,0.680979042351,0.732078503512
1385577495355681332,1386955,1385577495355681332,/world,vicon/Archie/Archie,0.0824023877679,0.272521936195,0.114244904689,-0.00777546268657,-0.0163528645307,0.68093833455,0.732116869456
1385577495365703090,1386956,1385577495365703090,/world,vicon/Archie/Archie,0.0824300455154,0.27240594629,0.114220496536,-0.00749679516171,-0.0164695432064,0.68099535421,0.732064122706
1385577495375560891,1386957,1385577495375560891,/world,vicon/Archie/Archie,0.0824360232252,0.272403471079,0.11425332797,-0.0076883289285,-0.0164499156921,0.680947647451,0.732106953459
1385577495385665687,1386958,1385577495385665687,/world,vicon/Archie/Archie,0.0824355721074,0.272398066857,0.114250165708,-0.00770134835598,-0.0164383926006,0.680973145291,0.732083358556
1385577495395713889,1386959,1385577495395713889,/world,vicon/Archie/Archie,0.0824298556183,0.272419221365,0.114221120369,-0.00748708529331,-0.0164956855536,0.680990907134,0.7320677703
1385577495405737299,1386960,1385577495405737299,/world,vicon/Archie/Archie,0.0824269710692,0.272417576945,0.114219655071,-0.007507025748,-0.016487645274,0.68100042563,0.732058892719
1385577495415714207,1386961,1385577495415714207,/world,vicon/Archie/Archie,0.0824006600187,0.272521156676,0.114214501573,-0.00758356850477,-0.0163964199119,0.680962718431,0.732095228102
1385577495425680796,1386962,1385577495425680796,/world,vicon/Archie/Archie,0.0824418462417,0.272409493241,0.114247707067,-0.00769740179215,-0.0164310434202,0.680944133239,0.732110550549
1385577495435724938,1386963,1385577495435724938,/world,vicon/Archie/Archie,0.0824083250477,0.272534863444,0.114222544261,-0.0075504191599,-0.0164049947986,0.680971635812,0.732087083983
1385577495445727117,1386964,1385577495445727117,/world,vicon/Archie/Archie,0.0824388228236,0.27240465338,0.114224404518,-0.00749340443872,-0.0164829028456,0.68099071081,0.732068176193
1385577495455705779,1386965,1385577495455705779,/world,vicon/Archie/Archie,0.0824132670895,0.272420541154,0.114220652639,-0.007504162376,-0.0164728107864,0.680986192805,0.732072495905
1385577495465683507,1386966,1385577495465683507,/world,vicon/Archie/Archie,0.0824272038037,0.272411507066,0.114223974466,-0.0075119746514,-0.0164824080639,0.680992116331,0.732066689555
1385577495475568954,1386967,1385577495475568954,/world,vicon/Archie/Archie,0.0824317790752,0.272423631374,0.114223945186,-0.00749153517418,-0.0164786228552,0.680999871539,0.732059770001
1385577495485709147,1386968,1385577495485709147,/world,vicon/Archie/Archie,0.0823942037103,0.27253888423,0.114219888841,-0.00757157746936,-0.0163833320636,0.680965541972,0.732093018879
1385577495495698089,1386969,1385577495495698089,/world,vicon/Archie/Archie,0.0823957944039,0.272540028673,0.114216117668,-0.00760113192463,-0.0164008204294,0.680965532603,0.732092329758
1385577495505648701,1386970,1385577495505648701,/world,vicon/Archie/Archie,0.0824227399974,0.272423166104,0.114216559822,-0.0075055506586,-0.0164847912577,0.680981127935,0.732076923392
1385577495515696760,1386971,1385577495515696760,/world,vicon/Archie/Archie,0.0824235051248,0.272425551675,0.114225232439,-0.00749781730022,-0.0164946312797,0.680976344771,0.732081230286
1385577495525638257,1386972,1385577495525638257,/world,vicon/Archie/Archie,0.0824166776519,0.272428468629,0.114222811218,-0.00750914953329,-0.0164784698827,0.680980967392,0.73207717814
1385577495535654595,1386973,1385577495535654595,/world,vicon/Archie/Archie,0.0824193746646,0.272432846143,0.114227770412,-0.0074810181939,-0.0164943364806,0.680994422198,0.732064592892
1385577495545766119,1386974,1385577495545766119,/world,vicon/Archie/Archie,0.0823901167534,0.272547953269,0.11422119883,-0.00756925047456,-0.0163997629508,0.680956842434,0.732100766947
1385577495555643763,1386975,1385577495555643763,/world,vicon/Archie/Archie,0.0824198100655,0.272431225775,0.114220335657,-0.00748767110411,-0.0165045903888,0.680987458649,0.73207077147
1385577495565631645,1386976,1385577495565631645,/world,vicon/Archie/Archie,0.0824179772488,0.272440789552,0.114221520896,-0.00748601713127,-0.0165066438246,0.680990788488,0.732067644587
1385577495575533937,1386977,1385577495575533937,/world,vicon/Archie/Archie,0.0824240512094,0.272436648581,0.114227780038,-0.00750933797887,-0.0165064375355,0.680976416456,0.732080779418
1385577495585641909,1386978,1385577495585641909,/world,vicon/Archie/Archie,0.0823823353494,0.272543284516,0.114213824586,-0.00756908901605,-0.0164131541462,0.680967174671,0.732090857943
1385577495595796853,1386979,1385577495595796853,/world,vicon/Archie/Archie,0.082409936283,0.272437658874,0.114222662721,-0.00750978239266,-0.0165011156962,0.680990278889,0.732067999852
1385577495605702640,1386980,1385577495605702640,/world,vicon/Archie/Archie,0.0824185791362,0.272431029003,0.114225634729,-0.0075113466365,-0.0164968700254,0.6809809899,0.732076720259
1385577495615669947,1386981,1385577495615669947,/world,vicon/Archie/Archie,0.0824217710111,0.272427081195,0.114227527778,-0.00748531812007,-0.0165056139982,0.680989140183,0.732069208253
1385577495625585888,1386982,1385577495625585888,/world,vicon/Archie/Archie,0.0823934972354,0.272550309078,0.114214530508,-0.00758332411743,-0.0163894027673,0.680959442909,0.732098434492
1385577495635856133,1386983,1385577495635856133,/world,vicon/Archie/Archie,0.082413738272,0.272433822591,0.114225859565,-0.00749134539525,-0.0164908490262,0.681001239533,0.732058224049
1385577495645869706,1386984,1385577495645869706,/world,vicon/Archie/Archie,0.0824203242413,0.272431753204,0.114224264906,-0.00749680866465,-0.0164993896277,0.680982034958,0.732075840378
1385577495655693964,1386985,1385577495655693964,/world,vicon/Archie/Archie,0.0824194171325,0.272426705391,0.114221263316,-0.00750804549801,-0.0164860274343,0.680998507117,0.732060703396
1385577495665695947,1386986,1385577495665695947,/world,vicon/Archie/Archie,0.0824164530611,0.272431236854,0.114229357902,-0.00749472698455,-0.0165135574647,0.680989149345,0.732068924324
1385577495675595784,1386987,1385577495675595784,/world,vicon/Archie/Archie,0.0824161361206,0.272424203521,0.114221340367,-0.0075023200363,-0.0164980182675,0.681005001246,0.732054450751
1385577495685750865,1386988,1385577495685750865,/world,vicon/Archie/Archie,0.0824132135212,0.27243609452,0.11422758799,-0.00748877347409,-0.016498469015,0.680988235291,0.732070175726
1385577495695731559,1386989,1385577495695731559,/world,vicon/Archie/Archie,0.0824190205907,0.272424307905,0.114223873547,-0.00749835784004,-0.0164996439463,0.680992976217,0.732065640993
1385577495705594419,1386990,1385577495705594419,/world,vicon/Archie/Archie,0.0824048192209,0.272434543359,0.114228271241,-0.00747752748141,-0.0164875123697,0.680989675892,0.732069197444
1385577495715670644,1386991,1385577495715670644,/world,vicon/Archie/Archie,0.0824340397278,0.272416973487,0.114249559877,-0.00770307505366,-0.0164275088196,0.680957886079,0.732097778289
1385577495725542554,1386992,1385577495725542554,/world,vicon/Archie/Archie,0.0824112711648,0.272436459182,0.114222162514,-0.00750098858252,-0.0164859277151,0.680983082303,0.732075126592
1385577495735675263,1386993,1385577495735675263,/world,vicon/Archie/Archie,0.0824204924988,0.272429458072,0.114224386869,-0.0075080604701,-0.0164960664177,0.681011406521,0.732048477226
1385577495745757231,1386994,1385577495745757231,/world,vicon/Archie/Archie,0.0824158341378,0.272440383702,0.114225460566,-0.00751328455263,-0.0164947703995,0.680987969855,0.732070254837
1385577495755586472,1386995,1385577495755586472,/world,vicon/Archie/Archie,0.0824162260456,0.272433818621,0.114224749707,-0.00751604033008,-0.0165029716668,0.680999064418,0.732059721147
1385577495765666725,1386996,1385577495765666725,/world,vicon/Archie/Archie,0.0823928109446,0.272547479403,0.114222592496,-0.00757489346259,-0.016420089999,0.68096241959,0.73209506537
1385577495775644232,1386997,1385577495775644232,/world,vicon/Archie/Archie,0.0824238797539,0.272424723762,0.114253998699,-0.00768113744049,-0.0164471226029,0.680958642358,0.732096864959
1385577495785743651,1386998,1385577495785743651,/world,vicon/Archie/Archie,0.0823831063454,0.272546223563,0.114225690839,-0.0075756861951,-0.0164178140351,0.680965105284,0.732092610089
1385577495796564546,1386999,1385577495796564546,/world,vicon/Archie/Archie,0.0824164350294,0.272444164078,0.114230796335,-0.00748520746402,-0.0165036723757,0.680987399861,0.732070872046
1385577495805709746,1387000,1385577495805709746,/world,vicon/Archie/Archie,0.0823905542682,0.272559911904,0.114228584138,-0.0075698133935,-0.0164031287361,0.680950065958,0.732106988742
1385577495815723539,1387001,1385577495815723539,/world,vicon/Archie/Archie,0.0824082208511,0.272442474938,0.114227938051,-0.00749251162337,-0.0164742479585,0.680981240875,0.732077189236
1385577495825597414,1387002,1385577495825597414,/world,vicon/Archie/Archie,0.0824045770083,0.272541632326,0.114250196975,-0.00777148020546,-0.0163587422226,0.680938792859,0.732116354159
1385577495835748578,1387003,1385577495835748578,/world,vicon/Archie/Archie,0.0823970900568,0.272555399702,0.114223752401,-0.00759020231427,-0.0163837612376,0.680952604744,0.732104849929
1385577495845751159,1387004,1385577495845751159,/world,vicon/Archie/Archie,0.0823838617742,0.27255981745,0.11422618039,-0.0075799354031,-0.0164041028265,0.680950270649,0.732106671799
1385577495855629200,1387005,1385577495855629200,/world,vicon/Archie/Archie,0.0823858791899,0.272548864619,0.114221334059,-0.00757311542106,-0.0164222345531,0.68097996063,0.732078719371
1385577495865692842,1387006,1385577495865692842,/world,vicon/Archie/Archie,0.0824164165515,0.272449779495,0.114231495662,-0.00750293790243,-0.0164801881616,0.680973781866,0.732083887087
1385577495875624334,1387007,1385577495875624334,/world,vicon/Archie/Archie,0.0824097885863,0.2724452543,0.114232328471,-0.00751617765254,-0.0164774509125,0.680977859444,0.732080019965
1385577495885706246,1387008,1385577495885706246,/world,vicon/Archie/Archie,0.0824183966437,0.272422741165,0.114195842921,-0.00737929384723,-0.0166629483413,0.681005260356,0.732051724636
1385577495895734129,1387009,1385577495895734129,/world,vicon/Archie/Archie,0.0824143074118,0.272437893014,0.114226223673,-0.00749607236933,-0.0164834377081,0.680995363971,0.732063808306
1385577495905707009,1387010,1385577495905707009,/world,vicon/Archie/Archie,0.0823846475223,0.272555814871,0.114221043753,-0.00757589561653,-0.0164262477548,0.680969746448,0.732088101675
1385577495915743491,1387011,1385577495915743491,/world,vicon/Archie/Archie,0.082410175224,0.27243776934,0.114234196976,-0.00749064509927,-0.0164906997661,0.680989501722,0.732069153565
1385577495925571030,1387012,1385577495925571030,/world,vicon/Archie/Archie,0.0824144406291,0.272442229857,0.114231897891,-0.00747678869164,-0.016500186822,0.680996249876,0.732062804082
1385577495935723897,1387013,1385577495935723897,/world,vicon/Archie/Archie,0.0823826726741,0.272550018296,0.114228142037,-0.00757089453885,-0.0164105066763,0.680964845007,0.732093065594
1385577495945766032,1387014,1385577495945766032,/world,vicon/Archie/Archie,0.0823835986465,0.27255207406,0.114221177111,-0.00757162827421,-0.0164091440236,0.680963856627,0.732094007901
1385577495955631138,1387015,1385577495955631138,/world,vicon/Archie/Archie,0.082389303563,0.272550964993,0.114220851349,-0.00759991489494,-0.0163905307762,0.680965765889,0.732092355841
1385577495965778795,1387016,1385577495965778795,/world,vicon/Archie/Archie,0.0824126226138,0.272434712998,0.114230756555,-0.00748833163024,-0.0164950669805,0.680990829978,0.732067843263
1385577495975647742,1387017,1385577495975647742,/world,vicon/Archie/Archie,0.0824147872185,0.272438387955,0.114226669912,-0.00748303852845,-0.0165079805451,0.680989014621,0.732069294998
1385577495985679782,1387018,1385577495985679782,/world,vicon/Archie/Archie,0.0823847656118,0.272539526001,0.114225499239,-0.00756203531796,-0.0164159011473,0.680980637719,0.732078346123
1385577495995822298,1387019,1385577495995822298,/world,vicon/Archie/Archie,0.0824135289938,0.272438435388,0.114229908671,-0.00749647554112,-0.0164921736993,0.680998888927,0.732060328348
1385577496005630666,1387020,1385577496005630666,/world,vicon/Archie/Archie,0.0824073856858,0.272432988763,0.114227271252,-0.0074874962796,-0.0165155830377,0.681005361378,0.73205387144
1385577496015663090,1387021,1385577496015663090,/world,vicon/Archie/Archie,0.0823795596905,0.272552126938,0.114224021379,-0.00757051903427,-0.0164193916837,0.680967688101,0.73209022571
1385577496025627524,1387022,1385577496025627524,/world,vicon/Archie/Archie,0.0823977777729,0.272542592349,0.114225193579,-0.00755545548757,-0.0164327606242,0.680958295961,0.732098817533
1385577496035800165,1387023,1385577496035800165,/world,vicon/Archie/Archie,0.0824087801296,0.272431880067,0.114228621033,-0.00750930025151,-0.0164949810177,0.680994110187,0.732064579052
1385577496045799968,1387024,1385577496045799968,/world,vicon/Archie/Archie,0.082393143261,0.272548606464,0.114223627394,-0.00757148603984,-0.0163993020728,0.680970961781,0.732087620919
1385577496055804833,1387025,1385577496055804833,/world,vicon/Archie/Archie,0.0823953865472,0.272541487616,0.114224551551,-0.00757398781731,-0.0164028433847,0.6809606673,0.732097091257
1385577496065823530,1387026,1385577496065823530,/world,vicon/Archie/Archie,0.08237950124,0.272545068885,0.114221105847,-0.00756984135591,-0.0163962613641,0.680965241573,0.732093026796
1385577496075663148,1387027,1385577496075663148,/world,vicon/Archie/Archie,0.0824122786381,0.272434822829,0.114225713104,-0.00747731941426,-0.0164873200487,0.680998143414,0.732061327102
1385577496086075630,1387028,1385577496086075630,/world,vicon/Archie/Archie,0.0824194208532,0.272420844457,0.114252575385,-0.00769506589872,-0.0164365193452,0.680971387479,0.732085101766
1385577496095825908,1387029,1385577496095825908,/world,vicon/Archie/Archie,0.0824154232832,0.272432552019,0.114228282444,-0.00747406404844,-0.0164957251373,0.680995651287,0.732063489287
1385577496105660627,1387030,1385577496105660627,/world,vicon/Archie/Archie,0.0824104065871,0.272432969716,0.11422327707,-0.00749767368995,-0.0165051595693,0.680996628014,0.732062126619
1385577496115663623,1387031,1385577496115663623,/world,vicon/Archie/Archie,0.0824205794504,0.272430713856,0.114229020521,-0.00749937916935,-0.0164793512368,0.680993084369,0.73206598701
1385577496125565815,1387032,1385577496125565815,/world,vicon/Archie/Archie,0.0824070824108,0.272431794661,0.114231016744,-0.00748417325113,-0.0165068019532,0.680986567645,0.732071586204
1385577496135802010,1387033,1385577496135802010,/world,vicon/Archie/Archie,0.082393992574,0.272544080164,0.114228348522,-0.00758066712988,-0.0164075699675,0.680947630302,0.73210904237
1385577496145756882,1387034,1385577496145756882,/world,vicon/Archie/Archie,0.0823956808891,0.272547536124,0.114223210731,-0.00757147640198,-0.0163974053451,0.680970467429,0.732088123338
1385577496155625909,1387035,1385577496155625909,/world,vicon/Archie/Archie,0.0823906310093,0.272541819291,0.114221697173,-0.00758827273911,-0.0164228469838,0.680971442244,0.732086472394
1385577496165750531,1387036,1385577496165750531,/world,vicon/Archie/Archie,0.0824203135042,0.27242860977,0.114223815583,-0.00751990700878,-0.0164924366136,0.680988247236,0.732069981395
1385577496175589395,1387037,1385577496175589395,/world,vicon/Archie/Archie,0.0824097107939,0.272429860937,0.11423744259,-0.00746850547496,-0.0164992504744,0.680988731109,0.732069903945
1385577496185664344,1387038,1385577496185664344,/world,vicon/Archie/Archie,0.0824243474112,0.27243904513,0.114234864127,-0.0074953559934,-0.0164956302341,0.68099098712,0.732067612508
1385577496195742011,1387039,1385577496195742011,/world,vicon/Archie/Archie,0.0824125606854,0.272425114061,0.114227474126,-0.00749670451926,-0.0164915554859,0.680993069584,0.732065753329
1385577496205654607,1387040,1385577496205654607,/world,vicon/Archie/Archie,0.0824077669061,0.272533944406,0.114249743895,-0.00776608998073,-0.0163420838924,0.680946742549,0.732109389335
1385577496215733230,1387041,1385577496215733230,/world,vicon/Archie/Archie,0.0824184117239,0.27242792584,0.114227020099,-0.00749750409424,-0.0164996537976,0.681000753916,0.732058414351
1385577496225664841,1387042,1385577496225664841,/world,vicon/Archie/Archie,0.0823924079454,0.272545889481,0.114218302755,-0.0075762184131,-0.0164037292585,0.680957437016,0.732100052967
1385577496235706478,1387043,1385577496235706478,/world,vicon/Archie/Archie,0.0824186256569,0.27242805878,0.114229682496,-0.00750676291268,-0.0165058705029,0.680990098918,0.732068091044
1385577496246042748,1387044,1385577496246042748,/world,vicon/Archie/Archie,0.0824277814879,0.27242439144,0.114256012053,-0.00767482101656,-0.0164624979264,0.680963374593,0.732092183913
1385577496255690878,1387045,1385577496255690878,/world,vicon/Archie/Archie,0.0823916000239,0.272539304872,0.114217902968,-0.00756610473736,-0.0163907322368,0.680979697544,0.732079742575
1385577496265818754,1387046,1385577496265818754,/world,vicon/Archie/Archie,0.0824037690539,0.272532987811,0.114254564339,-0.00779355425819,-0.0163250967742,0.680929644515,0.732125379254
1385577496275830423,1387047,1385577496275830423,/world,vicon/Archie/Archie,0.0824130919065,0.272427514623,0.114222146581,-0.00749681391474,-0.0164929950228,0.680988571352,0.732069904165
1385577496285808968,1387048,1385577496285808968,/world,vicon/Archie/Archie,0.0823924166354,0.272543284994,0.114224323285,-0.0075860965374,-0.0163901491981,0.680954900863,0.732102613805
1385577496295804117,1387049,1385577496295804117,/world,vicon/Archie/Archie,0.0823943249536,0.272547995636,0.114222500563,-0.00758469311842,-0.0163928405167,0.68096981847,0.732088692402
1385577496305752445,1387050,1385577496305752445,/world,vicon/Archie/Archie,0.0824208274252,0.272442360372,0.114213043125,-0.00750069673916,-0.0164857258832,0.680977139547,0.732080662089
1385577496315775738,1387051,1385577496315775738,/world,vicon/Archie/Archie,0.0824221118658,0.272425727662,0.114230552729,-0.00748132419023,-0.0164930537967,0.680990282699,0.732068469362
1385577496325717992,1387052,1385577496325717992,/world,vicon/Archie/Archie,0.0823933244259,0.272544560457,0.114218244948,-0.00757268895357,-0.0164136618542,0.680955936251,0.732101262785
1385577496335766929,1387053,1385577496335766929,/world,vicon/Archie/Archie,0.0824240181407,0.272430338554,0.11422493531,-0.00750012547983,-0.0164963955703,0.680981181678,0.732076667605
1385577496345745901,1387054,1385577496345745901,/world,vicon/Archie/Archie,0.0824095166213,0.272422662146,0.114229645946,-0.00748439797913,-0.0164941131949,0.681005320789,0.73205442494
1385577496355622937,1387055,1385577496355622937,/world,vicon/Archie/Archie,0.0824194339676,0.272414513293,0.114245283877,-0.00769161599016,-0.0164549164064,0.680964745765,0.732090902685
1385577496365674453,1387056,1385577496365674453,/world,vicon/Archie/Archie,0.0824173468674,0.272430587208,0.114222910768,-0.00749592817214,-0.0165170997824,0.680994205409,0.732064128799
1385577496375614167,1387057,1385577496375614167,/world,vicon/Archie/Archie,0.0824033945009,0.272536418766,0.114225964473,-0.0075781851045,-0.0164170099189,0.680971197381,0.732086935571
1385577496385729958,1387058,1385577496385729958,/world,vicon/Archie/Archie,0.0823993327935,0.272536224135,0.114221290249,-0.00758888491578,-0.0164017767446,0.680971254415,0.732087113127
1385577496395835800,1387059,1385577496395835800,/world,vicon/Archie/Archie,0.0824269150878,0.272414532013,0.11425522903,-0.00767664551972,-0.016449526596,0.680953087865,0.732102024526
1385577496405691722,1387060,1385577496405691722,/world,vicon/Archie/Archie,0.0824173213008,0.272432788719,0.114230439704,-0.00747802926816,-0.0164990940236,0.680987414646,0.732071034852
1385577496415730573,1387061,1385577496415730573,/world,vicon/Archie/Archie,0.0824165916752,0.272422515564,0.114220980247,-0.00751839867796,-0.0164853799157,0.680990453178,0.732068103806
1385577496425578977,1387062,1385577496425578977,/world,vicon/Archie/Archie,0.0824169588645,0.272433723611,0.114227868274,-0.00748043705648,-0.016508744959,0.680985070493,0.732072973253
1385577496435682485,1387063,1385577496435682485,/world,vicon/Archie/Archie,0.0824188686581,0.272427546732,0.114220560974,-0.00750659476569,-0.0165098977724,0.680997001032,0.732061581355
1385577496445776669,1387064,1385577496445776669,/world,vicon/Archie/Archie,0.0824073036513,0.272525353062,0.114245974437,-0.00778566289859,-0.0163350934743,0.680929473134,0.732125399635
1385577496455729326,1387065,1385577496455729326,/world,vicon/Archie/Archie,0.0824299400061,0.272423703814,0.114223731112,-0.00750057927122,-0.0165143989843,0.680984637583,0.732073042335
1385577496465672103,1387066,1385577496465672103,/world,vicon/Archie/Archie,0.0824092796839,0.272425082996,0.114228766892,-0.0074865038713,-0.0165174078911,0.680994141584,0.732064277659
1385577496475574577,1387067,1385577496475574577,/world,vicon/Archie/Archie,0.0824201486927,0.272422690319,0.114228752698,-0.00749280009554,-0.0164918067821,0.680979050224,0.732078828687
1385577496485714245,1387068,1385577496485714245,/world,vicon/Archie/Archie,0.0823851337186,0.272538160149,0.11421530803,-0.00757775095369,-0.0164221945131,0.680963969096,0.732093547309
1385577496495796278,1387069,1385577496495796278,/world,vicon/Archie/Archie,0.0824301182623,0.272423942678,0.11423246767,-0.0074972969581,-0.0164968225078,0.681000652068,0.732058575026
1385577496505622512,1387070,1385577496505622512,/world,vicon/Archie/Archie,0.0824176721351,0.272433853049,0.114225375823,-0.00750849294299,-0.0164882840077,0.680992377836,0.732066349693
1385577496515737515,1387071,1385577496515737515,/world,vicon/Archie/Archie,0.0823959580196,0.272534871429,0.114224200789,-0.00757852068648,-0.0163895703485,0.680972306969,0.732086514798
1385577496525691345,1387072,1385577496525691345,/world,vicon/Archie/Archie,0.0824216870668,0.27242068161,0.114224273082,-0.00750090676509,-0.0165027920877,0.680994522943,0.732064105098
1385577496535844802,1387073,1385577496535844802,/world,vicon/Archie/Archie,0.0824043454216,0.272521634837,0.114250089875,-0.00778236292657,-0.0163565162595,0.680938330007,0.732116718789
1385577496545740195,1387074,1385577496545740195,/world,vicon/Archie/Archie,0.0823904851263,0.272542780644,0.114219697587,-0.00757006777001,-0.0163935557765,0.680969767699,0.732088874989
1385577496555747477,1387075,1385577496555747477,/world,vicon/Archie/Archie,0.0824333247188,0.272417883636,0.114250455248,-0.00769480062328,-0.0164487217942,0.68097187357,0.732084378334
1385577496565706229,1387076,1385577496565706229,/world,vicon/Archie/Archie,0.0824177940439,0.272424172064,0.114229203294,-0.00748549832634,-0.0165025115185,0.680989192572,0.73206922762
1385577496575607112,1387077,1385577496575607112,/world,vicon/Archie/Archie,0.0824189109377,0.272426251732,0.114223592954,-0.00750997763869,-0.016494673784,0.680990515917,0.732067922534
1385577496585739168,1387078,1385577496585739168,/world,vicon/Archie/Archie,0.082415106957,0.272421978123,0.114226208036,-0.00750801187416,-0.0164912605308,0.680987214069,0.732071091055
1385577496595649089,1387079,1385577496595649089,/world,vicon/Archie/Archie,0.0824188120944,0.272427474905,0.114227775248,-0.00754296108313,-0.0164662774572,0.680984660424,0.732073669594
1385577496605669059,1387080,1385577496605669059,/world,vicon/Archie/Archie,0.0823976074964,0.272545157443,0.114222861574,-0.00756335018772,-0.0164039788315,0.680959241414,0.732098502078
1385577496615761828,1387081,1385577496615761828,/world,vicon/Archie/Archie,0.0824199470311,0.272419989276,0.114232671989,-0.00749644168179,-0.0164931979528,0.68098084404,0.732077091455
1385577496625574871,1387082,1385577496625574871,/world,vicon/Archie/Archie,0.0823922041507,0.272543055469,0.114225591299,-0.00757668221529,-0.0164040741184,0.680970664204,0.732087737046
1385577496635698658,1387083,1385577496635698658,/world,vicon/Archie/Archie,0.0824267778883,0.272429065148,0.114223227533,-0.00750774319115,-0.016484101368,0.680988153128,0.732070381516
1385577496645652708,1387084,1385577496645652708,/world,vicon/Archie/Archie,0.0823950156335,0.27254001597,0.114222631966,-0.00757552699072,-0.0163926341131,0.680955487401,0.732102122054
1385577496655809385,1387085,1385577496655809385,/world,vicon/Archie/Archie,0.0824226461988,0.272428122608,0.114226573074,-0.0074955830683,-0.0164967934549,0.680991476349,0.732067128876
1385577496665693325,1387086,1385577496665693325,/world,vicon/Archie/Archie,0.0824196116647,0.272429700909,0.114227570367,-0.00749382841378,-0.0164957347067,0.680988884275,0.732069581916
1385577496675573037,1387087,1385577496675573037,/world,vicon/Archie/Archie,0.0824157586837,0.272427294566,0.114233196044,-0.00748443582395,-0.0165195871638,0.680995546202,0.732062943
1385577496685750125,1387088,1385577496685750125,/world,vicon/Archie/Archie,0.0824303203976,0.272413630568,0.114254245882,-0.00770509234749,-0.0164445308111,0.680949874936,0.732104826363
1385577496695807555,1387089,1385577496695807555,/world,vicon/Archie/Archie,0.0824269991501,0.272424778011,0.114228153642,-0.00748544873014,-0.0164946954971,0.680996023275,0.732063050127
1385577496705654492,1387090,1385577496705654492,/world,vicon/Archie/Archie,0.0824089375359,0.272425142131,0.114228083646,-0.00750473850689,-0.0164761778412,0.680995336255,0.732063908728
1385577496715792908,1387091,1385577496715792908,/world,vicon/Archie/Archie,0.0824268815959,0.272424894201,0.114230375245,-0.0074811802044,-0.0164945218284,0.680983839103,0.732074431716
1385577496725630545,1387092,1385577496725630545,/world,vicon/Archie/Archie,0.0823933789609,0.27254008833,0.114229553251,-0.0075638245862,-0.016410468411,0.680960010308,0.732097636553
1385577496735712647,1387093,1385577496735712647,/world,vicon/Archie/Archie,0.0824197598742,0.272428001108,0.114225663926,-0.0074855467226,-0.0165040048961,0.680974836265,0.732082547795
1385577496745699571,1387094,1385577496745699571,/world,vicon/Archie/Archie,0.0824133808249,0.272436230365,0.114231763058,-0.0074989590566,-0.0164958131617,0.680986445077,0.732071796604
1385577496755718585,1387095,1385577496755718585,/world,vicon/Archie/Archie,0.0824186366157,0.272426212789,0.114225213873,-0.00748836086471,-0.0164920183587,0.68098585115,0.732072543069
1385577496765712917,1387096,1385577496765712917,/world,vicon/Archie/Archie,0.0824186805011,0.272431372529,0.114227875736,-0.00748441010406,-0.0165042330788,0.680985795541,0.732072359925
1385577496775654491,1387097,1385577496775654491,/world,vicon/Archie/Archie,0.082389742525,0.27254164196,0.114219550334,-0.00757779715698,-0.0163972596086,0.680961572854,0.732096334619
1385577496785704431,1387098,1385577496785704431,/world,vicon/Archie/Archie,0.0823838397725,0.272537192915,0.11422454727,-0.00757525087048,-0.0164074928736,0.680961271585,0.732096411925
1385577496795825813,1387099,1385577496795825813,/world,vicon/Archie/Archie,0.0824165613552,0.272425979755,0.114222920415,-0.00749813360738,-0.0164912445078,0.680991579704,0.732067131635
1385577496805668457,1387100,1385577496805668457,/world,vicon/Archie/Archie,0.0823989943366,0.272531939979,0.114218021963,-0.00757928550379,-0.0163946688025,0.680964247877,0.732093889046
1385577496815758971,1387101,1385577496815758971,/world,vicon/Archie/Archie,0.0824130427005,0.272429689623,0.114224312492,-0.00751311964243,-0.0164762694205,0.680991746669,0.732067159861
1385577496825688939,1387102,1385577496825688939,/world,vicon/Archie/Archie,0.0824149824038,0.272430739909,0.114230006633,-0.00748413983337,-0.0164932546784,0.680981571181,0.732076539654
1385577496835714810,1387103,1385577496835714810,/world,vicon/Archie/Archie,0.0824173508303,0.272429892774,0.114229678768,-0.00747663863002,-0.0165245377064,0.6809955697,0.732062889087
1385577496845672210,1387104,1385577496845672210,/world,vicon/Archie/Archie,0.0823975336597,0.272534652825,0.114219815756,-0.00758354029026,-0.0163815757579,0.68095572709,0.732102063674
1385577496855637138,1387105,1385577496855637138,/world,vicon/Archie/Archie,0.0824214562469,0.272430453956,0.114224918337,-0.00750167264585,-0.0165014283524,0.680983375288,0.732074497815
1385577496865755904,1387106,1385577496865755904,/world,vicon/Archie/Archie,0.0824115289409,0.272429281413,0.114223639309,-0.00750683468583,-0.0164680910711,0.680979961231,0.732078371359
1385577496875642423,1387107,1385577496875642423,/world,vicon/Archie/Archie,0.082392885923,0.272547723434,0.114221041927,-0.00758243713389,-0.0164088929214,0.680955067321,0.732102077016
1385577496885701576,1387108,1385577496885701576,/world,vicon/Archie/Archie,0.0824081245155,0.272427679328,0.114222463504,-0.00749961812161,-0.0164997663623,0.680983626451,0.732074322691
1385577496895670942,1387109,1385577496895670942,/world,vicon/Archie/Archie,0.0823847754355,0.272548134511,0.114221994668,-0.00757123649504,-0.0163878955324,0.68096950361,0.732089235279
1385577496905707041,1387110,1385577496905707041,/world,vicon/Archie/Archie,0.0824143934037,0.272435224629,0.114222194228,-0.00750430594455,-0.0164949552489,0.680985901867,0.732072266447
1385577496915773149,1387111,1385577496915773149,/world,vicon/Archie/Archie,0.0824137382308,0.272426917432,0.114223672283,-0.0074989817617,-0.016519579829,0.680969482391,0.732087039092
1385577496925640519,1387112,1385577496925640519,/world,vicon/Archie/Archie,0.0823963853081,0.272543215764,0.114223161535,-0.00758019139938,-0.016407674055,0.680961998363,0.732095680711
1385577496935783133,1387113,1385577496935783133,/world,vicon/Archie/Archie,0.0824130626913,0.272427078749,0.114223090091,-0.00749368647174,-0.0164978737384,0.680994770907,0.732064059234
1385577496945650716,1387114,1385577496945650716,/world,vicon/Archie/Archie,0.0824285300563,0.27242805973,0.11421782962,-0.00750168564783,-0.0165047559147,0.680991880201,0.732066511217
1385577496955593859,1387115,1385577496955593859,/world,vicon/Archie/Archie,0.0823902068163,0.27253171511,0.114218529927,-0.00758016850546,-0.016384826546,0.680970928982,0.732087885698
1385577496965687316,1387116,1385577496965687316,/world,vicon/Archie/Archie,0.0824107268204,0.2724298471,0.114230707947,-0.00749766395943,-0.0164957711724,0.68099273537,0.73206595942
1385577496975592067,1387117,1385577496975592067,/world,vicon/Archie/Archie,0.0823876754367,0.272549621912,0.114227660124,-0.00757542798019,-0.0164129862453,0.680950634728,0.732106180712
1385577496985713431,1387118,1385577496985713431,/world,vicon/Archie/Archie,0.0823925554889,0.272546904171,0.114216460218,-0.00757877343097,-0.0163838019477,0.680962335815,0.732095916139
1385577496995650671,1387119,1385577496995650671,/world,vicon/Archie/Archie,0.0824233861463,0.272424402151,0.114226854567,-0.00751528531128,-0.0164709388516,0.680984861141,0.732073662658
1385577497005699127,1387120,1385577497005699127,/world,vicon/Archie/Archie,0.0823893979385,0.272540952918,0.114218649209,-0.00757108757862,-0.0164245640788,0.680972601784,0.732085533218
1385577497015667278,1387121,1385577497015667278,/world,vicon/Archie/Archie,0.0824279343766,0.27242133002,0.114221366918,-0.00751280633962,-0.0164951444974,0.680974428755,0.732082847314
1385577497025561532,1387122,1385577497025561532,/world,vicon/Archie/Archie,0.0824136474986,0.272422951194,0.114229140712,-0.00748285266897,-0.0165058775564,0.680999962152,0.732059160499
1385577497035664544,1387123,1385577497035664544,/world,vicon/Archie/Archie,0.082430497157,0.272415478585,0.114252096346,-0.00768540565668,-0.0164274323782,0.680968956537,0.732087668411
1385577497046292247,1387124,1385577497046292247,/world,vicon/Archie/Archie,0.0824329411221,0.272415606305,0.114249777375,-0.00769118861348,-0.0164124023973,0.68095000269,0.732105574697
1385577497055672201,1387125,1385577497055672201,/world,vicon/Archie/Archie,0.0823905647938,0.272547656134,0.114210421322,-0.00758023300131,-0.0164111502101,0.680974947767,0.732083557205
1385577497065804645,1387126,1385577497065804645,/world,vicon/Archie/Archie,0.082392835123,0.272541470729,0.114219544153,-0.00757334418935,-0.0163955909894,0.680958322913,0.732099440998
1385577497075725631,1387127,1385577497075725631,/world,vicon/Archie/Archie,0.08241578333,0.272421682138,0.114219965412,-0.00749730474964,-0.0164736978107,0.680990643677,0.732068405906
1385577497085738781,1387128,1385577497085738781,/world,vicon/Archie/Archie,0.0824207729266,0.272430656626,0.114223343337,-0.00749118185625,-0.0165095826326,0.680989115848,0.732069081421
1385577497095586303,1387129,1385577497095586303,/world,vicon/Archie/Archie,0.0823942106437,0.27254357278,0.114219567836,-0.00757647385157,-0.0164219230889,0.680972023097,0.732086075025
1385577497105792428,1387130,1385577497105792428,/world,vicon/Archie/Archie,0.0824234720189,0.272431345051,0.114225883394,-0.00748165989475,-0.0164927655729,0.680985877015,0.732072570689
1385577497115751949,1387131,1385577497115751949,/world,vicon/Archie/Archie,0.0824147504909,0.272426682773,0.114222050315,-0.00750105436878,-0.0164782905207,0.68100551243,0.732054432515
1385577497125620364,1387132,1385577497125620364,/world,vicon/Archie/Archie,0.0824165841664,0.272426041466,0.114220177407,-0.00748464045871,-0.0164977075868,0.680990445622,0.732068179047
1385577497135790798,1387133,1385577497135790798,/world,vicon/Archie/Archie,0.0824091122016,0.272429782222,0.114221968181,-0.00750474090165,-0.0164865642903,0.681006340922,0.732053437725
1385577497145851548,1387134,1385577497145851548,/world,vicon/Archie/Archie,0.0824027309822,0.272540407432,0.11421785748,-0.00758388029973,-0.016386580786,0.680960133311,0.732097849725
1385577497155590785,1387135,1385577497155590785,/world,vicon/Archie/Archie,0.0824017088948,0.272542156262,0.114217903708,-0.00757261890292,-0.016398701071,0.68096398756,0.73209410986
1385577497165796087,1387136,1385577497165796087,/world,vicon/Archie/Archie,0.0824331495467,0.272424146062,0.114225032323,-0.00749481885447,-0.0164734796668,0.680985244347,0.732073458841
1385577497175637534,1387137,1385577497175637534,/world,vicon/Archie/Archie,0.0824212624842,0.272431719846,0.114225397129,-0.00749764127377,-0.0164703941335,0.68099046694,0.7320686412
1385577497185696934,1387138,1385577497185696934,/world,vicon/Archie/Archie,0.082424130941,0.272423231475,0.114222271878,-0.00749967480488,-0.0164797348507,0.68099537657,0.732063843055
1385577497195662049,1387139,1385577497195662049,/world,vicon/Archie/Archie,0.0824241325479,0.272427954349,0.114228282937,-0.0075056190911,-0.0164762046294,0.680986552915,0.732072069616
1385577497205678510,1387140,1385577497205678510,/world,vicon/Archie/Archie,0.0824095679807,0.272428141127,0.114235252299,-0.00747898348663,-0.0165080410939,0.680988973561,0.732069373266
1385577497215786511,1387141,1385577497215786511,/world,vicon/Archie/Archie,0.0823840834814,0.272540563069,0.114214221286,-0.00756311993935,-0.0164021338331,0.680981547794,0.73207779695
1385577497225646334,1387142,1385577497225646334,/world,vicon/Archie/Archie,0.0824395583555,0.272427202777,0.114240441904,-0.00770605029491,-0.0164295096866,0.680949468528,0.73210553154
1385577497235693432,1387143,1385577497235693432,/world,vicon/Archie/Archie,0.0823955189153,0.272546756701,0.114220804058,-0.00756061904367,-0.0164079823619,0.680955190023,0.73210220894
1385577497245695090,1387144,1385577497245695090,/world,vicon/Archie/Archie,0.0824215249065,0.272430227335,0.114233187688,-0.00747930795688,-0.0164949619718,0.680994574416,0.732064454675
1385577497255605106,1387145,1385577497255605106,/world,vicon/Archie/Archie,0.082425401232,0.272421218388,0.114226690807,-0.0075010688746,-0.0164769027508,0.680998495356,0.732060991288
1385577497265713664,1387146,1385577497265713664,/world,vicon/Archie/Archie,0.082414493452,0.27242410189,0.114228950747,-0.00748197491981,-0.0164909194457,0.68099514339,0.732063989216
1385577497275674601,1387147,1385577497275674601,/world,vicon/Archie/Archie,0.0824188591694,0.272427938447,0.114227692958,-0.00747462233762,-0.0165031025677,0.680989109374,0.732069402817
1385577497285703988,1387148,1385577497285703988,/world,vicon/Archie/Archie,0.0824152357435,0.272425428714,0.114222408176,-0.00747257598984,-0.0165183217267,0.680996479676,0.732062224353
1385577497295607173,1387149,1385577497295607173,/world,vicon/Archie/Archie,0.0824151995999,0.272429112466,0.114224307505,-0.00749511972241,-0.0164841077425,0.680996130486,0.732063089928
1385577497305794724,1387150,1385577497305794724,/world,vicon/Archie/Archie,0.0824005974805,0.272540265852,0.114219784808,-0.00758585036711,-0.0163927274881,0.680969724258,0.732088770576
1385577497315758448,1387151,1385577497315758448,/world,vicon/Archie/Archie,0.0824196006179,0.272430453873,0.114222543597,-0.00750508550788,-0.0164857346423,0.680992106726,0.732066694244
1385577497325620935,1387152,1385577497325620935,/world,vicon/Archie/Archie,0.0824229401805,0.272427830026,0.114224779608,-0.00751114748749,-0.0164671869475,0.680992263895,0.732066903317
1385577497335734718,1387153,1385577497335734718,/world,vicon/Archie/Archie,0.0824222527869,0.27243129479,0.114218996498,-0.00750811255855,-0.0164843179695,0.680994363801,0.732064595496
1385577497345768126,1387154,1385577497345768126,/world,vicon/Archie/Archie,0.0823955022571,0.27254037945,0.114224224196,-0.00756048090374,-0.0164069375655,0.68097027502,0.732088202382
1385577497355694216,1387155,1385577497355694216,/world,vicon/Archie/Archie,0.0824193297636,0.272430282971,0.114227964108,-0.00747028429296,-0.0164984475091,0.680994590612,0.732064453201
1385577497365709933,1387156,1385577497365709933,/world,vicon/Archie/Archie,0.0824231321702,0.272429592782,0.114220034382,-0.00750085047555,-0.0164837682806,0.680988951118,0.732069717364
1385577497375679894,1387157,1385577497375679894,/world,vicon/Archie/Archie,0.082420795716,0.272428751076,0.114222520242,-0.00750486569974,-0.0164778372773,0.680990796648,0.732068092973
1385577497385767698,1387158,1385577497385767698,/world,vicon/Archie/Archie,0.0824119225783,0.272432953665,0.114218588672,-0.00749437408722,-0.0164881719854,0.680987741709,0.732070809542
1385577497395753457,1387159,1385577497395753457,/world,vicon/Archie/Archie,0.082420954027,0.272438622376,0.114217219676,-0.00750794266628,-0.0164762417199,0.680975380579,0.732082437504
1385577497405651212,1387160,1385577497405651212,/world,vicon/Archie/Archie,0.0823848242524,0.272542741433,0.114220336114,-0.00754751281762,-0.0164240704784,0.680972272358,0.732086094144
1385577497415744010,1387161,1385577497415744010,/world,vicon/Archie/Archie,0.082399554196,0.272542906337,0.114221520721,-0.00758741271761,-0.0163862385137,0.680956095999,0.732101576065
1385577497425659873,1387162,1385577497425659873,/world,vicon/Archie/Archie,0.0823877165445,0.272543357166,0.114224317924,-0.00757268715745,-0.0163934897428,0.680983042558,0.732076501229
1385577497435759282,1387163,1385577497435759282,/world,vicon/Archie/Archie,0.0824185512028,0.272429541135,0.114220500945,-0.00749468369662,-0.0164894009395,0.681011097219,0.732049052207
1385577497445630357,1387164,1385577497445630357,/world,vicon/Archie/Archie,0.0824179343647,0.27242658074,0.114217529187,-0.00750595537188,-0.0164915840733,0.68099754193,0.732061497535
1385577497455709229,1387165,1385577497455709229,/world,vicon/Archie/Archie,0.0824014520291,0.272539793618,0.114220607302,-0.0075949247511,-0.0163928850133,0.680963717147,0.732094260576
1385577497465774001,1387166,1385577497465774001,/world,vicon/Archie/Archie,0.0823896592998,0.272550552276,0.114218837034,-0.00756538901596,-0.0164146124517,0.680963279324,0.732094486798
1385577497475719617,1387167,1385577497475719617,/world,vicon/Archie/Archie,0.082429624689,0.272415998133,0.114255070102,-0.00767656405181,-0.0164660368201,0.680969536342,0.732086354586
1385577497485715291,1387168,1385577497485715291,/world,vicon/Archie/Archie,0.0823905005953,0.272542827779,0.114220019781,-0.0075750438223,-0.0164397099384,0.680968589207,0.732088884741
1385577497495663383,1387169,1385577497495663383,/world,vicon/Archie/Archie,0.0823921016015,0.272543991898,0.114221693287,-0.00756726709296,-0.0163865720291,0.680964615839,0.732093852386
1385577497505760940,1387170,1385577497505760940,/world,vicon/Archie/Archie,0.0824230652452,0.272423611855,0.114224224812,-0.00751845044145,-0.0164819409381,0.680994242827,0.732064655452
1385577497515758029,1387171,1385577497515758029,/world,vicon/Archie/Archie,0.0823910845453,0.272552223639,0.114221082216,-0.00758457917252,-0.0164186854167,0.680970030252,0.732087917416
1385577497525723102,1387172,1385577497525723102,/world,vicon/Archie/Archie,0.0824140965966,0.272428607882,0.11422923613,-0.00748193464395,-0.0164902642409,0.68099893873,0.732060473791
1385577497535782290,1387173,1385577497535782290,/world,vicon/Archie/Archie,0.0823948133119,0.272538624414,0.114225330235,-0.00755670834019,-0.0164131423538,0.680978648735,0.732080313138
1385577497545574375,1387174,1385577497545574375,/world,vicon/Archie/Archie,0.0823861088866,0.272535548498,0.114227127552,-0.0075721756229,-0.0164094904353,0.680971017925,0.732087333264
1385577497555630410,1387175,1385577497555630410,/world,vicon/Archie/Archie,0.0824148221234,0.272426200015,0.114223205434,-0.00748624140792,-0.0165030278921,0.680996512455,0.732062399174
1385577497565665687,1387176,1385577497565665687,/world,vicon/Archie/Archie,0.0823946837824,0.272537351185,0.114226049794,-0.00756693457402,-0.0164061195907,0.680968120187,0.732090158403
1385577497575796201,1387177,1385577497575796201,/world,vicon/Archie/Archie,0.082424044718,0.272430119795,0.114225324751,-0.00749471019925,-0.0165067513382,0.680997252907,0.732061539772
1385577497585684370,1387178,1385577497585684370,/world,vicon/Archie/Archie,0.0823930562849,0.272531331899,0.114245075215,-0.00777632072417,-0.0163415504873,0.680938182516,0.732117254376
1385577497595691985,1387179,1385577497595691985,/world,vicon/Archie/Archie,0.082416994687,0.27242364737,0.11422159684,-0.007517563434,-0.0164686078767,0.680982186465,0.732076179719
1385577497605759024,1387180,1385577497605759024,/world,vicon/Archie/Archie,0.0823969783248,0.272541803403,0.114217488959,-0.00758459169165,-0.0164061437032,0.680964875966,0.732092992808
1385577497615770185,1387181,1385577497615770185,/world,vicon/Archie/Archie,0.0824168462043,0.272428658155,0.114222083292,-0.00751160190254,-0.0164832960241,0.680992479087,0.73206633594
1385577497625671910,1387182,1385577497625671910,/world,vicon/Archie/Archie,0.0823923982155,0.272541643546,0.114217623243,-0.00757987968574,-0.0164260463875,0.680965635767,0.732091888583
1385577497635798310,1387183,1385577497635798310,/world,vicon/Archie/Archie,0.0824002233502,0.272543950967,0.114224202249,-0.00756239937489,-0.0164173879116,0.680964996197,0.732092858485
1385577497645594465,1387184,1385577497645594465,/world,vicon/Archie/Archie,0.0823955690265,0.272541804945,0.114220564083,-0.00758393613652,-0.0164036942849,0.680961540693,0.732096156815
1385577497655777767,1387185,1385577497655777767,/world,vicon/Archie/Archie,0.0823894865571,0.272545637704,0.114225765308,-0.00754915832481,-0.0164176849663,0.680970940834,0.732087458962
1385577497665864975,1387186,1385577497665864975,/world,vicon/Archie/Archie,0.0824239670666,0.272426513073,0.11422470023,-0.00749551099054,-0.0165173147716,0.68099370499,0.732064593729
1385577497675705826,1387187,1385577497675705826,/world,vicon/Archie/Archie,0.08239891384,0.272540640017,0.114227188285,-0.00755639851252,-0.0164052971498,0.68096859767,0.732089841519
1385577497685713498,1387188,1385577497685713498,/world,vicon/Archie/Archie,0.0823906389902,0.272541193575,0.114223804977,-0.00757487442329,-0.0164115146044,0.680968572817,0.732089534347
1385577497695828336,1387189,1385577497695828336,/world,vicon/Archie/Archie,0.08241974685,0.27242696709,0.114231550492,-0.00749038071022,-0.0164949163902,0.680995106449,0.732063847572
1385577497705711219,1387190,1385577497705711219,/world,vicon/Archie/Archie,0.0823866110655,0.272541631213,0.114216732,-0.0075807047635,-0.0163992326345,0.680961234829,0.732096574739
1385577497715784177,1387191,1385577497715784177,/world,vicon/Archie/Archie,0.0824187824975,0.272429606299,0.114223789561,-0.00750788300266,-0.0164949877014,0.680987523348,0.732070720708
1385577497725701855,1387192,1385577497725701855,/world,vicon/Archie/Archie,0.0823857401934,0.272546239678,0.11422571968,-0.00755518524242,-0.0164239002121,0.680961822831,0.732095738633
1385577497735743272,1387193,1385577497735743272,/world,vicon/Archie/Archie,0.0824272965817,0.272416827122,0.114250332134,-0.00767790340378,-0.0164414246992,0.680972537656,0.732084101939
1385577497745629249,1387194,1385577497745629249,/world,vicon/Archie/Archie,0.0823911675756,0.272542137635,0.114223671599,-0.00756949081326,-0.0163986553276,0.680959104317,0.732098685397
1385577497755622775,1387195,1385577497755622775,/world,vicon/Archie/Archie,0.082417705749,0.272420690414,0.114231482145,-0.007482654811,-0.0165031419636,0.680991388306,0.732067199945
1385577497765788198,1387196,1385577497765788198,/world,vicon/Archie/Archie,0.0823973550535,0.272531042926,0.114218345258,-0.00756463067519,-0.0164167668236,0.680972503331,0.732085866437
1385577497775664231,1387197,1385577497775664231,/world,vicon/Archie/Archie,0.0823938946829,0.272544255568,0.114219114927,-0.00758090165021,-0.0163775958624,0.680965301045,0.732093274834
1385577497785669775,1387198,1385577497785669775,/world,vicon/Archie/Archie,0.0824185062253,0.272423693181,0.114225258293,-0.00748971256718,-0.0164949246367,0.681015390284,0.732044984863
1385577497795698325,1387199,1385577497795698325,/world,vicon/Archie/Archie,0.0823947462845,0.272550514427,0.114221818499,-0.00756131159578,-0.0164159700516,0.680965237511,0.732092677054
1385577497805736931,1387200,1385577497805736931,/world,vicon/Archie/Archie,0.08239825045,0.272543036506,0.114215870841,-0.00757448177783,-0.0163960950799,0.6809610438,0.732096887111
1385577497815665668,1387201,1385577497815665668,/world,vicon/Archie/Archie,0.0824273979909,0.272427948117,0.114227245382,-0.00749624113676,-0.016484803094,0.680985003249,0.732073413659
1385577497825531047,1387202,1385577497825531047,/world,vicon/Archie/Archie,0.0824164026849,0.272429614545,0.114228523009,-0.00747739594565,-0.0165115074759,0.680988535128,0.732069719149
1385577497835658267,1387203,1385577497835658267,/world,vicon/Archie/Archie,0.0824157563694,0.272424707928,0.114228944878,-0.00748793183133,-0.0165025234368,0.680981990806,0.732075901663
1385577497845603786,1387204,1385577497845603786,/world,vicon/Archie/Archie,0.0824155077527,0.272427137828,0.11421920335,-0.00750145491488,-0.0164756293047,0.680990057079,0.732068865595
1385577497855686778,1387205,1385577497855686778,/world,vicon/Archie/Archie,0.0824158394506,0.27243487099,0.114229718901,-0.00748169806085,-0.0164962565122,0.680985036417,0.732073273581
1385577497865811356,1387206,1385577497865811356,/world,vicon/Archie/Archie,0.0824166572629,0.272425537317,0.114221469834,-0.00750876158907,-0.0164780066442,0.680981749808,0.732076464739
1385577497875701819,1387207,1385577497875701819,/world,vicon/Archie/Archie,0.0824165299567,0.27243016581,0.114225228365,-0.00750408931503,-0.0164952021361,0.680986247425,0.732071941661
1385577497885854617,1387208,1385577497885854617,/world,vicon/Archie/Archie,0.0824197436525,0.27243052598,0.11422643063,-0.00749082923104,-0.0165195166406,0.680988337811,0.73206958468
1385577497895608041,1387209,1385577497895608041,/world,vicon/Archie/Archie,0.0824181979754,0.272420422672,0.114228265063,-0.0075062160872,-0.0164780168758,0.680982712659,0.732075594962
1385577497905694246,1387210,1385577497905694246,/world,vicon/Archie/Archie,0.0823895162179,0.272534296136,0.114219565574,-0.00759053925291,-0.0164021661171,0.680974867789,0.732083726154
1385577497915859616,1387211,1385577497915859616,/world,vicon/Archie/Archie,0.0824205580396,0.272425038023,0.114225855051,-0.0074933520913,-0.0164976085324,0.680998873804,0.732060251936
1385577497925705256,1387212,1385577497925705256,/world,vicon/Archie/Archie,0.0823978511312,0.27255106213,0.114221151153,-0.00756068487535,-0.0163954532099,0.680952591282,0.732104906133
1385577497935763999,1387213,1385577497935763999,/world,vicon/Archie/Archie,0.0824095125742,0.272429718427,0.114228623217,-0.00746664077898,-0.016497059696,0.680989016475,0.732069706884
1385577497945598652,1387214,1385577497945598652,/world,vicon/Archie/Archie,0.0824170369858,0.272423391505,0.114224102355,-0.00750284254172,-0.016468364473,0.681002868846,0.732057096782
1385577497955625830,1387215,1385577497955625830,/world,vicon/Archie/Archie,0.082416391491,0.272423407971,0.114225993553,-0.00750083191319,-0.0164869553907,0.680989668103,0.732068978826
1385577497965790022,1387216,1385577497965790022,/world,vicon/Archie/Archie,0.0823770967989,0.272539561267,0.1142177723,-0.00756447888632,-0.0164273312428,0.680971894638,0.73208619722
1385577497975676013,1387217,1385577497975676013,/world,vicon/Archie/Archie,0.0823901160316,0.272544377438,0.114225664977,-0.0075577299534,-0.0164114219043,0.680970499454,0.732087921511
1385577497985751414,1387218,1385577497985751414,/world,vicon/Archie/Archie,0.0824143003163,0.272427560334,0.114227349834,-0.0074965931705,-0.0164827081653,0.680993734402,0.732065335286
1385577497995773253,1387219,1385577497995773253,/world,vicon/Archie/Archie,0.0823933475428,0.272544256411,0.114220973713,-0.00756896447841,-0.0164041712978,0.680970255976,0.732088194425
1385577498005688309,1387220,1385577498005688309,/world,vicon/Archie/Archie,0.0824189749148,0.27241927248,0.11422361766,-0.00749926749522,-0.0164781888462,0.680992030263,0.732066994884
1385577498015729595,1387221,1385577498015729595,/world,vicon/Archie/Archie,0.0824127140157,0.27242810339,0.114218018559,-0.00749784262553,-0.0164794717719,0.680975507625,0.732082350136
1385577498025657937,1387222,1385577498025657937,/world,vicon/Archie/Archie,0.0824299258343,0.272437151637,0.114216377798,-0.00750833898472,-0.0164875131315,0.681000962033,0.732058383236
1385577498035783942,1387223,1385577498035783942,/world,vicon/Archie/Archie,0.0824080738866,0.27242209451,0.114222568635,-0.00749261277483,-0.0165121230283,0.681005331596,0.732053924848
1385577498045780614,1387224,1385577498045780614,/world,vicon/Archie/Archie,0.0824306409993,0.272426237399,0.114229128324,-0.00749428262529,-0.0164963290754,0.680998738952,0.732060396689
1385577498055774355,1387225,1385577498055774355,/world,vicon/Archie/Archie,0.0824108290815,0.272431744603,0.114227141406,-0.00748502684805,-0.0164898020122,0.68098149557,0.732076678698
1385577498065817921,1387226,1385577498065817921,/world,vicon/Archie/Archie,0.0824232731707,0.272432169853,0.114232763067,-0.00748101056327,-0.0164736481826,0.680995846369,0.73206373399
1385577498075647266,1387227,1385577498075647266,/world,vicon/Archie/Archie,0.0823893972018,0.272538442947,0.114219037162,-0.00756766055532,-0.016410545987,0.680964581558,0.7320933432
1385577498085782958,1387228,1385577498085782958,/world,vicon/Archie/Archie,0.0823902203962,0.272538366278,0.114218621366,-0.00758800947727,-0.0163985105763,0.680973468696,0.732085135688
1385577498095818059,1387229,1385577498095818059,/world,vicon/Archie/Archie,0.082418760218,0.272418886896,0.114224141121,-0.00750696064767,-0.0164802250668,0.680996521153,0.732062692603
1385577498105761717,1387230,1385577498105761717,/world,vicon/Archie/Archie,0.0823887735663,0.272543481383,0.114217681698,-0.00756535063473,-0.016399300679,0.680971234222,0.73208743096
1385577498115915559,1387231,1385577498115915559,/world,vicon/Archie/Archie,0.0824258579893,0.272429832961,0.114226414883,-0.00749891374545,-0.0164999345231,0.681002449641,0.732056816125
1385577498125694606,1387232,1385577498125694606,/world,vicon/Archie/Archie,0.0824213107917,0.272425736523,0.114216796685,-0.00750096774313,-0.0164816109156,0.681000992975,0.732058562925
1385577498135750254,1387233,1385577498135750254,/world,vicon/Archie/Archie,0.0823888031238,0.272545669857,0.114225213654,-0.00756522364881,-0.0164160932752,0.680945426683,0.732111060668
1385577498145845079,1387234,1385577498145845079,/world,vicon/Archie/Archie,0.0824283136292,0.272431730013,0.114229183423,-0.00749176321727,-0.0164845611874,0.680983577615,0.732074791087
1385577498155662035,1387235,1385577498155662035,/world,vicon/Archie/Archie,0.0824174574155,0.272435630415,0.11421766571,-0.00751067041007,-0.0164972588824,0.680967079207,0.732089657977
1385577498165807411,1387236,1385577498165807411,/world,vicon/Archie/Archie,0.0823887171546,0.272543512646,0.114218351368,-0.00756925666531,-0.0164103168652,0.680968107099,0.732090052499
1385577498175717476,1387237,1385577498175717476,/world,vicon/Archie/Archie,0.0824120660432,0.272427984799,0.114224865129,-0.00749388340621,-0.0165089008858,0.681000823023,0.732058178661
1385577498185769735,1387238,1385577498185769735,/world,vicon/Archie/Archie,0.0824255312273,0.272426766303,0.114221791202,-0.00749037557848,-0.0165120060245,0.68098559802,0.732072307371
1385577498195782698,1387239,1385577498195782698,/world,vicon/Archie/Archie,0.0824258849627,0.272430762034,0.114226911806,-0.00749139116619,-0.0164985758774,0.680987747913,0.732070599905
1385577498205715943,1387240,1385577498205715943,/world,vicon/Archie/Archie,0.0824230219177,0.272427333801,0.11423076336,-0.00749287192276,-0.0164863456075,0.680976975354,0.732080880994
1385577498215898922,1387241,1385577498215898922,/world,vicon/Archie/Archie,0.0824194070651,0.272426259062,0.11422708501,-0.00748286578036,-0.0165080118835,0.680997947277,0.732060986577
1385577498225666676,1387242,1385577498225666676,/world,vicon/Archie/Archie,0.0824268396472,0.272427735589,0.114227450669,-0.00749102561527,-0.0164972397254,0.6809848265,0.732073351306
1385577498235719032,1387243,1385577498235719032,/world,vicon/Archie/Archie,0.0824266380692,0.272427106548,0.114231511264,-0.00747864417254,-0.0164969744848,0.680990945132,0.73206779219
1385577498245841841,1387244,1385577498245841841,/world,vicon/Archie/Archie,0.0824090005864,0.272426538961,0.114227038612,-0.00748749458496,-0.0164875952402,0.680986726358,0.732071837426
1385577498255698986,1387245,1385577498255698986,/world,vicon/Archie/Archie,0.0823858500847,0.272540409126,0.114219846477,-0.00758280404976,-0.0164025268987,0.680970029702,0.732088298528
1385577498265747115,1387246,1385577498265747115,/world,vicon/Archie/Archie,0.0823905843372,0.272541849099,0.114218435128,-0.007566240801,-0.0164153998499,0.680969915049,0.732088288013
1385577498275662126,1387247,1385577498275662126,/world,vicon/Archie/Archie,0.082418014215,0.272430245537,0.11422984183,-0.00748179587899,-0.0164954105894,0.681006303458,0.732053508161
1385577498285811062,1387248,1385577498285811062,/world,vicon/Archie/Archie,0.08241940459,0.272429597676,0.114225237243,-0.0074951563891,-0.0164991434144,0.680993560676,0.732065141374
1385577498295849751,1387249,1385577498295849751,/world,vicon/Archie/Archie,0.0824151710844,0.272425885638,0.114229743372,-0.00748313891299,-0.0165043578983,0.680989158224,0.732069242069
1385577498305659998,1387250,1385577498305659998,/world,vicon/Archie/Archie,0.0823925217602,0.272541248712,0.114217975178,-0.00758954351255,-0.0163784597007,0.680957216648,0.732100685686
1385577498315790947,1387251,1385577498315790947,/world,vicon/Archie/Archie,0.0823902443113,0.272549544499,0.114223967255,-0.00755252967816,-0.0164384192065,0.68097166228,0.732086287838
1385577498325697130,1387252,1385577498325697130,/world,vicon/Archie/Archie,0.0824142060708,0.272429418092,0.114228634942,-0.00748953039784,-0.0164851335597,0.680996255006,0.732063008199
1385577498335800231,1387253,1385577498335800231,/world,vicon/Archie/Archie,0.0823969102096,0.272540077381,0.114217772332,-0.0075715046355,-0.0163905389163,0.680979159379,0.732080191675
1385577498345936509,1387254,1385577498345936509,/world,vicon/Archie/Archie,0.0824111493398,0.272432943403,0.11421838489,-0.00749919032716,-0.0165160738301,0.680986679897,0.732071118985
1385577498355925053,1387255,1385577498355925053,/world,vicon/Archie/Archie,0.0823914709249,0.272538689891,0.114215970474,-0.00757750262034,-0.0163857639671,0.680981524557,0.732078036418
1385577498365775671,1387256,1385577498365775671,/world,vicon/Archie/Archie,0.082422396595,0.272429778372,0.114220841291,-0.00749930032639,-0.0164830944973,0.680987389692,0.732071200889
1385577498375599682,1387257,1385577498375599682,/world,vicon/Archie/Archie,0.0824178185982,0.272428066661,0.114223900766,-0.00748109326148,-0.0164993369062,0.680995310795,0.732063652834
1385577498385709666,1387258,1385577498385709666,/world,vicon/Archie/Archie,0.0824019654941,0.272531351816,0.11425152649,-0.00776582328923,-0.0163368847695,0.680941914062,0.732113999223
1385577498395776808,1387259,1385577498395776808,/world,vicon/Archie/Archie,0.0824268159255,0.272422529146,0.114224490909,-0.00749365613039,-0.01647230477,0.680988620546,0.732070356578
1385577498408571713,1387260,1385577498408571713,/world,vicon/Archie/Archie,0.0823926659344,0.272538478889,0.114227932378,-0.00756758566274,-0.0164056463464,0.680980902533,0.732078272318
1385577498415858394,1387261,1385577498415858394,/world,vicon/Archie/Archie,0.082414534394,0.272431777445,0.114221508401,-0.00749199836805,-0.0164889504658,0.680983009036,0.732075218729
1385577498425617242,1387262,1385577498425617242,/world,vicon/Archie/Archie,0.0823993522779,0.27254584096,0.114217333384,-0.00757177276243,-0.0164103434794,0.680958429742,0.73209902735
1385577498435742664,1387263,1385577498435742664,/world,vicon/Archie/Archie,0.0824136540599,0.272433643842,0.114224594936,-0.00750740375907,-0.016504074205,0.680998694673,0.732060128867
1385577498445808658,1387264,1385577498445808658,/world,vicon/Archie/Archie,0.0824082098789,0.272423786068,0.114225514379,-0.00749588277916,-0.0165020365621,0.680995401764,0.732063356074
1385577498455718684,1387265,1385577498455718684,/world,vicon/Archie/Archie,0.0823802146902,0.272546439579,0.114221015323,-0.00755606264338,-0.0164029162737,0.680977161552,0.732081932368
1385577498465729597,1387266,1385577498465729597,/world,vicon/Archie/Archie,0.0824119663737,0.272428832874,0.114225365502,-0.00748179800733,-0.0164901471391,0.681015988252,0.732044617145
1385577498476374274,1387267,1385577498476374274,/world,vicon/Archie/Archie,0.0824173151825,0.272426170768,0.11422326089,-0.00747225339144,-0.0165205949054,0.681008719871,0.732050789791
1385577498485823846,1387268,1385577498485823846,/world,vicon/Archie/Archie,0.0823909812072,0.27254631696,0.114223018342,-0.00757031536478,-0.0164028364321,0.680972666126,0.732085968498
1385577498495837053,1387269,1385577498495837053,/world,vicon/Archie/Archie,0.082383655179,0.272545274277,0.114223342641,-0.00754526250929,-0.0164137732699,0.680975213732,0.732083612262
1385577498505802065,1387270,1385577498505802065,/world,vicon/Archie/Archie,0.0824214725062,0.272430677301,0.11422965919,-0.00748921243365,-0.0164874780939,0.680996488708,0.732062741253
1385577498515782212,1387271,1385577498515782212,/world,vicon/Archie/Archie,0.0824266900996,0.272420653707,0.114245672742,-0.007685027293,-0.0164622852194,0.680970220644,0.732085713641
1385577498525608783,1387272,1385577498525608783,/world,vicon/Archie/Archie,0.0824211055719,0.27242859321,0.114227400978,-0.00747428197214,-0.0165248990026,0.680987151675,0.732070735705
1385577498535796962,1387273,1385577498535796962,/world,vicon/Archie/Archie,0.0824039835125,0.272434651851,0.114220317511,-0.00749408952385,-0.0164826454345,0.680986256855,0.732072318146
1385577498545786828,1387274,1385577498545786828,/world,vicon/Archie/Archie,0.0823928406134,0.2725408018,0.114222810202,-0.00756009332462,-0.0164202061389,0.680981295894,0.732077657399
