%time,field.linear.x,field.linear.y,field.linear.z,field.angular.x,field.angular.y,field.angular.z
1385577498328449051,0.0,0.0,0.0,0.0,0.0,0.0
1385577498328464182,0.0824142060708,-0.272429418092,-0.114228634942,-0.0334277152291,0.0139360797166,-1.49878242992
1385577498339193765,0.0823969102096,-0.272540077381,-0.114217772332,-0.0334184773246,0.01368673133,-1.49872974876
1385577498348216066,0.0824111493398,-0.272432943403,-0.11421838489,-0.0334838564337,0.0139686381167,-1.49875829216
1385577498358215988,0.0823914709249,-0.272538689891,-0.114215970474,-0.033420795435,0.0136714631294,-1.49873590991
1385577498368166221,0.082422396595,-0.272429778372,-0.114220841291,-0.0334390731215,0.0139201892105,-1.49875809713
1385577498378198144,0.0824178185982,-0.272428066661,-0.114223900766,-0.0334347051975,0.013968405068,-1.49878075794
1385577498388196554,0.0824019654941,-0.272531351816,-0.11425152649,-0.0336292073437,0.0133451710486,-1.49862483684
1385577498398240058,0.0824268159255,-0.272422529146,-0.114224490909,-0.0334161229384,0.0139120317132,-1.49876075407
1385577498408798126,0.0824268159255,-0.272422529146,-0.114224490909,-0.0334161229384,0.0139120317132,-1.49876075407
1385577498418178873,0.082414534394,-0.272431777445,-0.114221508401,-0.0334362803195,0.0139389082211,-1.49874650067
1385577498428384393,0.0823993522779,-0.27254584096,-0.114217333384,-0.033445478935,0.0137162981042,-1.49867440491
1385577498438300032,0.0824136540599,-0.272433643842,-0.114224594936,-0.0334797540824,0.0139393364677,-1.49879034323
1385577498448348892,0.0824082098789,-0.272423786068,-0.114225514379,-0.0334600434691,0.0139522017866,-1.49878120139
1385577498458233597,0.0823802146902,-0.272546439579,-0.114221015323,-0.0334127001846,0.0137259760986,-1.49872506733
1385577498468231112,0.0824119663737,-0.272428832874,-0.114225365502,-0.0334236033171,0.0139530515139,-1.49883664306
1385577498478568706,0.0824173151825,-0.272426170768,-0.11422326089,-0.0334509971206,0.0140109480659,-1.49881874755
1385577498488132710,0.0823909812072,-0.27254631696,-0.114223018342,-0.0334333780306,0.0137066462951,-1.4987128031
1385577498498204839,0.082383655179,-0.272545274277,-0.114223342641,-0.0334116485627,0.0137566692477,-1.49872043139
1385577498508700736,0.0824214725062,-0.272430677301,-0.11422965919,-0.0334304502242,0.0139399335462,-1.49878321939
1385577498518276311,0.0824266900996,-0.272420653707,-0.114245672742,-0.0336823492857,0.0136374808978,-1.49871011033
1385577498533940892,0.0824211055719,-0.27242859321,-0.114227400978,-0.0334594224228,0.014015468805,-1.4987601182
1385577498538302389,0.0824039835125,-0.272434651851,-0.114220317511,-0.0334308091568,0.0139266831395,-1.4987549668
1385577498548186764,0.0823928406134,-0.2725408018,-0.114222810202,-0.0334422492063,0.0137456006382,-1.49873747792
1385577498558205433,0.0824235397378,-0.272435450509,-0.114224789075,-0.0334382028172,0.0139393101081,-1.49879892457
1385577498568163936,0.0823911084612,-0.272539162109,-0.114218490408,-0.0334123944304,0.0137116451152,-1.4986949069
1385577498578522997,0.0823870016477,-0.272543999243,-0.114220470006,-0.0334716466306,0.0137018212617,-1.49869232716
1385577498588228628,0.0824229596396,-0.272429519964,-0.114232307024,-0.0334319028641,0.0139936115757,-1.49880285475
1385577498598158617,0.0824147458519,-0.272429215302,-0.114223772786,-0.0334270552281,0.0139324688922,-1.49879503006
1385577498608305779,0.0823984358673,-0.272545979015,-0.114218221652,-0.0334317705221,0.0137330506268,-1.49872036919
1385577498618241214,0.0824189939796,-0.272440258085,-0.114228673868,-0.0334354198215,0.0139387291213,-1.49882504893
1385577498628261342,0.0824156060591,-0.272439339389,-0.114226212456,-0.0334199202916,0.0139205197541,-1.49876964592
1385577498638329665,0.0823945754993,-0.272542299718,-0.114220744143,-0.0334268770835,0.0136716038298,-1.49871071498
1385577498648199524,0.0823883005339,-0.272545298293,-0.114223700005,-0.0334085802435,0.0137181850734,-1.4987023844
1385577498658145042,0.0823960294587,-0.272557247973,-0.114219258264,-0.0334257507893,0.0136885199181,-1.49867950592
1385577498668238496,0.0824164237403,-0.272435957753,-0.114230301645,-0.0334271462558,0.0139409866575,-1.49877803852
1385577498678295526,0.0823972021331,-0.272554025693,-0.114215492804,-0.0334198679821,0.0136567377746,-1.49870237002
1385577498688171507,0.0824203523903,-0.272433691304,-0.11422317945,-0.0334378540736,0.0139689923131,-1.49878574573
1385577498698377125,0.0823941541654,-0.272543439542,-0.114216057861,-0.0334258226442,0.0136652532517,-1.49870509325
1385577498708515294,0.0823937883693,-0.272550613473,-0.114223646345,-0.033425343435,0.0137128442886,-1.49869203853
1385577498718173081,0.0823966275117,-0.272549798291,-0.114224707014,-0.0334085979055,0.0137174201781,-1.49871763885
1385577498728247012,0.0824334580789,-0.272421090528,-0.114249577092,-0.0336490350876,0.0135975204116,-1.49871266913
1385577498738203760,0.0824375593862,-0.272425848624,-0.114252844597,-0.0336419936264,0.0136163727434,-1.49869036957
1385577498748147958,0.0823953249549,-0.272548458507,-0.114218013424,-0.0334332274965,0.0136663053246,-1.49869766229
1385577498758236589,0.0824025870865,-0.272525927459,-0.11419196784,-0.0334776604773,0.0140291612961,-1.49878195911
1385577498769595719,0.0824025870865,-0.272525927459,-0.11419196784,-0.0334776604773,0.0140291612961,-1.49878195911
1385577498778276490,0.0823883284275,-0.272551186207,-0.114223362248,-0.0334491857497,0.0137338845572,-1.4987098253
1385577498788116989,0.0824166350264,-0.272433459973,-0.114223945509,-0.0334260040655,0.0139368942626,-1.4987892408
1385577498798282567,0.0823967439322,-0.272555941862,-0.114222117785,-0.0334465462058,0.0137415914065,-1.49868947808
1385577498808145144,0.0823953353615,-0.272549605391,-0.114225083441,-0.0334123319366,0.013751296091,-1.49872394462
1385577498818259862,0.0824103903332,-0.272440448381,-0.114222105494,-0.0334604616849,0.0139779851333,-1.49874818998
1385577498828271366,0.082390653722,-0.27254425707,-0.114222518954,-0.0334357256838,0.0137061397517,-1.4987088754
1385577498838183247,0.0823919071592,-0.27254012896,-0.114219003491,-0.0334589892243,0.0136958990491,-1.4987205686
1385577498848178998,0.0823891291709,-0.272557540057,-0.114224776834,-0.0334532483895,0.013726536204,-1.49870710999
1385577498858118471,0.0823959633072,-0.272553987562,-0.114220402184,-0.0334588734379,0.0137145120919,-1.49874760398
1385577498868189786,0.0824269536666,-0.272416312639,-0.11425291441,-0.0336422378763,0.0135714325761,-1.49871893958
1385577498879213427,0.0824104271513,-0.272436931257,-0.11423443938,-0.0334550413423,0.0140227347936,-1.49876973877
1385577498888168837,0.0824309362721,-0.272423565748,-0.114251009943,-0.0336529447295,0.0135715796888,-1.49867040083
1385577498898341207,0.0823686307573,-0.272415732434,-0.114278389766,-0.0337072528312,0.0141497754354,-1.49859612119
1385577498908254788,0.0824319739641,-0.27244116187,-0.114224976976,-0.0335039068504,0.0140974643413,-1.49889254681
1385577498918248886,0.0824523813152,-0.272437754363,-0.114204205443,-0.033519445722,0.0143160106059,-1.49925088603
1385577498928246254,0.0824059342529,-0.272554972712,-0.11423381601,-0.0334946619228,0.0136373991122,-1.49869039592
1385577498938280083,0.0824117071662,-0.272418618114,-0.114216404915,-0.0332314723289,0.0139939725761,-1.49874294361
1385577498948195531,0.08242284848,-0.272420809522,-0.114256588886,-0.0336209794203,0.0135694740669,-1.49842749549
1385577498958171826,0.0823782086588,-0.272566894323,-0.114223875824,-0.0335264108177,0.0137686225243,-1.49964420286
1385577498968572171,0.082340966967,-0.272481682936,-0.114133843516,-0.0333211415876,0.0140028442982,-1.498825535
1385577498978248681,0.0823665939134,-0.272441657334,-0.114197478743,-0.0335245672385,0.0139897527816,-1.49822146101
1385577498988138953,0.0823519838934,-0.272567938512,-0.114238644389,-0.0334172239342,0.0136818526267,-1.49864325587
1385577498998230776,0.0823425206313,-0.27257786011,-0.11423747956,-0.0332889019154,0.013819763254,-1.49948519062
1385577499008262103,0.0823393067133,-0.272606272372,-0.114221839937,-0.0333107079367,0.0137757385803,-1.49902464805
1385577499018240055,0.0822944576852,-0.272605299686,-0.114266830989,-0.0331207621282,0.0138689949138,-1.49834695542
1385577499028508445,0.0821514644776,-0.272598786131,-0.114199073455,-0.0327974961558,0.0143373206919,-1.49849921154
1385577499038191194,0.0823073971586,-0.272614048199,-0.114213648637,-0.0334804694555,0.0138491338268,-1.49884312109
1385577499048197242,0.0823126854241,-0.272632277674,-0.114227099892,-0.0335306409877,0.0137859641045,-1.49836035523
1385577499058276103,0.0823171275263,-0.272606783471,-0.114244937795,-0.0334537544783,0.0137366797869,-1.49857591359
1385577499068159277,0.0823397989035,-0.272687383369,-0.114210726603,-0.0335329667324,0.0139692064833,-1.49918970204
1385577499078151329,0.0823259378272,-0.272603933778,-0.114207593434,-0.0334255988954,0.0137938134745,-1.49856680192
1385577499088250813,0.0823454528644,-0.272632488945,-0.114282552147,-0.0338063979513,0.0135396326236,-1.49817945717
1385577499098207226,0.0822667637079,-0.272578636412,-0.114205260743,-0.0332153964213,0.0136212759697,-1.49858427368
1385577499108109272,0.0823227618898,-0.272640571515,-0.114213319701,-0.0333172581819,0.0137717281744,-1.49891217705
1385577499118292662,0.0822678229794,-0.272636301467,-0.114262123516,-0.0329736399826,0.0140003881812,-1.49847319329
1385577499128201686,0.0823247371721,-0.272632902503,-0.114222385218,-0.0334294637356,0.0137059355759,-1.49858038079
1385577499138206873,0.0823148402289,-0.272636636498,-0.114240264148,-0.0334371060418,0.0137404712984,-1.49883692083
1385577499148168023,0.0823067763249,-0.272634031671,-0.11419873635,-0.0333389415664,0.013945475587,-1.49882814857
1385577499159498335,0.0821890301662,-0.272757953023,-0.114177345141,-0.0340832537925,0.0124771812645,-1.49858561192
1385577499168269468,0.0822922934409,-0.272589744237,-0.114211947225,-0.0334275040328,0.0132955312802,-1.49836312159
1385577499178311393,0.0822698227066,-0.272665620919,-0.114308870276,-0.0330263835281,0.0139527933553,-1.49882088612
1385577499188156412,0.0822575749137,-0.27264424844,-0.114169713367,-0.0334419369333,0.0144088377019,-1.49845998491
1385577499198270927,0.0823194662742,-0.272636178388,-0.114210243236,-0.033357271577,0.0137462799692,-1.49862110731
1385577499208108552,0.0822845082022,-0.272591258166,-0.114187039095,-0.0331583572373,0.0136886366093,-1.4985664028
1385577499218165257,0.082284506894,-0.27261326748,-0.114183913356,-0.0333061084039,0.0136605780758,-1.49845947757
1385577499228318031,0.082284506894,-0.27261326748,-0.114183913356,-0.0333061084039,0.0136605780758,-1.49845947757
1385577499238270093,0.0822553126235,-0.272634082465,-0.114167773703,-0.033385809573,0.0143435003604,-1.49860260979
1385577499248200416,0.082325770326,-0.272637787058,-0.114219223461,-0.0334107578663,0.013830095913,-1.4986018396
1385577499258312694,0.0822726077476,-0.27260352399,-0.114199301103,-0.0332064475006,0.0137000397147,-1.49847605551
1385577499268244587,0.0822607074332,-0.27259802927,-0.11419816209,-0.0332490659133,0.0137393740828,-1.49850474909
1385577499278278574,0.0822171352093,-0.272606739954,-0.11426700065,-0.0327766778341,0.013863561779,-1.49858096695
1385577499288250556,0.0823201368499,-0.272625649934,-0.114214222541,-0.0334034788677,0.0137750191461,-1.49870062538
1385577499298234168,0.082282104208,-0.272595968053,-0.114194260517,-0.0331642945259,0.0136871984746,-1.49836654894
1385577499308247328,0.0822808679848,-0.272596498645,-0.114203204467,-0.0331941460383,0.0136897732435,-1.49854322742
1385577499318513383,0.0822736898416,-0.272637836196,-0.11428432969,-0.0329923583216,0.0139246937199,-1.49869005188
1385577499328247620,0.0823260209303,-0.272625704687,-0.114210999991,-0.0333793939931,0.0137867964457,-1.49854721216
1385577499338237682,0.0823545215025,-0.272655691388,-0.11420242352,-0.0335426957346,0.0143585864469,-1.49896019208
1385577499348293761,0.0823137001973,-0.272635304984,-0.114212253024,-0.0333782193564,0.0138760923921,-1.49889277804
1385577499358225774,0.0822503857768,-0.27266094127,-0.114141012785,-0.0337501694686,0.0137012107585,-1.49839532406
1385577499368142482,0.0822843504952,-0.272604543663,-0.114184282343,-0.0332021927657,0.0136525641115,-1.49843543656
1385577499378213129,0.0823011068985,-0.272640538876,-0.114175354299,-0.033245598818,0.013644835093,-1.49898378829
1385577499388185640,0.0823393843747,-0.272617271616,-0.114191819158,-0.0335500831874,0.0138265386342,-1.49862451943
1385577499398258036,0.0823168777773,-0.272624151753,-0.114229282009,-0.0334233388137,0.0137581778022,-1.4982624783
1385577499408255439,0.0823236083204,-0.272638212594,-0.114227085245,-0.0333134530485,0.0136545810612,-1.49871013435
1385577499418238189,0.0822621581416,-0.27264623988,-0.114264266841,-0.0328393838785,0.0140751713385,-1.49925003392
1385577499428554122,0.0823207975635,-0.272628459497,-0.114210345869,-0.0334196126133,0.0138428603607,-1.49845072339
1385577499438226219,0.0823169954225,-0.272635846926,-0.114237750364,-0.0334595144006,0.0137281681644,-1.49830788876
1385577499448266467,0.0823300357111,-0.272622124006,-0.114198563473,-0.0334229344929,0.0141309597668,-1.49888045078
1385577499458211670,0.0823126591164,-0.272636801686,-0.114241928692,-0.0331847692263,0.0138538584142,-1.49878801916
1385577499468163130,0.0823162073079,-0.272652670561,-0.11425997673,-0.0331621333232,0.0137536139309,-1.49820967901
1385577499478269927,0.0822739853424,-0.272606729298,-0.114254061051,-0.0329561820632,0.013538723149,-1.49846791966
1385577499488199925,0.0823209125269,-0.272620763402,-0.11429075505,-0.0332012861336,0.013716409301,-1.49892902654
1385577499498327593,0.0823072349445,-0.272652258288,-0.114273991267,-0.0334116146254,0.0138791043532,-1.49823871866
1385577499508279474,0.0822698681168,-0.272591204093,-0.114211472425,-0.0331749671076,0.0135007465933,-1.49821321542
1385577499518214249,0.0823208701054,-0.27263942278,-0.114218873073,-0.0333170510319,0.0135836666985,-1.49899116839
1385577499528406643,0.0823240719767,-0.272652005509,-0.114244952951,-0.0331212910541,0.0140423479404,-1.49855371377
1385577499538247846,0.0822937473678,-0.272516649746,-0.11436420087,-0.0320575043028,0.0140371585308,-1.49836278405
1385577499548163522,0.0823320963962,-0.272620190291,-0.114314368305,-0.0322435266497,0.0135177214091,-1.49904149462
1385577499558282102,0.0823185747343,-0.272672767097,-0.114303599012,-0.0327906982711,0.0138244821899,-1.49854594159
1385577499568241912,0.0823098599939,-0.272600029097,-0.114301808303,-0.0333514793532,0.0138424054376,-1.49827956407
1385577499578217379,0.0822967015773,-0.272641837535,-0.114274514046,-0.0330177336579,0.0135128695245,-1.49895481816
1385577499588210833,0.0821678612811,-0.272682907855,-0.114299945483,-0.0323526900088,0.0143096074739,-1.49826235178
1385577499598289188,0.0822926180209,-0.272596848661,-0.114314926719,-0.0330146505482,0.0136652414938,-1.49883136978
1385577499608268884,0.082285568836,-0.272617910292,-0.114371665165,-0.0330985129187,0.0139503381136,-1.49911713634
1385577499618205940,0.0823421179068,-0.27255823179,-0.114316063456,-0.0328618720308,0.0143631939012,-1.49916526728
1385577499628284923,0.0822263891304,-0.27253967843,-0.114239175513,-0.0324345085039,0.013601213399,-1.49884839551
1385577499638237104,0.0822471477423,-0.272613317856,-0.114346698874,-0.0330051448888,0.013956582977,-1.49871566765
1385577499648311651,0.0822888450562,-0.27250687286,-0.114335699792,-0.033505212877,0.0141307826817,-1.49896810111
1385577499658378573,0.0821599324852,-0.272444729331,-0.114307897615,-0.0326508645244,0.0146163106923,-1.49931866253
1385577499668162046,0.0822410727506,-0.272564889302,-0.114293143408,-0.0326380211248,0.0139896063538,-1.49887973977
1385577499678606664,0.0822637080717,-0.272428248194,-0.114279392652,-0.0324660446342,0.0138403494212,-1.49880459071
1385577499690087135,0.0822246256489,-0.272423240963,-0.114265398578,-0.0325989625221,0.0137169065276,-1.49903571527
1385577499698391835,0.0822606325489,-0.272465007437,-0.114334672588,-0.0332571384483,0.0139117267942,-1.49889769312
1385577499708251800,0.0822398335519,-0.272508500446,-0.114283450917,-0.0335981136882,0.0137519428225,-1.4991009993
1385577499718310174,0.0822398335519,-0.272508500446,-0.114283450917,-0.0335981136882,0.0137519428225,-1.4991009993
1385577499728282265,0.0822174093756,-0.272433080905,-0.114367731988,-0.0323562580733,0.0140716143518,-1.49867502016
1385577499738243459,0.0822421415642,-0.272513964429,-0.114338761319,-0.0328867568488,0.0135583055197,-1.4991957166
1385577499748255750,0.0822301907988,-0.272575736733,-0.114286870224,-0.0329411501833,0.0138849671486,-1.49924199884
1385577499758191016,0.0822395729364,-0.272549522568,-0.11427256155,-0.0330263357156,0.0137697348631,-1.49868583542
1385577499768143347,0.0822207816103,-0.272399421079,-0.114362766984,-0.0325500302355,0.013953312231,-1.49916776768
1385577499778267779,0.082271055136,-0.272470098801,-0.114339243367,-0.0329324806736,0.0141973790182,-1.49892407349
1385577499788202579,0.0823020087172,-0.272474879716,-0.114312726704,-0.0331466331347,0.0141725638254,-1.49908789323
1385577499798200281,0.0822531998712,-0.272547657762,-0.114241656432,-0.0329710493165,0.0138114532486,-1.4991169577
1385577499808158572,0.0822787197599,-0.272471384165,-0.114289619046,-0.0332881912906,0.0140489806941,-1.49881150214
1385577499818326177,0.0822390385558,-0.272412960654,-0.114310557901,-0.0333581929672,0.0138565989519,-1.49885298232
1385577499828267586,0.082217973831,-0.272611599083,-0.114314707009,-0.0332968074328,0.0140570823147,-1.49931382786
1385577499838340126,0.0821143006378,-0.272632860072,-0.114418333572,-0.0328958048774,0.0130359334735,-1.49889332478
1385577499848195973,0.0822444508048,-0.272514361631,-0.11426129275,-0.0328106086525,0.0136638787019,-1.49904011518
1385577499858285480,0.0822270984559,-0.272569387755,-0.114319323222,-0.0329840313186,0.013709296053,-1.49906051768
1385577499868244260,0.0821672396823,-0.272558927251,-0.114273991238,-0.0333925448628,0.0142272340902,-1.49848557014
1385577499879173565,0.0823032243996,-0.27234535043,-0.114255001437,-0.0324616071608,0.0154896511899,-1.49965884029
1385577499888259590,0.0822375662558,-0.272400535261,-0.114247950506,-0.033454991011,0.0144534524623,-1.49890491245
1385577499898239482,0.0822499008023,-0.272427243094,-0.114295303142,-0.0330328168848,0.0138222463542,-1.4989713916
1385577499908133587,0.0822242736376,-0.272525252422,-0.114328503511,-0.0331264256693,0.0135897364521,-1.49907154855
1385577499918257488,0.0822560427706,-0.272466315611,-0.114342860792,-0.0332587391924,0.0144111534259,-1.49892038189
1385577499928254646,0.0822317289968,-0.272498223073,-0.114295793366,-0.0332280881021,0.0136916102965,-1.49888117848
1385577499938298234,0.0821700516129,-0.272531504287,-0.114217364049,-0.0332047279644,0.0141223472832,-1.4989758577
1385577499948322303,0.0822531107106,-0.272537834138,-0.11425029,-0.033555490362,0.0136902713358,-1.49880899687
1385577499958229311,0.0822550115503,-0.272383903157,-0.114289513044,-0.0335257801681,0.0140561127699,-1.498982501
1385577499968132993,0.0822706903039,-0.272453440135,-0.11426261844,-0.0332103236982,0.0141200325002,-1.49915088001
1385577499978434895,0.0822317155395,-0.272546405552,-0.114268849529,-0.0329882328776,0.0137665503997,-1.49887761635
1385577499988158624,0.0821986042215,-0.27239826621,-0.114352133072,-0.0328459415247,0.0141171965354,-1.49916419294
1385577499998194796,0.0821909697012,-0.272569940491,-0.114268968568,-0.033355673109,0.013905786395,-1.49895815595
1385577500008195527,0.0822365758745,-0.272403919784,-0.114248899819,-0.0334034730445,0.0139777019658,-1.49891376762
1385577500018237716,0.0823613640799,-0.272356092278,-0.114157742376,-0.0326336459719,0.015288779155,-1.49938873879
1385577500028194814,0.0822368117457,-0.272443528136,-0.114283399654,-0.0333257233936,0.0143089153784,-1.49884513188
1385577500038465182,0.0822501230757,-0.272558649455,-0.114289584758,-0.0335330789291,0.0139110695436,-1.49916968766
1385577500048205241,0.0823622408684,-0.272363047711,-0.114202851455,-0.0326263969978,0.0153319381377,-1.49950071814
1385577500058246833,0.0822561487647,-0.272436392482,-0.114312163726,-0.0333444363442,0.014339779377,-1.49897627795
1385577500068126598,0.0822697786822,-0.272338820218,-0.114312843845,-0.033694128983,0.0137068346927,-1.49896319151
1385577500078290209,0.0822311610209,-0.272518990901,-0.11423366725,-0.0332899217105,0.0137422248318,-1.49897421587
1385577500088165370,0.0822514096555,-0.272409768864,-0.11432377985,-0.0335533467772,0.0137107299322,-1.49902146589
1385577500098199679,0.0821572624229,-0.272462156674,-0.114371202249,-0.0334739955668,0.0140367209441,-1.50068081728
1385577500108250570,0.0821652731212,-0.27247899405,-0.114316696204,-0.0332267289946,0.0142803717677,-1.50075977701
1385577500118236664,0.0820878101482,-0.272446143275,-0.114240682389,-0.0322591435638,0.0142685813185,-1.50046017177
1385577500128242634,0.0822987173338,-0.272251490234,-0.114078577361,-0.0321323378443,0.0161980315998,-1.50129435581
1385577500138263758,0.0821070244115,-0.272243775025,-0.114343640637,-0.0333668792207,0.0139895009686,-1.49985128309
1385577500148317643,0.0821383904157,-0.27240521182,-0.114406598183,-0.0334602113611,0.0144503236454,-1.50116985611
1385577500158284589,0.0821058106944,-0.27227836525,-0.114306239367,-0.0323467527071,0.0157238945158,-1.50101070136
1385577500168275794,0.0821088638315,-0.272242246335,-0.114186169272,-0.0321209887135,0.0148207248854,-1.50052573481
1385577500178352163,0.0820412914302,-0.272411092756,-0.114367347396,-0.032335818086,0.0144242241538,-1.501054821
1385577500188231231,0.0819773557229,-0.272367129407,-0.114449345236,-0.0327283675021,0.0145516802679,-1.50087779557
1385577500198246565,0.0820263270983,-0.272189839435,-0.114246087143,-0.0318344215258,0.0166862376784,-1.50194319917
1385577500208335727,0.0819932846644,-0.272160939349,-0.114284420853,-0.0329189064747,0.0149437297838,-1.50163837385
1385577500218246125,0.0819780550139,-0.272316894727,-0.114378802856,-0.0330713363923,0.0149275976657,-1.50220447651
1385577500228190012,0.0820177911155,-0.27217986109,-0.114321887052,-0.032067338722,0.0158537049084,-1.50195319406
1385577500238203739,0.0818865119764,-0.272179175316,-0.11436141641,-0.032693374994,0.0149424818093,-1.50270877681
1385577500248289814,0.0818778706058,-0.272159258775,-0.114231461387,-0.0324047334625,0.0154365011915,-1.50254952168
1385577500258237993,0.0817838698146,-0.272173971989,-0.11419342993,-0.0323698023733,0.0142392769691,-1.50268538663
1385577500268161678,0.08186145693,-0.272086933923,-0.114295259665,-0.0324402817538,0.0147563437634,-1.50327660267
1385577500278205712,0.0817329448307,-0.272056258793,-0.114416213211,-0.0322282256805,0.014929179709,-1.50240471616
1385577500288228162,0.0816874284916,-0.272077244551,-0.114345506045,-0.0320881882184,0.0155796343998,-1.5033540192
1385577500298211785,0.0816921510038,-0.272049103489,-0.114338544936,-0.0321678501516,0.0148935861681,-1.50302502238
1385577500308323234,0.0815740765988,-0.272057297752,-0.114370715584,-0.0322911463137,0.0155239422804,-1.50269687978
1385577500318221033,0.0817354238013,-0.271867048098,-0.11453897355,-0.0321544121914,0.0167352919512,-1.50378584425
1385577500328146937,0.0816224961291,-0.271891476075,-0.114481424099,-0.0320404490475,0.016034591001,-1.50332878891
1385577500338419829,0.0816828641343,-0.271965265612,-0.114300597901,-0.0313489923653,0.0166731220591,-1.50407499195
1385577500348161746,0.0815277585204,-0.271877915243,-0.114410070086,-0.0322283088636,0.0147021294626,-1.50375614214
1385577500358211312,0.0814793706682,-0.271971938357,-0.114483653789,-0.0323983954552,0.0151514114535,-1.50343282568
1385577500368314748,0.0815815770634,-0.271771624273,-0.114379488004,-0.0315107518527,0.0162918203945,-1.50414482719
1385577500378337488,0.0814879904471,-0.271831086208,-0.114369916117,-0.0304561177423,0.0167770530637,-1.50395605058
1385577500388181389,0.0814903385299,-0.271859464788,-0.114248213461,-0.0308701233532,0.0164782498129,-1.50369740561
1385577500398319069,0.0814238151462,-0.271792409262,-0.114358272197,-0.0314115116499,0.0161059566204,-1.50347714082
1385577500408265335,0.0813214739705,-0.271896179888,-0.114380208172,-0.0316554434304,0.0172094448271,-1.50318300361
1385577500418224198,0.081322466086,-0.271800248716,-0.114277979311,-0.0309233795806,0.0159576098971,-1.50303457435
1385577500428240732,0.0812663583659,-0.271889480735,-0.114160892412,-0.0312444539718,0.0168552720999,-1.5027009635
1385577500438253673,0.0811973264805,-0.271820522326,-0.114296934401,-0.0316102327449,0.0173566603197,-1.50299432499
1385577500448266390,0.0811945394319,-0.271912025502,-0.1143007844,-0.0316676680115,0.0169147061974,-1.50189248898
1385577500458209392,0.0811572230466,-0.271849198008,-0.114224645718,-0.0313358136791,0.0165170049771,-1.50255314331
1385577500468156176,0.0812335079655,-0.271858764699,-0.114262711129,-0.0313131612608,0.0164196153461,-1.5017149453
1385577500478264521,0.0811881788634,-0.271792414431,-0.114230194522,-0.0319732424944,0.0168633379801,-1.50160390012
1385577500488227224,0.081077513582,-0.271880880686,-0.114220854924,-0.0325887674351,0.017525092785,-1.50161113279
1385577500498195501,0.081062665115,-0.271780052063,-0.114244614481,-0.0327269040361,0.017221478661,-1.50066527815
1385577500508219957,0.0809788097297,-0.271819204835,-0.114146636418,-0.0325868909046,0.0169396538463,-1.50128112893
1385577500518215162,0.0809774971592,-0.271790929054,-0.114202493351,-0.0323063552735,0.017956913135,-1.501066317
1385577500528139612,0.0808830085923,-0.271773478546,-0.114278118474,-0.0316806558994,0.0173186228334,-1.50047115012
1385577500538288338,0.0808759690049,-0.271789500274,-0.114327677795,-0.0321402768661,0.0162529862326,-1.50130471021
1385577500548228176,0.0807917694528,-0.271745666491,-0.114249980693,-0.0323327256648,0.0167231538135,-1.49969866475
1385577500558308748,0.0805123806519,-0.271924465523,-0.114250164403,-0.0336928253264,0.0150181889318,-1.50038730611
1385577500568265581,0.0805314391246,-0.271847507151,-0.114393147009,-0.0329621866546,0.0156152239121,-1.5004460774
1385577500578384557,0.0806126844369,-0.271731000455,-0.11434443412,-0.0321386648204,0.0160259673116,-1.50132506769
1385577500588343852,0.0805637737428,-0.271604652655,-0.114305569058,-0.0320023724382,0.0163371378339,-1.50192090339
1385577500598259515,0.0804552969025,-0.271683462357,-0.114191859073,-0.0315683933038,0.0164591143259,-1.50102723668
1385577500608205688,0.0803120747814,-0.271504395518,-0.114107966934,-0.0324534841669,0.0167070515168,-1.50151235422
1385577500618229847,0.0803121489297,-0.271564934486,-0.114240836618,-0.0326307457716,0.0158164704159,-1.5008127247
1385577500628183102,0.0801953892279,-0.271459755498,-0.114229276549,-0.0324646748734,0.0161081907275,-1.50082126025
1385577500638218673,0.0801997890843,-0.271440198595,-0.114107701737,-0.0323056164998,0.0166088765156,-1.50144983305
1385577500648269427,0.0801425224116,-0.271335977468,-0.11419578986,-0.0318955023058,0.016589941713,-1.5021159275
1385577500658234519,0.0801832772973,-0.271193253964,-0.114456406409,-0.0313828293111,0.015537700941,-1.50303636013
1385577500668158104,0.0799926985605,-0.271242638137,-0.11460426659,-0.0312680314471,0.0148658185892,-1.50268128638
1385577500678271450,0.0798162328257,-0.271040449479,-0.114298228934,-0.032932396854,0.0162943990327,-1.50062439471
1385577500688126262,0.0797941626999,-0.271067602528,-0.114129875936,-0.0319388803114,0.0176258192855,-1.50033921977
1385577500698417515,0.0797289391365,-0.270914868605,-0.114378958645,-0.0335273829552,0.013208199212,-1.49818799549
1385577500708259772,0.0798151101671,-0.270969565717,-0.114525784448,-0.031392041019,0.0141686745452,-1.49837249453
1385577500718234648,0.0796698430284,-0.270683718157,-0.114433205506,-0.0303178017393,0.0162298731426,-1.49785933567
1385577500728213519,0.0793809133488,-0.270863771256,-0.114204972062,-0.0314397351562,0.0157149663323,-1.49770524588
1385577500738266819,0.0793244594811,-0.270707832352,-0.114170459737,-0.032755273449,0.0127839723986,-1.49751775984
1385577500748212145,0.0793620478471,-0.270684322539,-0.114303543907,-0.0331999288726,0.0143781243886,-1.49831473458
1385577500758231461,0.0790716825216,-0.270570336465,-0.114391070454,-0.0340302084964,0.014764587419,-1.4968101532
1385577500768379072,0.0789700609392,-0.270653230377,-0.114489973969,-0.032302392847,0.0130413567073,-1.49661130289
1385577500778261988,0.0788805531392,-0.270473415406,-0.114506251009,-0.0325277720314,0.0143097665178,-1.4947337388
1385577500788198436,0.078738424215,-0.27044529549,-0.114387064775,-0.0324146665383,0.0139502612292,-1.49387189234
1385577500798293571,0.0785286640224,-0.270367741294,-0.114393926498,-0.032601973456,0.0145001617717,-1.49289936963
1385577500808255479,0.0784494974381,-0.270305200855,-0.114359643881,-0.0333120195571,0.0146636972375,-1.49195853616
1385577500818302052,0.0782236904813,-0.270324143424,-0.114361380211,-0.0330279567513,0.0140913110643,-1.49082557695
1385577500828195512,0.0783317964042,-0.270169065639,-0.11434349086,-0.0320671812823,0.0146355100009,-1.49027054258
1385577500838275312,0.078235389345,-0.270067804285,-0.114234761458,-0.0318493042435,0.0171983567427,-1.48895049063
1385577500848332102,0.0781468177028,-0.269960677551,-0.114247331527,-0.0311813189317,0.0155258036267,-1.48793563646
1385577500858237927,0.07785850663,-0.269957053042,-0.114410132557,-0.0313181289628,0.0159586535007,-1.48651790884
1385577500868221072,0.0777646943257,-0.269847905313,-0.11451693922,-0.0316099496991,0.0156664207748,-1.48542126612
1385577500878319351,0.0775981172883,-0.269663969027,-0.114251727953,-0.0312621593218,0.0165220860296,-1.48392649599
1385577500888210651,0.077273277641,-0.26965243184,-0.114234984309,-0.029876404756,0.0167146611991,-1.48282088148
1385577500898246809,0.0769395751774,-0.26944574947,-0.114430928212,-0.0294651974583,0.0161763000475,-1.48205062173
1385577500908206174,0.0767620318611,-0.269351124274,-0.114429119051,-0.0311339819623,0.015250651863,-1.48119727731
1385577500918232795,0.0763492973076,-0.269112489403,-0.114546591052,-0.0325084793336,0.015127988236,-1.48003877609
1385577500928218838,0.076082600977,-0.269100310258,-0.114551386048,-0.033393610325,0.0161577585078,-1.47948760796
1385577500938201523,0.0758383613969,-0.268815798152,-0.114425262696,-0.0332808608809,0.0152395900379,-1.47832262445
1385577500948162290,0.0753885557825,-0.268712220304,-0.114336357811,-0.0308058900282,0.0132417875275,-1.47667853523
1385577500958210425,0.0749874415201,-0.268589052058,-0.114306543131,-0.0288510694063,0.0135746117282,-1.47553675195
1385577500968162921,0.0747406016056,-0.268291616737,-0.11421080939,-0.0273801271547,0.0163690422378,-1.47578011933
1385577500978216476,0.0743737183587,-0.268047037037,-0.114445197579,-0.026723134199,0.0166644847297,-1.47487976931
1385577500988260762,0.0738724545526,-0.267973591528,-0.114607921922,-0.0273069026208,0.0176153629624,-1.47423824433
1385577500998293869,0.0734787213063,-0.267701593792,-0.114442208657,-0.0288968383218,0.0167205294177,-1.47345371772
1385577501008220396,0.072904537606,-0.267759341465,-0.114227914898,-0.0291873284181,0.0163030947175,-1.47259930062
1385577501018222875,0.0723329479246,-0.267427786398,-0.114212288227,-0.0281954709364,0.0150906800735,-1.4717257252
1385577501028195099,0.0718287977196,-0.267245116673,-0.11454497491,-0.0284163410909,0.0151217527579,-1.4710702504
1385577501038197465,0.0711454589235,-0.266896497739,-0.114456966253,-0.0283405394924,0.0139363560279,-1.46977850359
1385577501048133221,0.0706246399288,-0.266699367357,-0.114367078381,-0.0287338160102,0.014149274262,-1.46936322671
1385577501058187869,0.0700055224451,-0.266362172716,-0.114316588878,-0.0297631037615,0.0149771535985,-1.46975234466
1385577501068228941,0.0692980768861,-0.2659773551,-0.114401040483,-0.0294991904621,0.0132975791191,-1.46892570659
1385577501078347827,0.0688241698487,-0.265724867176,-0.114463596499,-0.0290095452258,0.0147381157138,-1.46824102227
1385577501088158025,0.0682587335858,-0.265295392909,-0.114440972832,-0.0283810195875,0.0158450377522,-1.46788064124
1385577501098209007,0.0677374084596,-0.264886826283,-0.114535351267,-0.0277706280834,0.0155461952017,-1.46716727076
1385577501108168433,0.066949131588,-0.264449787713,-0.114635557421,-0.0277667120279,0.0134461798436,-1.46749460696
1385577501118219643,0.0662674813568,-0.264180210295,-0.114762468978,-0.0271096803387,0.0125424594311,-1.46716232045
1385577501128166732,0.0656116070082,-0.263672165924,-0.11493706817,-0.0262136048799,0.0129745625778,-1.46758305205
1385577501138222545,0.0648062745487,-0.263058268671,-0.115254793817,-0.0245097397267,0.0125515999008,-1.46803966957
1385577501148255582,0.0640278615907,-0.262588766462,-0.1154467827,-0.0232075515302,0.010440813281,-1.46785300249
1385577501158300389,0.063549669889,-0.261785320034,-0.117139583921,-0.0183714754097,0.0224250540064,-1.46908237604
1385577501168202766,0.0628029572335,-0.261182200896,-0.117342233168,-0.0173908043345,0.024306207728,-1.46906979657
1385577501178197329,0.0620087796462,-0.260607893025,-0.117669202188,-0.0162143112824,0.019292148383,-1.46924619511
1385577501188184490,0.0611220186548,-0.260185989474,-0.118114515,-0.0156416995105,0.0160256813933,-1.46981841754
1385577501198186920,0.059932784925,-0.259613722737,-0.117405250903,-0.0171973147927,0.00441683513828,-1.46980417784
1385577501208248778,0.0591816301831,-0.259026725311,-0.117989409901,-0.0155729315091,0.00265373137332,-1.47024391065
1385577501218219756,0.0581545759989,-0.258343468331,-0.118618163187,-0.0136727983139,0.000347726168947,-1.47073923841
1385577501228231459,0.057181421335,-0.257864284982,-0.11906299362,-0.0153207378304,-0.00526881534339,-1.47081673788
1385577501238246780,0.0562887217028,-0.257020945494,-0.119766791621,-0.0141564700731,-0.00788795058433,-1.47132274999
1385577501248164346,0.0554498389962,-0.256317419762,-0.120653791658,-0.0127227056586,-0.0106984628587,-1.47203256958
1385577501258300999,0.0544586102254,-0.255610404304,-0.121524512528,-0.0122930185094,-0.0125396314922,-1.47272138336
1385577501268488290,0.0544586102254,-0.255610404304,-0.121524512528,-0.0122930185094,-0.0125396314922,-1.47272138336
1385577501278320855,0.0526102751239,-0.254254339921,-0.123809205311,-0.0131454272127,-0.0168470584293,-1.4732451126
1385577501288343768,0.0515430344818,-0.253390622,-0.125088412432,-0.013545382836,-0.0196265960495,-1.47376697328
1385577501298261220,0.0504693771503,-0.252789314182,-0.126447363084,-0.0146977809482,-0.0230752449067,-1.47424380339
1385577501308237408,0.0496044649879,-0.252027894884,-0.127843289881,-0.0163192779294,-0.0263673105107,-1.47470845215
1385577501318752319,0.048697846966,-0.251312688111,-0.129442929437,-0.0186656973682,-0.0285302143374,-1.47515579992
1385577501328234619,0.0475109953545,-0.250665914294,-0.131287739157,-0.0199910981868,-0.0307546786302,-1.4753929231
1385577501338232439,0.0466819814656,-0.249958377358,-0.133078846837,-0.0199076916736,-0.0350668766831,-1.47568928498
1385577501348209511,0.0456461524166,-0.24927140669,-0.134857921762,-0.021251198428,-0.0369870118267,-1.4754831388
1385577501358180039,0.044655092955,-0.248694373693,-0.137154916,-0.0225472555544,-0.0366341674832,-1.47653646722
1385577501368211884,0.0439346669541,-0.247904109054,-0.139248583231,-0.0260094898518,-0.0401121164828,-1.47677599735
1385577501378280399,0.0427784074586,-0.247289662904,-0.141624533062,-0.0265062998929,-0.0421376076953,-1.47657954095
1385577501388184988,0.04162831248,-0.246699247482,-0.144140317767,-0.0271419854733,-0.0469723652816,-1.47598838967
1385577501398211749,0.040697399265,-0.246000625966,-0.14673110267,-0.0265693873466,-0.0486248459552,-1.47543156504
1385577501408202027,0.0399002176916,-0.245563737094,-0.149568664958,-0.027549307147,-0.0519198491801,-1.4750667016
1385577501418230768,0.0389705486293,-0.24508462832,-0.152400208571,-0.0275586397047,-0.0538169050187,-1.47483077408
1385577501428223769,0.0381154805375,-0.244753107836,-0.155353608626,-0.0271750269643,-0.0561158896344,-1.47473349806
1385577501438271500,0.0371719941985,-0.244339056942,-0.158287454053,-0.0266862437962,-0.0594235284188,-1.47371661039
1385577501448249525,0.0363094935108,-0.244107792838,-0.161606668436,-0.0261108608777,-0.0621487523508,-1.4741485261
1385577501458266172,0.0355373486059,-0.243948183545,-0.165023901497,-0.025788444194,-0.0656833659724,-1.47332059402
1385577501468212545,0.034685980203,-0.243772877256,-0.168508219184,-0.0233450847689,-0.0663137940177,-1.4734121053
1385577501478191365,0.0339098728568,-0.243872506006,-0.171768036132,-0.0216357812204,-0.0704311973306,-1.47234431717
1385577501488130631,0.0331409085444,-0.243955412381,-0.175181963863,-0.0198359855687,-0.0730251715963,-1.47084806938
1385577501498175872,0.0323824340247,-0.244248595601,-0.178918189205,-0.0197773413608,-0.0741525707605,-1.47062852498
1385577501508172866,0.0316829880024,-0.244532432224,-0.18265391886,-0.0198217850758,-0.0757297407921,-1.46959511847
1385577501518200378,0.030686389256,-0.244966922774,-0.186289479251,-0.0192689680146,-0.0775241587253,-1.46846899528
1385577501528168491,0.0299637360842,-0.245456526295,-0.190204931843,-0.0176501472681,-0.0783889287874,-1.46810258073
1385577501538242079,0.0290832102904,-0.246135482386,-0.194245714627,-0.0179396349866,-0.0776692629847,-1.46799131457
1385577501548249294,0.0283974606114,-0.246986457277,-0.198210100556,-0.0175093117767,-0.0794486212109,-1.46715104165
1385577501558119273,0.0276666721659,-0.247647957695,-0.202219736764,-0.0175360676625,-0.0778542242733,-1.46639898819
1385577501568133467,0.026905088379,-0.248574827072,-0.206216541945,-0.0180241805175,-0.0780790815793,-1.46561349989
1385577501578233614,0.0262262182701,-0.249430187373,-0.210572071736,-0.0174160575066,-0.0780967849494,-1.46484527125
1385577501588179437,0.0255238232595,-0.25054629265,-0.214741663785,-0.0178227200567,-0.0767911108139,-1.46422139324
1385577501598871514,0.0247364000242,-0.251736590055,-0.2189461206,-0.0172966520011,-0.077074828191,-1.4633367246
1385577501608206741,0.024192295114,-0.25295129938,-0.223157153917,-0.0177752250142,-0.0764670476458,-1.4624630988
1385577501618183433,0.0234589934901,-0.254226922275,-0.227470902886,-0.0185257487984,-0.0760035521747,-1.46122242154
1385577501628169946,0.0229978264694,-0.255614151005,-0.231796666035,-0.0177260011919,-0.0735854098915,-1.46061737452
1385577501638172531,0.022242361054,-0.25706927027,-0.236114191341,-0.0171284776329,-0.0725612470742,-1.45935546933
1385577501648202352,0.0216724440141,-0.258643793081,-0.240477868727,-0.0167675034029,-0.0730615293237,-1.45795314284
1385577501658266275,0.0211806910294,-0.26033189213,-0.245023512289,-0.0166836240635,-0.0711903898885,-1.45747179846
1385577501668228686,0.0206342953111,-0.262052265682,-0.249411873509,-0.0158638299065,-0.0715209816647,-1.4564197051
1385577501678214227,0.0198587237471,-0.263811192958,-0.25397178756,-0.0151638469465,-0.0713352210565,-1.45555780382
1385577501688174800,0.0192607334308,-0.265679731001,-0.258586987067,-0.0148576200759,-0.071177143611,-1.45550809256
1385577501699167488,0.0187717355108,-0.26769528391,-0.263282102693,-0.0142547352474,-0.0713668768597,-1.45489623347
1385577501708308668,0.0181694976325,-0.269647106455,-0.267666769324,-0.0148890677195,-0.0710464953734,-1.45419731279
1385577501718203625,0.0176009706577,-0.271808920111,-0.272501458172,-0.0135584160344,-0.0700317364401,-1.45350463866
1385577501728175719,0.0170497675565,-0.274003244857,-0.277195104023,-0.0138511590346,-0.0707045110733,-1.45269035878
1385577501738277249,0.0166390308017,-0.276383160835,-0.282085833872,-0.0136286608779,-0.0694749557036,-1.45286460936
1385577501748248696,0.0161357744259,-0.278623532447,-0.286691680959,-0.0133079530677,-0.0685882200135,-1.45162154988
1385577501758201152,0.0156240771425,-0.281095630262,-0.291561321616,-0.0128111925574,-0.0684247672843,-1.45082031048
1385577501768229716,0.0152171314189,-0.283425681806,-0.296336506839,-0.012646974604,-0.0664553661873,-1.4497919451
1385577501778217115,0.0146488408321,-0.286097610346,-0.301271222976,-0.0119926759196,-0.0680065297719,-1.44880334163
1385577501788161124,0.0143773228507,-0.28864707954,-0.306150500949,-0.0113776709544,-0.0665048473506,-1.44796484393
1385577501798189385,0.0139615829742,-0.291423398678,-0.310940633137,-0.0114564858998,-0.0660852269127,-1.44745809545
1385577501808156655,0.0135832139559,-0.294230810493,-0.315812696108,-0.0113246955274,-0.0656264689765,-1.44705922943
1385577501818297627,0.0131810767724,-0.296991434062,-0.320860482139,-0.0103325940934,-0.0643240447862,-1.44658870383
1385577501828184632,0.0129872529847,-0.29991646171,-0.325783928138,-0.0100009789399,-0.0630126199088,-1.44623844693
1385577501838196110,0.0125395879084,-0.302845213541,-0.330783450161,-0.00896463898969,-0.0633566404554,-1.44517166379
1385577501848279920,0.0123069475429,-0.305931695654,-0.335754560461,-0.00890480082782,-0.0610439061774,-1.44486036211
1385577501858307692,0.0121355803441,-0.30899714219,-0.340926871304,-0.00816714184167,-0.0616825900178,-1.44387207159
1385577501868241565,0.0118010487366,-0.312190524961,-0.345958782085,-0.00751092115979,-0.0624622018206,-1.4426854835
1385577501878212999,0.0116327987471,-0.315401521043,-0.350907429663,-0.0076603911508,-0.0626761806606,-1.44239002693
1385577501888226309,0.0114566520327,-0.318683207511,-0.356197399266,-0.0059597028201,-0.0632578311309,-1.4417580372
1385577501898247601,0.0113559031227,-0.322076890191,-0.361190091552,-0.00566912371559,-0.0624759990341,-1.44175225286
1385577501908312269,0.0110966633979,-0.325440228985,-0.366269155083,-0.00440750902944,-0.0642743522898,-1.44156906553
1385577501918240840,0.0111054592844,-0.328955568603,-0.371527668219,-0.00348245241293,-0.0656534441429,-1.44069686523
1385577501928183039,0.01105396176,-0.33242983042,-0.376696820914,-0.00240470020368,-0.0659670312729,-1.44020379956
1385577501938156181,0.0109479710282,-0.33605171339,-0.382024988729,-0.00192753322433,-0.0654424718229,-1.43966335706
1385577501948196148,0.0109148539096,-0.33972603169,-0.387338955491,-0.00243176363022,-0.0656005257042,-1.43889770287
1385577501958202604,0.0108777050915,-0.343443134332,-0.392901522732,-0.00275164483762,-0.0639232681128,-1.4392076033
1385577501968134794,0.0109698237827,-0.347148844781,-0.398324709541,-0.00346380025377,-0.063798113458,-1.43888096989
1385577501978196145,0.0109839957442,-0.350934902622,-0.40382771604,-0.0025212312327,-0.0628233214277,-1.43812395278
1385577501988160212,0.0108750543534,-0.354743379382,-0.409051915211,-0.00199068601087,-0.0625319353117,-1.43834107075
1385577501998127851,0.0109954072067,-0.358580542693,-0.414132110055,-0.00146998356091,-0.0615885302518,-1.43773216093
1385577502008172207,0.0111695172124,-0.362606589667,-0.419109662226,-0.00100325684069,-0.0598009634784,-1.43753519407
1385577502018249971,0.0112339023559,-0.366493165455,-0.423790257844,-0.00190880130871,-0.0579801610103,-1.43699176763
1385577502028187352,0.0112843291346,-0.370366355311,-0.428335346723,-0.0017785076121,-0.0577952979633,-1.43639693846
1385577502038215777,0.0115729003132,-0.374512512524,-0.43283145891,-0.0015202394854,-0.0567602494213,-1.43611102078
1385577502048250304,0.0116026354015,-0.378584469155,-0.437184694617,-0.000747636549781,-0.0566881825235,-1.43515921354
1385577502058271297,0.0116548068872,-0.382749049245,-0.441421478473,-0.00108755965513,-0.0554991734178,-1.43540186027
1385577502068180751,0.011892129685,-0.386883176,-0.445184949521,-0.00258622497498,-0.0559325760281,-1.43461944385
1385577502078243535,0.0119471746161,-0.391075963626,-0.449022305659,-0.00247125082899,-0.0547690160315,-1.43464446949
1385577502088189431,0.0123075579943,-0.395424154307,-0.452733084689,-0.00348682053524,-0.0544588272573,-1.43417828864
1385577502098224642,0.0123307049485,-0.399546613583,-0.456193943815,-0.00388645397573,-0.0546052023124,-1.43395045372
1385577502108235159,0.0126069649353,-0.40377572867,-0.459396802976,-0.0041462351324,-0.0547428105935,-1.43306669353
1385577502118211109,0.0127917755751,-0.408209142416,-0.462637917546,-0.00581694206518,-0.053352212148,-1.43330172846
1385577502128187022,0.0130552224455,-0.41252442953,-0.465583016753,-0.00641568405876,-0.0528095727413,-1.43340019697
1385577502138340204,0.0131971411958,-0.416892776449,-0.468302003669,-0.00714041577381,-0.0532297054094,-1.43217459044
1385577502148234569,0.0133313950821,-0.42132358681,-0.47110169729,-0.00767704172625,-0.0525062153651,-1.43243352988
1385577502158263741,0.0137049427744,-0.425916292678,-0.473628152781,-0.00855889492365,-0.0502625209073,-1.43162485792
1385577502168242753,0.0140554957862,-0.430370481941,-0.47584867611,-0.00891994204229,-0.0521403361079,-1.43088041068
1385577502178252526,0.014232098483,-0.435027007716,-0.478048089573,-0.00953272592764,-0.051168932728,-1.43076493485
1385577502188193019,0.0146066678393,-0.43959608471,-0.48012804805,-0.0108449766586,-0.049654595493,-1.43059007296
1385577502198146733,0.0147669189135,-0.444204452418,-0.482109267174,-0.0119745066205,-0.0487333747091,-1.43031986487
1385577502208202179,0.0151521677417,-0.448861540808,-0.483778123317,-0.0121378806744,-0.0490339400316,-1.42891368603
1385577502218231188,0.0152294380533,-0.453342229164,-0.4853440562,-0.0130794171179,-0.0460822362652,-1.42946520239
1385577502228230879,0.0155222787166,-0.458082710387,-0.486900918304,-0.0145887504293,-0.0453223039464,-1.42923644748
1385577502238206839,0.0157880180915,-0.462799271698,-0.488263222969,-0.0156336104329,-0.044393821633,-1.42890952059
1385577502248192465,0.0161139502143,-0.467432141185,-0.489374844739,-0.0166979473245,-0.0417551614558,-1.42914827565
1385577502258198188,0.0163397290018,-0.472243432504,-0.490551282643,-0.0183702448649,-0.0392229202987,-1.42917965948
1385577502268156840,0.0164168615908,-0.477072244037,-0.491704164225,-0.0205562130574,-0.0381904686779,-1.42882365364
1385577502278258257,0.0167168613572,-0.481838988287,-0.492422564849,-0.0210271497227,-0.0367976089129,-1.42900071511
1385577502288250911,0.0169223614746,-0.486646342833,-0.493290512839,-0.0219092681851,-0.0337100240156,-1.42853745142
1385577502298276553,0.0174651858271,-0.491208968459,-0.493802582663,-0.0222897931735,-0.0340577417022,-1.42767067127
1385577502308207357,0.0175005975724,-0.496178185807,-0.494214481095,-0.0232541991715,-0.0321222725155,-1.42759210912
1385577502318344960,0.0178846433855,-0.500991537198,-0.494636713578,-0.0232139778596,-0.0297396827293,-1.42866269369
1385577502328256267,0.0183056163429,-0.505847758198,-0.494790206589,-0.0228221327207,-0.0294415255699,-1.42749370993
1385577502338229602,0.0184908688536,-0.510535090847,-0.494924813176,-0.0230330572695,-0.0282877375592,-1.42862240398
1385577502348280191,0.0187436075704,-0.515534698417,-0.494957228351,-0.0228405682849,-0.0271396660988,-1.42842993121
1385577502358209288,0.0190122900652,-0.520361998463,-0.49472801704,-0.0233112664044,-0.0257340222149,-1.42971233335
1385577502368299826,0.0193847780988,-0.525334546961,-0.494488615884,-0.0228958163822,-0.0256356683981,-1.42863615809
1385577502378202088,0.0196009961403,-0.530249996973,-0.494235821412,-0.0220460714339,-0.0254016206088,-1.42769222897
1385577502388161712,0.0200586722365,-0.53524705676,-0.493860451366,-0.0225583794751,-0.0241613515315,-1.42856003084
1385577502398200319,0.0201062085478,-0.540071059487,-0.493453323441,-0.0220644829238,-0.0226408762239,-1.42896243859
1385577502408204537,0.0204004668641,-0.545270366698,-0.492702062056,-0.0230420566618,-0.0218888389029,-1.42902893397
1385577502418181588,0.0205796874395,-0.550146863595,-0.491871236648,-0.0222300598135,-0.0226288281666,-1.42852218909
1385577502428231662,0.0210145617767,-0.55513275228,-0.491200799876,-0.0222540671924,-0.0221224066466,-1.42873886047
1385577502438238002,0.0213374334805,-0.560079097969,-0.490111769689,-0.0217496615063,-0.0204187065226,-1.4291080519
1385577502448188272,0.0215851765893,-0.565151482365,-0.489153824399,-0.0217843101065,-0.0206124642756,-1.42880933757
1385577502458191888,0.0217951297081,-0.570065823423,-0.488245292751,-0.0213683988119,-0.0204499511943,-1.42926025329
1385577502468158684,0.022005959317,-0.575093070851,-0.487056436594,-0.0217835281213,-0.0199856917527,-1.42912168451
1385577502478154211,0.0221653016309,-0.58023418926,-0.485861325689,-0.0218682244809,-0.0207496152989,-1.4291614223
1385577502488175782,0.0223656123228,-0.585240764326,-0.484675866709,-0.0221134542851,-0.020020287144,-1.42932746012
1385577502498227362,0.0227067795859,-0.590086521212,-0.48354077642,-0.0223407683746,-0.0194501622841,-1.42971526
1385577502508164099,0.0227912767897,-0.595357447402,-0.482088130004,-0.0226966516406,-0.0195833610718,-1.42980513039
1385577502518128926,0.0229659811955,-0.600569549191,-0.480731931203,-0.0230897894337,-0.0190783949422,-1.43000355038
1385577502528218580,0.0232278236364,-0.605425188489,-0.479388154869,-0.0221012219045,-0.0193013302326,-1.43029319275
1385577502538248757,0.023453815494,-0.610484131967,-0.477693460565,-0.0228419619749,-0.0194385961385,-1.42995490774
1385577502548325207,0.0235442308139,-0.61569993659,-0.476244620206,-0.0230806550544,-0.0206789206752,-1.43122635536
1385577502558172620,0.0238009924772,-0.620878195314,-0.474519954928,-0.0223859801677,-0.0203442556608,-1.42998638347
1385577502568172603,0.0239063915703,-0.625994541033,-0.47291762174,-0.0221898355076,-0.0207886043783,-1.43008683877
1385577502578394507,0.0242368716496,-0.630982690449,-0.471256659054,-0.0219071147098,-0.0193404791779,-1.43015404201
1385577502588191388,0.0242124334055,-0.636378660624,-0.469539747973,-0.0230972170762,-0.0226325140084,-1.43024341883
1385577502598235537,0.0244010625234,-0.641402256885,-0.46765563185,-0.0220171931075,-0.0219244427927,-1.42992027573
1385577502608179349,0.0244853464527,-0.646435662369,-0.465825235944,-0.0220470577606,-0.0209875000107,-1.43014000196
1385577502618498687,0.0246455896635,-0.651813966125,-0.463974806209,-0.0215575936641,-0.0213234655097,-1.43060647658
1385577502628201100,0.0248545557694,-0.656843391244,-0.461946490227,-0.0203869710202,-0.021863265174,-1.42988735646
1385577502638225557,0.024926313613,-0.661900141551,-0.459985146078,-0.0202462447208,-0.0215216312774,-1.43074283608
1385577502648263287,0.0251953226238,-0.667068357088,-0.458179741355,-0.0198291428052,-0.021556155324,-1.43051322194
1385577502658221441,0.0251994108377,-0.67245023441,-0.456004911815,-0.0202685543317,-0.0215433027417,-1.43043935662
1385577502668164037,0.0255189505613,-0.677386083187,-0.454089742027,-0.0195467009768,-0.021997273487,-1.43051379882
1385577502678235758,0.025578287766,-0.68282002254,-0.45201392325,-0.0195629185628,-0.0222526263643,-1.43028347683
1385577502688178448,0.0258513057497,-0.687685340105,-0.450092171099,-0.019131586348,-0.0224557685898,-1.43025061255
1385577502698246935,0.0258474644543,-0.693174826384,-0.447885728646,-0.0194895221018,-0.0230352990774,-1.43105495399
1385577502708188341,0.0259950411038,-0.698331382385,-0.445991032196,-0.0201655965454,-0.0239290772836,-1.43090177781
1385577502718205733,0.0261404918839,-0.70359218566,-0.443828632702,-0.019232347567,-0.0226912386548,-1.43111869712
1385577502728155042,0.0262847169475,-0.708727672328,-0.441835270682,-0.019171203648,-0.0219471333703,-1.42977512215
1385577502738172047,0.0263995497784,-0.714047985994,-0.439729898264,-0.0198004527546,-0.020954401885,-1.43064220288
1385577502748245434,0.0264682678611,-0.718991333074,-0.437903781152,-0.0206354596079,-0.0198816742527,-1.43169211655
1385577502758300044,0.0265111106153,-0.724418849368,-0.43584100699,-0.0211618648074,-0.0192930371391,-1.43188840877
1385577502768216055,0.0264111912931,-0.729682187497,-0.433804564586,-0.0221062095944,-0.0159440457187,-1.433671523
1385577502778452243,0.0266670494098,-0.734686828824,-0.431929224762,-0.0214084613582,-0.014749837026,-1.43240106058
1385577502788222968,0.0267777905366,-0.739861389726,-0.430043501407,-0.0224409368179,-0.0126467500708,-1.43271983461
1385577502798184473,0.0267591232393,-0.7449237564,-0.428108297008,-0.0225893593735,-0.0116211420861,-1.43216242806
1385577502808200195,0.0269041608714,-0.750227008385,-0.42620660123,-0.0237919196157,-0.00865439039522,-1.43300760653
1385577502818291175,0.026814919803,-0.755413791623,-0.424327872396,-0.0256397871331,-0.00547472831343,-1.43472070945
1385577502828210405,0.0269094862655,-0.76051167342,-0.422350193677,-0.0254755759232,-0.00436581303323,-1.43314992045
1385577502838202260,0.0269149914669,-0.7657336865,-0.420682848505,-0.0267964674867,-0.00157441072411,-1.4341998746
1385577502848164742,0.026811112476,-0.770873901263,-0.41880056581,-0.0282604710391,0.00230104014061,-1.43545801865
1385577502858267294,0.0268450696815,-0.77606498059,-0.417022556944,-0.0286198756838,0.00304391929033,-1.43420413606
1385577502868208439,0.0268466863109,-0.781226730659,-0.415045101622,-0.0299231808666,0.00448664852489,-1.43350718042
1385577502878243873,0.0268086377587,-0.786312936332,-0.413515631313,-0.0296160776301,0.00741602037835,-1.43458086265
1385577502888254564,0.0268074742627,-0.791409611751,-0.411822312764,-0.029525423,0.00886084142285,-1.43517805122
1385577502898236240,0.0267976719495,-0.796606427793,-0.410156462342,-0.0304051725655,0.00948968399463,-1.4347117488
1385577502908241859,0.026668928418,-0.801625071747,-0.408429504622,-0.0306932194513,0.0093221330072,-1.43548631104
1385577502918248422,0.0266155551429,-0.806616115521,-0.406770241772,-0.031026147933,0.0109112386138,-1.43605685644
1385577502928209367,0.0264889624605,-0.811459560318,-0.405186885178,-0.0312248475495,0.0115882138486,-1.43682609443
1385577502938244737,0.026339513691,-0.816725016231,-0.403743901709,-0.0307792122441,0.0119743379267,-1.4363775969
1385577502948308202,0.0261631892582,-0.821556189355,-0.402073809822,-0.0312284643159,0.0133664094587,-1.4356049981
1385577502958182538,0.0260136286743,-0.826357717072,-0.400840381812,-0.0308509266936,0.0145917270314,-1.4367040276
1385577502968183979,0.0260275513676,-0.831561263256,-0.399478394144,-0.0305842900398,0.0152167421333,-1.43662076351
1385577502978318325,0.0257667170606,-0.836362669373,-0.397920235121,-0.0309934003772,0.0167844504338,-1.43716406915
1385577502988214586,0.0257490231841,-0.841099729507,-0.396763017228,-0.0303899988468,0.0184463137319,-1.43762252239
1385577502998170059,0.0253598804706,-0.845989804781,-0.395442136286,-0.0305485590233,0.0197705893161,-1.43798706285
1385577503008218155,0.0251730654929,-0.850657691636,-0.394194709905,-0.0304805660161,0.0217153254881,-1.43758247027
1385577503018240910,0.0249068044003,-0.855318285703,-0.392969736713,-0.0309278160005,0.0231226131091,-1.43762946499
1385577503028190223,0.0245327157935,-0.859843398244,-0.39170227797,-0.0307895766076,0.0251096849314,-1.43877997354
1385577503038200891,0.0241405442635,-0.864629712287,-0.390680119261,-0.0310892522736,0.0280697938538,-1.43808431304
1385577503048268332,0.0238411724253,-0.869443106813,-0.38965842138,-0.0320267910843,0.0293457949865,-1.43901222349
1385577503058315042,0.0235693117228,-0.873824492271,-0.38849899026,-0.0317991821005,0.0317446543441,-1.43877196524
1385577503068199937,0.0232618476722,-0.878524188222,-0.387605619466,-0.0319158217141,0.0321477437963,-1.43942899218
1385577503078296057,0.022797333741,-0.882685240823,-0.386593831517,-0.0317313395794,0.0332776705006,-1.44019429688
1385577503088203935,0.0223454873106,-0.887252519123,-0.385798805581,-0.0322087498499,0.0346911198909,-1.44059231734
1385577503098197193,0.0219146715156,-0.891935272878,-0.385074782004,-0.0319979261653,0.0364456025271,-1.43959368224
1385577503108218597,0.0215136347347,-0.896227591902,-0.38427336987,-0.0317030490255,0.0372090865675,-1.43923397843
1385577503118237582,0.0210945922765,-0.900719562972,-0.383601441694,-0.032065980559,0.0381321618617,-1.43993868935
1385577503128151697,0.0204037837332,-0.905030596179,-0.382829512812,-0.0329374573187,0.039354735643,-1.43994042032
1385577503138371004,0.0200060985536,-0.909292368055,-0.382064878055,-0.0341332311402,0.0392399253913,-1.44028978199
1385577503148211710,0.0194897177141,-0.913389441542,-0.381415995183,-0.0337334689416,0.0386257918243,-1.43957856459
1385577503158291193,0.0189521633964,-0.917704003473,-0.380944844833,-0.0333597233861,0.039481745447,-1.43946903749
1385577503168261263,0.0182768681294,-0.921837689911,-0.380154286269,-0.0343924147016,0.0387549980724,-1.43983104616
1385577503178231039,0.0177780362398,-0.925959696087,-0.379562909311,-0.0343408168714,0.0376770497869,-1.43946396561
1385577503188175638,0.0171771214477,-0.930096257113,-0.378964111285,-0.0340870101005,0.0377435408976,-1.44020334389
1385577503198186294,0.0166766011298,-0.934028819645,-0.378579532398,-0.033924636418,0.0373342536397,-1.43993951717
1385577503208217594,0.0160182214925,-0.938058966669,-0.378054935884,-0.034169325746,0.0371648640285,-1.4403656816
1385577503218180562,0.0153207485641,-0.942004402031,-0.377593533341,-0.0343024002229,0.0371772087314,-1.44123879403
1385577503228192293,0.0146924077066,-0.94591017285,-0.37723354053,-0.0337292763737,0.0389609374498,-1.44101476169
1385577503238164671,0.0139158270065,-0.949557656473,-0.376732589473,-0.0338545663679,0.0398416362011,-1.4424154354
1385577503248161899,0.0132045051082,-0.953340878751,-0.376311440544,-0.0333078558551,0.0399510272595,-1.4423576264
1385577503258227587,0.0124954905937,-0.957281292023,-0.376023160619,-0.0321362967427,0.0425089292902,-1.44160781105
1385577503268175418,0.0117630663998,-0.960971944788,-0.375449721986,-0.032219133442,0.0424810979598,-1.44231925103
1385577503278208684,0.0110685062061,-0.964591998904,-0.375233981127,-0.0311816551098,0.0454609355318,-1.44193870641
1385577503288174788,0.0101779640453,-0.968183328735,-0.374822868002,-0.0310525805367,0.0489740794367,-1.44250224347
1385577503298197995,0.00943594007794,-0.971353189803,-0.374507066536,-0.0308021970242,0.0495811470113,-1.44403775166
1385577503308179083,0.0086370234168,-0.97513414025,-0.374069453083,-0.030651535322,0.0524319264609,-1.44315001276
1385577503318195597,0.00767096394421,-0.978557868763,-0.373831732961,-0.0301783631404,0.056075228938,-1.44402024274
1385577503328370877,0.00684464369902,-0.981856452534,-0.37341152688,-0.0311003653706,0.0578010907663,-1.44396446703
1385577503338246910,0.00569680030273,-0.985097551146,-0.373132148355,-0.0312708465488,0.0611072644028,-1.4443810789
1385577503348208429,0.00482797105235,-0.988445264786,-0.373085976441,-0.0313983981188,0.063667484755,-1.44460615704
1385577503358224510,0.00389026725656,-0.991566668599,-0.372755484647,-0.0318171046193,0.0648964889827,-1.44421455032
1385577503368262650,0.00298385645341,-0.994318762629,-0.372500598847,-0.0320422510368,0.0673099816632,-1.44590444234
1385577503378227475,0.00206161956389,-0.99763010479,-0.372430872474,-0.03262520398,0.0694242944021,-1.44503103533
1385577503388195469,0.000914780818831,-1.00060095097,-0.37208783505,-0.0332883470887,0.0711796354164,-1.44563236571
1385577503398216961,-0.000236308907991,-1.00348149673,-0.372032737171,-0.0342989966976,0.0733374848169,-1.44570751875
1385577503408181539,-0.00126927127944,-1.0063058266,-0.371923437281,-0.0348186603354,0.0749462406093,-1.44585747963
1385577503418238516,-0.00238848758198,-1.00872886217,-0.371842005295,-0.0353758416942,0.0760526696771,-1.44713564557
1385577503428169717,-0.00360070865859,-1.01174499016,-0.371853156527,-0.0357196768817,0.0772402228327,-1.4463071585
1385577503438199281,-0.00473387109062,-1.01434217101,-0.371922255366,-0.0366012288943,0.079499320347,-1.44623249367
1385577503448166616,-0.00598939909696,-1.01650297961,-0.371899632045,-0.0363615495728,0.0812211875335,-1.44762931283
1385577503458190377,-0.00716577141635,-1.01929120795,-0.372099312677,-0.0359414228655,0.0840575379397,-1.44712124861
1385577503468205655,-0.00835036435658,-1.02155471734,-0.372233803059,-0.035603478088,0.085587962306,-1.4471660153
1385577503478157976,-0.00982171821104,-1.02352254756,-0.372359779494,-0.0368867143594,0.0881942352885,-1.44880621547
1385577503488163217,-0.0110245181228,-1.02599889634,-0.372530230031,-0.0373376674757,0.0892370211939,-1.44763948723
