%time,field.linear.x,field.linear.y,field.linear.z,field.angular.x,field.angular.y,field.angular.z
1385572440667891700,-0.0,0.0,0.0,1.0,0.0,0.0
1385572440707777088,-0.0,0.0,6.95652813555e-08,1.0,0.0,0.104487072798
1385572440756836309,-0.0321768014994,0.0252075572966,-0.00997537794635,1.0,0.0,0.00321526466348
1385572440806911352,-0.0256417900436,0.0201043009855,-0.0118238411881,1.0,0.0,0.0433891038312
1385572440856921552,-0.0321082223234,0.0251782429547,-0.0121310974934,1.0,0.0,0.0211117526979
1385572440906817634,-0.0325157729415,0.0255091698081,-0.0120071037757,1.0,0.0,0.0268644119529
1385572440956886903,-0.0340645751372,0.0267350940913,-0.0116445972962,1.0,0.0,0.0204636525737
1385572441006804209,-0.0342166000556,0.0268725072493,-0.0110898999722,1.0,0.0,0.0197329044943
1385572441056778969,-0.034018357792,0.0267335806966,-0.0103584296391,1.0,0.0,0.0167383540951
1385572441107001883,-0.0332095763261,0.0261089376091,-0.00946457311963,1.0,0.0,0.0149941809195
1385572441156954268,-0.0319675021286,0.0251571819644,-0.008417704278,1.0,0.0,0.01291232685
1385572441206765702,-0.0303338533945,0.023882553155,-0.00722905035354,1.0,0.0,0.0112116457276
1385572441256847529,-0.0283807479062,0.0223718195206,-0.00591026137823,1.0,0.0,0.00976148872175
1385572441307810113,-0.0262112355694,0.0206049087311,-0.00448826540865,1.0,0.0,0.00845354977763
1385572441356840013,-0.0238396701921,0.0187876635715,-0.00294138280341,1.0,0.0,0.0073205478295
1385572441407833188,-0.0213618564094,0.0169078906382,-0.00127074616862,1.0,0.0,0.00628372570266
1385572441456904821,-0.0189120955523,0.014886943849,0.000439472175303,1.0,0.0,0.0054337844306
1385572441507013911,-0.0163871641325,0.013027756063,0.00226355284402,1.0,0.0,0.00464627030169
1385572441557008376,-0.01404340784,0.0110466874565,0.00413314204982,1.0,0.0,0.0040006135072
1385572441607040759,-0.0117375071649,0.00930727730376,0.00609275490214,1.0,0.0,0.00337603442221
1385572441658011418,-0.00955431709546,0.00767444700644,0.0081380166363,1.0,0.0,0.00287694858402
1385572441706876461,-0.00765485517248,0.00604723957407,0.0102135855552,1.0,0.0,0.0024311092657
1385572441756978681,-0.00581673062487,0.00475906034058,0.012372711627,1.0,0.0,0.00203748146202
1385572441806816814,-0.00425095491323,0.00354465918285,0.0145713711024,1.0,0.0,0.00165593539337
1385572441856962497,-0.0029793468186,0.00240830692834,0.0167974542789,1.0,0.0,0.00139815582681
1385572441906987504,-0.00177072729327,0.00161579557757,0.0190990045422,1.0,0.0,0.00109161199665
1385572441956808444,-0.000990503139758,0.000815859698085,0.0214012476039,1.0,0.0,0.000907218664044
1385572442006845846,-0.000236194506649,0.000281236433644,0.023772569205,1.0,0.0,0.00069189371641
1385572442056849296,0.000243854477562,-0.000138594633536,0.0261738179813,1.0,0.0,0.000517570859823
1385572442107747361,0.00056467323076,-0.000350631105698,0.0286067132598,1.0,0.0,0.000346060010379
1385572442156958618,0.000696682280471,-0.000443899409748,0.0310533992505,1.0,0.0,0.000218473687784
1385572442207963347,0.000674985055581,-0.00045391843918,0.0335512849312,1.0,0.0,0.000113036802397
1385572442257964332,0.00054060527041,-0.000402219144582,0.0360767838361,1.0,0.0,3.44295832107e-05
1385572442306871048,0.00027013505314,-0.000127907994397,0.0386176833948,1.0,0.0,-9.150868624e-05
1385572442356833293,-9.94625633372e-05,0.00019089390798,0.0411709565802,1.0,0.0,-0.000152263326507
1385572442406811129,-0.000539372651829,0.000476139066313,0.0437629026256,1.0,0.0,-0.000223759447717
1385572442457020396,-0.00101522521102,0.000866119701974,0.0463719309602,1.0,0.0,-0.000285730556622
1385572442506988425,-0.00142194024853,0.00133121288801,0.0490164683636,1.0,0.0,-0.000345592954056
1385572442557002546,-0.00213675415519,0.0017232088453,0.0516338691738,1.0,0.0,-0.000380250755875
1385572442607017577,-0.00251406456291,0.00235258876454,0.0542956577024,1.0,0.0,-0.000435857353856
1385572442656856309,-0.00324502011636,0.00256119365204,0.0569534600776,1.0,0.0,-0.000464031462038
1385572442706874419,-0.00373625647733,0.00307401228525,0.0596309852918,1.0,0.0,-0.000511510155811
1385572442756845969,-0.00412256613552,0.0035934752861,0.0623370962994,1.0,0.0,-0.000570789729934
1385572442806832677,-0.00459211236567,0.00393171747986,0.0650516048417,1.0,0.0,-0.000603308423713
1385572442856800444,-0.00518358919368,0.00413217026647,0.0677520173721,1.0,0.0,-0.000705589463222
1385572442906860584,-0.00545898800776,0.00465384720867,0.0704612201494,1.0,0.0,-0.000843492520328
1385572442957868178,-0.00579748340677,0.00483181564491,0.0731862253967,1.0,0.0,-0.00107311155812
1385572443007772980,-0.00595137035236,0.00520214981947,0.0759153880449,1.0,0.0,-0.00112341656705
1385572443057092326,-0.00615547249768,0.00554939352555,0.0786442157842,1.0,0.0,-0.00129823006824
1385572443106833333,-0.00598205878672,0.00584982587579,0.0814000342715,1.0,0.0,-0.0016259228581
1385572443156754708,-0.0060845675115,0.00598645038887,0.0841744475792,1.0,0.0,-0.00188250430581
1385572443207511596,-0.00644700222942,0.00584895903701,0.0868934632352,1.0,0.0,-0.00218864814612
1385572443257593168,-0.00593249956546,0.00593427023264,0.089707576719,1.0,0.0,-0.00253666220953
1385572443307785732,-0.0059573594543,0.00639750389048,0.0924337689853,1.0,0.0,-0.00287849842898
1385572443357507034,-0.00538335593337,0.0061336048916,0.0952592102563,1.0,0.0,-0.00321548493479
1385572443407859844,-0.00510382676391,0.00653702317739,0.0980204985757,1.0,0.0,-0.00364854459716
1385572443456510044,-0.00458383527508,0.0060027744795,0.100819623888,1.0,0.0,-0.00413163097981
1385572443507101925,-0.00431046348954,0.0064353077621,0.10354259413,1.0,0.0,-0.00482320934246
1385572443556959948,-0.00456402160328,0.00545556803841,0.10620400138,1.0,0.0,-0.0055102683524
1385572443607398569,-0.00465395966607,0.00598794444811,0.108725935054,1.0,0.0,-0.00616581494004
1385572443657220914,-0.00385963064609,0.00620493290103,0.111145004469,1.0,0.0,-0.00693722852881
1385572443707745237,-0.00352816017687,0.00668916098213,0.113315667181,1.0,0.0,-0.00759534607066
1385572443757202584,-0.00350273857035,0.00768935538525,0.115078214821,1.0,0.0,-0.00816768257392
1385572443807466537,-0.00377226578986,0.00857518081345,0.116340546384,1.0,0.0,-0.00865666384983
1385572443856632206,-0.00527472363281,0.00975513265365,0.117058395002,1.0,0.0,-0.00886725425038
1385572443907856802,-0.0061616572378,0.0112783380613,0.117306930461,1.0,0.0,-0.00909050733281
1385572443956429949,-0.00707594076759,0.0120427497348,0.117217036387,1.0,0.0,-0.00938898508596
1385572444006447815,-0.00700209338692,0.0135402490895,0.116754507524,1.0,0.0,-0.00942606213367
1385572444056636879,-0.00831166059985,0.0146724259233,0.115893680767,1.0,0.0,-0.00964369137122
1385572444107435232,-0.00885799128101,0.0167470684181,0.114705896262,1.0,0.0,-0.0097618754293
1385572444156707413,-0.00955984439538,0.0174121766165,0.113356495298,1.0,0.0,-0.00993170329256
1385572444206661366,-0.0103856517106,0.0181088054907,0.111816198209,1.0,0.0,-0.00993598067657
1385572444257123571,-0.0117794888475,0.0188175985628,0.110035574418,1.0,0.0,-0.00983920152831
1385572444306697835,-0.0138212043982,0.0202086523211,0.107940474078,1.0,0.0,-0.009856529888
1385572444357785585,-0.0164523545007,0.0219128476475,0.105465183815,1.0,0.0,-0.00970661386114
1385572444406782780,-0.0199988545229,0.0235062631217,0.102600969934,1.0,0.0,-0.00969178360997
1385572444457655555,-0.0233464125458,0.0242835234993,0.0999669585359,1.0,0.0,-0.00952213969388
1385572444507644592,-0.0266995844806,0.0254817087415,0.0976156206575,1.0,0.0,-0.00936992415957
1385572444556608813,-0.030101488427,0.026544369067,0.0956239368003,1.0,0.0,-0.00920783817384
1385572444606637078,-0.033395338277,0.027471125744,0.0940925116056,1.0,0.0,-0.00902209863231
1385572444657636357,-0.0369853312887,0.0285504277966,0.0930004999416,1.0,0.0,-0.00885125635333
1385572444706798277,-0.0403778096626,0.0297229957703,0.0923799723831,1.0,0.0,-0.00862552093095
1385572444757592151,-0.0435666321824,0.0307295495521,0.0922942721922,1.0,0.0,-0.00843417728773
1385572444806616056,-0.0467355400774,0.0313063114179,0.0927898749692,1.0,0.0,-0.00817464493311
1385572444856791669,-0.0498003247626,0.0319156016137,0.0937505015664,1.0,0.0,-0.00792094858455
1385572444907632176,-0.0527850512709,0.0324430891355,0.0951314213593,1.0,0.0,-0.00763127264476
1385572444956590506,-0.0555023429658,0.0330966819522,0.0968832508101,1.0,0.0,-0.00734691094885
1385572445006676399,-0.058037292868,0.0335465422882,0.0989786804339,1.0,0.0,-0.00707506167751
1385572445056532595,-0.0604506254632,0.0339911418707,0.101358198731,1.0,0.0,-0.00674643043511
1385572445106624708,-0.0623096053868,0.034733862772,0.103964723963,1.0,0.0,-0.00645224614631
1385572445156606829,-0.0638950050184,0.0353658448603,0.106833108334,1.0,0.0,-0.00620525869954
1385572445206651401,-0.0654809614131,0.0355036860843,0.109901946331,1.0,0.0,-0.00592622093362
1385572445256651139,-0.0667917691538,0.0353937576494,0.113123041947,1.0,0.0,-0.00564665377196
1385572445306543554,-0.0671402457916,0.0353768376313,0.116529678337,1.0,0.0,-0.00540426831007
1385572445356638545,-0.067887153583,0.0353281822987,0.11989172645,1.0,0.0,-0.00511046926737
1385572445406747040,-0.0679571583551,0.0363173111822,0.123160077762,1.0,0.0,-0.00484776596239
1385572445456666987,-0.0680683999614,0.0370660128658,0.126317463634,1.0,0.0,-0.00467374198925
1385572445506745794,-0.0684913363916,0.0372149668982,0.129391090586,1.0,0.0,-0.00438441844803
1385572445556564850,-0.06848795345,0.037390624331,0.132405401388,1.0,0.0,-0.00418945175871
1385572445606614803,-0.0681991814437,0.03700257498,0.13541316391,1.0,0.0,-0.00394453155979
1385572445657747557,-0.0680197654097,0.0365296344296,0.138299428221,1.0,0.0,-0.00370083770711
1385572445707772082,-0.066636772649,0.0366018821925,0.141231951786,1.0,0.0,-0.00352261096934
1385572445756596584,-0.0655956597821,0.0367200354127,0.143260557395,1.0,0.0,-0.00327105877638
1385572445806585489,-0.064225920687,0.0371143861143,0.144743299044,1.0,0.0,-0.00302944094424
1385572445856682290,-0.0629401084514,0.0377940012315,0.145889033397,1.0,0.0,-0.00279645274507
1385572445906688250,-0.0618192336311,0.0378021366278,0.146848589152,1.0,0.0,-0.00257859820907
1385572445956716645,-0.0607628219977,0.0376265475622,0.147586681163,1.0,0.0,-0.00235756167449
1385572446006593771,-0.0587810501015,0.0370413533678,0.148365295387,1.0,0.0,-0.00216174237567
1385572446056642575,-0.0567502658056,0.0373812124433,0.148903046995,1.0,0.0,-0.00198114746955
1385572446107585292,-0.0547087335562,0.0376957455288,0.149206761433,1.0,0.0,-0.00181576245152
1385572446156703356,-0.0533682838366,0.0375048822182,0.149269078512,1.0,0.0,-0.00172084061714
1385572446206735043,-0.0523745348937,0.0371802774633,0.149052195001,1.0,0.0,-0.00156134578218
1385572446257569613,-0.0510765198696,0.0377206583035,0.148538321887,1.0,0.0,-0.00147863101521
1385572446306621810,-0.0501874191188,0.0374115456608,0.147870929103,1.0,0.0,-0.00133248102333
1385572446357949651,-0.0502365992405,0.0363126297693,0.146938601114,1.0,0.0,-0.00119831658421
1385572446406876635,-0.0479438084203,0.0374542653314,0.146177798135,1.0,0.0,-0.00114836880322
1385572446456551065,-0.0479424359851,0.0367934579991,0.145062838332,1.0,0.0,-0.000968321692891
1385572446507586621,-0.0470077125318,0.036607643978,0.143927874018,1.0,0.0,-0.000892524926087
1385572446556567050,-0.046131175173,0.0362090245428,0.142838289852,1.0,0.0,-0.000765644896548
1385572446607631513,-0.0451689532176,0.0357059751652,0.141741673098,1.0,0.0,-0.000752679626027
1385572446656570852,-0.044841501118,0.0349191836558,0.140541393666,1.0,0.0,-0.000694600570755
1385572446706583987,-0.0443601284652,0.0336862574819,0.13937855366,1.0,0.0,-0.00055727017054
1385572446757675223,-0.0439797996587,0.0330848313568,0.138081560714,1.0,0.0,-0.000527688703224
1385572446806658111,-0.0438349496861,0.0321430794633,0.136674827858,1.0,0.0,-0.000401029258378
1385572446856620941,-0.0437174783925,0.0317693264906,0.135149091964,1.0,0.0,-0.000442383620281
1385572446906687394,-0.0438826433892,0.0306458690467,0.133638253972,1.0,0.0,-0.000287077707566
1385572446956612256,-0.0438004218819,0.030159414873,0.132122620363,1.0,0.0,-0.000272175407055
1385572447007605340,-0.0437294345929,0.029649440815,0.130589929583,1.0,0.0,-0.000249344238162
1385572447056639186,-0.0438616437414,0.02916328494,0.129055893059,1.0,0.0,-0.000189921676022
1385572447106716347,-0.0441138241585,0.0282860014919,0.127578200135,1.0,0.0,-0.000153502584277
1385572447156871798,-0.0441387591371,0.0275523853748,0.126199966096,1.0,0.0,-0.000119132042991
1385572447206749801,-0.0442839253291,0.0267089229632,0.124824554449,1.0,0.0,-0.000111467115034
1385572447257585434,-0.0452201006104,0.0253087501535,0.123326847604,1.0,0.0,-0.000128281948596
1385572447306668989,-0.0444683069294,0.0253848118196,0.122118991876,1.0,0.0,-0.00016942531747
1385572447357579546,-0.0452337154258,0.0244884206694,0.120753917827,1.0,0.0,-0.000188974090294
1385572447407654540,-0.0455575378937,0.0239091094365,0.119317380188,1.0,0.0,-0.000169873685384
1385572447457761018,-0.0463042389813,0.0231344800212,0.1178575469,1.0,0.0,-0.000135248231484
1385572447506849782,-0.0465567160611,0.0226705952539,0.116472369336,1.0,0.0,-0.000168853935227
1385572447556722078,-0.0473589360301,0.021937651934,0.115062614748,1.0,0.0,-0.000107464956912
1385572447607560426,-0.0478392324135,0.0212327872319,0.113785178017,1.0,0.0,-9.92312377537e-05
1385572447656625432,-0.048485632133,0.0207126937301,0.112441006196,1.0,0.0,-4.3520975801e-05
1385572447707686213,-0.048847490735,0.0202036544813,0.111179699382,1.0,0.0,-2.35949477179e-05
1385572447756573499,-0.0492658029066,0.0200502850777,0.109834307818,1.0,0.0,4.36142134193e-05
1385572447806540762,-0.049663353175,0.0196027027528,0.108561037938,1.0,0.0,5.75607879136e-05
1385572447856674405,-0.0500498350443,0.0196609507401,0.107178303094,1.0,0.0,5.85051998844e-05
1385572447906624605,-0.051152449318,0.0187218528885,0.105648531877,1.0,0.0,0.000155662187789
1385572447956614732,-0.0514884955109,0.018774021111,0.104232066221,1.0,0.0,0.000204895679876
1385572448006592696,-0.0515841180369,0.0189535700079,0.102891447587,1.0,0.0,0.000325835384786
1385572448056742426,-0.0526625412739,0.0182461819184,0.101281513812,1.0,0.0,0.000423134421805
1385572448106547183,-0.0525094410416,0.0186856369617,0.0999503251158,1.0,0.0,0.000519469943558
1385572448156541930,-0.0530498688005,0.0184687732357,0.0985502875938,1.0,0.0,0.000638627919791
1385572448206556632,-0.0533446510357,0.0186049889481,0.0971182346091,1.0,0.0,0.000736010493001
1385572448256549885,-0.0535677422796,0.0188709168995,0.0956750601465,1.0,0.0,0.000805876682856
1385572448307516548,-0.0535863917319,0.0191516637868,0.09430984745,1.0,0.0,0.000847501037124
1385572448356779454,-0.0538847727702,0.0191866282603,0.0928928431475,1.0,0.0,0.000944974417702
1385572448406638349,-0.0537489588895,0.0196527951081,0.0915450782402,1.0,0.0,0.000965880302127
1385572448456576659,-0.0541353437505,0.0195937828814,0.0900889076567,1.0,0.0,0.00103934432462
1385572448506626476,-0.0536980017834,0.0202532749312,0.0888046187242,1.0,0.0,0.00102988264763
1385572448556803889,-0.053971668617,0.0202221667541,0.0874009158247,1.0,0.0,0.00112520533631
1385572448606622397,-0.0537928155912,0.0204655549323,0.0860173954887,1.0,0.0,0.00118353865604
1385572448657600029,-0.0536669999587,0.0207209026389,0.0846355716901,1.0,0.0,0.00124560853493
1385572448706630744,-0.0536236342306,0.0205188408393,0.0832512314057,1.0,0.0,0.0013759330244
1385572448756834266,-0.0533178728233,0.0207998405586,0.0818709018796,1.0,0.0,0.00144055754115
1385572448806674958,-0.0532526646376,0.020802561295,0.0803751690772,1.0,0.0,0.00153090111347
1385572448856660321,-0.0527603353346,0.0210188256918,0.0790185341245,1.0,0.0,0.00158987103982
1385572448906627748,-0.0521741185438,0.0213667864218,0.0776787244243,1.0,0.0,0.00156317728724
1385572448956706261,-0.0519890394177,0.0210119881813,0.0763606171269,1.0,0.0,0.00172051144002
1385572449006632461,-0.0516339502274,0.0208013904352,0.0749645562827,1.0,0.0,0.00181988400513
1385572449056646320,-0.0512887120436,0.0209235886941,0.0735046435406,1.0,0.0,0.00188103379356
1385572449106652958,-0.0507427401707,0.0208511581703,0.0721690444722,1.0,0.0,0.00194525659571
1385572449157659004,-0.0503059033393,0.0205170544372,0.0708994840867,1.0,0.0,0.00205239826408
1385572449206676008,-0.0500225058941,0.0199652684864,0.0695823523893,1.0,0.0,0.00226077181537
1385572449256739909,-0.0493321433959,0.0202194308685,0.0682893462475,1.0,0.0,0.00222550100033
1385572449308020499,-0.0489335024083,0.0195727881649,0.0671293513304,1.0,0.0,0.00240376080119
1385572449356808147,-0.0481716156521,0.0197526806278,0.06600379805,1.0,0.0,0.00235006476169
1385572449407754233,-0.0477165062608,0.0192956593388,0.0648463421809,1.0,0.0,0.00247030890291
1385572449456639338,-0.0471555531772,0.0191436180894,0.0637190346236,1.0,0.0,0.00250117366256
1385572449506678080,-0.0466706465817,0.0187714787841,0.0626712100525,1.0,0.0,0.00257498890018
1385572449556952757,-0.0461209473114,0.018427196563,0.0616159812565,1.0,0.0,0.00265000347457
1385572449607083802,-0.04549102392,0.018349587123,0.0605778215591,1.0,0.0,0.00261033270606
1385572449656993041,-0.0452714428436,0.0176112060654,0.0595663288699,1.0,0.0,0.00275129624959
1385572449707299985,-0.0448427671469,0.0173987526895,0.0584397310953,1.0,0.0,0.00269980247648
1385572449757144200,-0.0445433237025,0.0169436941524,0.0572826469139,1.0,0.0,0.00274809956135
1385572449808073231,-0.0442611159262,0.0161882100154,0.0562502841092,1.0,0.0,0.00285226357829
1385572449857562405,-0.0438333486151,0.0159783596464,0.0552170119801,1.0,0.0,0.00287137115902
1385572449907421342,-0.0432701495831,0.0156555315563,0.0544236930228,1.0,0.0,0.00291651232058
1385572449957445339,-0.0431169714975,0.0150733929628,0.0535248985223,1.0,0.0,0.00296010522894
1385572450007519889,-0.0426400392627,0.0147027782266,0.0527120723385,1.0,0.0,0.00299066830633
1385572450056497586,-0.0423940156169,0.0143078432651,0.0518911458812,1.0,0.0,0.00300040249299
1385572450106620211,-0.0421381713958,0.0137123720654,0.0510620927164,1.0,0.0,0.00306519212306
1385572450156713996,-0.0418765940678,0.013391460643,0.050305074943,1.0,0.0,0.00304641377508
1385572450206811633,-0.0416924051648,0.0128328975765,0.0495404824411,1.0,0.0,0.00307845244424
1385572450257486295,-0.041570717377,0.0121808441649,0.0487933105776,1.0,0.0,0.00314832332848
1385572450307512376,-0.0412808106404,0.0118547346234,0.0481047530276,1.0,0.0,0.00310429679595
1385572450357542005,-0.0411499863141,0.0112690409066,0.0474175987862,1.0,0.0,0.00314934283687
1385572450406730110,-0.0409321769452,0.0108274496627,0.0466993155696,1.0,0.0,0.00315663991629
1385572450456766522,-0.0408591214543,0.0103969893785,0.0459232408324,1.0,0.0,0.00314444110172
1385572450506676055,-0.0407218727756,0.00968049998829,0.0452003586838,1.0,0.0,0.00322403381869
1385572450557438716,-0.0405245912286,0.00943400308113,0.0445042032525,1.0,0.0,0.00317921279963
1385572450607478332,-0.0404491302723,0.0087583211894,0.0438700240829,1.0,0.0,0.00325089816364
1385572450657391170,-0.0405867867955,0.00816012897852,0.0429392691286,1.0,0.0,0.00327032043883
1385572450707472639,-0.0405189508659,0.0074041002383,0.0422164506519,1.0,0.0,0.00341658706395
1385572450757479409,-0.0402241335761,0.00749884974068,0.0415224992908,1.0,0.0,0.00331992849791
1385572450808518926,-0.0398360060199,0.00711143073654,0.0412065973598,1.0,0.0,0.00341900595667
1385572450857524272,-0.0396248036126,0.00700809547343,0.0406658625684,1.0,0.0,0.00334858874497
1385572450906513820,-0.0393887701438,0.00662105829347,0.0401854721236,1.0,0.0,0.00339295816967
1385572450956740253,-0.0394456012029,0.00604615967508,0.0395485842252,1.0,0.0,0.00342493946255
1385572451006478968,-0.0391273040543,0.00598148984934,0.0390469070868,1.0,0.0,0.00343406605185
1385572451056484858,-0.0387295557507,0.00581403739262,0.0388615915314,1.0,0.0,0.0034824328766
1385572451107489371,-0.0384600404174,0.0058881276055,0.038461475902,1.0,0.0,0.0034564321444
1385572451156566516,-0.0382754467303,0.00562324954756,0.0380911214202,1.0,0.0,0.00351931617407
1385572451206542051,-0.0380127472374,0.00537235290179,0.0377692923237,1.0,0.0,0.00359771571636
1385572451256488342,-0.0377088838692,0.00534474565338,0.0374869107648,1.0,0.0,0.00363512480642
1385572451306641257,-0.0375063749728,0.00564028792415,0.0369335838832,1.0,0.0,0.0036041783967
1385572451356510208,-0.0372297130486,0.00584178927333,0.0364863572819,1.0,0.0,0.00358311971467
1385572451407369532,-0.0371218692225,0.00576269775432,0.036004935028,1.0,0.0,0.00362721447081
1385572451456710016,-0.0369521953136,0.00598520069296,0.0355928788262,1.0,0.0,0.00362099006855
1385572451506608115,-0.0366752439242,0.0061266704262,0.0352670808402,1.0,0.0,0.00365193408066
1385572451556589076,-0.0366362159979,0.0063359692168,0.034863448526,1.0,0.0,0.00364971021374
1385572451607440767,-0.036727761431,0.00643181354699,0.0341732571025,1.0,0.0,0.00365705017576
1385572451657615179,-0.0365707239594,0.00694946440305,0.0336735251898,1.0,0.0,0.00357659136846
1385572451706646176,-0.03650054347,0.00709566631856,0.0332387034074,1.0,0.0,0.0036104729393
1385572451756427245,-0.0363188271971,0.00739063202327,0.0331451291149,1.0,0.0,0.00363387931701
1385572451806428233,-0.0363818986323,0.00749140330327,0.0328789281364,1.0,0.0,0.00367557987319
1385572451856714174,-0.0363564334943,0.00786449719408,0.0325280292836,1.0,0.0,0.00367051205409
1385572451906525133,-0.0365338348849,0.00796671818452,0.0321066787172,1.0,0.0,0.00371881951953
1385572451957422805,-0.0364900037219,0.0083131813192,0.0318169427381,1.0,0.0,0.00373758759204
1385572452006611613,-0.0366456495224,0.00855432672367,0.0314407090561,1.0,0.0,0.00375541806108
1385572452056671741,-0.0368441663321,0.00853212329168,0.031070827543,1.0,0.0,0.0038537677122
1385572452106467664,-0.036935774154,0.00885941759086,0.0308179710263,1.0,0.0,0.00385239851981
1385572452156547209,-0.0370540107779,0.00910308751171,0.0305533032076,1.0,0.0,0.00388352517436
1385572452207515356,-0.0373399221666,0.00935288477529,0.0302014321831,1.0,0.0,0.0039012560278
1385572452256417664,-0.0374386431653,0.0094467815935,0.0299662278656,1.0,0.0,0.00392944059268
1385572452306520525,-0.0377006065927,0.00973997642003,0.0296250060228,1.0,0.0,0.00392490270208
1385572452356434944,-0.0379788065397,0.00972506919984,0.0292257451581,1.0,0.0,0.00397514628913
1385572452406645808,-0.0381260873,0.00999291460805,0.028854701312,1.0,0.0,0.00395878567298
1385572452456608294,-0.0384054729389,0.0100705858098,0.0284051737997,1.0,0.0,0.0039974401778
1385572452506706866,-0.0385666850728,0.0102317140405,0.0280877048735,1.0,0.0,0.00399274942923
1385572452556745516,-0.0388829384449,0.0103256111813,0.0274511634053,1.0,0.0,0.00395133579774
1385572452606721333,-0.0389160951657,0.0104198941423,0.0271114439193,1.0,0.0,0.00396105297429
1385572452656447158,-0.0388892184065,0.0108618757158,0.0269844848471,1.0,0.0,0.00388353200427
1385572452707497053,-0.0391621234658,0.0108962756139,0.0264225816341,1.0,0.0,0.00382136896156
1385572452757492917,-0.0389992984453,0.0111687911586,0.0262947590666,1.0,0.0,0.00379095105509
1385572452806623128,-0.039130251052,0.0110899773535,0.0258893194389,1.0,0.0,0.00379073603364
1385572452856503397,-0.0390243606991,0.0113466906792,0.0256100103113,1.0,0.0,0.00371789563709
1385572452906424679,-0.0390716105236,0.0112484340728,0.0252839361621,1.0,0.0,0.00372921861655
1385572452956708074,-0.0388799151735,0.0115673749357,0.0250193192633,1.0,0.0,0.00363260669724
1385572453006692770,-0.0387309726722,0.0115018631975,0.0247879546852,1.0,0.0,0.00362272718275
1385572453056980685,-0.0385017209477,0.0118744132157,0.0245260310959,1.0,0.0,0.00346967686301
1385572453106820585,-0.0382603482285,0.0118260326272,0.0241610245833,1.0,0.0,0.00342932666631
1385572453156643609,-0.037909169732,0.0120394662937,0.0238256755877,1.0,0.0,0.00328140080502
1385572453207624653,-0.0377715623802,0.0115767471416,0.023560062148,1.0,0.0,0.00334604136583
1385572453257402882,-0.0374613584504,0.0115354617034,0.0232435988824,1.0,0.0,0.00328799794544
1385572453307567466,-0.037131514012,0.0114685182479,0.02294393748,1.0,0.0,0.00325439541015
1385572453356574073,-0.0367317086518,0.0114213220716,0.0225619707215,1.0,0.0,0.0031860313556
1385572453406438548,-0.0364253866884,0.0113434927727,0.0221703853217,1.0,0.0,0.00312487688121
1385572453456526132,-0.0359885312056,0.0113393436981,0.0218351885192,1.0,0.0,0.00302590155752
1385572453506528596,-0.0356255500033,0.0112674996969,0.0214855871952,1.0,0.0,0.00294629649198
1385572453557577778,-0.0353147324454,0.0110844231978,0.0210425139216,1.0,0.0,0.00285845752895
1385572453606538039,-0.0349240569399,0.010933457107,0.0208235164353,1.0,0.0,0.00280965612089
1385572453656631707,-0.0346097459288,0.0107774020466,0.0205193582885,1.0,0.0,0.00276124914835
1385572453707485152,-0.0342430561935,0.0108134953769,0.0202060673936,1.0,0.0,0.00262339916588
1385572453756594024,-0.0340038059958,0.01066457974,0.0198826376526,1.0,0.0,0.00258272046165
1385572453806613115,-0.033652977263,0.0105632298923,0.0196724755318,1.0,0.0,0.00246583971312
1385572453856522339,-0.0335075182185,0.0106009372859,0.0192599596564,1.0,0.0,0.00238643482455
1385572453906585528,-0.0331776353264,0.0104743096193,0.0189990572342,1.0,0.0,0.00229498460111
1385572453956733608,-0.0330476044778,0.0103175255405,0.0187669861658,1.0,0.0,0.0022345658764
1385572454006537836,-0.0324931555375,0.0108483057068,0.0184583026738,1.0,0.0,0.00198328636484
1385572454056441818,-0.0325416581598,0.0104001110898,0.0182707390325,1.0,0.0,0.00196361508255
1385572454106756978,-0.0321340084106,0.010418717614,0.0180668410484,1.0,0.0,0.00186312355951
1385572454156594169,-0.0321353955219,0.0103904080145,0.0176260816559,1.0,0.0,0.00173079107522
1385572454206744837,-0.031929968233,0.0100674338007,0.0175970068635,1.0,0.0,0.00175259560832
1385572454256835046,-0.0319147633381,0.0102191246433,0.0170784711606,1.0,0.0,0.00159021094406
1385572454307821380,-0.0316158183103,0.00990680197395,0.0169917333059,1.0,0.0,0.00162893097267
1385572454356664048,-0.0313706947513,0.0101864863961,0.0167146056116,1.0,0.0,0.00145683911957
1385572454406487105,-0.0314518482059,0.00978505732588,0.0163451633251,1.0,0.0,0.00146239810852
1385572454457686346,-0.0312863670228,0.00972493564549,0.0161337775652,1.0,0.0,0.00140252148347
1385572454507855119,-0.0310862853461,0.00963536940941,0.0161005210507,1.0,0.0,0.00137518419068
1385572454557600867,-0.0310747485349,0.00943032926986,0.016002202357,1.0,0.0,0.00134986472625
1385572454606679287,-0.0310231309127,0.0091844503098,0.0157382602842,1.0,0.0,0.00135444684473
1385572454656585655,-0.0311503719967,0.00883692122923,0.0151422056071,1.0,0.0,0.00135250001597
1385572454707540052,-0.0310082320026,0.00889738525122,0.0150320384778,1.0,0.0,0.00129334926706
1385572454757518240,-0.0308699938429,0.00874116220879,0.0150102674432,1.0,0.0,0.00125982291438
1385572454806594271,-0.0308665644315,0.00852967069632,0.0148980739488,1.0,0.0,0.00123343451016
1385572454856555648,-0.0309528175748,0.00825145579333,0.0145462019018,1.0,0.0,0.00121098924763
1385572454906436415,-0.0309545351147,0.00802311804025,0.0142109634004,1.0,0.0,0.00118761470898
1385572454957457049,-0.0306784512652,0.00797299780011,0.014232435706,1.0,0.0,0.00113301889541
1385572455007416859,-0.0308822887001,0.00745268429456,0.014153730143,1.0,0.0,0.00120164944811
1385572455056428378,-0.0307433472548,0.00736711363969,0.0140524715703,1.0,0.0,0.00113612226356
1385572455106556755,-0.0307242472017,0.00703056640624,0.0138233358152,1.0,0.0,0.00116287643109
1385572455157528729,-0.0306756009105,0.00662215471812,0.0136692166134,1.0,0.0,0.00120269010728
1385572455206837445,-0.0306462418031,0.00636406036407,0.0134644213036,1.0,0.0,0.00119530900323
1385572455257537166,-0.0305814342795,0.00593363766333,0.0134003521644,1.0,0.0,0.00124915444106
1385572455306552889,-0.0303439271199,0.00580769780273,0.0133406614086,1.0,0.0,0.0012227344065
1385572455356455932,-0.0302659350472,0.00545867357905,0.0131530788231,1.0,0.0,0.00125074545833
1385572455406562653,-0.0302011636593,0.00512446641212,0.0129551009053,1.0,0.0,0.00129337438808
1385572455456544936,-0.0300707857021,0.00482823830161,0.0127479288715,1.0,0.0,0.00133343610616
1385572455507518697,-0.0299314485292,0.00444722570328,0.0126414678048,1.0,0.0,0.00140863459932
1385572455556650225,-0.0297207197188,0.00420549938827,0.0126358274003,1.0,0.0,0.00143530259347
1385572455606543201,-0.0295659657602,0.00396118239514,0.0124528751411,1.0,0.0,0.00147655004519
1385572455656415552,-0.0292758649138,0.00390305573285,0.0123004110641,1.0,0.0,0.00149110380246
1385572455706868866,-0.0290500189525,0.00387906288395,0.0122252756827,1.0,0.0,0.00148685759633
1385572455756569549,-0.028988621128,0.00319461940713,0.0119928582224,1.0,0.0,0.0016736400901
1385572455807487109,-0.0287441720959,0.00326493638667,0.011711830127,1.0,0.0,0.00169254368163
1385572455856713533,-0.0285491366326,0.00344929627769,0.0113629734698,1.0,0.0,0.00164463076605
1385572455907493576,-0.0282318538368,0.00312159863901,0.011340977976,1.0,0.0,0.001785455185
1385572455956621489,-0.028007633798,0.00343396971465,0.0112394379843,1.0,0.0,0.00173583636088
1385572456006513945,-0.0277652557244,0.0033828121999,0.0107490273525,1.0,0.0,0.00179354173822
1385572456056617964,-0.0274467113838,0.00361138409695,0.0109276481336,1.0,0.0,0.00183615255498
1385572456107616346,-0.0272579674396,0.00373441156051,0.0107825043516,1.0,0.0,0.00185355374505
1385572456157434255,-0.0269806889526,0.00391174012381,0.0107063780596,1.0,0.0,0.00190518698118
1385572456206755134,-0.02668145991,0.00423773218377,0.0105527510359,1.0,0.0,0.00189451986433
1385572456257906784,-0.0263989354576,0.00442286714378,0.0106013070799,1.0,0.0,0.00194622409409
1385572456306591368,-0.0260522056993,0.00469638760676,0.0105133925941,1.0,0.0,0.00196620207205
1385572456356949748,-0.025724461999,0.00487234501703,0.0105517229555,1.0,0.0,0.00204180452634
1385572456407592773,-0.025406781109,0.00513203365171,0.0103693066569,1.0,0.0,0.00206166090783
1385572456456793272,-0.0249843364344,0.00543355793751,0.0102861274873,1.0,0.0,0.00207425253939
1385572456506511866,-0.0246760300249,0.00564962869622,0.010204921455,1.0,0.0,0.00210459925838
1385572456557496643,-0.0241992830351,0.00580918733478,0.0100692961168,1.0,0.0,0.00214226644787
1385572456606663077,-0.0238756143913,0.00593435331657,0.00994313960022,1.0,0.0,0.00221711689073
1385572456657135435,-0.0234357175859,0.00600157428987,0.00990012305385,1.0,0.0,0.00228160008512
1385572456707118887,-0.0230266822844,0.00615712064025,0.00982065667638,1.0,0.0,0.00233673499502
1385572456756478678,-0.0225450214358,0.00617675537198,0.00983621472922,1.0,0.0,0.00243771370363
1385572456807537503,-0.0221222226353,0.00622832401614,0.00964058505155,1.0,0.0,0.00251233541352
1385572456857650743,-0.0216534420146,0.00652067507381,0.00958992014753,1.0,0.0,0.00251015806603
1385572456907805900,-0.0211574565888,0.00653808102494,0.00958653623735,1.0,0.0,0.00257961654327
1385572456956686791,-0.0207306511976,0.0066370098282,0.00955806849268,1.0,0.0,0.00261465291848
1385572457007529891,-0.0202923913882,0.00654573736086,0.00957286943522,1.0,0.0,0.00271213599104
1385572457056597344,-0.0198723810551,0.00666836415286,0.0095133896141,1.0,0.0,0.00274886243794
1385572457106767391,-0.0193970467202,0.00677177617466,0.00947765463435,1.0,0.0,0.00276808208463
1385572457156590280,-0.0189355849528,0.00687903787522,0.00945349378119,1.0,0.0,0.00277019869951
1385572457206850971,-0.0184927916323,0.00694327848379,0.00944560374649,1.0,0.0,0.00280503126328
1385572457257520613,-0.018121501784,0.00691343453959,0.00937499579779,1.0,0.0,0.00282512761621
1385572457307742438,-0.0176280633416,0.00715117613542,0.00937673414818,1.0,0.0,0.00278482834333
1385572457356623570,-0.017275617208,0.0070203042028,0.00931651415691,1.0,0.0,0.00282629186571
1385572457406550724,-0.0168115049582,0.00731446284419,0.00928424480821,1.0,0.0,0.00272745363034
1385572457456646905,-0.0164806171735,0.00734072391656,0.00924849518329,1.0,0.0,0.00272452417631
1385572457506714203,-0.016092044338,0.00728209497942,0.00938576498323,1.0,0.0,0.00273579105639
1385572457556717882,-0.0157405037526,0.00730476469398,0.00935653252595,1.0,0.0,0.00278412839864
1385572457606741274,-0.0154093029027,0.00729868252349,0.00933414715264,1.0,0.0,0.00277386099197
1385572457657473693,-0.0149755326678,0.00758556990709,0.0092257870452,1.0,0.0,0.00268978648824
1385572457706551276,-0.0146683807232,0.00750466260389,0.00886233682152,1.0,0.0,0.00267854032905
1385572457756581100,-0.014301172514,0.00767004968721,0.00894723727137,1.0,0.0,0.0026397301191
1385572457807738989,-0.0139594385326,0.00771341302531,0.00885713759524,1.0,0.0,0.00260132554959
1385572457856714858,-0.0135859753048,0.00783167599285,0.00880439971335,1.0,0.0,0.00253950294853
1385572457906720189,-0.0133145051074,0.00770332162369,0.00879742969096,1.0,0.0,0.00255977577
1385572457957570559,-0.0129459261654,0.00779861258622,0.00873213862443,1.0,0.0,0.0024816554689
1385572458006612041,-0.0126983119006,0.00785291621572,0.00865612941582,1.0,0.0,0.00239070903651
1385572458056761726,-0.0124501776043,0.00776395553873,0.00859026262743,1.0,0.0,0.00235618563324
1385572458107675287,-0.0122521982408,0.00773946822348,0.00855857296486,1.0,0.0,0.00228513133121
1385572458156508432,-0.0120855961346,0.00769216516643,0.00856475775402,1.0,0.0,0.00218793861787
1385572458206590269,-0.0119652433312,0.00761199134699,0.00849023079955,1.0,0.0,0.00212767873622
1385572458257586697,-0.0118000271481,0.00750347781499,0.00853516088816,1.0,0.0,0.00204870712351
1385572458306908448,-0.0116845409466,0.00747627286692,0.00857518630476,1.0,0.0,0.00192484187081
1385572458356549953,-0.0115905967289,0.00733976755792,0.00858450732332,1.0,0.0,0.00179372412294
1385572458406797819,-0.0115381425407,0.00710196980516,0.00865672453523,1.0,0.0,0.00171445417057
1385572458457682471,-0.0115181694232,0.00683478982849,0.00866795770403,1.0,0.0,0.0016168997521
1385572458508112165,-0.0115656760467,0.00657060310177,0.00866812220021,1.0,0.0,0.00155026025985
1385572458557520926,-0.0116095267257,0.00609927014964,0.00874402793771,1.0,0.0,0.0015371600643
1385572458606532140,-0.0115660198069,0.0058620276023,0.00869748068562,1.0,0.0,0.00146009239171
1385572458656628714,-0.0115992813008,0.0056167002999,0.0086568013725,1.0,0.0,0.00134789883719
1385572458706701499,-0.0117560357161,0.00516460582131,0.00861709663117,1.0,0.0,0.00127844037269
1385572458756484264,-0.0118188457299,0.0046983602517,0.00858527860249,1.0,0.0,0.00124042633778
1385572458806720632,-0.0119452521152,0.0043335993053,0.00859329522255,1.0,0.0,0.0011511772535
1385572458856606761,-0.0120835027105,0.00384821447111,0.00858309950137,1.0,0.0,0.00112372309475
1385572458906618634,-0.012261718161,0.00337898678137,0.00858757537686,1.0,0.0,0.00108166809836
1385572458957701435,-0.0123963746007,0.00300141696923,0.00861393475358,1.0,0.0,0.00102475046369
1385572459007625366,-0.0125679837593,0.00254971479,0.00869210250837,1.0,0.0,0.000974792106371
1385572459057538062,-0.0126886467558,0.00219664647156,0.00873464246372,1.0,0.0,0.000943336188875
1385572459107536673,-0.0128414644633,0.00180247193483,0.00877651202589,1.0,0.0,0.000867887301945
1385572459156595646,-0.0129262804883,0.00152656685771,0.00880718681877,1.0,0.0,0.000803853804304
1385572459206504317,-0.013056031153,0.00122901422488,0.00884339530385,1.0,0.0,0.000732300855116
1385572459257506258,-0.0131131940565,0.000902861138572,0.00887564665996,1.0,0.0,0.000715808407402
1385572459306562122,-0.0131542190647,0.000691162490535,0.00889494236919,1.0,0.0,0.000649845397425
1385572459356518438,-0.0131682153591,0.000424096354105,0.00891011289032,1.0,0.0,0.000643054133921
1385572459406545372,-0.0131644320681,0.000151625245517,0.00889336895608,1.0,0.0,0.000676766657245
1385572459456455780,-0.0131074839174,-3.63183111476e-05,0.00886986862676,1.0,0.0,0.000680628831802
1385572459507510496,-0.0129477310646,4.63860633771e-05,0.00889021481651,1.0,0.0,0.000591555897885
1385572459557475269,-0.0127927204,-9.95443125508e-05,0.00884362194558,1.0,0.0,0.000568303496357
1385572459607450973,-0.0125849597451,-9.84582150319e-05,0.00885209425529,1.0,0.0,0.000547656302917
1385572459656514438,-0.0123650001764,-3.6635347124e-05,0.00881509679014,1.0,0.0,0.000489319569206
1385572459706717528,-0.0121259545157,1.99322174209e-05,0.00880204684119,1.0,0.0,0.000462703766177
1385572459756749967,-0.0119004769981,8.22473979736e-05,0.00875280040895,1.0,0.0,0.000447900107627
1385572459806549026,-0.0116366993347,0.000206426945837,0.00869133730563,1.0,0.0,0.000416468318713
1385572459856691115,-0.0114308610915,0.000328365769857,0.00853889623422,1.0,0.0,0.00037296524332
1385572459907659416,-0.0111492166422,0.00054871364295,0.00843184833305,1.0,0.0,0.00026914063977
1385572459956471824,-0.0109019684187,0.000720444125607,0.00836694038518,1.0,0.0,0.000258750674877
1385572460007729964,-0.0106493935636,0.000894846992397,0.0082513744142,1.0,0.0,0.000170749634116
1385572460056588263,-0.010467720083,0.00105104286129,0.00814166773024,1.0,0.0,0.000125582313293
1385572460107443940,-0.0102807941277,0.0012558211442,0.0079515405397,1.0,0.0,8.59874865326e-05
1385572460156542260,-0.0101113974046,0.00136673065547,0.00777246244087,1.0,0.0,4.90613151231e-05
1385572460207349732,-0.0099969077858,0.00148663777894,0.00762334642989,1.0,0.0,2.0824519042e-05
1385572460257536480,-0.00985464575336,0.00164582220718,0.00746269511919,1.0,0.0,-5.81512891648e-06
1385572460307378462,-0.00979032736187,0.001735007747,0.00725668378532,1.0,0.0,-3.32368450191e-05
1385572460357311840,-0.00969923086051,0.00183891255241,0.00705836393123,1.0,0.0,-4.68086736438e-05
1385572460407286809,-0.0096773697662,0.0019183123141,0.00690311008736,1.0,0.0,-7.34741116441e-05
1385572460457433351,-0.00960247952851,0.00198935581593,0.00676471353452,1.0,0.0,-0.000137302946388
1385572460506571484,-0.00959905691395,0.0019960396372,0.00664052604342,1.0,0.0,-0.000132055629534
1385572460557353928,-0.00957974855844,0.00203133690232,0.00651732083368,1.0,0.0,-0.000202132109912
1385572460607302664,-0.00962306411481,0.00205119291116,0.00639889347101,1.0,0.0,-0.000222923313511
1385572460657425738,-0.00968553865394,0.00196397206414,0.00629140671643,1.0,0.0,-0.000191557406888
1385572460707320128,-0.00973269239624,0.00203555962026,0.00616731029198,1.0,0.0,-0.000277018351562
1385572460756414167,-0.0098034904495,0.00204557175549,0.00604063716125,1.0,0.0,-0.000313213091804
1385572460806395558,-0.00986298519674,0.00203391519946,0.0058996542633,1.0,0.0,-0.000396425959098
1385572460857372925,-0.00995723415692,0.00207472793826,0.00577728543794,1.0,0.0,-0.000449575164753
1385572460907442237,-0.0101180927633,0.00191282425246,0.00555322858586,1.0,0.0,-0.000450175666456
1385572460957401013,-0.010281587782,0.00201150223422,0.00534034960619,1.0,0.0,-0.000520551582852
1385572461006630041,-0.0104131427946,0.00196391132267,0.00509750210961,1.0,0.0,-0.000576599264889
1385572461056330701,-0.0105951997891,0.00204509971547,0.0048360577551,1.0,0.0,-0.000654169869056
1385572461107438163,-0.0107847366356,0.00202954314625,0.00459778705773,1.0,0.0,-0.000733877618226
1385572461156883230,-0.010915539898,0.002085595871,0.00436557898826,1.0,0.0,-0.000881548878819
1385572461207051164,-0.0111475702777,0.00216835908224,0.00412049811588,1.0,0.0,-0.000958388112167
1385572461256606724,-0.0113468448937,0.00221282346781,0.00386795328771,1.0,0.0,-0.0010972413572
1385572461306783429,-0.0116154571381,0.00210474241535,0.00358689060025,1.0,0.0,-0.0010863941631
1385572461356711395,-0.0117629086036,0.00229989587056,0.00333113373703,1.0,0.0,-0.00127141662289
1385572461407884642,-0.0120415658137,0.00238195141869,0.00305197858288,1.0,0.0,-0.00139843772205
1385572461456815866,-0.0122627679467,0.00235119675679,0.0027367118174,1.0,0.0,-0.00153901678868
1385572461507835981,-0.0124834351446,0.00245866820125,0.00254236619808,1.0,0.0,-0.0016335751947
1385572461556638929,-0.0127546934184,0.00252705217859,0.00234007278934,1.0,0.0,-0.00176662377462
1385572461606786076,-0.0130189782786,0.00256350357152,0.00217265694501,1.0,0.0,-0.00186301889008
1385572461656809494,-0.0132660696707,0.00266545794273,0.0020281934761,1.0,0.0,-0.00200805237903
1385572461706846452,-0.0134872671203,0.00277645020482,0.00185870685243,1.0,0.0,-0.00220934485014
1385572461756712724,-0.0137961944088,0.00278067151442,0.0017360036631,1.0,0.0,-0.00229982193426
1385572461806700622,-0.0140074996456,0.00293061237577,0.00162393420395,1.0,0.0,-0.00248296624089
1385572461857171631,-0.0143016218311,0.0028686377336,0.00153092577887,1.0,0.0,-0.00257459563908
1385572461907885595,-0.0145455684988,0.00301445010181,0.00146297293284,1.0,0.0,-0.00274076450687
1385572461957722009,-0.0147905106959,0.00295956529043,0.00142860102327,1.0,0.0,-0.00285422534774
1385572462008459540,-0.0149773612973,0.00305414250988,0.00141303704162,1.0,0.0,-0.00302704017794
1385572462057810776,-0.0152003915614,0.00297469428148,0.00141008586599,1.0,0.0,-0.00313491927595
1385572462108660821,-0.0153720154514,0.00303779088606,0.00142297319778,1.0,0.0,-0.00328915575899
1385572462157036718,-0.0155299869319,0.00301688114032,0.00145185395059,1.0,0.0,-0.00343970230828
1385572462206892429,-0.0156521291907,0.00301638648847,0.00148582051498,1.0,0.0,-0.00359589230658
1385572462262258279,-0.0157334740427,0.00300207303859,0.00150951586828,1.0,0.0,-0.00378507043212
1385572462306935361,-0.0157869922636,0.0028860987679,0.00155638231062,1.0,0.0,-0.00394297902381
1385572462357228397,-0.015811264366,0.00287734553954,0.00154461315932,1.0,0.0,-0.00410522466197
1385572462407208447,-0.01577058472,0.00289204591097,0.00154777100353,1.0,0.0,-0.00430746442313
1385572462457784131,-0.0156994658587,0.00287135500255,0.00154322831385,1.0,0.0,-0.00447849809376
1385572462507188554,-0.015611427077,0.00286010150062,0.00155211267966,1.0,0.0,-0.00469573920285
1385572462557371743,-0.0154599114764,0.0028294273493,0.00156395241036,1.0,0.0,-0.00485489476893
1385572462608680156,-0.0152768711842,0.00277423283526,0.00158452508904,1.0,0.0,-0.00503761167404
1385572462657240549,-0.0150867953136,0.00282768413511,0.00161036144929,1.0,0.0,-0.0052275151285
1385572462707299769,-0.0148273055674,0.00290436301593,0.00163480791257,1.0,0.0,-0.00542001463872
1385572462758419396,-0.014600970806,0.00298169348725,0.00164868614798,1.0,0.0,-0.00559511248203
1385572462807284278,-0.0143144038791,0.00301004691139,0.00168639031191,1.0,0.0,-0.00576454863333
1385572462857713279,-0.0140559914279,0.00310549544649,0.00172118745658,1.0,0.0,-0.00593006773908
1385572462908458414,-0.0137369193885,0.00316855768421,0.00170409196651,1.0,0.0,-0.0060938442682
1385572462958261057,-0.0134740489079,0.00322558947663,0.00172154296337,1.0,0.0,-0.00624362440371
1385572463007167086,-0.013199452387,0.0032744222711,0.00172533591541,1.0,0.0,-0.00637251403948
1385572463058186478,-0.012933565802,0.00336713196521,0.00171773206915,1.0,0.0,-0.00653768261967
1385572463108474293,-0.012660692701,0.00340899607056,0.00173812021588,1.0,0.0,-0.00667805140074
1385572463157255420,-0.0124822850073,0.00338819686806,0.00171394359988,1.0,0.0,-0.00680053056355
1385572463208216416,-0.012309578633,0.00333600010844,0.00169213013921,1.0,0.0,-0.00689540668751
1385572463256366419,-0.0121788833472,0.00332594699371,0.00166927256116,1.0,0.0,-0.00704496014338
1385572463307076351,-0.0120649681053,0.00329581855319,0.00161961405162,1.0,0.0,-0.00717235671562
1385572463358152013,-0.0120808466078,0.0031857275627,0.00154146972482,1.0,0.0,-0.00726975710312
1385572463408138534,-0.0120968758281,0.00303457356589,0.00143061269288,1.0,0.0,-0.00734686838623
1385572463457151372,-0.0122202225902,0.00289094105168,0.00133577973834,1.0,0.0,-0.00745820640046
1385572463507207397,-0.0123509190796,0.00275032025781,0.00123124181118,1.0,0.0,-0.00756807469723
1385572463557150888,-0.0124963866415,0.00265305764051,0.00115961160156,1.0,0.0,-0.00772042950312
1385572463606377361,-0.0127086077465,0.00242642162003,0.00107660347301,1.0,0.0,-0.00778395794941
1385572463656384763,-0.0129582925128,0.00222740554043,0.00101287193602,1.0,0.0,-0.00789284096558
1385572463708256498,-0.0132523127018,0.00205497760739,0.000891933890128,1.0,0.0,-0.00802746787048
1385572463757236381,-0.0134966138337,0.0018975723407,0.000831124649273,1.0,0.0,-0.00816622486273
1385572463807269749,-0.0137941058845,0.0017103950282,0.000774392146767,1.0,0.0,-0.00828942395984
1385572463857243431,-0.0140802444044,0.00154846992847,0.000748119123576,1.0,0.0,-0.00841963703672
1385572463906406500,-0.0143728012551,0.00129191047708,0.000746792101938,1.0,0.0,-0.00849501003007
1385572463957199428,-0.0146124095655,0.00113090029403,0.000698951336029,1.0,0.0,-0.0086380286381
1385572464007168952,-0.0148833639612,0.000882543850078,0.000709418233236,1.0,0.0,-0.00873206687105
1385572464056448017,-0.0150948361053,0.000640912618984,0.000714116261223,1.0,0.0,-0.00880948746469
1385572464107229779,-0.0153503690934,0.000469150107653,0.000735824510509,1.0,0.0,-0.00894371337495
1385572464158122043,-0.0155426661825,0.00018838498323,0.000783386023575,1.0,0.0,-0.00903046899799
1385572464207211664,-0.0157425587479,-3.90088353604e-05,0.000813883999501,1.0,0.0,-0.00913930844564
1385572464257229711,-0.0159075973622,-0.000226307581523,0.000869544475821,1.0,0.0,-0.00928266726885
1385572464307110330,-0.0161004904348,-0.00050481098447,0.000944363076937,1.0,0.0,-0.00938335012067
1385572464357114590,-0.0161711691972,-0.000638609919079,0.00102038359083,1.0,0.0,-0.00957925968661
1385572464408123263,-0.0162588113606,-0.00104318218756,0.00116167416224,1.0,0.0,-0.00963691997679
1385572464457160727,-0.0162688181433,-0.00118497938193,0.00124580399535,1.0,0.0,-0.00980638843928
1385572464508204087,-0.0163440978737,-0.00139530051935,0.0013107194424,1.0,0.0,-0.0099324458726
1385572464557187891,-0.0162880132523,-0.00156445583787,0.00136577630895,1.0,0.0,-0.0100817717912
1385572464608140931,-0.0162640668014,-0.00182067006552,0.00141218501537,1.0,0.0,-0.0102109116134
1385572464658403075,-0.0161794749952,-0.00192742805754,0.00145103453534,1.0,0.0,-0.0103556036882
1385572464707280008,-0.0160962601917,-0.00210737557059,0.00150080495687,1.0,0.0,-0.0105120917379
1385572464758195648,-0.0159620439092,-0.00223973893918,0.00153013728213,1.0,0.0,-0.0106425137299
1385572464806491621,-0.0158197572314,-0.00242971794788,0.00152695924795,1.0,0.0,-0.0107691175223
1385572464857130608,-0.0156694100849,-0.00256803015714,0.00153389768243,1.0,0.0,-0.0108756708967
1385572464907214251,-0.015505058051,-0.00274865849019,0.00146262864967,1.0,0.0,-0.0109796983203
1385572464956306703,-0.0152794929969,-0.0027627083538,0.00146823477011,1.0,0.0,-0.0110932661184
1385572465007148924,-0.0150556708377,-0.00276513293981,0.00140030855925,1.0,0.0,-0.0112322288181
1385572465058193728,-0.0148202244172,-0.00285869249194,0.00132586606088,1.0,0.0,-0.0113157401328
1385572465108089810,-0.0145801017337,-0.00286233241175,0.00123595887867,1.0,0.0,-0.0114264725145
1385572465157150107,-0.0142993422117,-0.00292926426283,0.00114150562501,1.0,0.0,-0.011491467023
1385572465207241427,-0.0140686211687,-0.00295299984605,0.00102520839434,1.0,0.0,-0.0115365159653
1385572465257270824,-0.0138262644061,-0.00288528106996,0.000911049241048,1.0,0.0,-0.0116385663324
1385572465306388728,-0.013605046788,-0.00289133509843,0.000770953716957,1.0,0.0,-0.0116737234906
1385572465357145770,-0.0134306942557,-0.00286209031779,0.000613690001304,1.0,0.0,-0.0117487013465
1385572465408143305,-0.0132323774692,-0.00283164988104,0.000441663141954,1.0,0.0,-0.0118132365066
1385572465458404310,-0.0130587145316,-0.00268614466019,0.000414380459089,1.0,0.0,-0.0118918026745
1385572465507146328,-0.0129246323826,-0.00260374685626,0.00033626807978,1.0,0.0,-0.0119361096402
1385572465558171978,-0.0127658012335,-0.00252205514434,0.000239662625332,1.0,0.0,-0.0120195793247
1385572465607134238,-0.0126354675734,-0.00249004908824,0.000126016910056,1.0,0.0,-0.0120421276224
1385572465656294582,-0.0125229297778,-0.00233499974522,2.89925189462e-05,1.0,0.0,-0.0120986839658
1385572465708180257,-0.0124086227206,-0.0022087940592,-0.000116276380706,1.0,0.0,-0.0121695242317
1385572465756491680,-0.0123175855723,-0.00204699197759,-0.000259620396807,1.0,0.0,-0.0122018365762
1385572465807310652,-0.0122171695692,-0.00185300307711,-0.000434416141138,1.0,0.0,-0.0122944181507
1385572465857110956,-0.0121265942344,-0.00169472761086,-0.000599831798882,1.0,0.0,-0.0123199314191
1385572465908083135,-0.0120593243349,-0.00141218674848,-0.000721942490174,1.0,0.0,-0.012419965943
1385572465957150513,-0.012026583805,-0.00122050405607,-0.000833056403297,1.0,0.0,-0.0125049399454
1385572466008076244,-0.0120562584524,-0.00104673321539,-0.000967486824337,1.0,0.0,-0.0125479965441
1385572466058185813,-0.012103339049,-0.00093737266601,-0.00111392022129,1.0,0.0,-0.0125810868203
1385572466107236073,-0.0121581176827,-0.000815793849776,-0.00125148749367,1.0,0.0,-0.0126165905229
1385572466157095801,-0.0122223326933,-0.000701821918718,-0.00135564206945,1.0,0.0,-0.0126808387496
1385572466208266907,-0.0124028144475,-0.000625139202032,-0.00146126164112,1.0,0.0,-0.0127273551702
1385572466256400422,-0.0125789320176,-0.000513504603314,-0.00151345942549,1.0,0.0,-0.0128063208278
1385572466308340361,-0.0127984947325,-0.000502693300952,-0.0015560349776,1.0,0.0,-0.0128699635622
1385572466358171607,-0.0130894514009,-0.000588344800113,-0.00161522829859,1.0,0.0,-0.0129062765175
1385572466407138583,-0.0133905763705,-0.000553234128031,-0.00162652470507,1.0,0.0,-0.0130394158997
1385572466457240148,-0.0137411271725,-0.000768713770435,-0.00161675331316,1.0,0.0,-0.0130186618516
1385572466508180536,-0.014119850995,-0.000879744382669,-0.00162066531713,1.0,0.0,-0.0131000428398
1385572466556276407,-0.0144433933951,-0.00106713313828,-0.00152083052514,1.0,0.0,-0.0131075942852
1385572466607136997,-0.0148783471211,-0.00130165643821,-0.00152041750247,1.0,0.0,-0.0131761912381
1385572466657073960,-0.0151916940859,-0.00152361911433,-0.00150724394293,1.0,0.0,-0.0132256440006
1385572466706439774,-0.015539885476,-0.00190446883088,-0.00138450712148,1.0,0.0,-0.0132502340249
1385572466757132124,-0.0158709493249,-0.00212440621984,-0.0013101246819,1.0,0.0,-0.0133031635313
1385572466808241205,-0.0161485780907,-0.002476921702,-0.00124617690678,1.0,0.0,-0.0133680736651
1385572466857091972,-0.0164655725082,-0.00289635364385,-0.00123673490584,1.0,0.0,-0.0133859134801
1385572466907319304,-0.0166767130013,-0.00319862803783,-0.00114216929326,1.0,0.0,-0.0134586048124
1385572466957349277,-0.0169408153188,-0.00359826393202,-0.000990146616042,1.0,0.0,-0.0134804793796
1385572467006419863,-0.017057004109,-0.0038310711686,-0.000900675135223,1.0,0.0,-0.0135403476585
1385572467058077248,-0.0172736713037,-0.00425540817165,-0.00101525669884,1.0,0.0,-0.013553816818
1385572467107355244,-0.0173441947731,-0.00442730419784,-0.000792735360487,1.0,0.0,-0.0135970082716
1385572467157524857,-0.0174729289186,-0.0048086175742,-0.000681261906594,1.0,0.0,-0.0135560960194
1385572467207337510,-0.0175025437527,-0.00491011851205,-0.000619299707028,1.0,0.0,-0.0136405367704
1385572467257210312,-0.0175238188985,-0.00516359572393,-0.000543095307687,1.0,0.0,-0.013615284865
1385572467308065695,-0.0174985047025,-0.00538365813552,-0.00046202419482,1.0,0.0,-0.0136001058897
1385572467358247504,-0.0174309411727,-0.0055112548694,-0.000376968711124,1.0,0.0,-0.0135928976203
1385572467408113934,-0.0173200308514,-0.0057686836415,-0.000305954293577,1.0,0.0,-0.0135198011802
1385572467458201549,-0.0171643145648,-0.0058650753833,-0.000226431285689,1.0,0.0,-0.0135090442882
1385572467508132547,-0.017015675511,-0.00588544463007,-0.00018868817926,1.0,0.0,-0.0135185597823
1385572467557124887,-0.0167781337663,-0.00603880808232,-6.642846646e-05,1.0,0.0,-0.0134238645753
1385572467606396917,-0.0165233188814,-0.00611281349978,2.51488755568e-05,1.0,0.0,-0.013338401519
1385572467657136441,-0.0162404058075,-0.00606960406668,0.000129399802949,1.0,0.0,-0.0133356322025
1385572467706384078,-0.0159830876724,-0.00621599247676,0.000186734752547,1.0,0.0,-0.013218832606
1385572467756597701,-0.0156909566322,-0.00607959672474,0.000309932988936,1.0,0.0,-0.0132225489842
1385572467806528744,-0.0154039125349,-0.00611679823842,0.000408937823,1.0,0.0,-0.0131384817048
1385572467856319974,-0.0151269318415,-0.00608052679298,0.000508739850013,1.0,0.0,-0.0130828742981
1385572467906365212,-0.014855617317,-0.00604699193853,0.000604211782137,1.0,0.0,-0.0130165686355
1385572467956371688,-0.0145945641296,-0.0059551862209,0.000657679400492,1.0,0.0,-0.0129548797997
1385572468006581391,-0.0144015975894,-0.0059390096675,0.000676079366028,1.0,0.0,-0.0128681534333
1385572468057358088,-0.0141653496374,-0.0058031238279,0.000781034950673,1.0,0.0,-0.0127628941495
1385572468107072474,-0.0140115669284,-0.00565066819254,0.00085035253206,1.0,0.0,-0.0126896686541
1385572468157307592,-0.0138772553421,-0.00554573491135,0.000909167603542,1.0,0.0,-0.0125816666468
1385572468206922428,-0.0137957569957,-0.00547372084566,0.000983568606263,1.0,0.0,-0.0124980292977
1385572468257476992,-0.013742853945,-0.00537230267222,0.00102669167572,1.0,0.0,-0.0123828496664
1385572468307683963,-0.0137562314123,-0.00523430589029,0.0010740086792,1.0,0.0,-0.012278958744
1385572468357559517,-0.0138298335465,-0.00512715898745,0.00113837247628,1.0,0.0,-0.0121654484321
1385572468408087059,-0.0139901205607,-0.00498794704453,0.0011689674046,1.0,0.0,-0.0120398209836
1385572468458578276,-0.0141879508475,-0.00489079430773,0.00119545484444,1.0,0.0,-0.0119528314136
1385572468508044375,-0.0144487219751,-0.00478031103879,0.00125110609369,1.0,0.0,-0.0118262474796
1385572468557916325,-0.0147912460066,-0.00473513358195,0.00132021672572,1.0,0.0,-0.0117041896404
1385572468609022528,-0.015146498455,-0.00459248721251,0.00138431828926,1.0,0.0,-0.0116365372213
1385572468657183800,-0.0156278356529,-0.00456383774133,0.00141972821756,1.0,0.0,-0.0115153692279
1385572468707333066,-0.0160784238833,-0.00445785920625,0.00148334839034,1.0,0.0,-0.0114663220868
1385572468757216576,-0.0165428906592,-0.00444884982584,0.00155399046914,1.0,0.0,-0.0113455626384
1385572468807139754,-0.0170298192119,-0.004370472632,0.00164226573662,1.0,0.0,-0.0112785159573
1385572468856763827,-0.017561626468,-0.004295749646,0.00170011572199,1.0,0.0,-0.0112345873503
1385572468908533146,-0.0180910356411,-0.0042911211445,0.00174391493675,1.0,0.0,-0.011159551743
1385572468957077220,-0.0185760960135,-0.00422668843321,0.00178414028744,1.0,0.0,-0.0111293973056
1385572469007256957,-0.019085641411,-0.00428060910469,0.00177650952239,1.0,0.0,-0.0110403027424
1385572469057153236,-0.0195921612321,-0.00414284864129,0.00186204573334,1.0,0.0,-0.0110372901466
1385572469108170584,-0.0200872926813,-0.00408050397891,0.00191652181161,1.0,0.0,-0.0110023551566
1385572469157546280,-0.0205705896769,-0.0041452128976,0.00194661062883,1.0,0.0,-0.0109414935582
1385572469207576097,-0.0210434563493,-0.00429495998792,0.00196496182693,1.0,0.0,-0.0108438460493
1385572469258304461,-0.0215192514772,-0.00422602991773,0.00194386245825,1.0,0.0,-0.0108660022902
1385572469307146941,-0.0219443299086,-0.00441135493185,0.00193215179792,1.0,0.0,-0.0107863776996
1385572469356925285,-0.0223650693917,-0.00452733976713,0.00197388623978,1.0,0.0,-0.0107351636863
1385572469409766192,-0.0227723201441,-0.00471643276194,0.00198968139674,1.0,0.0,-0.010652186418
1385572469457972113,-0.0231891961314,-0.0048861302577,0.00200167354986,1.0,0.0,-0.0106371489812
1385572469507857708,-0.0235638137326,-0.0051106584373,0.00204621381337,1.0,0.0,-0.0106081439773
1385572469556956988,-0.0238837300906,-0.00544189414651,0.00207531749744,1.0,0.0,-0.010539033282
1385572469606860345,-0.0242634511856,-0.00579644129533,0.00207988338063,1.0,0.0,-0.0104771548616
1385572469656943113,-0.0245103548387,-0.0061864519989,0.00219322887627,1.0,0.0,-0.0103987729405
1385572469706835650,-0.0247627402635,-0.0065139304467,0.00230544439449,1.0,0.0,-0.0103450178502
1385572469756811168,-0.0250051647193,-0.00691274103887,0.00238518670239,1.0,0.0,-0.010294266373
1385572469806799778,-0.0251933235498,-0.0073173680536,0.00243521872318,1.0,0.0,-0.0102268598762
1385572469857770843,-0.0253881961791,-0.00776240252094,0.00247177323404,1.0,0.0,-0.0101555651071
1385572469907808628,-0.0255656693706,-0.00814558290463,0.00251198452276,1.0,0.0,-0.0100748488573
1385572469957917017,-0.0256818155229,-0.00850748182969,0.00260974358025,1.0,0.0,-0.0100308762569
1385572470007794904,-0.0258772395112,-0.00890374439591,0.00271327629527,1.0,0.0,-0.00996692427085
1385572470057861537,-0.0259492287312,-0.00926429923602,0.00278151786255,1.0,0.0,-0.00987166830736
1385572470107970221,-0.0261302425676,-0.00967183783747,0.00285290027578,1.0,0.0,-0.00975478630752
1385572470156976075,-0.026252552562,-0.00974531599482,0.00293457511394,1.0,0.0,-0.00977481591979
1385572470207054910,-0.026399582609,-0.0100506312145,0.00300503787545,1.0,0.0,-0.00970504006055
1385572470257999799,-0.0265237480373,-0.0102218580626,0.00302893405124,1.0,0.0,-0.00967247182488
1385572470307002883,-0.0266526055873,-0.0104004088388,0.00308611570688,1.0,0.0,-0.00964593107781
1385572470357986625,-0.0267627839637,-0.0105015967317,0.00316785980249,1.0,0.0,-0.00963854877338
1385572470406909027,-0.0268382814491,-0.0105316551066,0.00325473874877,1.0,0.0,-0.00965333066047
1385572470456960555,-0.0269390629361,-0.0106696402564,0.00331089876578,1.0,0.0,-0.00961822103859
1385572470506786491,-0.027000922813,-0.0106592703977,0.00334892689307,1.0,0.0,-0.0095978417463
1385572470556874191,-0.0270783509471,-0.0105874906177,0.00338748017319,1.0,0.0,-0.0096272650718
1385572470607750764,-0.0271276131555,-0.0105384060437,0.00342513048009,1.0,0.0,-0.00960755374509
1385572470656806651,-0.0272267114825,-0.0105320781996,0.00337632766369,1.0,0.0,-0.00962581073349
1385572470706986057,-0.0271823045937,-0.010397279842,0.003480496224,1.0,0.0,-0.00958139512325
1385572470756815657,-0.0272887263898,-0.0100898288694,0.00353550281748,1.0,0.0,-0.00967141385294
1385572470807025252,-0.0272734188603,-0.00991156826369,0.00356779533462,1.0,0.0,-0.00967896234672
1385572470856870518,-0.0271996742781,-0.00981205826549,0.0035898587677,1.0,0.0,-0.00961231350668
1385572470906807544,-0.0272622578325,-0.00949755437622,0.00349200334824,1.0,0.0,-0.00965121135094
1385572470956995303,-0.0272141621396,-0.00933089975514,0.00339745609473,1.0,0.0,-0.0096046665269
1385572471006828915,-0.0270811170614,-0.00885510909316,0.00341937339102,1.0,0.0,-0.0096602158388
1385572471057889091,-0.0269715420218,-0.008626854902,0.00337052694915,1.0,0.0,-0.00963211706212
1385572471106968789,-0.0268116013213,-0.00832845710483,0.0032932754112,1.0,0.0,-0.00962287750825
1385572471156966114,-0.0266342386829,-0.00800762360303,0.0032159973937,1.0,0.0,-0.00962726594231
1385572471206960881,-0.0264232246101,-0.00766721274762,0.00307055408692,1.0,0.0,-0.00965410603831
1385572471256950762,-0.0261843852325,-0.00738574878981,0.00291799777374,1.0,0.0,-0.00966337051869
1385572471306857877,-0.0259463960448,-0.00723186841971,0.00271272366028,1.0,0.0,-0.00962955700461
1385572471356901687,-0.0256752049109,-0.0068861654463,0.00272549912864,1.0,0.0,-0.00966495938234
1385572471407046434,-0.0253844264884,-0.00665080392833,0.0026806410727,1.0,0.0,-0.00966141999376
1385572471456916324,-0.0251243484775,-0.00629886095727,0.00263897004816,1.0,0.0,-0.00970780308781
1385572471507050097,-0.024744935317,-0.00612906193545,0.0025763173235,1.0,0.0,-0.00969072681552
1385572471556957881,-0.0245083848489,-0.00584635421418,0.00252036915797,1.0,0.0,-0.00974391702928
1385572471607831240,-0.0242013400312,-0.00565578244122,0.00243336256468,1.0,0.0,-0.00975149716921
1385572471657966160,-0.0239208332254,-0.00552139824609,0.00227931104448,1.0,0.0,-0.00976587811999
1385572471708010941,-0.023593756001,-0.00531381135029,0.00218959741433,1.0,0.0,-0.00977286986198
1385572471756820556,-0.0232343621629,-0.00518939324292,0.00214093076201,1.0,0.0,-0.00978789864357
1385572471807014997,-0.0228944828574,-0.00500979270174,0.00214507287493,1.0,0.0,-0.00982633321495
1385572471856974403,-0.0225429928774,-0.00493828708412,0.00204841434165,1.0,0.0,-0.00983223644535
1385572471907051221,-0.0221970732018,-0.00479815004543,0.00199874888305,1.0,0.0,-0.00985784699846
