%time,field.linear.x,field.linear.y,field.linear.z,field.angular.x,field.angular.y,field.angular.z
1385572440465674329,0.0,0.0,0.0,0.0,0.0,0.0
1385572440466011162,0.0736806705687,-0.0941206161147,-0.114347024063,-0.0020919235642,0.00750226820714,-1.57389869538
1385572440475973940,0.073664980825,-0.0941256207242,-0.114347635164,-0.00213764969545,0.00749154429894,-1.57388201568
1385572440486025728,0.0736808532457,-0.0941245891373,-0.114346736064,-0.0021140850549,0.00748366614064,-1.57386669029
1385572440496055128,0.0736914787589,-0.0941257260548,-0.114354024951,-0.00210538057472,0.00751163892326,-1.57383565065
1385572440506072038,0.0736694984947,-0.0941235916538,-0.114355580062,-0.00212766175305,0.00754383279424,-1.57388622097
1385572440515937776,0.0736771916265,-0.0941175945956,-0.114353950357,-0.00208003626958,0.00749290630189,-1.57389603513
1385572440525938409,0.0736871995745,-0.0941292774468,-0.114344041448,-0.0020899889006,0.0075057720972,-1.57385512116
1385572440538301354,0.0736734100743,-0.0941206759588,-0.114347726738,-0.0021249476528,0.00750001832112,-1.57388561129
1385572440546046547,0.0736856246688,-0.0941277090855,-0.114349628201,-0.00213058167287,0.00752353601608,-1.57385895116
1385572440556088076,0.0736705333452,-0.0941141345784,-0.114358878652,-0.00209894596183,0.00751726785673,-1.57390300035
1385572440565973913,0.0736740776415,-0.0941214485864,-0.114348360407,-0.00206594369914,0.00748869734305,-1.57388458947
1385572440576075747,0.073676901443,-0.0941153258963,-0.11435151103,-0.00214338339363,0.00747143908002,-1.57389621302
1385572440585945171,0.0736762397941,-0.0941199549717,-0.114348082451,-0.00211991687898,0.00749908416815,-1.5738818266
1385572440596025236,0.0736800832344,-0.0941172362173,-0.114348302918,-0.0020925558455,0.00749540314528,-1.57386362455
1385572440606075496,0.0736721412635,-0.0941268078732,-0.114349137461,-0.00210972184978,0.0074280866465,-1.57388283943
1385572440615922930,0.0736922931912,-0.0941346255519,-0.114342546424,-0.00214323588688,0.00749991767653,-1.57383949847
1385572440625999911,0.0737010837435,-0.0941280759032,-0.114345119995,-0.00215742578008,0.00749066432904,-1.57385635725
1385572440636012706,0.0736708008719,-0.0941300889946,-0.114350457223,-0.00209164949961,0.00749802670823,-1.573859542
1385572440645927556,0.0736679439315,-0.0941279283624,-0.114352735351,-0.00210270249101,0.00744004067572,-1.57387413672
1385572440655993842,0.0736764833335,-0.0941297574847,-0.114356528678,-0.00208649448745,0.00746975867897,-1.57385979814
1385572440665982301,0.0736959217504,-0.0941394110321,-0.114347012973,-0.00211852001017,0.0074958659702,-1.57379641593
1385572440675929805,0.0736794591779,-0.0941263552633,-0.114347370755,-0.00211406244719,0.00748542384363,-1.57386460556
1385572440686022329,0.0736822416711,-0.0941205288666,-0.114355435294,-0.00208443896617,0.00748135245132,-1.57387614797
1385572440696033941,0.0736814811725,-0.0941210017488,-0.114352298737,-0.00208510121912,0.00748367429131,-1.57390285076
1385572440706072748,0.0736672031811,-0.0941251313764,-0.114344711795,-0.0020985801358,0.00746274819958,-1.57387826353
1385572440716101300,0.0736964100446,-0.0941291389538,-0.114344437124,-0.00210142639094,0.0074097048178,-1.57385837334
1385572440726124180,0.0736850654039,-0.0941274966258,-0.114346165754,-0.00208471526991,0.00744845540681,-1.57385937633
1385572440736129708,0.0736790984079,-0.0941248816599,-0.114351001165,-0.00210954268926,0.00747450052004,-1.57388890882
1385572440746022300,0.0736736561116,-0.0941149076658,-0.114353108502,-0.00210088046034,0.00752685131182,-1.57387902384
1385572440756060247,0.073692751284,-0.0941312270876,-0.114345755117,-0.00208973017714,0.00748899245754,-1.57384777052
1385572440766006329,0.0736727973049,-0.0941216345802,-0.114344290534,-0.00210298772447,0.00748710919984,-1.57385345588
1385572440776010076,0.0736760033563,-0.094117656777,-0.114347669074,-0.00213178683126,0.00746627621254,-1.57389339631
1385572440786014217,0.0736755002619,-0.0941209733092,-0.114347422289,-0.00210875079899,0.00746396370994,-1.57387537669
1385572440796062481,0.0736702936884,-0.0941287672982,-0.114345273571,-0.00212518795925,0.00742561258482,-1.57386595616
1385572440806089446,0.0736882160139,-0.0941230316671,-0.114346473718,-0.00213588117161,0.00745829992446,-1.57388927374
1385572440816051086,0.0736696086336,-0.0941219129086,-0.114344969774,-0.00211226706628,0.00746581453616,-1.57388019168
1385572440826124785,0.0736838260891,-0.0941145728915,-0.114353077897,-0.00209808535537,0.00746903836957,-1.57388096731
1385572440835990648,0.0736998058759,-0.0941291747644,-0.114347068414,-0.00210583844377,0.00743445595451,-1.57385033988
1385572440845924387,0.0736757026458,-0.0941252773509,-0.114343065775,-0.00213649672796,0.00747398069064,-1.57388062486
1385572440856016004,0.0737002278925,-0.0941375598558,-0.114345464789,-0.00211424915512,0.00749968261638,-1.57381060896
1385572440865927939,0.073678144087,-0.0941203682652,-0.114349070558,-0.00207251134739,0.00743096009849,-1.5739007966
1385572440876003035,0.0736756530035,-0.0941218512471,-0.114348098183,-0.00208552437991,0.00744986826845,-1.57389459884
1385572440885962337,0.073680749342,-0.0941202989036,-0.114347538707,-0.00211410686612,0.00748667179725,-1.57388691413
1385572440896061303,0.0736768297356,-0.0941282943003,-0.114347499852,-0.00212750378342,0.00748305844398,-1.5738749512
1385572440906041195,0.0737013151569,-0.0941281687229,-0.114347276153,-0.00210674630582,0.00748483685102,-1.57387746331
1385572440916085867,0.0736896797825,-0.0941298819759,-0.114353808947,-0.00207674177599,0.00747233776621,-1.57385466228
1385572440926034150,0.073671992673,-0.094123166955,-0.114353276248,-0.00206017514454,0.00746483345097,-1.57388034602
1385572440936089345,0.0736631968722,-0.0941265577026,-0.114345271451,-0.00212674050657,0.00746280110899,-1.57388964189
1385572440945984156,0.0736742741368,-0.0941280842684,-0.114347947134,-0.00210998639261,0.00747155285652,-1.57389770786
1385572440956086585,0.0736787715401,-0.0941207009586,-0.114356592635,-0.00208692177816,0.00747258721187,-1.57388112129
1385572440966110207,0.0736760160887,-0.0941257065522,-0.114347415224,-0.00210980603777,0.00745493079817,-1.57388485876
1385572440976020226,0.0736799959373,-0.0941190589107,-0.114346724311,-0.00211361604826,0.00752272165323,-1.57387890812
1385572440985999067,0.0736748025881,-0.0941287156292,-0.114346173268,-0.00209835230785,0.0074972632191,-1.573851968
1385572440996101556,0.0736889744463,-0.0941283756796,-0.114343396951,-0.00211797366795,0.00746607765537,-1.57384444348
1385572441006053263,0.0736858497437,-0.094111955349,-0.114350456463,-0.00209843496959,0.00741785350819,-1.57387860755
1385572441016066765,0.0736913674024,-0.0941315268099,-0.114350122308,-0.00211897030871,0.0074846005147,-1.57384407773
1385572441026085552,0.0736761681347,-0.0941223684094,-0.114349999063,-0.00210888780446,0.00749783206882,-1.57388629807
1385572441035984878,0.0736908729292,-0.0941137603872,-0.114353990761,-0.00206254587831,0.00748008922886,-1.57384233446
1385572441045922055,0.0736238133776,-0.0941450639247,-0.114383638929,-0.00319812538288,0.00612871184168,-1.57379900048
1385572441055922367,0.0735508858545,-0.0941773975094,-0.114448447893,-0.00271822125105,0.00623835981253,-1.57367318565
1385572441066023225,0.0735490831443,-0.0941957891347,-0.114490454665,-0.00275650265037,0.00663432070575,-1.57283624344
1385572441076019357,0.0737345547743,-0.0941163601651,-0.114293115491,-0.00242358535704,0.0074419792049,-1.57454474478
1385572441085975254,0.0737380821528,-0.0941267908807,-0.114318502056,-0.00251140124695,0.00759165508017,-1.57407396276
1385572441096131750,0.0735966618207,-0.09415317517,-0.114486142242,-0.00295254690731,0.00635762106653,-1.57290441945
1385572441106091409,0.07360288585,-0.0941633718876,-0.114382145953,-0.00300624475519,0.00606624402199,-1.57366731683
1385572441116052755,0.0736359301384,-0.094190590166,-0.114403986183,-0.00308223432671,0.00647111202837,-1.57429871131
1385572441126171624,0.0736317815149,-0.0942074620452,-0.114422373474,-0.00312354945517,0.00645414199767,-1.57353538762
1385572441136017108,0.0736582180005,-0.0942178241802,-0.114442403938,-0.00315244611042,0.00627795848963,-1.57338421895
1385572441145941298,0.0736469159409,-0.0942158019594,-0.114413891128,-0.00307445378634,0.00634440747496,-1.57386757343
1385572441156005860,0.0737139817395,-0.0941790787897,-0.114202041766,-0.0021620199651,0.00817285833374,-1.57410839584
1385572441165984028,0.073648416114,-0.0941898673149,-0.114430467573,-0.00323338726607,0.00649286147835,-1.57373186126
1385572441176007917,0.0736028326922,-0.0942294155773,-0.114413193447,-0.0030539705918,0.00636379056712,-1.57395782672
1385572441186006582,0.0735852187882,-0.0942267192489,-0.114401715758,-0.00298808984281,0.00636458479454,-1.57369061004
1385572441196018270,0.073566760046,-0.0942314432866,-0.114454112337,-0.0027038213444,0.00651222588127,-1.57361121269
1385572441205907936,0.0735998999964,-0.0942242225554,-0.11440425772,-0.00310159885803,0.00642792823455,-1.5736927701
1385572441215972251,0.0735924056451,-0.094243463508,-0.114399699499,-0.00309507373872,0.00634045561538,-1.57375369772
1385572441225997897,0.0735898130089,-0.0942185973603,-0.114443221396,-0.00288624243061,0.00654501241289,-1.57361121422
1385572441235927038,0.0735802136127,-0.0941748553973,-0.114375592583,-0.00283837302032,0.00618180107314,-1.57342801648
1385572441245964380,0.073603371937,-0.0942273066694,-0.114409233778,-0.00304331033539,0.00636306492991,-1.57387747264
1385572441255941687,0.0737276795398,-0.0941650520121,-0.114319912389,-0.00241382198882,0.00767912712092,-1.57375204915
1385572441265938672,0.0735763339394,-0.0942001526493,-0.114428031726,-0.00322404707834,0.00646613984212,-1.57332042732
1385572441275929403,0.0735969602858,-0.0942331408731,-0.114398449437,-0.00307994748305,0.00633505663688,-1.57379791729
1385572441285922770,0.0735997727379,-0.0942290335887,-0.114418785645,-0.00308944749008,0.00646146911648,-1.57383985174
1385572441295972209,0.0735437878753,-0.0941912797783,-0.114484723769,-0.00263224412104,0.00642355093696,-1.57377905228
1385572441306081648,0.0735229026165,-0.0941937251592,-0.11444088734,-0.00242274683152,0.00626304397236,-1.57340911132
1385572441316036658,0.0736023977485,-0.0942242441269,-0.114398003457,-0.00294077634891,0.00634900100044,-1.57387902432
1385572441326048960,0.0736634083042,-0.0941831212525,-0.114247722478,-0.00231539129236,0.00820172544034,-1.57378144105
1385572441335939994,0.0736044343517,-0.0942252244492,-0.114424123229,-0.00305647184868,0.006432110253,-1.57350126334
1385572441345965389,0.0736123610922,-0.0942276176685,-0.11440788256,-0.00298854773528,0.00626476755472,-1.5735759301
1385572441355923377,0.0735637803919,-0.094238478854,-0.11445180042,-0.00273673381786,0.00652379270416,-1.57387690287
1385572441365923161,0.0735579300238,-0.0941938890461,-0.114403603357,-0.00284381585323,0.0062191364003,-1.57347018732
1385572441376001768,0.0737417301396,-0.0941776289506,-0.114371064527,-0.00238095484731,0.00800689299457,-1.57363162553
1385572441386008245,0.0736855770129,-0.0941481351727,-0.11428875047,-0.00216527398318,0.00737265982435,-1.57373870285
1385572441395918227,0.0737530051722,-0.0941657935228,-0.114302411622,-0.00241517511514,0.00770620256464,-1.57384145587
1385572441405925138,0.0737434949046,-0.0941586163463,-0.114325303421,-0.002415089129,0.00764727564001,-1.57376129628
1385572441415957075,0.0735943346688,-0.0942131720407,-0.114429586446,-0.00298965305629,0.00632665721824,-1.57348915352
1385572441425994958,0.0737225403153,-0.0941776350222,-0.114297908913,-0.00221515671112,0.00742214652565,-1.57377363747
1385572441436074304,0.0737402190914,-0.0941744843892,-0.11429807756,-0.00235559417613,0.00762360262805,-1.57393463046
1385572441445980721,0.0736437221429,-0.0941621880279,-0.114375223165,-0.00328835204719,0.00618181761551,-1.57383102149
1385572441456087641,0.073558905882,-0.0941944720063,-0.114395292646,-0.00285500487459,0.00618421932006,-1.57354102363
1385572441465940417,0.0735782515027,-0.0942453891606,-0.114380223708,-0.00268411664492,0.00613318016074,-1.57365714149
1385572441475954697,0.073610068841,-0.0942294305473,-0.114397444178,-0.00303833453177,0.00646124658824,-1.57370131592
1385572441485981982,0.073757839734,-0.0941631014909,-0.114296168363,-0.00238418168739,0.00757784627739,-1.57394450205
1385572441495994035,0.0737448983304,-0.0941630859277,-0.1143115925,-0.00235575603938,0.00764696443159,-1.57370060086
1385572441506030347,0.0737199250933,-0.094179535225,-0.114291806519,-0.00232457840575,0.0075347341832,-1.5735727227
1385572441516041582,0.0737025873079,-0.0941545377388,-0.114325038449,-0.00212917734376,0.00765456547941,-1.57413917676
1385572441526023336,0.0735611412606,-0.0942003626256,-0.114360136235,-0.00276741635637,0.00622172329161,-1.57371467067
1385572441535920443,0.0735565589577,-0.0942410528763,-0.114360257271,-0.00306053991426,0.0071308246067,-1.57322083452
1385572441545928695,0.0736968074494,-0.094216205224,-0.114389478459,-0.00205946799347,0.00802790335982,-1.57342103472
1385572441555941073,0.0737639560631,-0.094165503757,-0.114305429596,-0.00227206769154,0.00760022461626,-1.57417675435
1385572441565937860,0.0737454982873,-0.0941742122578,-0.114283909322,-0.00237970020467,0.00771838422641,-1.57394589405
1385572441575966310,0.0735985915704,-0.0942267292599,-0.114415312833,-0.0031321544646,0.00640783468029,-1.57317125555
1385572441586041605,0.0736107567677,-0.0942350081564,-0.114416634235,-0.00306247652689,0.00630496797753,-1.57368557388
1385572441596012640,0.0736753891162,-0.0941536315136,-0.114268711536,-0.00213501149995,0.00765526401382,-1.57399369471
1385572441605936355,0.073605079755,-0.094222474851,-0.114438198579,-0.00277758824507,0.00642387786475,-1.57353032438
1385572441616050972,0.0736220601404,-0.0942451486764,-0.114498877986,-0.00261289272657,0.00668430749046,-1.57327479987
1385572441625927511,0.0737535548143,-0.094159891943,-0.114392518676,-0.00199663903765,0.00744404452002,-1.5740822723
1385572441635919910,0.0735608993413,-0.0942604966347,-0.114460797351,-0.00261273963747,0.00630058945089,-1.57389421523
1385572441645965941,0.0735533220418,-0.0941838698386,-0.114429720369,-0.00286697990566,0.00602326675145,-1.57304238998
1385572441655927036,0.0737370740563,-0.0941630678218,-0.114318652096,-0.00265188203837,0.0072104212906,-1.57398206909
1385572441665910859,0.0737004435521,-0.0942259825067,-0.114277301668,-0.00245074019492,0.00748564768733,-1.57405594624
1385572441675947967,0.0736272497486,-0.0941622282234,-0.114371720165,-0.00192840071355,0.00773850810537,-1.57341092092
1385572441685957327,0.073607739155,-0.0942207639873,-0.114480793989,-0.00263522248877,0.00624226336356,-1.57385311728
1385572441695994745,0.0735358967906,-0.0942409334105,-0.114482843471,-0.00202866771899,0.00578738067187,-1.57349416038
1385572441706022466,0.0735690070382,-0.0942669803332,-0.11450980576,-0.00238415554934,0.00602163740379,-1.57345095181
1385572441716023078,0.0735826229627,-0.0942492822435,-0.114491095373,-0.00299176686988,0.00657077582534,-1.57403591603
1385572441726010959,0.0734490751984,-0.0942313503001,-0.114497841312,-0.00252303211437,0.00625448103679,-1.57340037916
1385572441735937328,0.0736881287751,-0.0941725740636,-0.114396406765,-0.00236275152973,0.00718368539872,-1.57370128282
1385572441745928334,0.0735643744493,-0.094269959831,-0.114473588505,-0.0029458620008,0.006234537379,-1.57392734286
1385572441755939961,0.0735665596989,-0.0942527774548,-0.114453695366,-0.00270723756896,0.00640151105789,-1.57349311062
1385572441765934993,0.07357631367,-0.0941968089918,-0.114437927029,-0.00198328165847,0.0059882788473,-1.57364448408
1385572441775996949,0.0735068239955,-0.094235016745,-0.114524165383,-0.0018697778051,0.00588775206472,-1.57359177037
1385572441786041439,0.0737190353237,-0.0941869948256,-0.114414351338,-0.00180327283984,0.00741847313928,-1.57380580783
1385572441795994641,0.073596751197,-0.0942083512213,-0.114479773042,-0.00311002473198,0.00645556130503,-1.5740894346
1385572441805951075,0.0735223475716,-0.094248935817,-0.11448314465,-0.00285730082492,0.00648785647758,-1.57366775955
1385572441816053284,0.0735949264493,-0.0942024890652,-0.11451484245,-0.00256312013097,0.00610056947277,-1.57372153216
1385572441825993180,0.0735680784725,-0.0942056427397,-0.114490000259,-0.0022651882196,0.0060087125246,-1.57391492317
1385572441835918855,0.0735187193879,-0.0941841242106,-0.114502404966,-0.00191829101301,0.00612587975788,-1.57337873268
1385572441845934359,0.0735515208768,-0.0941817897356,-0.114486826994,-0.00206626194938,0.0058561191057,-1.57358958062
1385572441856011708,0.0735004116898,-0.0942213879373,-0.114436970952,-0.00232552286444,0.00630071296144,-1.57393686142
1385572441865927253,0.07367833007,-0.0941553153792,-0.114384756856,-0.00230367904071,0.00765060520528,-1.57351749891
1385572441875961483,0.0737122643905,-0.0941716638461,-0.114394257314,-0.0023109436188,0.00741048871108,-1.57393233563
1385572441885952545,0.0735312971268,-0.0942136433059,-0.114475939828,-0.00228946688775,0.00596542622537,-1.57364950186
1385572441896010190,0.0735290802267,-0.0941776668135,-0.114496191341,-0.00202373381095,0.00602684092838,-1.57321092299
1385572441906002952,0.0735160117002,-0.0941987013988,-0.114572673281,-0.00186231999722,0.00615167650982,-1.57383645252
1385572441916041625,0.0735644480664,-0.0942406409853,-0.114547800426,-0.00248080724088,0.00613442406215,-1.57369082294
1385572441925997404,0.0735515308195,-0.094215437601,-0.114483518361,-0.00255888631345,0.00612097191555,-1.5734182854
1385572441935935881,0.0735723194796,-0.0942246633137,-0.114454950453,-0.00296546860403,0.00642445786465,-1.57405833772
1385572441945938662,0.0735250264209,-0.094248282511,-0.114482040296,-0.00282386765076,0.00640081350681,-1.57365430321
1385572441955959858,0.0735962126225,-0.0941855297298,-0.114489504575,-0.00247686829823,0.00601994080432,-1.57355270444
1385572441965960267,0.0735482821343,-0.0942142974047,-0.1144863982,-0.00212759697407,0.00618837334704,-1.57382800191
1385572441975995119,0.0735228885894,-0.0941755494866,-0.114488204089,-0.00196168610942,0.0059983582396,-1.5732618871
1385572441985971686,0.0735888243352,-0.0942349241618,-0.114519226611,-0.0023936007112,0.00607026759989,-1.57371729833
1385572441995920407,0.0735729434313,-0.0942449936456,-0.114458258585,-0.00304414107922,0.00675020692491,-1.57399441518
1385572442006017258,0.0734563372487,-0.0941897216121,-0.114461280379,-0.00267721252877,0.00637141846529,-1.57319461117
1385572442016069320,0.0736601136604,-0.0941867278011,-0.114430771499,-0.00231893994471,0.00765842447316,-1.57396891658
1385572442025991628,0.0735578806864,-0.0942384814489,-0.114520397226,-0.00288178518399,0.00623974476636,-1.57386777465
1385572442035891257,0.0735698947865,-0.0942182298727,-0.114511547363,-0.00221421622764,0.00605271725441,-1.57327477871
1385572442045910944,0.0735508836761,-0.094198065431,-0.114461746308,-0.00213496388934,0.00622321942689,-1.57379540965
1385572442055926189,0.0735437378176,-0.0942427812022,-0.114479035245,-0.00258876250231,0.00634460086496,-1.57382581208
1385572442065910046,0.0736360716935,-0.0941325100705,-0.114339644582,-0.00266088808092,0.00811646144364,-1.57355673756
1385572442075940679,0.0735820307865,-0.0942382110646,-0.114463599503,-0.0034303987316,0.00641589713082,-1.57386949452
1385572442085929146,0.0735387919602,-0.094228998172,-0.114438830893,-0.00284404805075,0.00624897432357,-1.57360077605
1385572442095933283,0.0735463117627,-0.0941800299478,-0.11448656307,-0.00199774549773,0.00587262369052,-1.57339338235
1385572442105912020,0.0735397886816,-0.0942058698694,-0.114494185774,-0.00168756866388,0.00600923320022,-1.57372459488
1385572442115967017,0.0735106025611,-0.0941929413599,-0.114454462709,-0.00200090032967,0.00595467074409,-1.57323829407
1385572442125916480,0.0734985866032,-0.0941915786159,-0.114459053357,-0.00224947867157,0.00606039440432,-1.57352338276
1385572442135905422,0.0735521050471,-0.0942500563227,-0.114477101082,-0.00332247117593,0.00634390304191,-1.57386000046
1385572442145917158,0.0735383232315,-0.0942167367757,-0.114501039732,-0.00311488005894,0.00623200739656,-1.57353189269
1385572442156007108,0.0735471418079,-0.09420393973,-0.114435310079,-0.00244818283818,0.00595416979771,-1.57362919179
1385572442165923247,0.0735622253692,-0.0942643530141,-0.114444645638,-0.0022093694274,0.00634612767518,-1.57374725508
1385572442175938755,0.0735378602157,-0.0942156006047,-0.11447361712,-0.00234020387518,0.0061670014089,-1.57354558927
1385572442185944977,0.0735618082746,-0.0942545233706,-0.114497376402,-0.00291152395625,0.00645345297777,-1.57404660728
1385572442195919364,0.0735328159381,-0.0942497595169,-0.114466770777,-0.00284718969364,0.00633153674525,-1.57383894308
1385572442206013867,0.0735467226074,-0.0942114701289,-0.114437138925,-0.00273874256714,0.00621003247849,-1.57370465637
1385572442215964800,0.0735780139891,-0.0942761160406,-0.114473228483,-0.00274334664884,0.00640243696245,-1.57403745311
1385572442225903848,0.0734959443862,-0.0942179656631,-0.11452914003,-0.00217955762162,0.00582475767137,-1.57340546217
1385572442235919366,0.0735247617281,-0.0941948787682,-0.114460226503,-0.00227905104326,0.00601827568884,-1.57372437354
1385572442245918934,0.0735544169247,-0.0942460531525,-0.114397429503,-0.0031393828486,0.00665210696752,-1.5738583796
1385572442256006888,0.0736404973081,-0.0941497986683,-0.114315717447,-0.00259155055682,0.00752405098556,-1.57381784726
1385572442265917192,0.0736849292157,-0.0941581861686,-0.114394651877,-0.00254400832456,0.00734702345827,-1.57419907301
1385572442275988190,0.0735306974633,-0.0942211884765,-0.114473086208,-0.00272724428885,0.00636934005511,-1.5735308994
1385572442285971417,0.0735243567431,-0.0942171444027,-0.114440974627,-0.00203066241646,0.00629395876786,-1.57411410158
1385572442295905901,0.0735009028068,-0.0941893742599,-0.114413514083,-0.00188503558348,0.00602193057929,-1.57369920644
1385572442306051003,0.0735261223366,-0.0941923627398,-0.11447308619,-0.00253229278431,0.00617615221937,-1.57363497137
1385572442316045519,0.0735184707689,-0.0941944652061,-0.114452477874,-0.00335522325437,0.00651781939873,-1.57448630077
1385572442325911698,0.0736246403752,-0.0941501264887,-0.11437733448,-0.00266228567001,0.00790558208994,-1.57386419191
1385572442335917495,0.0735688497333,-0.0940763667633,-0.11429248177,-0.00210820469002,0.00732720461468,-1.57419166054
1385572442345922050,0.0736305344755,-0.0941598348152,-0.114320773134,-0.0016820496297,0.00739641046067,-1.57441370291
1385572442355916302,0.0736572775816,-0.0941321143327,-0.114358727868,-0.00128012145179,0.00743877369335,-1.5738228576
1385572442366031979,0.0735053610877,-0.0941984829177,-0.114492795658,-0.00234678623532,0.00610478877607,-1.57466830456
1385572442375994645,0.0736472297279,-0.0941268525878,-0.114354090011,-0.00224792204387,0.00766993366488,-1.57410529149
1385572442385988206,0.0736222900172,-0.0941019804129,-0.114291808448,-0.00233637993234,0.00767662572429,-1.57416546597
1385572442395926918,0.0735147153005,-0.0941411284241,-0.114265247105,-0.00178263409942,0.00718807223116,-1.57465153238
1385572442406034972,0.0734896926406,-0.094142126235,-0.114483545292,-0.00282748216696,0.006241757389,-1.57375979708
1385572442416016472,0.0735839520715,-0.0941265599046,-0.114345279067,-0.00156774714212,0.00729707044682,-1.5747279754
1385572442425934981,0.0734897017332,-0.0941978198117,-0.114460949379,-0.00220234352696,0.0061551058642,-1.57436691391
1385572442435918831,0.0735042444062,-0.0940824095896,-0.114307638,-0.00166912809069,0.00715633199136,-1.57429921067
1385572442445914454,0.0734926727045,-0.0941262467431,-0.114327440104,-0.00208916933364,0.00734913969518,-1.57472718763
1385572442455902025,0.0734142895648,-0.0940948463022,-0.114449336672,-0.00259672677469,0.00607190860773,-1.57393948945
1385572442465945158,0.0734390849603,-0.0941865870738,-0.114422557773,-0.00247525033913,0.00639216320829,-1.57458769187
1385572442475949930,0.0735564213033,-0.0940982297277,-0.114381559525,-0.0015250471912,0.00768510702678,-1.57459164077
1385572442485919219,0.0734434180743,-0.0941073250291,-0.114478518127,-0.00252631188688,0.00644276362708,-1.57428347532
1385572442495900176,0.0735219898445,-0.0940868712474,-0.114392461549,-0.00175568420558,0.00718968739135,-1.57471142755
1385572442506059174,0.073595706557,-0.094003793202,-0.11435649156,-0.00195136950734,0.00731416749458,-1.5744300145
1385572442515965297,0.0735295425234,-0.0940276723451,-0.114182856087,-0.00156376862629,0.00776031187351,-1.57454401963
1385572442525896081,0.0734013303845,-0.0940310723232,-0.114391024006,-0.00252688998683,0.00618522788911,-1.57452055394
1385572442535916203,0.0733590605459,-0.0940841122602,-0.114562884865,-0.00330920631469,0.00628599802745,-1.57406258536
1385572442545899113,0.0732491816548,-0.0940757189874,-0.114525534294,-0.0032213547625,0.00618938264876,-1.57461326841
1385572442555896031,0.0734878513112,-0.0939367629807,-0.114286104569,-0.00191922323916,0.00756529886769,-1.57445105212
1385572442565913728,0.0732402083194,-0.0941396817042,-0.114337328734,-0.00253449056232,0.00611363058894,-1.5745380061
1385572442575913008,0.0732914884354,-0.0939897989815,-0.114473696232,-0.00191257395667,0.00597511005356,-1.574734028
1385572442585945743,0.0732344127066,-0.0940254221553,-0.114473496208,-0.00152200755804,0.00556529562211,-1.57456385444
1385572442595979595,0.0732093457944,-0.0940542034925,-0.114465636912,-0.00237319464142,0.0056882503469,-1.57567856829
1385572442605911438,0.0731966435382,-0.0940110583882,-0.114408509957,-0.00305070985905,0.00610251351547,-1.5754307456
1385572442616016287,0.0732622390536,-0.0938809119558,-0.114512517293,-0.00245238812919,0.00652768026454,-1.57646844579
1385572442625973148,0.0732877969648,-0.093878379614,-0.114504229332,-0.00274714711604,0.00620780905421,-1.57646589189
1385572442635896185,0.0732825139205,-0.0938346184117,-0.114515077015,-0.00183896239486,0.00611464950147,-1.57642355236
1385572442645909129,0.0732311035927,-0.0938235608624,-0.114473739643,-0.00155652454604,0.00635651186272,-1.57716110586
1385572442655914320,0.0731805089721,-0.0938142557198,-0.114432038199,-0.00195830993006,0.00598332052352,-1.57703361732
1385572442665928516,0.0730985709235,-0.0939035075886,-0.114503700818,-0.00215351316008,0.00567131499375,-1.57866809221
1385572442675974954,0.0731152494958,-0.0937313525441,-0.1145419707,-0.00245399308582,0.00615072246591,-1.57875030904
1385572442686064020,0.0730712945491,-0.0938587959285,-0.114427828712,-0.00233103839729,0.00633238081331,-1.57920359374
1385572442696017086,0.0731267059147,-0.0935970953096,-0.114380435387,-0.00248128774803,0.00630715716649,-1.57933132582
1385572442706032048,0.0730426535695,-0.0937543296377,-0.11449899867,-0.00266766194461,0.00585253420056,-1.57961255963
1385572442716031685,0.0730567375566,-0.0934788061966,-0.114479088253,-0.00286742616173,0.00588142561466,-1.57944651243
1385572442725994784,0.0731058865968,-0.0934519962621,-0.114472063649,-0.00296672658852,0.0062761041255,-1.57988597302
1385572442735901324,0.0731186858059,-0.0933701999701,-0.114434417368,-0.00248839545366,0.00604031684037,-1.57950995461
1385572442745903320,0.0731583163522,-0.0932855970129,-0.114532803406,-0.00227128057288,0.00567024664828,-1.57946315167
1385572442755944363,0.0732813915394,-0.0933142481826,-0.114577198619,-0.0024883805507,0.006031876394,-1.57906238753
1385572442765912821,0.0733189773948,-0.0931785952674,-0.114508043093,-0.00270412591299,0.00624535873275,-1.57938885612
1385572442775944064,0.0733138692489,-0.0931616568169,-0.114407548608,-0.0028052889445,0.00672065199932,-1.57893751374
1385572442785972906,0.0733802128107,-0.0930415992613,-0.114450115812,-0.00311341567312,0.00669457378114,-1.57953420856
1385572442795925355,0.0733019022661,-0.0931109768729,-0.114519719832,-0.00242771474998,0.00595196200614,-1.57903712063
1385572442805936437,0.073415920697,-0.0928617556246,-0.114595409613,-0.00161137262943,0.00533191677174,-1.57973341183
1385572442815943019,0.073413388887,-0.0928309996322,-0.114686464467,-0.000804426281823,0.00728046846467,-1.58022841042
1385572442825916703,0.0734440009121,-0.0927302820543,-0.114583665075,-0.000910288617932,0.00608024473434,-1.58025374344
1385572442835887295,0.073325862415,-0.0927287273188,-0.114692838524,-0.0016794672249,0.00667390156113,-1.58150892802
1385572442845909906,0.0730929944504,-0.0927103546835,-0.114605806804,-0.00230806426834,0.00798938358447,-1.58193714762
1385572442855917953,0.0733360614084,-0.0926818417589,-0.114625708687,-0.00118453188421,0.00713356910428,-1.58345125936
1385572442865969800,0.0732262692298,-0.0926450949689,-0.114469681178,-0.00119118945455,0.00791459388629,-1.58400244259
1385572442875957514,0.0732446196719,-0.0926166885666,-0.114346432798,-0.00172737302721,0.0075030302519,-1.58478456698
1385572442886390278,0.0732533355471,-0.0926191641607,-0.114575077544,-0.00144067051572,0.00735494312371,-1.58471369671
1385572442895976206,0.0731508296316,-0.0925287728006,-0.114692603033,-0.00165992221684,0.00604547561336,-1.58532092882
1385572442906025366,0.0729940848086,-0.0924970723808,-0.114423333955,-0.000810445538498,0.00716658483217,-1.58559694158
1385572442916056211,0.0730486986134,-0.0922934611217,-0.114507295112,-0.000356956638481,0.00792451885322,-1.58627930015
1385572442925994709,0.0727868949068,-0.0923813849791,-0.114382976845,-0.00224110639964,0.00689374887127,-1.58652078453
1385572442936000727,0.0727589816309,-0.0923066593746,-0.114588024615,-0.00318954271253,0.00682554055241,-1.58709994962
1385572442945956557,0.0727419522494,-0.0922975245019,-0.114773189671,-0.00242725743757,0.00562062856485,-1.58733023951
1385572442955945573,0.0726835044775,-0.0922590224985,-0.114772962929,-0.00251411760664,0.00393053567842,-1.58738662127
1385572442965918038,0.0727399181515,-0.0921502263756,-0.114565327377,-0.00175135772078,0.00584743667417,-1.58768339536
1385572442976035972,0.0727018274995,-0.0919796079034,-0.114560177034,-0.00121229129837,0.00764491236444,-1.58804232101
1385572442986048405,0.0726307708189,-0.0918829940341,-0.114749121092,-0.00169405248524,0.00662719075537,-1.5885982377
1385572442995967072,0.0726758878128,-0.0919621663348,-0.114735635595,-0.00307688190535,0.00518446635066,-1.58950311299
1385572443005935018,0.0726680408041,-0.0917621016088,-0.114418040473,-0.00328818772699,0.00605515775998,-1.58974594398
1385572443015912476,0.0727199967107,-0.0916271875043,-0.114595238942,-0.00247338284789,0.00646207429275,-1.59069978251
1385572443025980160,0.0726797094051,-0.0914956266454,-0.114700896178,-0.00121413976303,0.00643966695442,-1.59128665431
1385572443036094069,0.0727359021763,-0.091390221061,-0.11461427106,-0.000945548752732,0.00639960373844,-1.59137450784
1385572443046001996,0.0727015500071,-0.0912335271021,-0.11471646194,-0.00049341458434,0.00748342508011,-1.59124689563
1385572443056253999,0.0727179345749,-0.0911475583346,-0.114759893488,-0.000352489945505,0.00538707580277,-1.59167504471
1385572443065981929,0.0727797981778,-0.0908889778215,-0.114651537453,0.000741565045729,0.00641560300665,-1.59160836984
1385572443075940151,0.0730311852751,-0.0907209681681,-0.114594443002,0.000573705638909,0.0079187190093,-1.59264750224
1385572443085976271,0.0729743635983,-0.0906075665064,-0.114524151303,-0.000518369545523,0.00710992758906,-1.59230545506
1385572443096055465,0.0729444287897,-0.0904226278699,-0.114392895086,-0.000992073803052,0.00707520992554,-1.59271854592
1385572443106076055,0.0728381514289,-0.0903460866302,-0.114397618899,-0.00207268324539,0.00688399790883,-1.59314644057
1385572443116221893,0.0727398366358,-0.0901091782373,-0.114574152784,-0.00247009494062,0.00887091531781,-1.593555642
1385572443126017557,0.0727854196201,-0.0900193283697,-0.114610948323,-0.00103051855396,0.00802786628466,-1.59423420464
1385572443136084974,0.0729056145878,-0.0898777047805,-0.114552750781,-0.000126497814567,0.00645359086305,-1.59475146171
1385572443146081294,0.0727823302699,-0.08981273407,-0.11429428585,0.00100594234492,0.00705585785497,-1.59494520895
1385572443156028606,0.0727237061734,-0.0895661805357,-0.114591035243,-0.000114437478072,0.00697978547401,-1.59594619469
1385572443166005713,0.0725840125974,-0.0893782794603,-0.114670309818,-0.000760075241527,0.00826503324194,-1.59706001918
1385572443176023280,0.0724865536299,-0.0890877037675,-0.114742940697,-0.00173480978495,0.0076602581445,-1.5981231877
1385572443186053983,0.0723566453838,-0.0889523855918,-0.114498589166,-0.00217510545247,0.00627712090111,-1.5986001523
1385572443196007275,0.0722088945092,-0.0887550142825,-0.114518751251,-0.00263697878508,0.00639877685283,-1.59947915322
1385572443206488626,0.0721303160947,-0.0884902476956,-0.114623133096,-0.00201839390791,0.0068872348654,-1.59943866532
1385572443216120694,0.0719969670785,-0.0882725777768,-0.114804841274,-0.00126811898319,0.0061321133567,-1.60056419347
1385572443225972635,0.0718858102981,-0.0879616324143,-0.114790865871,-0.000747234246995,0.0053844834285,-1.60151545882
1385572443236056917,0.071692004683,-0.0879226618937,-0.114622107604,-0.000348652445741,0.00469642181362,-1.60276286194
1385572443245910218,0.0718673634992,-0.0873716284179,-0.114801918348,0.000632501085886,0.00604158768876,-1.60402742206
1385572443256056892,0.0716062180164,-0.0872221880373,-0.114919413924,0.000409661878942,0.00461433221757,-1.6054404248
1385572443266081511,0.0713353760138,-0.086831947713,-0.115013112782,-0.00112687877112,0.0051861288081,-1.60627064732
1385572443275975364,0.0712696218069,-0.0864878415772,-0.115100204304,-0.00194306194385,0.00259801535505,-1.60806975782
1385572443285939522,0.0709144218638,-0.0861687828513,-0.115372385346,-0.00219855842884,-0.000962036361469,-1.6085198564
1385572443296995118,0.0707387508995,-0.0858373646808,-0.115581475765,-0.00290490711637,-0.00266415292983,-1.60922786811
1385572443306111656,0.07048419478,-0.0854095087659,-0.115769265552,-0.00279472499924,-0.0025644030677,-1.6107129548
1385572443316086588,0.0703860033992,-0.0849929242129,-0.11608973791,-0.00253040998856,-0.00342093715048,-1.61107639995
1385572443326054929,0.0700203886072,-0.0846784014348,-0.116366706191,-0.00189241202494,-0.00545339805419,-1.61181645395
1385572443336075801,0.0698846051909,-0.0840387425295,-0.116661395124,-0.000710015214815,-0.00737420661515,-1.61279884476
1385572443346106528,0.0696583221782,-0.0837068923575,-0.116940993201,0.000686880359625,-0.00647340299235,-1.61284738624
1385572443356132524,0.0696013047387,-0.0830891173235,-0.117363271175,0.00137124082946,-0.00972624566711,-1.61398118992
1385572443366096694,0.0693801345006,-0.082573339806,-0.117668862144,0.00249940591068,-0.00795105465525,-1.61536780284
1385572443375981023,0.0693940925783,-0.0820779561615,-0.118343433219,0.0034032736995,-0.0096740628858,-1.61605130545
1385572443386019356,0.0690834304579,-0.0816463407019,-0.118760835917,0.00524805357044,-0.00956321427381,-1.61665253715
1385572443396554245,0.0690852566549,-0.0810309080487,-0.119254780376,0.00586061268092,-0.0101602377599,-1.61784592755
1385572443406066213,0.0690011296925,-0.0804670384515,-0.120022935448,0.00576558695537,-0.0110444594254,-1.61838773801
1385572443416284640,0.0688983800727,-0.0799698696514,-0.120825951639,0.005987125945,-0.0117770604748,-1.61870996652
1385572443426185014,0.0687326972921,-0.079394719242,-0.121502464513,0.00634224791271,-0.0121119366809,-1.61899680738
1385572443436094402,0.0688720976517,-0.0789112167814,-0.122530033748,0.00769818783758,-0.0119047946514,-1.61976006137
1385572443446257541,0.0689073833392,-0.0783484596479,-0.123598085698,0.00845484611838,-0.0127854202405,-1.62055709806
1385572443456069707,0.0688522281329,-0.0777854244367,-0.124753521831,0.00984713387287,-0.0137655060794,-1.62098070636
1385572443465992307,0.0689837192857,-0.0772269334046,-0.126000824584,0.0115639028312,-0.0140905386067,-1.62177074517
1385572443476031193,0.0689364088981,-0.076653035971,-0.127137893933,0.0123211051114,-0.0135001666085,-1.62223592626
1385572443486103328,0.0691434423603,-0.076076719007,-0.128742055928,0.013622354772,-0.0155553755592,-1.6222130433
1385572443496071051,0.069115100772,-0.0755078734861,-0.130660263304,0.0148279548699,-0.0184455088469,-1.62256247906
1385572443506445234,0.0693159143065,-0.0749997809323,-0.132474644508,0.0163180726147,-0.0196967034891,-1.62160722145
1385572443517452241,0.069511598416,-0.0744239089873,-0.134288088844,0.0173110387123,-0.0203634043396,-1.62123332046
1385572443526047815,0.0697163740076,-0.0738773894393,-0.136428997848,0.0179459588689,-0.0225683299697,-1.62122085354
1385572443536600413,0.0699005086743,-0.0733230618364,-0.138700985381,0.0188193581498,-0.0247750764021,-1.62083706025
1385572443545992698,0.0700295822774,-0.0727491422052,-0.141109083595,0.0211284171679,-0.0255765303325,-1.6213650299
1385572443556044567,0.0701328707028,-0.072209153426,-0.143627069191,0.0218527230964,-0.027815551806,-1.62143283537
1385572443566077500,0.0705836900947,-0.0717468474845,-0.146162964503,0.0235438987031,-0.0310451186802,-1.62142285465
1385572443576018826,0.0707825673444,-0.0713345335004,-0.148875839659,0.0250519374446,-0.0341145478225,-1.62056777852
1385572443586096083,0.071230575386,-0.0708111058234,-0.151701968099,0.025332160564,-0.0358645129387,-1.61952822527
1385572443596079869,0.0716328857754,-0.0704564188673,-0.154845989991,0.0259931361305,-0.038316872399,-1.61877166772
1385572443606090286,0.0719641449712,-0.0700692848254,-0.157978966861,0.026878658715,-0.0421079424689,-1.61784255673
1385572443616379882,0.0725140331113,-0.0696623622003,-0.161150449772,0.0289028747943,-0.0444803369251,-1.61671891402
1385572443626031039,0.0728590031941,-0.0694161363945,-0.164353076208,0.0294463433102,-0.0475053377681,-1.61625442538
1385572443636096973,0.0731460229792,-0.069362341053,-0.167858734763,0.0295323358586,-0.0470323036463,-1.61624319945
1385572443646057004,0.0740034506809,-0.0689794661737,-0.171320165994,0.0303849524883,-0.050405394049,-1.61589105443
1385572443656063581,0.07455711898,-0.068929720571,-0.174984885151,0.0325809613415,-0.0521436121795,-1.6154270159
1385572443666042071,0.0750055304065,-0.0689284680032,-0.178501141248,0.032447070715,-0.05219002573,-1.61570584245
1385572443675953642,0.0755135276142,-0.0689699663598,-0.182339197971,0.0329109102095,-0.0549636820374,-1.61564765404
1385572443686112736,0.0761107800845,-0.0691873143105,-0.186180319724,0.032462172099,-0.0562108028385,-1.61563017
1385572443696075929,0.0768606107545,-0.0693606574902,-0.189955244103,0.0326746533182,-0.0554595155809,-1.61572137896
1385572443706457178,0.0773245303607,-0.0695771044915,-0.19395482509,0.0326671039765,-0.0570570120187,-1.61624877313
1385572443716160734,0.0777821994239,-0.0697450594182,-0.198105399099,0.0338223465604,-0.0582695924481,-1.6154456684
1385572443726037550,0.0786474443339,-0.0702302402481,-0.202334787981,0.0345078190414,-0.0563683110584,-1.615358094
1385572443735959480,0.0792657581124,-0.0706019101488,-0.206365784711,0.0344696376082,-0.0553272867215,-1.61529118613
1385572443745944940,0.0800594543844,-0.0709594417239,-0.210672730836,0.035110825252,-0.0518959890315,-1.61468383353
1385572443755895036,0.0808234585022,-0.0716236019203,-0.214995883732,0.0349849657719,-0.0519199051005,-1.61392877677
1385572443766086010,0.0815073432468,-0.0720965590747,-0.219233855412,0.0338460564564,-0.0513968484985,-1.61403412037
1385572443776026326,0.0822216525963,-0.0728127168613,-0.223741644602,0.0344391136263,-0.0509163297482,-1.61390600223
1385572443786020198,0.0829908454219,-0.0736027340072,-0.228180511113,0.0336735835023,-0.0510487793472,-1.61447179428
1385572443796036897,0.0838268902362,-0.0742863124205,-0.232855647519,0.0350027579694,-0.0504328326761,-1.61412974692
1385572443806001145,0.0846443627224,-0.0751693011464,-0.237545670648,0.0355025607479,-0.051789776975,-1.61432035403
1385572443816108583,0.0855076837387,-0.0760987447659,-0.242002458173,0.0359695313776,-0.0499908630187,-1.6146316354
1385572443825966994,0.086473836585,-0.0768660523304,-0.246628032398,0.0371496724661,-0.0484253340521,-1.61423720757
1385572443836134798,0.087441603668,-0.0778853679635,-0.251346478572,0.0383889582931,-0.0489567129993,-1.6144470956
1385572443845985656,0.0883756388482,-0.0788839562435,-0.256135673887,0.0388806683313,-0.0478239321112,-1.61456275228
1385572443856123838,0.0892665292583,-0.0799502373555,-0.260972194686,0.040054463299,-0.0466264412064,-1.61468993642
1385572443866169878,0.0902165187815,-0.0809654571101,-0.265628289708,0.0395068798723,-0.0456052140351,-1.6154726963
1385572443875961546,0.0910853971287,-0.0820617090278,-0.270575627546,0.0387170191365,-0.0424773847549,-1.61558923156
1385572443885975064,0.0920281492109,-0.0832524614593,-0.275378610679,0.0381763965518,-0.0404349470541,-1.61591956814
1385572443896109092,0.0932019738422,-0.0843644956249,-0.28017932038,0.0366628539494,-0.0386015256845,-1.61573221636
1385572443906010784,0.0941096399929,-0.0855990854295,-0.284984708146,0.0357013642305,-0.0383340556737,-1.61540494966
1385572443916032912,0.0952356932321,-0.0869035526998,-0.289782841447,0.0339977856978,-0.036215996176,-1.61472665176
1385572443926162868,0.0960980758466,-0.0882195251366,-0.294756633258,0.0337398089168,-0.0344116222883,-1.6142745235
1385572443936013583,0.0970511181583,-0.0895287888399,-0.29975014555,0.0322640061923,-0.0316951905557,-1.61419648136
1385572443945934591,0.0980139086038,-0.0909479058276,-0.304780545474,0.0298496920915,-0.0317462190436,-1.61366444985
1385572443956081652,0.0990464656097,-0.0921828940342,-0.309693203024,0.0286724538248,-0.028330352399,-1.61399718603
1385572443966007525,0.10009545221,-0.0937082433628,-0.314674912499,0.0266863223601,-0.0274090499681,-1.61348952257
1385572443975965027,0.10112384403,-0.0951332437562,-0.319698023705,0.0248596392752,-0.0250493659592,-1.61305803268
1385572443986621665,0.102091231007,-0.0965376737335,-0.324757297087,0.023332109722,-0.0239675756859,-1.6125028005
1385572443995984187,0.10332455956,-0.0980236646043,-0.32968310713,0.0219114260791,-0.0223628429847,-1.61196281149
1385572444006102772,0.104308722737,-0.0994890107039,-0.334924757443,0.0225963531669,-0.0201972574834,-1.61097399164
1385572444016018471,0.105413261928,-0.101042972915,-0.340031437625,0.0219046588753,-0.0190634044544,-1.61068025385
1385572444025920345,0.106539595979,-0.102575190535,-0.345009112641,0.0213077870911,-0.0175241774113,-1.61077773439
1385572444036049310,0.107536919204,-0.104121706334,-0.350159227916,0.0213023226333,-0.0172633100046,-1.61064261415
1385572444045934797,0.108766624592,-0.105801057874,-0.355460884232,0.0215833328989,-0.017313441873,-1.61073632783
1385572444056026519,0.109809780218,-0.107424270492,-0.360586675349,0.0217147293868,-0.0169556476518,-1.61065671244
1385572444066611127,0.110939806422,-0.109069642182,-0.365931897027,0.02236869765,-0.0167872089423,-1.61035051347
1385572444076030728,0.112055995717,-0.110744339547,-0.371017418111,0.0223387754533,-0.0172649783433,-1.61005582644
1385572444086057406,0.11333705855,-0.112377604943,-0.376506203746,0.0230738401375,-0.016298925469,-1.60961814676
1385572444095952011,0.11453551238,-0.114130822909,-0.381918779601,0.0237914333497,-0.0175586690609,-1.60926100412
1385572444106049427,0.115766541767,-0.115795207762,-0.387294417301,0.0250095693099,-0.0174712542823,-1.60878826014
1385572444116046744,0.11695863183,-0.117565696656,-0.393087141423,0.0264326098595,-0.0188553387482,-1.60891461749
1385572444125907589,0.117925711765,-0.119305255888,-0.398806887275,0.0281408891545,-0.0198835608284,-1.60868528482
1385572444136046377,0.119253154578,-0.121066967787,-0.40421839171,0.0284708511162,-0.0211283548787,-1.60878258561
1385572444146107989,0.120452740184,-0.122813198916,-0.409619091426,0.0290828782652,-0.0218933852597,-1.60876896482
1385572444156152593,0.12147947897,-0.124758111825,-0.414834169581,0.0284167671631,-0.0253887103641,-1.60874504456
1385572444166089034,0.122627148109,-0.126581700696,-0.419924577949,0.0279703540498,-0.0260975315576,-1.6085877235
1385572444176005110,0.12377475141,-0.128450786534,-0.424957271023,0.0271774246721,-0.0279535555925,-1.6081226341
1385572444186037027,0.125094504558,-0.130340193481,-0.429633394933,0.0257170551027,-0.0290259068047,-1.60816490585
1385572444195992298,0.126044837185,-0.132094619418,-0.434302935315,0.0253345558634,-0.0296977352676,-1.60745647833
1385572444206060611,0.127253660781,-0.134024323121,-0.438809368211,0.02383567441,-0.0309484867711,-1.6072205682
1385572444216062578,0.128616721054,-0.135942628778,-0.443217238018,0.0233094610492,-0.0308629681462,-1.60705044985
1385572444225968383,0.129793733204,-0.137935142781,-0.447516811388,0.0223361269438,-0.0308845364114,-1.60680575652
1385572444235988241,0.130856554269,-0.13994502026,-0.451641370206,0.0207839825846,-0.0327277631962,-1.60652885833
1385572444245998461,0.132191938634,-0.141844680348,-0.455652360106,0.0211043981032,-0.0319634294005,-1.60621501921
1385572444256059290,0.133280224679,-0.143814993914,-0.459446513337,0.0207516292,-0.0327287319768,-1.60556663297
1385572444265971316,0.134551697115,-0.145744467268,-0.463127118905,0.0195312439889,-0.0318453973679,-1.60552680525
1385572444275896924,0.13578592406,-0.147868671928,-0.466670844544,0.0195791869187,-0.032392615127,-1.60516727441
1385572444285993683,0.136779215955,-0.149791766898,-0.47008229543,0.0188584422238,-0.0312007256222,-1.60506329417
1385572444295918454,0.138022401454,-0.151962293778,-0.473353631259,0.0190334345562,-0.0329101824735,-1.60470617672
1385572444306082028,0.13932331019,-0.154136088646,-0.476376487775,0.0183278365478,-0.0330583662273,-1.60451663208
1385572444315982433,0.140602090812,-0.156312958323,-0.479373221073,0.0177609444417,-0.0324657917106,-1.60448984443
1385572444326022207,0.141654120805,-0.158397163846,-0.482094024755,0.0176663002623,-0.0328255262631,-1.6039164139
1385572444335903599,0.142841983493,-0.160542563633,-0.484818010054,0.0168989579366,-0.0321269932748,-1.60382296607
1385572444345907769,0.144134433733,-0.162740175657,-0.487344767097,0.0167870676066,-0.0325320997826,-1.60355824698
1385572444355922479,0.145055196588,-0.164974942158,-0.489473948488,0.0158529735283,-0.0306914029167,-1.60332184783
1385572444365918706,0.146408191953,-0.167316749238,-0.491840455305,0.0156156855965,-0.0322752012409,-1.60328949666
1385572444375939736,0.147554719048,-0.169473294059,-0.493747343947,0.0146369792583,-0.0315507992192,-1.60275782327
1385572444385944872,0.148910286771,-0.171814998467,-0.49574051262,0.0140919471239,-0.0307672714659,-1.602950454
1385572444396121887,0.150006819868,-0.174132779745,-0.497425813201,0.0138057279762,-0.0304678254989,-1.6022896667
1385572444406051748,0.151210920227,-0.176493211506,-0.498929323512,0.0137900505139,-0.0297553744573,-1.60250094018
1385572444416021748,0.152348568818,-0.178821404765,-0.500424538597,0.0144208739828,-0.030767835889,-1.60226279922
1385572444425920703,0.153686727626,-0.181070071622,-0.501771913359,0.0141530573545,-0.0290782837775,-1.60212603092
1385572444435915617,0.15488991144,-0.183376371511,-0.502902172357,0.0144543504735,-0.0278455761817,-1.60158483418
1385572444445918724,0.15601204147,-0.185763896126,-0.503961047087,0.0143691834494,-0.027431783719,-1.60151471092
1385572444455944040,0.157420355446,-0.188372550563,-0.504900394873,0.0142316741704,-0.0271843783998,-1.6010418947
1385572444465918848,0.158453099555,-0.190623290485,-0.505648546891,0.0150251925017,-0.0262449211117,-1.60050278773
1385572444475970356,0.159512920663,-0.193014968066,-0.506166722543,0.0143786213082,-0.0247043916856,-1.60050655973
1385572444486035447,0.160745370666,-0.195488680247,-0.506953815372,0.0155716398582,-0.0235419491781,-1.60031690314
1385572444496026421,0.162130755795,-0.198074037247,-0.50723595415,0.0143267399422,-0.0228336436516,-1.60029520741
1385572444506032552,0.163236216032,-0.200570244692,-0.50764432103,0.0147536621144,-0.0225551769889,-1.60010851315
1385572444516021633,0.164287615004,-0.202952126009,-0.50759801056,0.0143190844996,-0.0214325763357,-1.59969043535
1385572444526024048,0.165463340339,-0.20546223221,-0.507691457018,0.0138450283572,-0.0206313074465,-1.59942324782
1385572444535976507,0.166560926238,-0.207998033964,-0.507761400423,0.0128703895192,-0.0190544751493,-1.59928577975
1385572444545932306,0.167824300824,-0.210603963567,-0.507707416687,0.0125793697995,-0.0176856747864,-1.59922260639
1385572444555938881,0.168900607369,-0.213124437369,-0.507341970428,0.0121410456264,-0.0178153435077,-1.59846420345
1385572444565972086,0.169959818768,-0.215533305372,-0.507007228498,0.0118363928912,-0.0164079119506,-1.5980644828
1385572444575996518,0.171098768745,-0.218157722149,-0.506592566776,0.0108424889962,-0.015933775332,-1.59812780943
1385572444586008992,0.172438825527,-0.220800158352,-0.506090555529,0.00984390656005,-0.015014019397,-1.59768281425
1385572444595981061,0.173465772529,-0.223264408222,-0.505456568667,0.00952893252971,-0.0146441942901,-1.59735328758
1385572444605940564,0.174748824556,-0.225917300915,-0.504907732599,0.00944030894391,-0.0138970801343,-1.59686046144
1385572444615990624,0.175840847201,-0.228541542169,-0.504010660231,0.00871310505004,-0.0125491224397,-1.59662983135
1385572444625985262,0.177073465256,-0.231216295851,-0.503371376233,0.00903951264317,-0.0119994457262,-1.59634479695
1385572444635921345,0.17825426151,-0.233778035761,-0.502320014835,0.0081568942836,-0.0120303479017,-1.59571753478
1385572444645935700,0.17934218314,-0.236455278469,-0.501457333381,0.00786517127681,-0.0110595700786,-1.59586185411
1385572444655931233,0.180439213784,-0.23895666416,-0.500433224963,0.00821987597782,-0.0106428180792,-1.59510097669
1385572444665940426,0.18167886318,-0.241570570431,-0.499265774953,0.00859206557224,-0.010287965919,-1.59442026637
1385572444675975365,0.182806398057,-0.24422189263,-0.498291849239,0.00845439905003,-0.00899996795141,-1.59451553156
1385572444686036827,0.183936879373,-0.24693765306,-0.49708789575,0.00855961584572,-0.00884228880369,-1.59445304312
1385572444695995645,0.184940017669,-0.249434682188,-0.495769980315,0.00885185084195,-0.00798578748003,-1.59333151912
1385572444706089312,0.186265048413,-0.252131332083,-0.494606963961,0.00842661339859,-0.0071206061745,-1.59356180077
1385572444716016922,0.187313737988,-0.254721470927,-0.493360868227,0.00839172029968,-0.00513550145136,-1.59328949048
1385572444725986384,0.1883945123,-0.25729873158,-0.491851947355,0.00812065106404,-0.00636103138087,-1.59296555622
1385572444735920571,0.189570958724,-0.260073100119,-0.490444251299,0.00810731275414,-0.00574485982585,-1.59283322698
1385572444745910387,0.190674068987,-0.262543311319,-0.489049921508,0.00792354065959,-0.0042559531968,-1.59274850234
1385572444756018745,0.191824562304,-0.265190668866,-0.487620261697,0.00840086736239,-0.00456008480561,-1.59248139262
1385572444765969651,0.192804284193,-0.267949742391,-0.486034837898,0.00788034836327,-0.00297174426181,-1.59169251081
1385572444775932234,0.193975566068,-0.270410872595,-0.48462483009,0.00783782439887,-0.0024284339812,-1.59190378795
1385572444786016248,0.195177018044,-0.273125134231,-0.483077268821,0.00843718078152,-0.00200681457864,-1.59111386907
1385572444795979663,0.196081688578,-0.275685835952,-0.481496007901,0.00877283893998,-0.00219979459677,-1.59077284899
1385572444805906031,0.197427347142,-0.278347575671,-0.479960794157,0.0088794133737,-0.00248382468216,-1.59062066415
1385572444815988025,0.198486120481,-0.280819077038,-0.478357402157,0.0093248290026,-0.000809286594122,-1.58969263072
1385572444825901142,0.199573915654,-0.283414544244,-0.476724045624,0.0101686425704,-0.00146032077649,-1.59012923931
1385572444835901024,0.200778804028,-0.286076301848,-0.475136487406,0.00961985171565,-1.1121362511e-05,-1.58968629094
1385572444846000529,0.201728564294,-0.288672764947,-0.473537142373,0.0101816950364,0.00297369240283,-1.58912028212
1385572444856066253,0.203001032099,-0.291102096996,-0.471960039564,0.011855925024,0.000385260989132,-1.58925655926
1385572444865896888,0.204108674764,-0.293605890224,-0.470145338998,0.0117666082792,0.00220354228898,-1.58866214858
1385572444876021971,0.205205946385,-0.296416046939,-0.468431754043,0.0122504835661,0.00116096262204,-1.58906000392
1385572444886003738,0.206371395647,-0.298800597752,-0.466750327222,0.0126321575771,0.0019772351185,-1.58863584233
1385572444895965445,0.207601256018,-0.301354725271,-0.465203693259,0.0126105530492,0.00352680779133,-1.58850759606
1385572444905983592,0.208663765545,-0.30389475797,-0.463592865398,0.0137237493186,0.003466628148,-1.58891501663
1385572444915935456,0.209806672966,-0.306307656545,-0.461722071554,0.0135550159185,0.00319348299366,-1.58852906976
1385572444925921261,0.210837043213,-0.308850665543,-0.460037634143,0.0134334063054,0.00361177098584,-1.5885442237
1385572444935921081,0.212011560656,-0.311340118298,-0.458486724403,0.0126398174969,0.00541955158549,-1.58880122847
1385572444945915765,0.213151455251,-0.313823084557,-0.456721363331,0.012953586168,0.00400425893932,-1.58816679454
1385572444955917846,0.214121738874,-0.316353587497,-0.455109763971,0.0128598848646,0.00411598755281,-1.58798939343
1385572444965920743,0.215242106928,-0.318762325174,-0.453277026058,0.0117640743474,0.00425521095665,-1.58750780985
1385572444975974565,0.216470189471,-0.321288731084,-0.451899574258,0.0112067998834,0.00430697291788,-1.58743260722
1385572444986007388,0.217433512992,-0.323719230589,-0.450232350251,0.0112709199899,0.00356151097073,-1.58694057699
1385572444995998248,0.218659858878,-0.326123690113,-0.44860839541,0.00977973163905,0.00472389362913,-1.58713903143
1385572445005933473,0.219760704433,-0.328806531337,-0.447381848995,0.00988261483656,0.00477340574748,-1.58673843657
1385572445016026962,0.220866449977,-0.33094618998,-0.445827955887,0.00971044003848,0.00529835766956,-1.58655688044
1385572445026007921,0.222006806215,-0.333346671288,-0.444171569373,0.0088924298963,0.00578237619754,-1.58635144135
1385572445035930252,0.223015272189,-0.335709426071,-0.442778265398,0.00933547522355,0.00588773505742,-1.58589853118
1385572445045936889,0.224080273847,-0.338094532131,-0.441268564144,0.00876263522007,0.00705138227709,-1.58590301364
1385572445055902004,0.225243732782,-0.340382603473,-0.440009316421,0.00798504723006,0.00815900149868,-1.58610083607
1385572445065905346,0.226348044163,-0.342590707652,-0.438578271285,0.00804229726553,0.00809601098248,-1.58576737755
1385572445075953903,0.227528014631,-0.345084979301,-0.437497596058,0.00672590593724,0.00728830910262,-1.58554718866
1385572445085949147,0.228367254974,-0.347238080017,-0.436191158098,0.00751118022258,0.00720410898407,-1.58501176291
1385572445095917371,0.229539004353,-0.349545965752,-0.434995438605,0.007554883146,0.00820984846832,-1.58484108024
1385572445105921690,0.230735631588,-0.351945482701,-0.433698656774,0.00732916415496,0.00915509313284,-1.58469732556
1385572445115932445,0.231978084385,-0.354183212101,-0.432592554332,0.00836627717922,0.0100374214323,-1.58384808362
1385572445125932795,0.233091583385,-0.35656023311,-0.431360408385,0.00859517314149,0.00935635367225,-1.5839506018
1385572445135890836,0.234250878746,-0.35860988338,-0.4303269051,0.00982410482356,0.0104778379721,-1.58391751563
1385572445145903567,0.235439234723,-0.360924438709,-0.429295723413,0.0103449948797,0.00959647490006,-1.58376908201
1385572445155911156,0.236756220473,-0.362972547622,-0.428144021802,0.0117585147917,0.0105136962163,-1.58356394021
1385572445165894396,0.237766461795,-0.365176836251,-0.427203953232,0.0124031244629,0.0102467444364,-1.58328015916
1385572445175900219,0.238899440274,-0.367243592954,-0.426349155846,0.0134253676078,0.00889201994077,-1.58264674651
1385572445185967277,0.240110516373,-0.369506603914,-0.42549123947,0.0138960523277,0.009684908556,-1.58311615686
1385572445195890321,0.241169130809,-0.371575058357,-0.424610296336,0.0156486280639,0.00843288036853,-1.58265088562
1385572445205912752,0.242542680617,-0.373812862923,-0.423916382492,0.015357101697,0.0104722470904,-1.58397527347
1385572445215978304,0.243663847237,-0.37569438555,-0.423101711187,0.0157719624758,0.00721818711962,-1.58278072235
1385572445225894355,0.244925955835,-0.378094714569,-0.422433444981,0.0152588369327,0.00807088453774,-1.58359754661
1385572445235898987,0.246075222672,-0.379990118552,-0.421767161758,0.0163314825361,0.00787744315466,-1.58336859535
1385572445245919681,0.247180382264,-0.382257742379,-0.421223968981,0.0166307627103,0.00725501402415,-1.58180647392
1385572445255901021,0.248423903069,-0.38412005633,-0.420520186738,0.0155564637229,0.00743017756742,-1.58251301412
1385572445265898747,0.249548613715,-0.386077920819,-0.420174148668,0.0151836822978,0.00767576708267,-1.58278108541
1385572445275927531,0.250800807066,-0.388215911949,-0.419585114679,0.0151539195891,0.00599102226488,-1.58253575549
1385572445285910637,0.252012409704,-0.390128979448,-0.419092821481,0.0151938199668,0.00559814586233,-1.58264629846
1385572445295889577,0.253265909829,-0.392068320193,-0.418858683408,0.0143259970436,0.00540558422495,-1.58158255612
1385572445305915027,0.254375399229,-0.394107798127,-0.41836203561,0.0142736221954,0.00485795088659,-1.58192988173
1385572445315921607,0.255583273108,-0.396062840973,-0.418090539716,0.0141848106608,0.00534543800922,-1.58152786572
1385572445326059614,0.256888138694,-0.397948034423,-0.417929044181,0.0153274386912,0.00651411530596,-1.58163434073
1385572445335915410,0.257937585546,-0.39994000196,-0.417748584145,0.0124644414647,0.00549572183278,-1.58157214244
1385572445345939032,0.259142401085,-0.401851287739,-0.417625147119,0.011502832369,0.00531003008534,-1.58120933216
1385572445355904220,0.260359534583,-0.403754053968,-0.417520389753,0.0106685820521,0.00380419915343,-1.58101841967
1385572445365895922,0.261578509784,-0.405774236637,-0.41752891925,0.00966393369274,0.0043713216935,-1.58010741691
1385572445376013662,0.262712723099,-0.407577700076,-0.417629532904,0.00948237100314,0.00338150279869,-1.5797970956
1385572445385995762,0.263947889246,-0.409514942987,-0.417640825457,0.00807439722659,0.00270572735337,-1.57997500608
1385572445396041543,0.265114241824,-0.411286884491,-0.417647001207,0.00748222443077,0.00334860881659,-1.57995314047
1385572445405940491,0.266342211325,-0.412945687535,-0.41771072563,0.00665346273098,0.00154234743238,-1.57976336975
1385572445416110161,0.267531322115,-0.414847683178,-0.417792603752,0.0067538978448,0.00320517394918,-1.58006935125
1385572445425994384,0.268745943758,-0.41667366638,-0.418105738032,0.00652682041668,0.00372870750367,-1.5798196164
1385572445435938965,0.269868329795,-0.418520107729,-0.418026959999,0.00616801652296,0.0028299746006,-1.57988703117
1385572445445921102,0.271107954605,-0.420342817157,-0.418466343864,0.00613245697424,0.00332828942988,-1.57926158401
1385572445456014886,0.27222578137,-0.422258155655,-0.418639601544,0.00537313540787,0.00466195078891,-1.5796395988
1385572445466264240,0.273441635885,-0.423865921053,-0.418732594774,0.00555447133032,0.00459260243465,-1.57912927668
1385572445476004012,0.2746683958,-0.425516118717,-0.41922038335,0.00554056454173,0.00564101212781,-1.57898152856
1385572445486039389,0.275878234608,-0.42729783772,-0.419426107437,0.0054119288474,0.00565270140548,-1.57884435173
1385572445496047703,0.276995794897,-0.429111820163,-0.419954758293,0.00602589986024,0.00727525344062,-1.57853303128
1385572445506006471,0.278230124022,-0.43089370113,-0.420211042535,0.00593647117452,0.00662544952328,-1.57843884417
1385572445515938738,0.279312808653,-0.432636196527,-0.420601596198,0.00627264250309,0.00757139302956,-1.57800567644
1385572445525920012,0.280645273198,-0.434257314565,-0.421299449437,0.00543430996729,0.00840206474403,-1.57782445709
1385572445535926126,0.28177099148,-0.435781092153,-0.421569459459,0.00683943020335,0.00806545861679,-1.57707129001
1385572445545921021,0.282836245799,-0.43762353207,-0.422099122878,0.00653647035594,0.00838438663589,-1.57671430064
1385572445556021167,0.284191975747,-0.439345881268,-0.42272902858,0.00792627643684,0.00887605872272,-1.57704028692
1385572445565948047,0.285246333862,-0.440995629296,-0.423185695883,0.00899603008944,0.00898829828707,-1.57675441161
