%time,field.header.seq,field.header.stamp,field.header.frame_id,field.child_frame_id,field.transform.translation.x,field.transform.translation.y,field.transform.translation.z,field.transform.rotation.x,field.transform.rotation.y,field.transform.rotation.z,field.transform.rotation.w
1385572437269800220,956914,1385572437269800220,/world,vicon/Archie/Archie,0.0736864649036,0.0941352848642,0.11434748236,0.00191050146449,-0.00339686717761,0.708183304187,0.706017860219
1385572437277481014,956915,1385572437277481014,/world,vicon/Archie/Archie,0.0736802517321,0.0941229691451,0.114342718147,0.00191930356107,-0.0033739980942,0.708177292488,0.706023976091
1385572437287277166,956916,1385572437287277166,/world,vicon/Archie/Archie,0.0736785545529,0.0941302958099,0.114351084652,0.0019181326453,-0.00338631775738,0.708183815899,0.706017376923
1385572437297184696,956917,1385572437297184696,/world,vicon/Archie/Archie,0.0736815173658,0.0941259987151,0.114355430463,0.00189010789712,-0.00336760575451,0.708187197099,0.706014150416
1385572437307256428,956918,1385572437307256428,/world,vicon/Archie/Archie,0.073689922262,0.0941381746209,0.114349591805,0.00189168729778,-0.00338271176712,0.708175805055,0.706025500895
1385572437317241962,956919,1385572437317241962,/world,vicon/Archie/Archie,0.0737007585978,0.0941333588214,0.114356097673,0.00190645268734,-0.00338706596177,0.708169827311,0.706031436204
1385572437327182083,956920,1385572437327182083,/world,vicon/Archie/Archie,0.0736872465898,0.0941313517961,0.114346557417,0.00190595234664,-0.00339608330916,0.708174668074,0.70602653878
1385572437337244659,956921,1385572437337244659,/world,vicon/Archie/Archie,0.0736937996275,0.0941270328448,0.114351846117,0.00191444942695,-0.00337798010097,0.708177479722,0.706023782424
1385572437350268687,956922,1385572437350268687,/world,vicon/Archie/Archie,0.0736924658262,0.0941328985159,0.114352373482,0.00189569059604,-0.00339437471799,0.708180082646,0.706021143537
1385572437357317978,956923,1385572437357317978,/world,vicon/Archie/Archie,0.0736818151286,0.0941278957101,0.114346977697,0.00189798371023,-0.00336821049091,0.708181098779,0.706020243441
1385572437367261572,956924,1385572437367261572,/world,vicon/Archie/Archie,0.0736962005364,0.0941260257803,0.114353443437,0.00188890546803,-0.00336331299007,0.708179710306,0.706021683855
1385572437377274779,956925,1385572437377274779,/world,vicon/Archie/Archie,0.0736788349508,0.0941240850073,0.114346645962,0.00190792188036,-0.00338520037719,0.708188821286,0.706012389167
1385572437387312251,956926,1385572437387312251,/world,vicon/Archie/Archie,0.0736819817308,0.0941226499556,0.114357262914,0.00189875470102,-0.00338901281448,0.708177165378,0.706024087237
1385572437397307472,956927,1385572437397307472,/world,vicon/Archie/Archie,0.0736934400547,0.094129300435,0.114352682789,0.00189314947256,-0.00337458020089,0.708174922139,0.706026421493
1385572437407247453,956928,1385572437407247453,/world,vicon/Archie/Archie,0.0736954821266,0.0941309766995,0.114353406458,0.0019141203481,-0.00338550494729,0.708180336261,0.706020882009
1385572437417406354,956929,1385572437417406354,/world,vicon/Archie/Archie,0.0736823528849,0.0941284558292,0.1143518192,0.00190898546965,-0.00338250365273,0.70817829378,0.70602295902
1385572437427236417,956930,1385572437427236417,/world,vicon/Archie/Archie,0.0736947769707,0.0941400292715,0.114351810592,0.00190476219903,-0.00339351606713,0.708170503167,0.706030731891
1385572437437239604,956931,1385572437437239604,/world,vicon/Archie/Archie,0.0736807825843,0.0941276074069,0.11435326243,0.00191364890435,-0.00340340049316,0.708182435553,0.706018691528
1385572437447214572,956932,1385572437447214572,/world,vicon/Archie/Archie,0.0736930784841,0.0941309205074,0.114349183136,0.00190574806067,-0.00339034230866,0.708177726875,0.706023498803
1385572437457254562,956933,1385572437457254562,/world,vicon/Archie/Archie,0.073688454893,0.0941385855727,0.11435573542,0.00192254464513,-0.00337205217149,0.708174415479,0.706026862341
1385572437467322005,956934,1385572437467322005,/world,vicon/Archie/Archie,0.0736796065904,0.0941288978566,0.114356154487,0.00191510348876,-0.00337832808734,0.708172514463,0.706028759356
1385572437477274110,956935,1385572437477274110,/world,vicon/Archie/Archie,0.0736766192465,0.094126881656,0.114347590331,0.00189885444674,-0.00337864305476,0.708183137209,0.706018146577
1385572437487281557,956936,1385572437487281557,/world,vicon/Archie/Archie,0.0736884485812,0.0941350026298,0.114341708448,0.00190605379675,-0.00338646000099,0.708173990755,0.70602726411
1385572437497200713,956937,1385572437497200713,/world,vicon/Archie/Archie,0.0736929093936,0.0941302351104,0.114349081637,0.00190377655356,-0.00338988881064,0.708175129483,0.706026111607
1385572437507267536,956938,1385572437507267536,/world,vicon/Archie/Archie,0.0736956144809,0.0941336001025,0.114343999798,0.00190258538849,-0.00338171664441,0.708171377716,0.706029917174
1385572437517238416,956939,1385572437517238416,/world,vicon/Archie/Archie,0.0736996344103,0.0941296371708,0.11435374736,0.00191830670386,-0.0033825101489,0.708169781902,0.706031471484
1385572437527378237,956940,1385572437527378237,/world,vicon/Archie/Archie,0.0735487699819,0.0941844070753,0.114454364887,0.00122459331347,-0.00317473587514,0.708106498177,0.706097449834
1385572437537192503,956941,1385572437537192503,/world,vicon/Archie/Archie,0.073564030769,0.0941967289036,0.11444099266,0.00123086083718,-0.00317493316534,0.708094628461,0.706109341339
1385572437547340514,956942,1385572437547340514,/world,vicon/Archie/Archie,0.0735467560536,0.0941791784306,0.114442022202,0.00124069527211,-0.00318125111906,0.708116403118,0.706087459138
1385572437557287311,956943,1385572437557287311,/world,vicon/Archie/Archie,0.07355545393,0.0941933062182,0.114448033098,0.00124146879001,-0.00317797846151,0.708100448052,0.706103473066
1385572437567265814,956944,1385572437567265814,/world,vicon/Archie/Archie,0.0736989010749,0.0941306362033,0.114354836844,0.00191982194438,-0.00337252752002,0.708177923116,0.706023349155
1385572437577317578,956945,1385572437577317578,/world,vicon/Archie/Archie,0.0736981617785,0.0941323291198,0.114354342706,0.00190671004548,-0.00339121608161,0.708173425565,0.706027806417
1385572437587312814,956946,1385572437587312814,/world,vicon/Archie/Archie,0.0736946507981,0.0941349611134,0.114348524066,0.00190766382947,-0.0033727903669,0.708173537551,0.706027779777
1385572437597318082,956947,1385572437597318082,/world,vicon/Archie/Archie,0.0736764969901,0.0941254963817,0.114355654191,0.00192638970009,-0.00337120140297,0.7081820098,0.70601923842
1385572437607211982,956948,1385572437607211982,/world,vicon/Archie/Archie,0.0736924238642,0.0941356334304,0.114343832704,0.00188377577585,-0.00336115257427,0.708169628779,0.706031820046
1385572437617537605,956949,1385572437617537605,/world,vicon/Archie/Archie,0.0736864546508,0.0941371788684,0.114348344731,0.00190517765982,-0.00337983489915,0.708171341896,0.706029955124
1385572437627332669,956950,1385572437627332669,/world,vicon/Archie/Archie,0.0736666866423,0.0941233136239,0.114353233067,0.00189780018694,-0.00337673602304,0.708200321551,0.706000921079
1385572437637379275,956951,1385572437637379275,/world,vicon/Archie/Archie,0.0736767367237,0.09412494722,0.114352241063,0.00192630039691,-0.00339196334856,0.708180516688,0.706020636904
1385572437647254480,956952,1385572437647254480,/world,vicon/Archie/Archie,0.0736660206098,0.0941297986132,0.114350940271,0.00191597718727,-0.00338744166322,0.708179114631,0.706022093047
1385572437657209144,956953,1385572437657209144,/world,vicon/Archie/Archie,0.073686205594,0.0941312179136,0.11434709398,0.00191137346341,-0.00339523004293,0.708176824961,0.706024364773
1385572437667486836,956954,1385572437667486836,/world,vicon/Archie/Archie,0.0736891121355,0.0941337383257,0.114350771265,0.00189233153968,-0.00336772894059,0.708185803337,0.706015541922
1385572437677189055,956955,1385572437677189055,/world,vicon/Archie/Archie,0.0736939152671,0.09412951622,0.114351330172,0.00192214093977,-0.00340314508475,0.708182063316,0.706019043068
1385572437687223490,956956,1385572437687223490,/world,vicon/Archie/Archie,0.0736791970902,0.0941398029218,0.114343772366,0.00187459425954,-0.003384630034,0.708172266832,0.706029086275
1385572437697209682,956957,1385572437697209682,/world,vicon/Archie/Archie,0.0737010445091,0.09412443231,0.114352238707,0.00189041710575,-0.00339950205273,0.708170344228,0.706030901069
1385572437707166765,956958,1385572437707166765,/world,vicon/Archie/Archie,0.0736960723441,0.0941303964728,0.114348348428,0.00189542526818,-0.00338578402615,0.708180767991,0.706020498057
1385572437717572168,956959,1385572437717572168,/world,vicon/Archie/Archie,0.0736959534214,0.0941319019594,0.114353136642,0.00190441997529,-0.00335846358548,0.708180615803,0.706020756995
1385572437727303192,956960,1385572437727303192,/world,vicon/Archie/Archie,0.0736884125727,0.0941349224421,0.114349549536,0.00190163284055,-0.00336844487615,0.70817288632,0.706028470001
1385572437737375057,956961,1385572437737375057,/world,vicon/Archie/Archie,0.0736829446602,0.0941218901962,0.114350547809,0.00190170900185,-0.00338504162832,0.708190810412,0.706010411427
1385572437747494671,956962,1385572437747494671,/world,vicon/Archie/Archie,0.0736803256499,0.0941298991701,0.11434012129,0.00190366673537,-0.00339172242907,0.708181307425,0.706019906296
1385572437757432138,956963,1385572437757432138,/world,vicon/Archie/Archie,0.0736974266613,0.094119567797,0.114348810836,0.0019219526088,-0.00340170769776,0.708190264141,0.706010824463
1385572437767557919,956964,1385572437767557919,/world,vicon/Archie/Archie,0.0736958918188,0.0941289045834,0.114353940113,0.00191670894212,-0.0033907509112,0.708181280424,0.706019902759
1385572437779495769,956965,1385572437779495769,/world,vicon/Archie/Archie,0.0736817215557,0.094126596331,0.114350663712,0.00191150291942,-0.00338674621091,0.70818940203,0.706011789532
1385572437787296487,956966,1385572437787296487,/world,vicon/Archie/Archie,0.0736855940795,0.0941278417022,0.114350547021,0.00189959685507,-0.00337894530907,0.708175526272,0.706025777327
1385572437798324125,956967,1385572437798324125,/world,vicon/Archie/Archie,0.0736786011716,0.0941277511849,0.114351051094,0.00190892918574,-0.00338441195288,0.708194259389,0.706006935316
1385572437807086423,956968,1385572437807086423,/world,vicon/Archie/Archie,0.0736807155698,0.0941224903732,0.114352981948,0.00192049519848,-0.00340919125437,0.708180922541,0.706020162646
1385572437817802827,956969,1385572437817802827,/world,vicon/Archie/Archie,0.0736761168142,0.0941208812065,0.114346551454,0.00192227842344,-0.00339721011607,0.708187582661,0.70601353498
1385572437827219266,956970,1385572437827219266,/world,vicon/Archie/Archie,0.0736741990107,0.094120725471,0.114352359859,0.00191034361643,-0.00337348484968,0.708194489435,0.706006753028
1385572437837231438,956971,1385572437837231438,/world,vicon/Archie/Archie,0.0736784573032,0.0941210869324,0.114347983247,0.00189777557104,-0.00337505508505,0.70818878845,0.706012498023
1385572437847296636,956972,1385572437847296636,/world,vicon/Archie/Archie,0.0737010513027,0.0941322675043,0.114354311027,0.00189933345139,-0.00338841465991,0.708166023349,0.706035264383
1385572437857196217,956973,1385572437857196217,/world,vicon/Archie/Archie,0.0736780249137,0.0941267225353,0.114349817068,0.00187674893529,-0.00336882633673,0.708188180862,0.706013193439
1385572437867139263,956974,1385572437867139263,/world,vicon/Archie/Archie,0.073696632908,0.0941282325493,0.114354975541,0.00190809326241,-0.00338684414654,0.70818036287,0.70602086521
1385572437877282964,956975,1385572437877282964,/world,vicon/Archie/Archie,0.0736825347693,0.0941298395027,0.114342220942,0.00189322580716,-0.00336271246915,0.708184651318,0.706016718994
1385572437887670872,956976,1385572437887670872,/world,vicon/Archie/Archie,0.0736819222621,0.0941235494135,0.114350176829,0.00189971436734,-0.0033726192977,0.708187435313,0.706013861754
1385572437897177530,956977,1385572437897177530,/world,vicon/Archie/Archie,0.0736775140079,0.0941262395075,0.114357094035,0.00193056964747,-0.00339435557087,0.708180125443,0.706021006187
1385572437907138797,956978,1385572437907138797,/world,vicon/Archie/Archie,0.0736823465159,0.0941221244759,0.114351239886,0.00191285229317,-0.00340199178475,0.708180006427,0.706021137039
1385572437917294107,956979,1385572437917294107,/world,vicon/Archie/Archie,0.0736842554698,0.0941233683625,0.114356368554,0.00190837905571,-0.00338137306674,0.708185245405,0.706015993159
1385572437927482537,956980,1385572437927482537,/world,vicon/Archie/Archie,0.0736885885349,0.0941280104493,0.114347911184,0.00190091653009,-0.00339394138229,0.708184504107,0.70601669656
1385572437937211055,956981,1385572437937211055,/world,vicon/Archie/Archie,0.0736922713091,0.0941287213749,0.114352361901,0.0018904563458,-0.00336923780397,0.708182857342,0.706018494785
1385572437947247499,956982,1385572437947247499,/world,vicon/Archie/Archie,0.0736909217505,0.0941275213317,0.114347971648,0.00192692735089,-0.00338738633056,0.708185404675,0.706015754194
1385572437957263611,956983,1385572437957263611,/world,vicon/Archie/Archie,0.0736744872808,0.0941211853726,0.114351809336,0.00190866083018,-0.00338974521828,0.708189405751,0.706011779096
1385572437967160638,956984,1385572437967160638,/world,vicon/Archie/Archie,0.0736756315771,0.0941212179252,0.11435131317,0.00189109452783,-0.00337941205181,0.708192976643,0.70600829398
1385572437977939455,956985,1385572437977939455,/world,vicon/Archie/Archie,0.0736923135497,0.0941309588464,0.114345043631,0.00189222312065,-0.00337167511207,0.708178074399,0.70602327599
1385572437987407703,956986,1385572437987407703,/world,vicon/Archie/Archie,0.073675565824,0.0941227674766,0.114347085637,0.00189611477471,-0.0033991976995,0.70818460079,0.706016587205
1385572437997309054,956987,1385572437997309054,/world,vicon/Archie/Archie,0.0736818948423,0.0941262950301,0.114345977396,0.00189356119045,-0.00337395168889,0.708181244468,0.706020081768
1385572438007304688,956988,1385572438007304688,/world,vicon/Archie/Archie,0.0736812025737,0.0941223007783,0.114352390316,0.00189059642194,-0.00336604422072,0.708193382472,0.70600795209
1385572438017315328,956989,1385572438017315328,/world,vicon/Archie/Archie,0.0736883813975,0.0941262872631,0.114352184914,0.00189803348091,-0.00337433202441,0.708182508025,0.706018800515
1385572438027234195,956990,1385572438027234195,/world,vicon/Archie/Archie,0.0736762052829,0.0941309925699,0.114352412047,0.00190125979377,-0.00337259926069,0.708186612406,0.70601468313
1385572438038388781,956991,1385572438038388781,/world,vicon/Archie/Archie,0.0736823828276,0.0941198458349,0.114350900362,0.00190005824431,-0.00338947226327,0.708185142926,0.706016079559
1385572438047298720,956992,1385572438047298720,/world,vicon/Archie/Archie,0.0737030368638,0.0941345898335,0.114350080896,0.0019087582293,-0.00338560842172,0.708169799091,0.706031465271
1385572438057279273,956993,1385572438057279273,/world,vicon/Archie/Archie,0.0736806563849,0.094128025097,0.114347416778,0.00190189819203,-0.00338816667276,0.708184202962,0.706017023722
1385572438067269198,956994,1385572438067269198,/world,vicon/Archie/Archie,0.0736773502139,0.0941259673043,0.114343518371,0.00186982140867,-0.00336868636026,0.708191903751,0.70600947811
1385572438077221653,956995,1385572438077221653,/world,vicon/Archie/Archie,0.0736687054166,0.0941252073394,0.114343209512,0.0018946322386,-0.00337575192476,0.708196309149,0.706004959172
1385572438087245254,956996,1385572438087245254,/world,vicon/Archie/Archie,0.0736750760779,0.0941283147862,0.114351497567,0.00189485511156,-0.00335487475682,0.708181450625,0.706019962416
1385572438097194517,956997,1385572438097194517,/world,vicon/Archie/Archie,0.0736787446185,0.094125050324,0.114356035302,0.00190258154516,-0.00338747478779,0.708182326579,0.706018907338
1385572438107395472,956998,1385572438107395472,/world,vicon/Archie/Archie,0.0736737884203,0.0941219940298,0.114346464248,0.00191301778198,-0.00338935418319,0.708191083701,0.706010086052
1385572438117157702,956999,1385572438117157702,/world,vicon/Archie/Archie,0.0736825702888,0.0941261316377,0.114339072711,0.00189887025831,-0.00339035026877,0.708188916492,0.706012293359
1385572438127099386,957000,1385572438127099386,/world,vicon/Archie/Archie,0.0736788070968,0.094125318637,0.114347966162,0.00187764838031,-0.00338770019516,0.708191779766,0.706009490727
1385572438137158349,957001,1385572438137158349,/world,vicon/Archie/Archie,0.0736740329513,0.0941327720143,0.114346007807,0.00189255011135,-0.00338237680438,0.708180315865,0.706020975611
1385572438147155137,957002,1385572438147155137,/world,vicon/Archie/Archie,0.073668954929,0.0941284043,0.114349502729,0.00190037659088,-0.00339259851907,0.708188234928,0.706012962171
1385572438157148783,957003,1385572438157148783,/world,vicon/Archie/Archie,0.0736813573487,0.0941303430254,0.114351333407,0.00190623414,-0.00340335073142,0.708183023793,0.706018121783
1385572438167241774,957004,1385572438167241774,/world,vicon/Archie/Archie,0.0736786091686,0.094126976839,0.114346004333,0.00187942290011,-0.00335739148805,0.708184963813,0.706016467741
1385572438177184096,957005,1385572438177184096,/world,vicon/Archie/Archie,0.0736772741486,0.094135626019,0.114348933126,0.00189592724779,-0.00337786156522,0.708181913672,0.70601938547
1385572438187139736,957006,1385572438187139736,/world,vicon/Archie/Archie,0.0736887540308,0.0941279686472,0.114355275997,0.00190016866038,-0.00338106629637,0.708179496643,0.706021783151
1385572438197086945,957007,1385572438197086945,/world,vicon/Archie/Archie,0.073688596559,0.0941311479654,0.114345698849,0.00192204336325,-0.00337418093536,0.708177083496,0.706024177393
1385572438207320582,957008,1385572438207320582,/world,vicon/Archie/Archie,0.0736778785509,0.0941260764673,0.114347551546,0.00189231392364,-0.00338964871544,0.70818673911,0.70601449842
1385572438217249800,957009,1385572438217249800,/world,vicon/Archie/Archie,0.0736771160302,0.0941244951219,0.114354538864,0.00191583596816,-0.00338438465837,0.708185610468,0.706015592349
1385572438227165814,957010,1385572438227165814,/world,vicon/Archie/Archie,0.0736806978125,0.0941267208286,0.114347539842,0.00190684123014,-0.00337491132858,0.708183504628,0.706017774353
1385572438237045116,957011,1385572438237045116,/world,vicon/Archie/Archie,0.0736701329384,0.094136235789,0.114346642463,0.00190823800305,-0.00337125850091,0.708184004886,0.706017286239
1385572438247120978,957012,1385572438247120978,/world,vicon/Archie/Archie,0.0736812642444,0.0941260798334,0.114349289688,0.00189392684807,-0.00336996649989,0.708187156479,0.706014169663
1385572438257310695,957013,1385572438257310695,/world,vicon/Archie/Archie,0.0736752984083,0.094128940117,0.114351479287,0.00188859450031,-0.00337727906138,0.708183312563,0.706018004731
1385572438267216265,957014,1385572438267216265,/world,vicon/Archie/Archie,0.0736915918491,0.094138782393,0.114345503536,0.00188065932008,-0.00336727711527,0.708176172881,0.706025235193
1385572438277300020,957015,1385572438277300020,/world,vicon/Archie/Archie,0.0736751592281,0.0941282405909,0.114354834456,0.00190241192923,-0.00339813073313,0.708180693065,0.706020495103
1385572438287282536,957016,1385572438287282536,/world,vicon/Archie/Archie,0.0736717832578,0.0941265028454,0.11435187672,0.0018986869081,-0.00337066042901,0.708188929413,0.70601237517
1385572438297290062,957017,1385572438297290062,/world,vicon/Archie/Archie,0.0736817554875,0.0941284574259,0.114348944376,0.00190412307271,-0.0033796783457,0.708185546443,0.706015710802
1385572438307220936,957018,1385572438307220936,/world,vicon/Archie/Archie,0.0736988172638,0.094133823123,0.114355843444,0.00189800981179,-0.00338482352861,0.70817330609,0.706027980373
1385572438317298202,957019,1385572438317298202,/world,vicon/Archie/Archie,0.0736958400132,0.0941382524536,0.114347997503,0.00188021030642,-0.00337173995253,0.708172146098,0.706029254118
1385572438327339865,957020,1385572438327339865,/world,vicon/Archie/Archie,0.0736848708729,0.0941352310175,0.11434200482,0.00188742354564,-0.00338563088161,0.708178934679,0.706022359145
1385572438337385976,957021,1385572438337385976,/world,vicon/Archie/Archie,0.0736834869988,0.0941337331542,0.11435101261,0.00189696923306,-0.00336378257016,0.708185223597,0.706016129811
1385572438347371685,957022,1385572438347371685,/world,vicon/Archie/Archie,0.0736978348824,0.0941303459012,0.114353289259,0.00189891704198,-0.00337279578504,0.708188028979,0.706013267562
1385572438357628444,957023,1385572438357628444,/world,vicon/Archie/Archie,0.0736770133312,0.0941279199796,0.114352820447,0.00191991018483,-0.00339514870749,0.708185490293,0.706015650144
1385572438368358164,957024,1385572438368358164,/world,vicon/Archie/Archie,0.0736865522319,0.0941358013277,0.114351157034,0.00189864389962,-0.00338536006007,0.708171225189,0.706030063314
1385572438377310929,957025,1385572438377310929,/world,vicon/Archie/Archie,0.0736815609999,0.0941312664569,0.114348144323,0.00190004487744,-0.00339251420444,0.70817614035,0.706025095103
1385572438387319634,957026,1385572438387319634,/world,vicon/Archie/Archie,0.0736797482389,0.0941252182838,0.114354369598,0.00191015575604,-0.00336351915436,0.708185213237,0.706016105904
1385572438397310955,957027,1385572438397310955,/world,vicon/Archie/Archie,0.0736923291389,0.0941299085044,0.114348680471,0.00189533564181,-0.00338057884052,0.708184646446,0.706016632897
1385572438407257451,957028,1385572438407257451,/world,vicon/Archie/Archie,0.0736813819961,0.094123022823,0.114346222555,0.00189896009384,-0.00339397958795,0.708188207698,0.706012986659
1385572438417213887,957029,1385572438417213887,/world,vicon/Archie/Archie,0.0736781298956,0.0941229316291,0.114351909446,0.0019114630472,-0.00339651170114,0.708184777702,0.706016381289
1385572438427295885,957030,1385572438427295885,/world,vicon/Archie/Archie,0.0736775753555,0.0941261801011,0.114349512865,0.00191056533088,-0.00337279853742,0.708189935663,0.706011323561
1385572438437239465,957031,1385572438437239465,/world,vicon/Archie/Archie,0.0736808385736,0.0941304568438,0.114348355822,0.00189730726251,-0.00337877863307,0.708184772929,0.706016509348
1385572438448279379,957032,1385572438448279379,/world,vicon/Archie/Archie,0.0736768757716,0.094131786617,0.114348929111,0.00188083652135,-0.00338303612294,0.708184008156,0.706017300151
1385572438457357006,957033,1385572438457357006,/world,vicon/Archie/Archie,0.0736796606167,0.0941282824223,0.114347576879,0.00186998935629,-0.00334948227423,0.70818059846,0.706020909091
1385572438467385479,957034,1385572438467385479,/world,vicon/Archie/Archie,0.073681276512,0.0941191512604,0.114341636343,0.00189330090963,-0.00337571541181,0.708187574631,0.706013724438
1385572438477212011,957035,1385572438477212011,/world,vicon/Archie/Archie,0.0736888920455,0.0941322061621,0.114347183401,0.00188394554045,-0.00337211763872,0.708176971851,0.706024401924
1385572438487125066,957036,1385572438487125066,/world,vicon/Archie/Archie,0.0736882306773,0.0941309438751,0.11435236391,0.00190212082039,-0.00339232726848,0.708180519259,0.706020698135
1385572438497293888,957037,1385572438497293888,/world,vicon/Archie/Archie,0.0736756833303,0.0941268770306,0.114347171656,0.00187380173652,-0.00336034019481,0.708191389325,0.706010023347
1385572438507222027,957038,1385572438507222027,/world,vicon/Archie/Archie,0.0736911161441,0.0941302284935,0.114348882506,0.00189717040208,-0.00339036524878,0.708175608944,0.706025646181
1385572438517290065,957039,1385572438517290065,/world,vicon/Archie/Archie,0.0736745775136,0.0941215546244,0.114352061714,0.00191394468318,-0.00338524107393,0.708194895031,0.70600628015
1385572438527078244,957040,1385572438527078244,/world,vicon/Archie/Archie,0.0736770722758,0.0941169474353,0.114354360699,0.00190512202202,-0.00337197084528,0.708189256882,0.706012023098
1385572438537164953,957041,1385572438537164953,/world,vicon/Archie/Archie,0.0736751143204,0.0941326339385,0.114349746795,0.00190175718926,-0.0033680971131,0.708187506654,0.706013806282
1385572438547199744,957042,1385572438547199744,/world,vicon/Archie/Archie,0.0736930407926,0.0941321579046,0.114347083789,0.00189971809535,-0.00338607082627,0.70817273586,0.70602854176
1385572438557654906,957043,1385572438557654906,/world,vicon/Archie/Archie,0.0736749628702,0.094124085369,0.114353292232,0.00191732510636,-0.00338954994166,0.708191546319,0.70600960938
1385572438567443485,957044,1385572438567443485,/world,vicon/Archie/Archie,0.0735487809901,0.0941851526211,0.114453625197,0.0012195777798,-0.00316826027577,0.708114673878,0.706089288543
1385572438577250372,957045,1385572438577250372,/world,vicon/Archie/Archie,0.0736997714815,0.0941301318932,0.114350408186,0.00187892928061,-0.00337534965067,0.708183846269,0.706017504402
1385572438587437963,957046,1385572438587437963,/world,vicon/Archie/Archie,0.0736757993513,0.0941246303332,0.114351077038,0.00192201253416,-0.00339732237275,0.708192674751,0.706008427356
1385572438597171217,957047,1385572438597171217,/world,vicon/Archie/Archie,0.0736748140318,0.0941280807421,0.11434564402,0.00190261748216,-0.00338377639442,0.708189957267,0.706011270824
1385572438607209122,957048,1385572438607209122,/world,vicon/Archie/Archie,0.073684164049,0.0941225182725,0.114345253351,0.00189139998871,-0.0033888526343,0.708189059252,0.706012177402
1385572438617418407,957049,1385572438617418407,/world,vicon/Archie/Archie,0.0736831559075,0.0941217927376,0.114346870087,0.00191056653582,-0.0033668248593,0.708192702883,0.7060085763
1385572438627218843,957050,1385572438627218843,/world,vicon/Archie/Archie,0.0736784270086,0.094122780643,0.114349298223,0.00190206261741,-0.00338031042004,0.708178790842,0.706022489628
1385572438637218936,957051,1385572438637218936,/world,vicon/Archie/Archie,0.0736793267849,0.0941300076604,0.114343473786,0.00188955968986,-0.00336283651181,0.70818699707,0.706014375262
1385572438647366148,957052,1385572438647366148,/world,vicon/Archie/Archie,0.0736796720827,0.0941232975468,0.11434630307,0.00187849360728,-0.0033726491679,0.70819066741,0.706010676331
1385572438657255704,957053,1385572438657255704,/world,vicon/Archie/Archie,0.0736853530473,0.0941390220413,0.114342900672,0.0018898514846,-0.00337927812623,0.708173408907,0.706027925692
1385572438667304213,957054,1385572438667304213,/world,vicon/Archie/Archie,0.0736953346545,0.0941359200978,0.114351057502,0.00189766538434,-0.00336538535772,0.708172907838,0.706028473683
1385572438677325890,957055,1385572438677325890,/world,vicon/Archie/Archie,0.0736924877997,0.0941345912605,0.114354695127,0.00189546169087,-0.00337384719159,0.708178004775,0.706023326762
1385572438687265683,957056,1385572438687265683,/world,vicon/Archie/Archie,0.0736791193891,0.0941165701623,0.11434735949,0.001896104065,-0.0033717465363,0.708190864681,0.706010435686
1385572438697209941,957057,1385572438697209941,/world,vicon/Archie/Archie,0.0736922257702,0.0941310343568,0.114344444071,0.00190581484282,-0.00337155577525,0.708183891708,0.706017404889
1385572438707243537,957058,1385572438707243537,/world,vicon/Archie/Archie,0.0736783465707,0.0941283003196,0.114348548353,0.00191475655131,-0.0034049957225,0.708183204155,0.706017909875
1385572438717301998,957059,1385572438717301998,/world,vicon/Archie/Archie,0.0736742799088,0.0941270234651,0.114344127797,0.00190129398906,-0.00338715310104,0.708186419455,0.706014806909
1385572438727313345,957060,1385572438727313345,/world,vicon/Archie/Archie,0.0736707398115,0.0941235793644,0.114351097242,0.00192027144131,-0.0033729687766,0.708186600969,0.706014641383
1385572438737277692,957061,1385572438737277692,/world,vicon/Archie/Archie,0.0736830258656,0.0941192587363,0.11434451726,0.00189673361196,-0.00337742570561,0.708178710919,0.706022597937
1385572438747175204,957062,1385572438747175204,/world,vicon/Archie/Archie,0.0736725691297,0.0941288171438,0.114349675284,0.00191747142288,-0.00338704790837,0.708189360472,0.706011813587
1385572438757367713,957063,1385572438757367713,/world,vicon/Archie/Archie,0.0736780472121,0.0941340992685,0.114347574591,0.00191465146048,-0.00339028725494,0.708174940399,0.706026269945
1385572438767299919,957064,1385572438767299919,/world,vicon/Archie/Archie,0.0735474144734,0.0941835891958,0.114454359604,0.00124737729614,-0.00317833633345,0.708114934575,0.706088933252
1385572438777217448,957065,1385572438777217448,/world,vicon/Archie/Archie,0.0735575145264,0.0941982889936,0.114480780575,0.00139880187484,-0.00329837919899,0.708108408204,0.706094643995
1385572438787284141,957066,1385572438787284141,/world,vicon/Archie/Archie,0.0736710958389,0.094124922234,0.114351962268,0.00190169025232,-0.00338186686505,0.708188182307,0.706013062904
1385572438797115032,957067,1385572438797115032,/world,vicon/Archie/Archie,0.0736783444844,0.0941249774365,0.114347979671,0.00190193262272,-0.00338127127878,0.708183319975,0.706017942382
1385572438807214033,957068,1385572438807214033,/world,vicon/Archie/Archie,0.0736792269553,0.094126673254,0.114343819727,0.00188762884591,-0.00339023158781,0.70819089835,0.706010336101
1385572438817306666,957069,1385572438817306666,/world,vicon/Archie/Archie,0.0736951210185,0.0941333198389,0.114342750109,0.00189346343168,-0.00339476019318,0.708169020646,0.706032243312
1385572438827310627,957070,1385572438827310627,/world,vicon/Archie/Archie,0.0736942659447,0.0941333854519,0.114352914323,0.00190524322249,-0.00337985914567,0.708172058149,0.706029236404
1385572438837226678,957071,1385572438837226678,/world,vicon/Archie/Archie,0.0736993866882,0.0941315512511,0.11434988378,0.00190025585424,-0.00339018392333,0.708163947711,0.706037335304
1385572438847254500,957072,1385572438847254500,/world,vicon/Archie/Archie,0.0736923214989,0.0941398008651,0.114351814648,0.00190359110746,-0.00336962324789,0.70817125294,0.706030097438
1385572438857383186,957073,1385572438857383186,/world,vicon/Archie/Archie,0.0735355814977,0.094187151476,0.114446307302,0.00121977600705,-0.00318500010736,0.708111704771,0.706092190502
1385572438867231664,957074,1385572438867231664,/world,vicon/Archie/Archie,0.0736809011294,0.0941298115502,0.114349525801,0.00189821071514,-0.00337860676704,0.708176647926,0.706024657604
1385572438877415442,957075,1385572438877415442,/world,vicon/Archie/Archie,0.0736881250109,0.0941354445036,0.114356376863,0.00189618963045,-0.00338895175936,0.708173925662,0.706027344006
1385572438887259812,957076,1385572438887259812,/world,vicon/Archie/Archie,0.0736885091535,0.0941302117707,0.11435198809,0.00190074038162,-0.00338864154038,0.708187860078,0.7060133562
1385572438897340434,957077,1385572438897340434,/world,vicon/Archie/Archie,0.0736786846581,0.0941247182306,0.11435453014,0.00190113291811,-0.0033864269315,0.708185257613,0.706015976239
1385572438907247136,957078,1385572438907247136,/world,vicon/Archie/Archie,0.0736810842147,0.0941312920328,0.11435947313,0.00189735736645,-0.00339251860505,0.708182232114,0.706018991933
1385572438917327069,957079,1385572438917327069,/world,vicon/Archie/Archie,0.0736704747901,0.094125418355,0.114347222064,0.00186655265719,-0.00335388277792,0.708186613275,0.706014864029
1385572438927520184,957080,1385572438927520184,/world,vicon/Archie/Archie,0.073676040624,0.0941299352992,0.114349730294,0.00189692663903,-0.00337829704956,0.708188871723,0.70601240127
1385572438937286229,957081,1385572438937286229,/world,vicon/Archie/Archie,0.0736659346006,0.0941335427283,0.114348544298,0.00190026914123,-0.00338851546468,0.708180513484,0.706020727219
1385572438947350879,957082,1385572438947350879,/world,vicon/Archie/Archie,0.0736677205868,0.0941243258105,0.114353617213,0.00191434525611,-0.00337992103424,0.708189218771,0.706011998363
1385572438957303345,957083,1385572438957303345,/world,vicon/Archie/Archie,0.0736816911109,0.0941247102606,0.114349795798,0.00191600944355,-0.00336812852438,0.708181745142,0.706019546802
1385572438967348991,957084,1385572438967348991,/world,vicon/Archie/Archie,0.0736732008717,0.0941285664627,0.114348501645,0.00188815743717,-0.00339164164246,0.708184206341,0.706017040529
1385572438977432853,957085,1385572438977432853,/world,vicon/Archie/Archie,0.0736765956828,0.0941277706571,0.114350887755,0.00190375099106,-0.00338763568956,0.708181922894,0.706019308335
1385572438987342062,957086,1385572438987342062,/world,vicon/Archie/Archie,0.0736792341205,0.0941242110203,0.114353223892,0.00191137006003,-0.00338817680231,0.708194229149,0.706006940988
1385572438997320360,957087,1385572438997320360,/world,vicon/Archie/Archie,0.0736771925798,0.0941284324307,0.114351343638,0.00190007048641,-0.00337746347055,0.708177610906,0.706023692155
1385572439007291932,957088,1385572439007291932,/world,vicon/Archie/Archie,0.0736722241271,0.0941319355086,0.114353360792,0.00192616644105,-0.00339505650985,0.708187775976,0.706013340832
1385572439017254388,957089,1385572439017254388,/world,vicon/Archie/Archie,0.0736862912718,0.0941415019182,0.114346315643,0.00190351138948,-0.00337722084244,0.708176151798,0.706025147604
1385572439027312577,957090,1385572439027312577,/world,vicon/Archie/Archie,0.0736812208893,0.0941291613947,0.114347757096,0.00191330271811,-0.00339210751894,0.708177024134,0.706024174776
1385572439037253969,957091,1385572439037253969,/world,vicon/Archie/Archie,0.0736656494526,0.094133035326,0.11434773638,0.00192231580154,-0.00339818743271,0.70818485911,0.706016262101
1385572439047253743,957092,1385572439047253743,/world,vicon/Archie/Archie,0.0736782772138,0.0941350188805,0.114351813198,0.00191172025808,-0.00338576482832,0.708175009378,0.706026230402
1385572439057296967,957093,1385572439057296967,/world,vicon/Archie/Archie,0.0736795804546,0.0941295877451,0.114347485713,0.00191348275762,-0.00339173491565,0.708180421492,0.706020768345
1385572439067322547,957094,1385572439067322547,/world,vicon/Archie/Archie,0.0736713528025,0.0941246289445,0.114348276793,0.00190582681054,-0.00337464371495,0.708181473841,0.706019815382
1385572439077220666,957095,1385572439077220666,/world,vicon/Archie/Archie,0.0736725298905,0.0941302341548,0.114351826636,0.00189345472543,-0.00337219364967,0.708180059156,0.706021279391
1385572439087261576,957096,1385572439087261576,/world,vicon/Archie/Archie,0.0736705410986,0.0941294093937,0.114345591342,0.00188502103904,-0.0033724335007,0.708183752036,0.706017596622
1385572439097238318,957097,1385572439097238318,/world,vicon/Archie/Archie,0.0736779246963,0.0941293807501,0.114352809009,0.00190627264094,-0.00339565149066,0.708177402669,0.706023797067
1385572439107211311,957098,1385572439107211311,/world,vicon/Archie/Archie,0.0736999336918,0.0941365234581,0.11435228808,0.0018965875822,-0.00335878368109,0.708158964265,0.706042493664
1385572439117260816,957099,1385572439117260816,/world,vicon/Archie/Archie,0.0736852880648,0.0941353481908,0.114353722922,0.00190599160173,-0.00336531602343,0.708179523172,0.706021816097
1385572439127349811,957100,1385572439127349811,/world,vicon/Archie/Archie,0.0736772270533,0.0941328214547,0.11435312703,0.0018973678811,-0.00337324603658,0.708186532216,0.706014770946
1385572439137280647,957101,1385572439137280647,/world,vicon/Archie/Archie,0.0736941432973,0.0941340894575,0.11435021771,0.00188860196037,-0.00338599426863,0.708174041208,0.706027262635
1385572439147408080,957102,1385572439147408080,/world,vicon/Archie/Archie,0.073678711797,0.0941278458058,0.114347337741,0.00189008181973,-0.00338223067073,0.708179861176,0.706021439003
1385572439157220711,957103,1385572439157220711,/world,vicon/Archie/Archie,0.0736831246731,0.0941275861678,0.114350173196,0.0018988067021,-0.00338179569544,0.708180870971,0.706020404791
1385572439167292985,957104,1385572439167292985,/world,vicon/Archie/Archie,0.0736922970489,0.0941300495701,0.114351221361,0.00191129071922,-0.0033939108427,0.708172006082,0.706029204876
1385572439177332957,957105,1385572439177332957,/world,vicon/Archie/Archie,0.073679390962,0.0941274802376,0.114352059639,0.00189011093744,-0.00338814910382,0.708179784066,0.706021487892
1385572439187237488,957106,1385572439187237488,/world,vicon/Archie/Archie,0.0736920924816,0.0941298144139,0.114350573333,0.00188773817262,-0.0033744180306,0.70817541386,0.70602594354
1385572439197646882,957107,1385572439197646882,/world,vicon/Archie/Archie,0.0736756465565,0.0941330787593,0.114358680397,0.00191452881605,-0.00339032546801,0.708179406029,0.706021790846
1385572439207286336,957108,1385572439207286336,/world,vicon/Archie/Archie,0.0736691490901,0.0941299727853,0.114346697723,0.00188764118451,-0.00337910958502,0.708180905582,0.706020412876
1385572439217232169,957109,1385572439217232169,/world,vicon/Archie/Archie,0.0736803505414,0.0941289904579,0.114342233462,0.00188906389334,-0.00337863643712,0.708172267189,0.706029076057
1385572439227464566,957110,1385572439227464566,/world,vicon/Archie/Archie,0.07354481946,0.0941833536742,0.114452431702,0.00121254089305,-0.00315242200354,0.708115058876,0.706088985449
1385572439237381113,957111,1385572439237381113,/world,vicon/Archie/Archie,0.073544513492,0.0941824378191,0.114452784808,0.00121426826406,-0.00319573912092,0.708100483915,0.706103404243
1385572439247287949,957112,1385572439247287949,/world,vicon/Archie/Archie,0.073543430072,0.0941789367112,0.114452132979,0.00124312455233,-0.00317292340317,0.708122418955,0.706081459161
1385572439257285885,957113,1385572439257285885,/world,vicon/Archie/Archie,0.0735466782189,0.0941791123896,0.114450842334,0.00125306557122,-0.00319182296563,0.708111262867,0.706092544568
1385572439267315446,957114,1385572439267315446,/world,vicon/Archie/Archie,0.0736765528981,0.0941284195112,0.114352500665,0.0019198098943,-0.00337510923457,0.708180634089,0.706020617594
1385572439277151576,957115,1385572439277151576,/world,vicon/Archie/Archie,0.0736848452214,0.0941289525255,0.114350762905,0.00189765552618,-0.00337920089117,0.708187840572,0.706013429314
1385572439287293857,957116,1385572439287293857,/world,vicon/Archie/Archie,0.0736714798742,0.0941304717313,0.114356452868,0.00192727077493,-0.00339513542964,0.708184203914,0.706016920483
1385572439297234618,957117,1385572439297234618,/world,vicon/Archie/Archie,0.0736813709695,0.0941247647585,0.114351114409,0.00189483169327,-0.00337446379327,0.708182812192,0.706018503386
1385572439307765621,957118,1385572439307765621,/world,vicon/Archie/Archie,0.0736753378723,0.0941250052896,0.114354129467,0.00189120229068,-0.00336795488988,0.708184829206,0.706016520994
1385572439317216255,957119,1385572439317216255,/world,vicon/Archie/Archie,0.0736910711249,0.0941319569068,0.114348430536,0.00191110136729,-0.0033629223887,0.708171376367,0.706029985297
1385572439327111718,957120,1385572439327111718,/world,vicon/Archie/Archie,0.0736894252696,0.094141253634,0.114348368346,0.00188755457613,-0.0033747465133,0.708164607576,0.706036781478
1385572439337178121,957121,1385572439337178121,/world,vicon/Archie/Archie,0.0736991459241,0.0941341171896,0.114351971744,0.00190511711446,-0.0033742668216,0.70816923528,0.706032094918
1385572439347541719,957122,1385572439347541719,/world,vicon/Archie/Archie,0.0736770528838,0.0941287741453,0.114346697293,0.00190236871802,-0.00338559633034,0.70818183654,0.706019408462
1385572439357235599,957123,1385572439357235599,/world,vicon/Archie/Archie,0.07369602449,0.0941413134955,0.114352952484,0.00190596063829,-0.00339500042747,0.708166134741,0.706035103158
1385572439367741754,957124,1385572439367741754,/world,vicon/Archie/Archie,0.0736877715269,0.0941375986461,0.114345441496,0.00188317137527,-0.0033843323331,0.708176806506,0.706024511392
1385572439377290656,957125,1385572439377290656,/world,vicon/Archie/Archie,0.0736849736654,0.0941380217282,0.114347186354,0.00189170090397,-0.00337784181236,0.708172815418,0.706028522905
1385572439387283401,957126,1385572439387283401,/world,vicon/Archie/Archie,0.073673881448,0.0941321688514,0.114348512794,0.001889342428,-0.00336531877639,0.708179337636,0.706022046937
1385572439397301156,957127,1385572439397301156,/world,vicon/Archie/Archie,0.0736856536809,0.094125211003,0.114343602271,0.00188827412446,-0.00338575546982,0.708182512894,0.70601876711
1385572439407277030,957128,1385572439407277030,/world,vicon/Archie/Archie,0.0736816136356,0.0941259032834,0.114347916324,0.00189045860655,-0.00337610280241,0.708182715239,0.706018604523
1385572439417288371,957129,1385572439417288371,/world,vicon/Archie/Archie,0.0736749428645,0.0941260999176,0.114351893471,0.00192063695665,-0.00337711871191,0.708184329185,0.706016899316
1385572439427255509,957130,1385572439427255509,/world,vicon/Archie/Archie,0.0736772975969,0.0941252054278,0.114345623262,0.00191813367331,-0.00338717729912,0.708181116197,0.706020080773
1385572439437257280,957131,1385572439437257280,/world,vicon/Archie/Archie,0.0736704921704,0.0941299059926,0.114348712291,0.00190336320149,-0.00339101187004,0.708181548643,0.706019668571
1385572439447338973,957132,1385572439447338973,/world,vicon/Archie/Archie,0.0736786288278,0.0941260033057,0.114352925848,0.00189394347131,-0.0033702710386,0.708179999306,0.706021347294
1385572439457507399,957133,1385572439457507399,/world,vicon/Archie/Archie,0.0736770894584,0.09412806583,0.114347810942,0.00190089637877,-0.00336100191026,0.708179292184,0.706022082077
1385572439467431777,957134,1385572439467431777,/world,vicon/Archie/Archie,0.0736872048519,0.0941358078334,0.114346165607,0.00189562471952,-0.00337222959117,0.708177607236,0.706023732805
1385572439477397015,957135,1385572439477397015,/world,vicon/Archie/Archie,0.0736752518846,0.0941300452965,0.114347359335,0.00189883675678,-0.00339796067733,0.708177396062,0.706023812621
1385572439487264887,957136,1385572439487264887,/world,vicon/Archie/Archie,0.0736781680572,0.0941242495854,0.114349362702,0.00187778000922,-0.00338149773394,0.708185881901,0.706015436157
1385572439497286467,957137,1385572439497286467,/world,vicon/Archie/Archie,0.0736792031104,0.0941263029036,0.114352080837,0.00190106859192,-0.00338077981264,0.708188187764,0.70601306431
1385572439507229876,957138,1385572439507229876,/world,vicon/Archie/Archie,0.0736937056815,0.094128679925,0.114348769357,0.00190827671189,-0.00338984756746,0.708172450408,0.706028786876
1385572439517185050,957139,1385572439517185050,/world,vicon/Archie/Archie,0.0736964803399,0.0941383735282,0.114348815634,0.00188269483443,-0.00337240186856,0.708163833083,0.706037582484
1385572439527246195,957140,1385572439527246195,/world,vicon/Archie/Archie,0.0736673552137,0.0941250429089,0.114349781557,0.00189587571228,-0.00336094354688,0.708187545165,0.706013817561
1385572439537193084,957141,1385572439537193084,/world,vicon/Archie/Archie,0.0736764494251,0.0941232538733,0.1143456759,0.00189197255208,-0.00336109882619,0.708191999449,0.706009359266
1385572439547178042,957142,1385572439547178042,/world,vicon/Archie/Archie,0.0736818582663,0.0941228425088,0.114351062094,0.00191097534986,-0.00337974527186,0.708192747748,0.706008468457
1385572439557184852,957143,1385572439557184852,/world,vicon/Archie/Archie,0.073675962078,0.0941266948603,0.114350671413,0.00190315731352,-0.00337518482091,0.708190419701,0.706010846633
1385572439567309984,957144,1385572439567309984,/world,vicon/Archie/Archie,0.073677839122,0.0941207403807,0.114346991457,0.00191257193162,-0.00340538795103,0.708190031065,0.706011065991
1385572439577317028,957145,1385572439577317028,/world,vicon/Archie/Archie,0.0736755322873,0.0941252975938,0.114346960887,0.00190660154887,-0.00338324541927,0.70817832175,0.706022933852
1385572439587205545,957146,1385572439587205545,/world,vicon/Archie/Archie,0.073698588912,0.0941335265472,0.114349492996,0.00189555859248,-0.0033945937111,0.708178698944,0.706022530769
1385572439597438399,957147,1385572439597438399,/world,vicon/Archie/Archie,0.0736728533545,0.0941194922644,0.114352333241,0.0019214606677,-0.0033823925937,0.708195842434,0.706005323045
1385572439607152358,957148,1385572439607152358,/world,vicon/Archie/Archie,0.0736959881458,0.0941333164655,0.114355676048,0.00190370731817,-0.0033863264471,0.708179968066,0.706021275545
1385572439617378815,957149,1385572439617378815,/world,vicon/Archie/Archie,0.0736745402727,0.0941266798125,0.114350435093,0.0019142584429,-0.00339482414619,0.708189806573,0.70601133748
1385572439627206440,957150,1385572439627206440,/world,vicon/Archie/Archie,0.0736727236167,0.0941227708048,0.114346116302,0.00191016099169,-0.00339977018954,0.70819300606,0.706008115403
1385572439637205493,957151,1385572439637205493,/world,vicon/Archie/Archie,0.0736905472392,0.0941339064159,0.114353300653,0.00190373061908,-0.00337883491151,0.708167753302,0.706033563272
1385572439647266677,957152,1385572439647266677,/world,vicon/Archie/Archie,0.0736799006023,0.0941200321426,0.114351564377,0.00187796144846,-0.00337415079387,0.708187004011,0.706014345263
1385572439657194664,957153,1385572439657194664,/world,vicon/Archie/Archie,0.0736904212494,0.0941218673655,0.114345020769,0.00190374147601,-0.00338815359307,0.708183619843,0.706017603725
1385572439667181627,957154,1385572439667181627,/world,vicon/Archie/Archie,0.0736965908667,0.0941287933959,0.114350656693,0.00189896041968,-0.00337989133912,0.708178263013,0.706023029426
1385572439677245347,957155,1385572439677245347,/world,vicon/Archie/Archie,0.0736785574578,0.0941191549137,0.114358448168,0.00191321530652,-0.00337102040916,0.708197311804,0.706003925897
1385572439687157140,957156,1385572439687157140,/world,vicon/Archie/Archie,0.0736797993001,0.0941207968201,0.11435568462,0.00188724820172,-0.00336198333772,0.70818598676,0.706015398925
1385572439697278278,957157,1385572439697278278,/world,vicon/Archie/Archie,0.0736927440593,0.0941287643836,0.114356611365,0.00191376234576,-0.00338862701311,0.708184791966,0.70601639864
1385572439707405457,957158,1385572439707405457,/world,vicon/Archie/Archie,0.0736715501381,0.0941285794371,0.114346913858,0.00190248840599,-0.00340430364602,0.7081893444,0.706011787248
1385572439717386280,957159,1385572439717386280,/world,vicon/Archie/Archie,0.0736740904582,0.094121906553,0.114352517921,0.00190131267531,-0.00337551167808,0.708190189326,0.706011081127
1385572439727338875,957160,1385572439727338875,/world,vicon/Archie/Archie,0.0736801992472,0.0941213790046,0.114348622694,0.00189460339228,-0.00338051262765,0.708177423902,0.706023879829
1385572439737240723,957161,1385572439737240723,/world,vicon/Archie/Archie,0.0736889224057,0.0941299269787,0.114358617392,0.00191106299407,-0.00337271968669,0.708184321383,0.70601695415
1385572439747365056,957162,1385572439747365056,/world,vicon/Archie/Archie,0.073685053588,0.0941232738253,0.11435243577,0.00188244171549,-0.00338418061352,0.708189806598,0.706011474103
1385572439757171353,957163,1385572439757171353,/world,vicon/Archie/Archie,0.0736905155972,0.0941366772857,0.114349320153,0.001902199527,-0.00337165314866,0.708172444823,0.706028895998
1385572439767241930,957164,1385572439767241930,/world,vicon/Archie/Archie,0.0736930198875,0.0941362555362,0.114346680376,0.00189086917011,-0.00337630365495,0.708170269377,0.706031086255
1385572439777249654,957165,1385572439777249654,/world,vicon/Archie/Archie,0.0736740218207,0.0941255028576,0.114350850308,0.00190573763552,-0.00340223763019,0.70819385277,0.70600726614
1385572439787169131,957166,1385572439787169131,/world,vicon/Archie/Archie,0.0736754192666,0.0941341393631,0.114346481021,0.00190911352123,-0.00336931671243,0.708169841035,0.706031500175
1385572439797240218,957167,1385572439797240218,/world,vicon/Archie/Archie,0.0736714590394,0.0941226328317,0.114345833507,0.00190428857937,-0.00338687945399,0.708189849365,0.706011359674
1385572439807225199,957168,1385572439807225199,/world,vicon/Archie/Archie,0.0736935434124,0.0941313846865,0.114356654713,0.00191558833284,-0.00336650495014,0.708180106423,0.706021199422
1385572439817674482,957169,1385572439817674482,/world,vicon/Archie/Archie,0.0736846997184,0.094133529196,0.114351746331,0.00189564252727,-0.00338231157085,0.708179441466,0.7060218447
1385572439827349897,957170,1385572439827349897,/world,vicon/Archie/Archie,0.0736932417883,0.0941275318209,0.114346337778,0.00190682670093,-0.00337425420136,0.708170011424,0.70603131187
1385572439837361562,957171,1385572439837361562,/world,vicon/Archie/Archie,0.0735403098662,0.0941815773837,0.114448437789,0.00120012345878,-0.00318082868275,0.708127594967,0.70607630698
1385572439847168901,957172,1385572439847168901,/world,vicon/Archie/Archie,0.0736992570525,0.0941296346565,0.114349737592,0.00191666521611,-0.003386080114,0.708170635911,0.706030602233
1385572439857218077,957173,1385572439857218077,/world,vicon/Archie/Archie,0.0736802830344,0.0941256739261,0.114338368361,0.00188336998093,-0.00337942460662,0.708194656807,0.706006629202
1385572439867244824,957174,1385572439867244824,/world,vicon/Archie/Archie,0.0736766617624,0.0941250793382,0.114343622293,0.00189067933556,-0.00337922643518,0.708188434274,0.706012852376
1385572439877276474,957175,1385572439877276474,/world,vicon/Archie/Archie,0.073674764285,0.0941260875411,0.114352809326,0.00191512197513,-0.00337968120821,0.708183886579,0.706017346
1385572439887343616,957176,1385572439887343616,/world,vicon/Archie/Archie,0.0736764600893,0.094126545471,0.114349325277,0.00190296870177,-0.00338930545879,0.708179014899,0.706022219321
1385572439897170266,957177,1385572439897170266,/world,vicon/Archie/Archie,0.0737049760394,0.0941264567512,0.114350229481,0.00188671923805,-0.00338083111896,0.708172916897,0.70602842014
1385572439907287505,957178,1385572439907287505,/world,vicon/Archie/Archie,0.0736814948512,0.0941200415917,0.114354952121,0.00191193360967,-0.00337321918092,0.708186162643,0.70601510249
1385572439917288788,957179,1385572439917288788,/world,vicon/Archie/Archie,0.0736737438364,0.094127658866,0.114343980881,0.00191968154272,-0.00339437842331,0.708195701067,0.706005412167
1385572439927651091,957180,1385572439927651091,/world,vicon/Archie/Archie,0.0736811310304,0.0941293843917,0.114350587071,0.00188628351241,-0.00335293667694,0.708181060004,0.706020386393
1385572439937532119,957181,1385572439937532119,/world,vicon/Archie/Archie,0.0736886176238,0.0941266850705,0.114350831806,0.00190952827913,-0.00338332328971,0.708182934819,0.706018298386
1385572439947256542,957182,1385572439947256542,/world,vicon/Archie/Archie,0.0736905195522,0.0941321542126,0.114346789081,0.00188112905375,-0.00335778877883,0.708178337873,0.706023107536
1385572439957850785,957183,1385572439957850785,/world,vicon/Archie/Archie,0.0736708637209,0.0941254644254,0.114348245595,0.00190593030719,-0.00338005437955,0.708187524201,0.706013720283
1385572439967279542,957184,1385572439967279542,/world,vicon/Archie/Archie,0.0736696261359,0.0941238631376,0.114344808676,0.00188768874776,-0.00337419430033,0.70819331115,0.706007992509
1385572439977245485,957185,1385572439977245485,/world,vicon/Archie/Archie,0.0736839304819,0.0941251692856,0.114351780838,0.00189769660089,-0.00337477471811,0.708189834715,0.706011450084
1385572439987371059,957186,1385572439987371059,/world,vicon/Archie/Archie,0.0736884766775,0.0941170268868,0.114354102018,0.001908038004,-0.0033728332824,0.70819114805,0.706010114099
1385572439997164827,957187,1385572439997164827,/world,vicon/Archie/Archie,0.0736940709103,0.0941332656434,0.114350006801,0.0018814872159,-0.00337313939472,0.708169962163,0.706031434588
1385572440007245879,957188,1385572440007245879,/world,vicon/Archie/Archie,0.0736758602902,0.0941270309125,0.114350486291,0.00191623422665,-0.00339888033324,0.708186827517,0.706014300839
1385572440017275653,957189,1385572440017275653,/world,vicon/Archie/Archie,0.0736947116359,0.0941349554404,0.114354112882,0.00190905713171,-0.0033841423273,0.70817275642,0.706028505194
1385572440027244627,957190,1385572440027244627,/world,vicon/Archie/Archie,0.0736759694224,0.0941310159761,0.114341994749,0.00188972456142,-0.00338068962357,0.708188211627,0.706013071261
1385572440037160898,957191,1385572440037160898,/world,vicon/Archie/Archie,0.0736774915183,0.0941288811003,0.114350522489,0.00190963119968,-0.00338129740679,0.708182174136,0.706019070827
1385572440047300338,957192,1385572440047300338,/world,vicon/Archie/Archie,0.073680551537,0.094125700341,0.114345569853,0.00188355341011,-0.00337192126941,0.708191759526,0.706009570837
1385572440057257171,957193,1385572440057257171,/world,vicon/Archie/Archie,0.0736959764291,0.094130194547,0.114351826385,0.00190862596252,-0.00336986146331,0.708177332201,0.706023984959
1385572440067295437,957194,1385572440067295437,/world,vicon/Archie/Archie,0.073695457814,0.0941254574404,0.114356653655,0.00189619802375,-0.00337757184638,0.708173984017,0.706027339982
1385572440077364537,957195,1385572440077364537,/world,vicon/Archie/Archie,0.073681193182,0.0941208620699,0.114352617161,0.00190746399297,-0.00337612251334,0.708185793714,0.706015470765
1385572440087563943,957196,1385572440087563943,/world,vicon/Archie/Archie,0.0736703343494,0.0941197036739,0.114356404883,0.00191535837315,-0.0033918053881,0.70818752004,0.706013642586
1385572440097474406,957197,1385572440097474406,/world,vicon/Archie/Archie,0.0736794800853,0.0941320983279,0.114350703439,0.00190519559639,-0.00337806341018,0.70817775499,0.70602353095
1385572440107242645,957198,1385572440107242645,/world,vicon/Archie/Archie,0.0736653876586,0.0941253365439,0.114346259185,0.00188146369469,-0.00336455055743,0.708190801155,0.706010572904
1385572440117332681,957199,1385572440117332681,/world,vicon/Archie/Archie,0.0736758427487,0.0941326106643,0.114349936088,0.0019019922314,-0.00339611501199,0.708183569459,0.706017620727
1385572440127320128,957200,1385572440127320128,/world,vicon/Archie/Archie,0.0736674218715,0.0941272497976,0.114352005491,0.00190411521676,-0.00338390405474,0.708185125335,0.706016112984
1385572440137322233,957201,1385572440137322233,/world,vicon/Archie/Archie,0.0736795342605,0.0941272396849,0.114346926452,0.00190833704134,-0.00338801709308,0.708185642599,0.706015563006
1385572440147244915,957202,1385572440147244915,/world,vicon/Archie/Archie,0.0736828834043,0.0941192093961,0.114354862992,0.00192079479425,-0.00337362195314,0.708184557376,0.706016686712
1385572440157243530,957203,1385572440157243530,/world,vicon/Archie/Archie,0.073671284681,0.0941265686861,0.114345302367,0.0019047303063,-0.00337886030612,0.708185149674,0.706016111068
1385572440167302890,957204,1385572440167302890,/world,vicon/Archie/Archie,0.0736827446419,0.0941219384568,0.114343469013,0.00189608265191,-0.00337604688308,0.708182637583,0.706018667603
1385572440177242588,957205,1385572440177242588,/world,vicon/Archie/Archie,0.0735453022042,0.0941831415173,0.114450065013,0.0012148294101,-0.00317500418738,0.708112235964,0.706091711335
1385572440187217641,957206,1385572440187217641,/world,vicon/Archie/Archie,0.073544265851,0.0941811724808,0.114443519142,0.00123729628504,-0.00319092125052,0.708121064224,0.706082746937
1385572440197242722,957207,1385572440197242722,/world,vicon/Archie/Archie,0.0736937555583,0.094132210964,0.114347440047,0.00191270176163,-0.00338701947663,0.708175786966,0.706025441769
1385572440207370761,957208,1385572440207370761,/world,vicon/Archie/Archie,0.0736782191466,0.0941256531582,0.114344672492,0.00189588265892,-0.00337799957571,0.708183642609,0.706017650692
1385572440217357075,957209,1385572440217357075,/world,vicon/Archie/Archie,0.0737010668732,0.0941274203807,0.114343613825,0.00189317141383,-0.00335910689063,0.708180040662,0.706021361087
1385572440227471385,957210,1385572440227471385,/world,vicon/Archie/Archie,0.0736962220467,0.0941357012451,0.114350190268,0.00191648019913,-0.00338146051438,0.708170700484,0.706030560106
1385572440237393225,957211,1385572440237393225,/world,vicon/Archie/Archie,0.0736800581037,0.0941221186211,0.114352184173,0.0019079265851,-0.00335609700451,0.708188060283,0.706013291448
1385572440247268326,957212,1385572440247268326,/world,vicon/Archie/Archie,0.0736991409731,0.0941326589983,0.114349375334,0.00189875344046,-0.00338194325939,0.708171624122,0.706029679251
1385572440257392757,957213,1385572440257392757,/world,vicon/Archie/Archie,0.0736746005367,0.09412571487,0.114350484186,0.00190643216661,-0.00336831039792,0.708181539137,0.706019778495
1385572440267280117,957214,1385572440267280117,/world,vicon/Archie/Archie,0.0736684949436,0.0941237545243,0.114354092547,0.00191435798971,-0.00339369262215,0.708192246693,0.706008894991
1385572440277188326,957215,1385572440277188326,/world,vicon/Archie/Archie,0.0736759049491,0.0941217114887,0.114349444113,0.00191309198746,-0.00339476972274,0.70818649161,0.706014666079
1385572440287378479,957216,1385572440287378479,/world,vicon/Archie/Archie,0.0736950948996,0.0941292145149,0.114354552276,0.00189579316892,-0.00337031455763,0.708181810176,0.70601952571
1385572440297248314,957217,1385572440297248314,/world,vicon/Archie/Archie,0.0736759636984,0.0941284675472,0.114349167929,0.00191221912004,-0.00338122720395,0.708191003541,0.706010207592
1385572440307281985,957218,1385572440307281985,/world,vicon/Archie/Archie,0.0736794774115,0.0941222288805,0.114342095376,0.00189683701047,-0.00337909990879,0.708189119694,0.706012148933
1385572440317323090,957219,1385572440317323090,/world,vicon/Archie/Archie,0.073691112958,0.0941168121071,0.114348768138,0.00190491401986,-0.00339664817161,0.708186204417,0.706014967233
1385572440327248274,957220,1385572440327248274,/world,vicon/Archie/Archie,0.0736799771308,0.0941237671858,0.114354893407,0.0018978626465,-0.00338659291531,0.708184367529,0.70601687706
1385572440337222326,957221,1385572440337222326,/world,vicon/Archie/Archie,0.0736733856631,0.0941186018689,0.114348353645,0.0019026901614,-0.00337332716836,0.708198525711,0.706002725643
1385572440347282057,957222,1385572440347282057,/world,vicon/Archie/Archie,0.0736713747264,0.0941281632434,0.114347724919,0.00190473443091,-0.00337449382228,0.708191531076,0.706009730876
1385572440357267295,957223,1385572440357267295,/world,vicon/Archie/Archie,0.0736686969259,0.0941241773927,0.114341535917,0.00192429528457,-0.00340774688352,0.708195631031,0.706005405459
1385572440367272246,957224,1385572440367272246,/world,vicon/Archie/Archie,0.0736854127287,0.0941171996727,0.114354964049,0.00191053501378,-0.00339114128101,0.7081924978,0.706008665724
1385572440377267821,957225,1385572440377267821,/world,vicon/Archie/Archie,0.0736700757365,0.094122091305,0.114344716507,0.00190279178701,-0.00339857349218,0.708190679131,0.706010475187
1385572440387330783,957226,1385572440387330783,/world,vicon/Archie/Archie,0.0736886363121,0.0941133979247,0.114347476731,0.00191012700126,-0.00338610495164,0.708189776464,0.706011420743
1385572440397247755,957227,1385572440397247755,/world,vicon/Archie/Archie,0.0736797261555,0.0941246296667,0.114342535649,0.00189892672334,-0.00338178414268,0.708189456546,0.706011792572
1385572440407225028,957228,1385572440407225028,/world,vicon/Archie/Archie,0.0736702530532,0.0941245585249,0.114348720692,0.00189494090286,-0.00338383567203,0.708189167298,0.706012083592
1385572440417269085,957229,1385572440417269085,/world,vicon/Archie/Archie,0.073673593608,0.0941257320698,0.114349589419,0.0019001339133,-0.00337483291153,0.708189544071,0.706011734791
1385572440427433840,957230,1385572440427433840,/world,vicon/Archie/Archie,0.0736762827296,0.0941237045113,0.114350857855,0.00190667430194,-0.00340593269514,0.708186663893,0.706014456863
1385572440437271511,957231,1385572440437271511,/world,vicon/Archie/Archie,0.0736949663966,0.0941294153554,0.114345850474,0.0018863827994,-0.00338253919596,0.708177539192,0.706023776492
1385572440447275894,957232,1385572440447275894,/world,vicon/Archie/Archie,0.0736759339496,0.0941230583645,0.11435245979,0.00192126102012,-0.00339989444529,0.708179945881,0.70602118504
1385572440457698302,957233,1385572440457698302,/world,vicon/Archie/Archie,0.0736806705687,0.0941206161147,0.114347024063,0.00191810274485,-0.00338907476872,0.708194642963,0.706006503322
1385572440467492956,957234,1385572440467492956,/world,vicon/Archie/Archie,0.073664980825,0.0941256207242,0.114347635164,0.00189813556629,-0.00340149655441,0.708188695561,0.706012463333
1385572440477226553,957235,1385572440477226553,/world,vicon/Archie/Archie,0.0736808532457,0.0941245891373,0.114346736064,0.00190363841816,-0.00339038601843,0.708183338994,0.706017874996
