%time,field.linear.x,field.linear.y,field.linear.z,field.angular.x,field.angular.y,field.angular.z
1385574966573134677,-0.0,0.0,0.0,1.0,0.0,0.0
1385574966763132439,-0.0,0.0,7.59474782425e-08,1.0,0.0,0.15348850702
1385574966962231901,-0.0323647566163,0.0617502425749,-0.0107327751491,1.0,0.0,0.0921850333903
1385574967162095015,-0.0337692322477,0.0643426812295,-0.00700847907685,1.0,0.0,0.0575415328836
1385574967362089890,-0.0282269093045,0.0536173422142,-0.0020172429585,1.0,0.0,0.0316691302533
1385574967563020622,-0.018271717029,0.0346035800763,0.00488078369332,1.0,0.0,0.0153461578155
1385574967763092836,-0.00736115555827,0.0137618187072,0.0129836048638,1.0,0.0,0.00697095184759
1385574967961571698,0.00126515074468,-0.00278407236456,0.0219206092323,1.0,0.0,0.00303825395365
1385574968162117816,0.00600019707541,-0.0115890595421,0.0314211680165,1.0,0.0,0.00136183212312
1385574968361143661,0.00651563431981,-0.0125280037839,0.0413513761637,1.0,0.0,0.000739651325861
1385574968562108266,0.00399332109308,-0.00753851662746,0.0515777735107,1.0,0.0,0.000516352616331
1385574968762106519,-0.000129229889985,0.000298960237619,0.0619867189326,1.0,0.0,0.000524334750001
1385574968962256173,-0.00405724270563,0.0080125383955,0.0725765117051,1.0,0.0,0.000340565371199
1385574969163104521,-0.00660130666928,0.0136268469495,0.0832333846285,1.0,0.0,-6.06840089897e-05
1385574969362221828,-0.00546871010678,0.0155067197103,0.0938599746605,1.0,0.0,-0.00151938061148
1385574969563083312,-0.00223250611558,0.0129766524721,0.104694915082,1.0,0.0,-0.00395760422186
1385574969762041245,-0.00474704484806,0.00966794018292,0.113381751273,1.0,0.0,-0.00537934733187
1385574969962095523,-0.012181062313,0.010253728594,0.115495539845,1.0,0.0,-0.00600063372461
1385574970163113763,-0.0180925610065,0.00558681043949,0.112879159655,1.0,0.0,-0.00586148120074
1385574970362278558,-0.0276173670356,0.00788939417355,0.10521855187,1.0,0.0,-0.00546801342734
1385574970563168708,-0.043906371418,0.00927268808042,0.0948751778656,1.0,0.0,-0.00456558906861
1385574970762058258,-0.0586208722073,0.0118889752828,0.0900304780749,1.0,0.0,-0.00340750007712
1385574970962257319,-0.0691389015104,0.0136805550616,0.092472622291,1.0,0.0,-0.00201942896359
1385574971163137292,-0.0730044847949,0.0140979275356,0.101041111705,1.0,0.0,-0.000737948284958
1385574971362077941,-0.0702548208134,0.0128314242543,0.113144609486,1.0,0.0,0.000419559411561
1385574971562140770,-0.0628345227685,0.00588350076828,0.127044677515,1.0,0.0,0.00164380456438
1385574971762272159,-0.0536048796046,-0.000530144781968,0.140478658931,1.0,0.0,0.00291108363225
1385574971962437873,-0.0460987191477,-0.00630410706096,0.146851959823,1.0,0.0,0.00398561572151
1385574972162469687,-0.0409028755333,-0.0107986867995,0.150040975127,1.0,0.0,0.00498492234664
1385574972362416362,-0.0388780196255,-0.0124146045368,0.150263520193,1.0,0.0,0.00576568540104
1385574972562041469,-0.041851258331,-0.013114447449,0.147380815941,1.0,0.0,0.00635451500031
1385574972762756199,-0.0469552727985,-0.0105587662125,0.141935015161,1.0,0.0,0.00676425716156
1385574972962012934,-0.0531227650521,-0.00700180903837,0.134912103443,1.0,0.0,0.00720837969108
1385574973162042062,-0.0608730093042,-0.00133935500266,0.125939730244,1.0,0.0,0.00749324874669
1385574973361824123,-0.066199570994,0.00461162843779,0.118093301192,1.0,0.0,0.00751054063371
1385574973561845047,-0.0692348661426,0.00932113823269,0.111174861651,1.0,0.0,0.00739588107794
1385574973762805904,-0.0697651593793,0.0126632304588,0.104735188434,1.0,0.0,0.00719787938715
1385574973961820743,-0.0672564924772,0.0147191677438,0.0987255537815,1.0,0.0,0.00678007943414
1385574974161958753,-0.062789093371,0.0140984765268,0.0925877468914,1.0,0.0,0.00632356286628
1385574974361816948,-0.0568441070232,0.0114728328132,0.0871417774993,1.0,0.0,0.00581088802478
1385574974561919179,-0.0509955496417,0.00721560544644,0.0813438633462,1.0,0.0,0.00522169705981
1385574974762010958,-0.0460571917056,0.000971475114229,0.075832595773,1.0,0.0,0.00479502302475
1385574974962025990,-0.0419549047635,-0.00531165171239,0.0708725152201,1.0,0.0,0.00428253457564
1385574975161980833,-0.0396559847498,-0.0113107018988,0.0654164241865,1.0,0.0,0.00387431104362
1385574975363673293,-0.0386013467041,-0.0159771427197,0.0606090201146,1.0,0.0,0.00349235741055
1385574975561933503,-0.0387785058507,-0.0187935968897,0.0561290257651,1.0,0.0,0.0031242789201
1385574975761977597,-0.03972100275,-0.0195995874101,0.0523395297812,1.0,0.0,0.00271904059563
1385574975961993051,-0.0409639285506,-0.0187508016637,0.0488620682704,1.0,0.0,0.00234667825359
1385574976161924541,-0.0420393717041,-0.0167171185809,0.0458151953542,1.0,0.0,0.00203654962898
1385574976362992376,-0.0428262407324,-0.0144615954908,0.0428345459482,1.0,0.0,0.00187418544418
1385574976561992603,-0.0431080298278,-0.0113519256531,0.0407258969482,1.0,0.0,0.00168529565324
1385574976762005896,-0.0426735677719,-0.00905121440152,0.0390296311272,1.0,0.0,0.0016259410523
1385574976962232142,-0.0416407563597,-0.00712902113837,0.0372089598382,1.0,0.0,0.00154086926551
1385574977163017731,-0.0400505153246,-0.00679898075667,0.0356644936837,1.0,0.0,0.00155989759724
1385574977361941453,-0.0380655244582,-0.00736270462403,0.0345350548624,1.0,0.0,0.00158613430777
1385574977563001377,-0.0358732983746,-0.00982275610923,0.0335120556752,1.0,0.0,0.00187545180761
1385574977762014433,-0.0336092129421,-0.0126150479285,0.0325170450274,1.0,0.0,0.00221768541728
1385574977962760494,-0.0312565281378,-0.0153375435609,0.0315455306296,1.0,0.0,0.00262606089145
1385574978161908216,-0.0287895681141,-0.0178671167178,0.0304954155958,1.0,0.0,0.00313039398657
1385574978362790026,-0.0263615054692,-0.0189198068468,0.02978165014,1.0,0.0,0.00359967902898
1385574978561793417,-0.0246565838459,-0.0182880506719,0.0281350378019,1.0,0.0,0.00394730740323
1385574978761858099,-0.0233880389378,-0.0166693266578,0.0269481496453,1.0,0.0,0.0043553966147
1385574978961856283,-0.0229054808563,-0.0139538666977,0.0250875143593,1.0,0.0,0.00474858403929
1385574979161828408,-0.0230414466733,-0.0107510103792,0.0235865673024,1.0,0.0,0.00508980366313
1385574979362878000,-0.0233183099028,-0.00810652559936,0.0224554829134,1.0,0.0,0.00558699007068
1385574979562196002,-0.0234691490994,-0.00610000144899,0.0211205857678,1.0,0.0,0.00607408586577
1385574979761818385,-0.0235866280301,-0.00509397228891,0.0198282106554,1.0,0.0,0.00649976739792
1385574979961938202,-0.023387507332,-0.00530092602344,0.0188815363866,1.0,0.0,0.00699349399483
1385574980161878186,-0.0231498269846,-0.00588643348099,0.0182137119341,1.0,0.0,0.00737767304838
1385574980362849649,-0.022837101174,-0.00693392472208,0.0177062727449,1.0,0.0,0.00771355866885
1385574980561843960,-0.0225075151365,-0.00842139716288,0.0172775185497,1.0,0.0,0.00815076779915
1385574980763077587,-0.0221727706195,-0.00944085797255,0.0171826582572,1.0,0.0,0.00852431227469
1385574980961959085,-0.0217049656371,-0.00987630232269,0.0171563810927,1.0,0.0,0.00885326697553
1385574981162824397,-0.021175352736,-0.00968389183088,0.016790735064,1.0,0.0,0.00920320662965
1385574981361896589,-0.0204193298152,-0.00850211927024,0.0164232464563,1.0,0.0,0.00955715140022
1385574981561849915,-0.0195171600533,-0.00629976400142,0.0162240256396,1.0,0.0,0.00979627324721
1385574981762814363,-0.0186908552125,-0.00375265510431,0.0155822223626,1.0,0.0,0.00997675505616
1385574981961898768,-0.0177824634113,-0.000963664374942,0.0151943416963,1.0,0.0,0.0100969463755
1385574982161853001,-0.0173907081051,0.00144789479844,0.0146696324226,1.0,0.0,0.0102148069188
1385574982361875124,-0.0174054538138,0.00335400923452,0.0145034626253,1.0,0.0,0.0102108271317
1385574982561867252,-0.017410560445,0.00395711930459,0.0140871843121,1.0,0.0,0.0101518614797
1385574982761803578,-0.0170834268154,0.00344486870372,0.0136283327158,1.0,0.0,0.0100851846834
1385574982961891894,-0.0167137239536,0.00182315607779,0.013070634632,1.0,0.0,0.010008574494
1385574983162024557,-0.0163159023468,-0.000254181331052,0.0122143224785,1.0,0.0,0.00984883164248
1385574983361985803,-0.0158748228792,-0.0023089363855,0.0115268917931,1.0,0.0,0.00968405431833
1385574983561974660,-0.0155867219374,-0.00381511336747,0.010762390023,1.0,0.0,0.00952536578795
1385574983762232646,-0.0155915452517,-0.00418616601689,0.0102463078329,1.0,0.0,0.00939471270424
1385574983961819329,-0.0157582142257,-0.00351566730822,0.00963036535663,1.0,0.0,0.00934735861303
1385574984163095681,-0.0161982829856,-0.00156096728544,0.00900287128323,1.0,0.0,0.0092975204633
1385574984362871208,-0.0167752239464,0.00102204633796,0.00873412863937,1.0,0.0,0.00945990969746
1385574984562838683,-0.0175805428617,0.00426218756804,0.0084227584275,1.0,0.0,0.00949187447549
1385574984763159807,-0.0186815495514,0.00716964382502,0.00800600290281,1.0,0.0,0.00948087100271
1385574984962464015,-0.0194413705404,0.00929228316418,0.00797842443882,1.0,0.0,0.00943700020373
1385574985161814561,-0.0199473847103,0.00972104094763,0.00794674359588,1.0,0.0,0.00942983937256
1385574985361965798,-0.0199062082748,0.00880151150737,0.00781755909129,1.0,0.0,0.00942377551534
1385574985562025083,-0.0194745588554,0.00682152330784,0.00756028346311,1.0,0.0,0.00935671651942
1385574985761948201,-0.018700116343,0.00439323189712,0.00732045952783,1.0,0.0,0.00930770631685
1385574985962923438,-0.0176783163171,0.00226404054631,0.0071271336454,1.0,0.0,0.00921766729338
1385574986161956285,-0.0168746752288,0.000855960091649,0.00662780645462,1.0,0.0,0.00906423140562
1385574986361968414,-0.0163483099862,0.000177710275417,0.00627863319553,1.0,0.0,0.00886653580416
1385574986561911901,-0.0159433935127,0.000260770204863,0.00578203108412,1.0,0.0,0.00861307878351
1385574986762964339,-0.01560754463,0.000935124294963,0.00532789106459,1.0,0.0,0.00834100982399
1385574986961958983,-0.0152521915941,0.00213742247878,0.00492730156719,1.0,0.0,0.00817038388625
1385574987161971755,-0.0151428030549,0.00406456433972,0.00439429678484,1.0,0.0,0.00805923666114
1385574987362126498,-0.0154647564131,0.00650070455655,0.00409215785296,1.0,0.0,0.00789405813047
1385574987562869074,-0.0161849033989,0.00883958795348,0.00368803264425,1.0,0.0,0.00786427964141
1385574987761958693,-0.0170149853234,0.0109265983602,0.0033727210941,1.0,0.0,0.00766355955831
1385574987962117907,-0.0180144449795,0.0123289296592,0.00313088645902,1.0,0.0,0.00755735531267
1385574988161965551,-0.0190121425234,0.013206855168,0.00285416942083,1.0,0.0,0.00750477308321
1385574988361943080,-0.0200174003144,0.0130958206748,0.00252927077807,1.0,0.0,0.0077236245057
1385574988561959377,-0.020570409466,0.0125141053304,0.00209927271042,1.0,0.0,0.00789472294707
1385574988762100969,-0.0207719066459,0.0112676654525,0.00151469649874,1.0,0.0,0.00815938440413
1385574988961866403,-0.0206060913352,0.00937550285347,0.000709712014101,1.0,0.0,0.00863068018196
1385574989162008181,-0.020162372682,0.00798637157628,-3.959399611e-05,1.0,0.0,0.00903109126907
1385574989362179763,-0.0195361864079,0.00713868034919,-0.000818556948317,1.0,0.0,0.00952905049822
1385574989562189273,-0.018846706288,0.00677616234533,-0.0013863192408,1.0,0.0,0.0101380823929
1385574989762027890,-0.0179383912939,0.00707173747891,-0.00201920268796,1.0,0.0,0.0106588627884
1385574989962116219,-0.016557391256,0.00780969932726,-0.00222671038295,1.0,0.0,0.0111966442016
1385574990161966337,-0.0149226400294,0.00858621130473,-0.00226977925411,1.0,0.0,0.0116991742539
1385574990361887803,-0.0129840110072,0.00909461288422,-0.00223730167192,1.0,0.0,0.0120672329222
1385574990564097936,-0.0109796827773,0.00918204526792,-0.00220301343539,1.0,0.0,0.0122424864
1385574990762036668,-0.00965199764446,0.00880801150983,-0.00206375834782,1.0,0.0,0.0123901357212
1385574990962105689,-0.00883521642484,0.00827863589675,-0.0018802848016,1.0,0.0,0.0123793386871
1385574991163215857,-0.00855150424268,0.0074785114502,-0.0016986674865,1.0,0.0,0.0122448506327
1385574991361781523,-0.00853547709989,0.00657714633623,-0.00176110870732,1.0,0.0,0.0118759717948
1385574991561965237,-0.00892094673905,0.00569214653069,-0.00187892741972,1.0,0.0,0.0115252239022
1385574991762552607,-0.00967706780689,0.0051201690975,-0.00169968197117,1.0,0.0,0.0111382636858
1385574991962328966,-0.0109998663256,0.00502753756066,-0.00169332652005,1.0,0.0,0.0107035602604
1385574992162416332,-0.0126150114494,0.00578098953304,-0.00154514983725,1.0,0.0,0.010222790738
1385574992363426323,-0.0144311930908,0.00686189998568,-0.00127412286166,1.0,0.0,0.0097344742143
1385574992562320138,-0.0161362806991,0.00801318396421,-0.00119961080846,1.0,0.0,0.00925339339131
1385574992761500366,-0.0175802675305,0.00936149906393,-0.00107317056839,1.0,0.0,0.00869813676063
1385574992962105187,-0.0186537226012,0.0104455930089,-0.000940516403874,1.0,0.0,0.00828778663193
1385574993162183889,-0.0190565030716,0.0113601332895,-0.000817189763929,1.0,0.0,0.00778399289867
1385574993361487032,-0.0187967678841,0.0123732188949,-0.000370507656689,1.0,0.0,0.00715896534853
1385574993562224729,-0.0178238332245,0.0135254006555,0.00024247027347,1.0,0.0,0.00640321378558
1385574993761447872,-0.0165701581584,0.0141848807969,0.000701419290005,1.0,0.0,0.00577015099649
1385574993961540753,-0.0148135225812,0.0148654963023,0.000892651180812,1.0,0.0,0.00506364852771
1385574994161334390,-0.013333561536,0.0151019475032,0.000651863339511,1.0,0.0,0.00445894895306
1385574994362206393,-0.0122098569497,0.0152926785521,0.000332078405613,1.0,0.0,0.00392205912592
1385574994561163471,-0.0116343803307,0.0153155569806,0.000344699323819,1.0,0.0,0.0033843124646
1385574994762093586,-0.0112007157306,0.0151705954015,0.000524593741287,1.0,0.0,0.00271032585823
1385574994961331628,-0.0110464139942,0.0144149988121,0.000687678148539,1.0,0.0,0.00214124547585
1385574995162116798,-0.0109857783708,0.0130886374633,0.000764128517617,1.0,0.0,0.00169773921453
1385574995361155729,-0.0112283334784,0.0114270438214,0.00101847143226,1.0,0.0,0.00148019420635
1385574995562306697,-0.0115087775043,0.00978316956603,0.00105029577535,1.0,0.0,0.00125816600183
1385574995761591477,-0.0118125532996,0.0084182652283,0.00132780856556,1.0,0.0,0.0011082962157
1385574995961168349,-0.0122927893102,0.00760251279053,0.00120956535302,1.0,0.0,0.00112158364546
1385574996162478466,-0.0125961562503,0.00715293653822,0.0010323212578,1.0,0.0,0.00126926491623
1385574996361824933,-0.0126444525408,0.00698657452507,0.000808651900184,1.0,0.0,0.00160987556135
1385574996561303667,-0.0125711758864,0.00710480220508,0.000817472917156,1.0,0.0,0.00221147640406
1385574996762527012,-0.0120675246364,0.00759147900324,0.000943974365896,1.0,0.0,0.00274076419179
1385574996962152806,-0.011482464737,0.00798944628415,0.000853334028471,1.0,0.0,0.00340782622416
1385574997161915447,-0.0107782964553,0.00842524290373,0.00101987184125,1.0,0.0,0.00402187698645
1385574997362450060,-0.0109324632776,0.00830057960859,0.00106287274846,1.0,0.0,0.00461991518854
1385574997562256008,-0.0114856971333,0.00786639710518,0.00106743462856,1.0,0.0,0.00523515068826
1385574997761573964,-0.0125270152476,0.00727800858551,0.00111409772817,1.0,0.0,0.00585241378277
1385574997962578086,-0.0137465641206,0.00660338511765,0.00135411365231,1.0,0.0,0.00659577329647
1385574998161371446,-0.0142501761946,0.0061362031475,0.00142189196932,1.0,0.0,0.00726831065548
1385574998361373587,-0.0136662577174,0.00572452396855,0.0014511657466,1.0,0.0,0.00793944241894
1385574998561405469,-0.0121849124736,0.00580723687565,0.00135242797951,1.0,0.0,0.00853204152469
1385574998761668014,-0.0102517727088,0.00610750160668,0.00106991311963,1.0,0.0,0.00914594651449
1385574998962418497,-0.00808810620182,0.0068802841465,0.000702876367142,1.0,0.0,0.00952025789167
1385574999161362068,-0.00619059780191,0.00771346154335,0.00038633900634,1.0,0.0,0.0099449486622
1385574999361458721,-0.00479496707064,0.00886698077985,-4.95821089236e-05,1.0,0.0,0.0102515128073
1385574999562511274,-0.00433193878998,0.00989266972342,-0.000349917254595,1.0,0.0,0.0105552061302
1385574999761390804,-0.00475240503689,0.0108713582532,-0.00062804929627,1.0,0.0,0.0107652457073
1385574999962611524,-0.00621867342326,0.0113325883262,-0.000708376327265,1.0,0.0,0.0110257920594
1385575000161486086,-0.00833807462807,0.0110749736602,-0.000761625646518,1.0,0.0,0.01134493397
1385575000361626530,-0.0108957224554,0.0102944435853,-0.000648837727983,1.0,0.0,0.0116467537829
1385575000561591152,-0.013455263364,0.00941116878827,-0.000263099326097,1.0,0.0,0.0120928965683
1385575000761459155,-0.0154618531007,0.00863032441573,0.000135515433765,1.0,0.0,0.0127018489711
1385575000961607988,-0.0162598243867,0.00831472149971,0.000641863279304,1.0,0.0,0.0133496755125
1385575001161619683,-0.0157427896272,0.00845348791148,0.00112139274273,1.0,0.0,0.0139851737819
1385575001362442465,-0.01395129417,0.00943166521944,0.00127410863043,1.0,0.0,0.0145049834792
1385575001561524873,-0.0113210819374,0.0109943847463,0.00139131041093,1.0,0.0,0.0150226807477
1385575001762396226,-0.00809736626611,0.0130317996083,0.00186415643792,1.0,0.0,0.0154927007074
1385575001961650271,-0.00488903548538,0.0148802127338,0.00199021596135,1.0,0.0,0.0160183421357
1385575002161420470,-0.00201517940383,0.0163145665411,0.00218942275926,1.0,0.0,0.0165556011034
1385575002362546910,7.37487780862e-05,0.0171302036739,0.00231397824282,1.0,0.0,0.0171268964485
1385575002561417546,0.000833494099293,0.0170564044721,0.00234911383651,1.0,0.0,0.0177152723093
1385575002762358860,0.000145855681788,0.0160833696468,0.00227227590361,1.0,0.0,0.0183554546134
1385575002962139202,-0.00193744713335,0.0142817771389,0.00204998061446,1.0,0.0,0.0191442846011
1385575003162484643,-0.00510910110074,0.0120564416761,0.00191750027323,1.0,0.0,0.0199326264578
1385575003361804736,-0.00909979066712,0.0095900265354,0.00168339169651,1.0,0.0,0.0208351404412
1385575003562411525,-0.0130893977808,0.00733847621597,0.00151334884978,1.0,0.0,0.0216766095407
1385575003761827536,-0.0165033617569,0.00540652452775,0.00125777691737,1.0,0.0,0.0225574005007
1385575003962826357,-0.0185137526781,0.00408759614589,0.000834175363981,1.0,0.0,0.0233711070772
1385575004161796985,-0.0190215554719,0.0031834607834,0.000399073049172,1.0,0.0,0.0242050989323
1385575004361830953,-0.0180172151398,0.00290745112705,-0.000133302118374,1.0,0.0,0.0247991667363
1385575004561825326,-0.016268645462,0.00314688419916,-0.000431044769877,1.0,0.0,0.0252471414388
1385575004761874771,-0.0142509467703,0.00414865313674,-0.00078224614215,1.0,0.0,0.0254099394902
1385575004961747379,-0.012249855506,0.00556258398158,-0.00118686696954,1.0,0.0,0.025432096617
1385575005161841506,-0.0106883295617,0.00680858829994,-0.00149881798316,1.0,0.0,0.0253954480387
1385575005361808689,-0.00987650233829,0.00735012835062,-0.0014854057341,1.0,0.0,0.0252315364365
1385575005562822728,-0.0097528244131,0.00662528339558,-0.00194440532279,1.0,0.0,0.0250898032461
1385575005761997642,-0.0104110509792,0.00476826822379,-0.00255485259918,1.0,0.0,0.0250589796795
1385575005961820352,-0.0117187439096,0.00268960719141,-0.00321956267569,1.0,0.0,0.0251184845537
1385575006161972364,-0.0133388872157,0.000933736194536,-0.00345686836333,1.0,0.0,0.0254811369682
1385575006361750373,-0.0144610866011,2.77368633873e-06,-0.00359124593089,1.0,0.0,0.0257437554082
1385575006561927513,-0.0150921715501,-0.000275333407125,-0.00366980312903,1.0,0.0,0.0260423553486
1385575006761827546,-0.0152648373984,-0.000165706075563,-0.00348012460425,1.0,0.0,0.0263810996547
1385575006962014278,-0.014893632744,0.000551819021882,-0.00291656155704,1.0,0.0,0.026615151665
1385575007161816538,-0.0138696018982,0.00133236106601,-0.00239317678111,1.0,0.0,0.0268055255891
1385575007361819603,-0.0123882676196,0.00192696278613,-0.00183517048277,1.0,0.0,0.0269062215736
1385575007561988370,-0.0107794948209,0.00208665561199,-0.00121816820249,1.0,0.0,0.0269660934996
1385575007761775245,-0.00918904920318,0.00154469080321,-0.000950449497879,1.0,0.0,0.0270603267123
1385575007961838860,-0.00778020616743,0.000501720252024,-0.000586135165114,1.0,0.0,0.0270557567772
1385575008161779004,-0.00669670031173,-0.00062880461908,-0.000118595051973,1.0,0.0,0.0268878052976
1385575008361918886,-0.00581692546646,-0.00153858846565,0.0003744885145,1.0,0.0,0.0266037627666
1385575008561966728,-0.00540508658922,-0.00187886422975,0.000759832058957,1.0,0.0,0.0260984931021
1385575008762737664,-0.00564299499034,-0.00203917088679,0.00129557895566,1.0,0.0,0.0255857526505
1385575008961850483,-0.00663182495599,-0.00195691857754,0.00187419937448,1.0,0.0,0.0250943988621
1385575009161877126,-0.00792993669653,-0.00150667002602,0.00264394280601,1.0,0.0,0.0244435784176
1385575009362786080,-0.00919989768465,-0.000713072254797,0.00355924635874,1.0,0.0,0.0237219382196
1385575009562749949,-0.0103934536275,0.000183846373439,0.00409382323676,1.0,0.0,0.0229654511279
1385575009761698790,-0.011228338424,0.000814200364284,0.00442640519548,1.0,0.0,0.022153536298
1385575009961973740,-0.011783145547,0.00077199662028,0.00425850877101,1.0,0.0,0.021344934862
1385575010162562525,-0.0119423944636,5.20464253398e-05,0.00385936669482,1.0,0.0,0.0205943763288
1385575010361434165,-0.0120168475238,-0.001431513583,0.00346062328376,1.0,0.0,0.019855664565
1385575010562586481,-0.0119728252435,-0.00293611594505,0.00318375217391,1.0,0.0,0.0191289069831
1385575010761873908,-0.0121284857496,-0.00446074857173,0.00293719185117,1.0,0.0,0.0183680367916
1385575010962483576,-0.0125804072312,-0.00586495267824,0.00265279460522,1.0,0.0,0.0175920849409
1385575011161472182,-0.0130327155098,-0.00685410961207,0.00257029240238,1.0,0.0,0.0169841675011
1385575011362925910,-0.0134151104824,-0.00677388650451,0.00245841778096,1.0,0.0,0.0164067006545
1385575011561401891,-0.013823985688,-0.005818377901,0.00249630714766,1.0,0.0,0.0159616906676
1385575011761446976,-0.014319912175,-0.00430778035468,0.00233063177427,1.0,0.0,0.0155981026926
1385575011961496682,-0.0146539851045,-0.0028521540207,0.00210363609291,1.0,0.0,0.015349616243
1385575012161670917,-0.0147056370675,-0.00148617496923,0.00194759994873,1.0,0.0,0.015125455204
1385575012361696425,-0.0147534330913,-0.000759278856877,0.00158299154698,1.0,0.0,0.0150127197137
1385575012561790643,-0.0146285499726,-0.000232230015561,0.00146685026437,1.0,0.0,0.0150330959877
1385575012761642156,-0.0141950700649,0.000249710065765,0.00156617479763,1.0,0.0,0.0149245752267
1385575012961461100,-0.0135287313285,0.000188587700263,0.00159163004261,1.0,0.0,0.0147939057356
1385575013161679529,-0.0127758138326,-0.000242194153162,0.00175802817533,1.0,0.0,0.0146101573734
1385575013361479125,-0.0121933946847,-0.000892042049119,0.00189731830313,1.0,0.0,0.0144333998027
1385575013561657241,-0.0119311280547,-0.00142249834251,0.0016006566114,1.0,0.0,0.0142937042286
1385575013762500895,-0.0119093620351,-0.00154647935707,0.0013284442207,1.0,0.0,0.0140094282987
1385575013961531873,-0.0123061205265,-0.00148282195201,0.00109076146836,1.0,0.0,0.0135855222223
1385575014161507601,-0.0129907570915,-0.00153308005687,0.00116635062694,1.0,0.0,0.013190569223
1385575014361532160,-0.0134199037426,-0.00154239996388,0.00120302225173,1.0,0.0,0.0127942876602
1385575014561668928,-0.0132227324774,-0.00111690938478,0.00137864028516,1.0,0.0,0.0123810423908
1385575014761668967,-0.0124601482908,-0.000542303076432,0.00137398993614,1.0,0.0,0.0120893949124
1385575014961566228,-0.0113628659654,0.000344597844178,0.00108256864088,1.0,0.0,0.011908337682
1385575015161690895,-0.0103941655447,0.00155685607618,0.000833379402992,1.0,0.0,0.0118269502956
1385575015362492050,-0.00977143977763,0.00275065021165,0.000784637628205,1.0,0.0,0.0118194916096
1385575015562098732,-0.00967445806716,0.00387619524307,0.000907483741541,1.0,0.0,0.0117901116681
1385575015762406625,-0.00999606581807,0.00432993214571,0.000761513357737,1.0,0.0,0.0118414516912
1385575015962642422,-0.0105298023283,0.00409687766254,0.000582492598251,1.0,0.0,0.0118300742021
1385575016163304469,-0.0110605414718,0.00339848765784,0.000650888172656,1.0,0.0,0.011745820999
1385575016361398610,-0.0114457415882,0.00245574507969,0.00050956174853,1.0,0.0,0.0115730460801
1385575016561397330,-0.0114856021366,0.00166534305283,0.000386532577656,1.0,0.0,0.0113369043366
1385575016761453629,-0.0112469445057,0.00128924058102,0.000220187695093,1.0,0.0,0.0110587519573
1385575016961410895,-0.0109690805848,0.00104664634551,0.000147562019448,1.0,0.0,0.0107123710528
1385575017161405584,-0.0107703941915,0.00118071364205,8.36515338631e-05,1.0,0.0,0.0103017853468
1385575017361738952,-0.0106693138243,0.00154000295378,6.8244714647e-05,1.0,0.0,0.00998654845592
1385575017562423933,-0.010860923953,0.00200946871265,0.000232771538282,1.0,0.0,0.00969282540558
1385575017761467360,-0.0113707034202,0.0021393184886,0.000295826063801,1.0,0.0,0.0094199839638
1385575017961645005,-0.0120431520333,0.00184909866239,4.57785772129e-05,1.0,0.0,0.00895042797919
1385575018162378520,-0.0130047950372,0.00125169476137,5.06676500416e-05,1.0,0.0,0.00841713234623
1385575018361469853,-0.0143301499925,0.000266776103416,2.00881805963e-05,1.0,0.0,0.00800224443261
1385575018561416377,-0.0153681912034,-0.000804359071249,5.20850721823e-05,1.0,0.0,0.00751775587713
1385575018761463194,-0.0159280962742,-0.00199123575464,1.92238281266e-05,1.0,0.0,0.00703440759713
1385575018962393930,-0.0158840279313,-0.00314918555819,0.000105079442816,1.0,0.0,0.00664459222621
1385575019161464473,-0.0152375818463,-0.00364967167056,9.96286466101e-06,1.0,0.0,0.00624258090086
1385575019361408912,-0.0139932631167,-0.00345518638854,-0.000145539588928,1.0,0.0,0.0059215270107
1385575019561478055,-0.0125156696606,-0.0026095056226,-0.000531599517272,1.0,0.0,0.00556374939599
1385575019761588565,-0.0111048816644,-0.00138966010339,-0.00106144018137,1.0,0.0,0.0052763669859
1385575019961465139,-0.00971185927947,0.000493461322849,-0.00129637381399,1.0,0.0,0.00491740687267
1385575020161509098,-0.00853758177157,0.00253786706599,-0.00140405903144,1.0,0.0,0.00449693835661
1385575020361512618,-0.00737945676266,0.00449126874517,-0.00130786769539,1.0,0.0,0.00409195430037
1385575020561379479,-0.0061835147534,0.00591953817646,-0.00110046582219,1.0,0.0,0.00374666505439
1385575020761812809,-0.00519906091478,0.00665633603329,-0.000937651228296,1.0,0.0,0.00357921113937
1385575020962792411,-0.00463308457519,0.00660107692847,-0.000788788063186,1.0,0.0,0.00359448976305
1385575021161991761,-0.00457323224987,0.00582374989102,-0.000572296489046,1.0,0.0,0.00391631029588
1385575021361792319,-0.00478221568396,0.0046995730067,-0.000522185312015,1.0,0.0,0.00431911342152
1385575021562677251,-0.00512492142457,0.00341454390398,-0.000766493292933,1.0,0.0,0.00504988119878
1385575021762647727,-0.005490246657,0.00223984301942,-0.00083621891264,1.0,0.0,0.00589488856369
1385575021961782612,-0.00594443604071,0.00118092741996,-0.000704211168955,1.0,0.0,0.00662287430521
1385575022162475890,-0.00646178176986,0.000169198043059,-0.000513615914519,1.0,0.0,0.0073571402866
1385575022361686298,-0.00741004308485,-0.000798676520527,-0.00026635927275,1.0,0.0,0.00816107699154
1385575022562091791,-0.00853545488462,-0.00154334872441,-0.000190386134612,1.0,0.0,0.0089734509404
1385575022762001004,-0.00959330019475,-0.00146768683139,-0.000338728453411,1.0,0.0,0.00967766866148
1385575022962989069,-0.0107981604578,-0.000781384571863,-0.000385680784117,1.0,0.0,0.0104813370162
1385575023161944579,-0.0118079517817,0.000575639584954,-0.000376656139081,1.0,0.0,0.0110770143398
1385575023362467526,-0.0124689201743,0.00204693835962,-0.000250781604575,1.0,0.0,0.011510052892
1385575023563180810,-0.0128443576652,0.00286226897876,6.55413839007e-05,1.0,0.0,0.0120592777548
1385575023762232266,-0.0129315612262,0.00303261370981,0.000641879465009,1.0,0.0,0.012438920132
1385575023961956235,-0.012714380759,0.00238235730437,0.00133916619176,1.0,0.0,0.0128713810972
1385575024162996095,-0.0121313189363,0.00115731936961,0.00209862786926,1.0,0.0,0.0133730849936
1385575024362203541,-0.0109838651672,-0.000334569136778,0.00246195735145,1.0,0.0,0.0136109662503
1385575024561929645,-0.00954692135161,-0.00172466336187,0.00265204394902,1.0,0.0,0.0137581710278
1385575024762042292,-0.00816522346377,-0.00272010370616,0.0025942189965,1.0,0.0,0.013785436532
1385575024962036391,-0.00710743990074,-0.00279862963831,0.00274442065136,1.0,0.0,0.0137483966619
1385575025162038122,-0.00638715013476,-0.00171851273463,0.00286061132951,1.0,0.0,0.0136379461612
1385575025361974911,-0.00599216643197,7.68517796813e-05,0.00259738693672,1.0,0.0,0.0135872054558
1385575025563053686,-0.00598647049883,0.00249816760012,0.00226805435566,1.0,0.0,0.013271182415
1385575025761988521,-0.00637318082367,0.00492992158642,0.00187912316785,1.0,0.0,0.0130259963628
1385575025963075722,-0.00729603879372,0.00679408920751,0.00152529930829,1.0,0.0,0.0128897678901
1385575026162149211,-0.00854220598585,0.00782486435098,0.00128838669024,1.0,0.0,0.0126351009243
1385575026362043234,-0.00970964373841,0.00777318397728,0.00105781094823,1.0,0.0,0.0125637602366
1385575026562150631,-0.0107586093605,0.00680158715873,0.00078159425215,1.0,0.0,0.0125637018462
1385575026763107643,-0.0116645656817,0.0053909655245,0.000541740338186,1.0,0.0,0.0125861744442
1385575026961998371,-0.0121444950862,0.00362643730989,0.000165291149766,1.0,0.0,0.012881269273
1385575027161992991,-0.0123256040459,0.00210365335017,-0.000323257398853,1.0,0.0,0.0132558709943
1385575027362064764,-0.011878600246,0.00111547603106,-0.000560301168717,1.0,0.0,0.0137263685421
1385575027562186671,-0.0105817612698,0.000819344441288,-0.000859987120112,1.0,0.0,0.0142020027125
1385575027762345858,-0.00848886392403,0.00143534442181,-0.00142000138022,1.0,0.0,0.0146248484621
1385575027963198805,-0.00606463008078,0.00301704586781,-0.00185879259905,1.0,0.0,0.0151232721799
1385575028162700168,-0.00399819475346,0.00531769839192,-0.00208354377598,1.0,0.0,0.0156663715602
1385575028362574292,-0.00240463749322,0.00804961248695,-0.00232316669258,1.0,0.0,0.0160940892189
1385575028561475385,-0.00150701372862,0.00994575617894,-0.00281565200713,1.0,0.0,0.016593487613
1385575028762094777,-0.00141284454868,0.0107216685991,-0.00321422068663,1.0,0.0,0.0171725113653
1385575028962168912,-0.00239834080583,0.0103936086017,-0.00348644634508,1.0,0.0,0.0180415100027
1385575029162981569,-0.00427515489292,0.0092356340462,-0.00357333869823,1.0,0.0,0.0190876365184
1385575029362153095,-0.0064973222116,0.00755675710407,-0.00350836174431,1.0,0.0,0.0202115197538
1385575029562267376,-0.00855803151091,0.00533420139074,-0.00326664096077,1.0,0.0,0.0213825922514
1385575029763194692,-0.0100235612382,0.0028290933257,-0.00314974938345,1.0,0.0,0.0224366546922
1385575029962920365,-0.0109546701929,0.000461437869704,-0.00268667246289,1.0,0.0,0.0233449609233
1385575030161991824,-0.0113894800232,-0.0012217988778,-0.00229285746378,1.0,0.0,0.0241102430484
1385575030362012998,-0.0115147877733,-0.00177900020571,-0.0019927190066,1.0,0.0,0.0247631798364
1385575030562185986,-0.0112972407492,-0.00103572046492,-0.00162331054221,1.0,0.0,0.0252692093744
1385575030761979718,-0.0107380431078,0.000983570400123,-0.0014352318562,1.0,0.0,0.0256554609039
1385575030962085974,-0.0103132090049,0.00359146893886,-0.00108591443947,1.0,0.0,0.0261576619004
1385575031162025590,-0.0103148259154,0.00615502217785,-0.000660179192505,1.0,0.0,0.0266300229016
1385575031361972575,-0.0107348690945,0.00836801861307,-5.79462205745e-05,1.0,0.0,0.0270825626291
1385575031562051863,-0.0112261273327,0.00989641437702,0.000413738565696,1.0,0.0,0.0274051777219
1385575031761938759,-0.0112915521752,0.0106314889505,0.000727996913219,1.0,0.0,0.0276572654591
1385575031962033180,-0.0107626525129,0.0107843728827,0.000715389110752,1.0,0.0,0.0277926412681
1385575032163049047,-0.00999758662564,0.0102717317656,0.000766912139969,1.0,0.0,0.0279235759839
1385575032361967202,-0.00937533072728,0.00932924161083,0.000729008625856,1.0,0.0,0.0280466685858
1385575032561948095,-0.00886553289643,0.00796635705656,0.000561540240755,1.0,0.0,0.0281459090092
1385575032761995200,-0.00849569556663,0.00655907419537,0.000228289540601,1.0,0.0,0.0282000335726
1385575032962945677,-0.00832971385676,0.00521907579388,-0.000334195162643,1.0,0.0,0.0282538513017
1385575033162005098,-0.00876409607008,0.00405699108251,-0.000761010811247,1.0,0.0,0.0284169475718
1385575033361999651,-0.00956736518713,0.0032680706656,-0.00111872746098,1.0,0.0,0.0287562437555
1385575033563188379,-0.0105577751286,0.00296369256331,-0.00137625313726,1.0,0.0,0.0290124017856
1385575033762081965,-0.0116580499353,0.00327926665892,-0.00149135434458,1.0,0.0,0.0290582443056
1385575033962435887,-0.012688397484,0.00398862921111,-0.00143008073642,1.0,0.0,0.0290995347618
1385575034161366199,-0.0135787514996,0.00520338275667,-0.00141819275465,1.0,0.0,0.0290936536975
1385575034362325912,-0.0142463812785,0.00687667731253,-0.0012692940761,1.0,0.0,0.0289165008754
1385575034561857354,-0.0146188559364,0.00850923688422,-0.00108986993374,1.0,0.0,0.02864116877
1385575034761832839,-0.0144758815387,0.00944113539045,-0.000644266193832,1.0,0.0,0.028487254242
1385575034962348638,-0.0138037614151,0.00953329666202,-0.000344147074534,1.0,0.0,0.0284963948737
1385575035162540530,-0.0123667063609,0.00912969532522,0.000138765641299,1.0,0.0,0.0285874768664
1385575035361709068,-0.010303421302,0.00855623165771,0.00044153450103,1.0,0.0,0.0286854296745
1385575035561742581,-0.00794216015964,0.00788251193626,0.000551183149787,1.0,0.0,0.028812574025
1385575035761855895,-0.00595587263962,0.00731012673827,0.000371358585856,1.0,0.0,0.0290201334875
1385575035961576983,-0.00491608775016,0.00661120729131,0.000297476563984,1.0,0.0,0.0292719060537
1385575036162688326,-0.00503331303092,0.00559794323182,0.00024237670211,1.0,0.0,0.0295674217704
1385575036361849479,-0.00609792866043,0.00460430179353,5.59551719464e-05,1.0,0.0,0.0298625340405
1385575036562635753,-0.00788665784468,0.00385184689233,-0.00031741376285,1.0,0.0,0.0301428769306
1385575036761574009,-0.0101036171896,0.00360952837535,-0.000417696036895,1.0,0.0,0.0304082262561
1385575036962692888,-0.0122168472018,0.00401044845429,-0.000437907659731,1.0,0.0,0.0305182143035
1385575037161529697,-0.0140026998886,0.00478585941246,-0.000263116351875,1.0,0.0,0.0306513226441
1385575037361784312,-0.0151103440761,0.00567785349288,-3.73847666252e-06,1.0,0.0,0.030879287264
1385575037562264110,-0.0152578751866,0.00670319805802,0.000477176232035,1.0,0.0,0.0312050160888
1385575037761134489,-0.0139793720048,0.00801004563129,0.000795091170228,1.0,0.0,0.0314159254463
1385575037962128823,-0.0113577961432,0.00945506524176,0.000772129691229,1.0,0.0,0.0315272114501
1385575038162174665,-0.00786950129665,0.0106748522964,0.00075713103705,1.0,0.0,0.0315975148118
1385575038363104912,-0.00413492489214,0.0113908919863,0.000552861854179,1.0,0.0,0.0316664684968
1385575038561250038,-0.000717802698096,0.0114707297058,0.000226164928527,1.0,0.0,0.0316477399921
1385575038762233467,0.00187824004443,0.01085310007,-7.29906996718e-05,1.0,0.0,0.0316416521125
1385575038961389889,0.00330326112205,0.00952108519386,-0.000554645678968,1.0,0.0,0.0317010035541
1385575039162042179,0.00346662942578,0.0080821628719,-0.00104882656774,1.0,0.0,0.0316765842109
1385575039361408747,0.00249132782059,0.00669776967576,-0.0014670239373,1.0,0.0,0.0314197852741
1385575039562069237,0.000280529807669,0.00564576145627,-0.00160134337249,1.0,0.0,0.0312337382016
1385575039761339040,-0.00243303988533,0.005375901849,-0.00151652126731,1.0,0.0,0.0308639080177
1385575039962190324,-0.00524632847484,0.00565607914091,-0.00124210895453,1.0,0.0,0.0305231721148
1385575040162111722,-0.00770617548452,0.00669781930167,-0.000486377025164,1.0,0.0,0.0303514820883
1385575040362099569,-0.00931707411481,0.00790331234172,0.000300609096179,1.0,0.0,0.0302158010271
1385575040562502243,-0.00972249635257,0.00930715407072,0.000886088606071,1.0,0.0,0.0300631676188
1385575040764497230,-0.0088164781693,0.0108560625024,0.00137551245056,1.0,0.0,0.0297964151047
1385575040961418439,-0.00694913181182,0.0122373144582,0.00177880469415,1.0,0.0,0.0294075232747
1385575041161752477,-0.00475664759858,0.0134129649882,0.00185450510602,1.0,0.0,0.029100392182
1385575041362072045,-0.00278994251646,0.0140973531581,0.00164032724363,1.0,0.0,0.0289593209409
1385575041562324629,-0.00129734425986,0.013939233219,0.00121849543254,1.0,0.0,0.0289147220131
1385575041762299171,-7.19450463383e-05,0.0129788821222,0.000677363651135,1.0,0.0,0.0288768623617
1385575041961362034,0.000562239543341,0.011608248078,6.38234919936e-05,1.0,0.0,0.0287962729357
1385575042161269814,0.000382456670076,0.00996777212048,-0.000277711997043,1.0,0.0,0.0288171627343
1385575042362329745,-0.000343280543333,0.00813467253373,-0.000482473330399,1.0,0.0,0.0289007537398
1385575042561237267,-0.00112879483286,0.00620761616889,-0.000596936251136,1.0,0.0,0.0288335958767
1385575042762248429,-0.00172658243725,0.00488757756244,-0.000402571756086,1.0,0.0,0.0286898693554
1385575042962290112,-0.00205225309273,0.00451826716239,-5.08727693794e-05,1.0,0.0,0.0284951734619
1385575043161273579,-0.00225276605579,0.00534317806127,0.000396063575655,1.0,0.0,0.0283157630477
1385575043361351855,-0.00250178296816,0.00742345304651,0.000931578295701,1.0,0.0,0.028260032215
1385575043562380524,-0.00272796485216,0.0103615401224,0.00133158387107,1.0,0.0,0.0281982339559
1385575043761394016,-0.00298760975406,0.0137222501987,0.0017261801437,1.0,0.0,0.0282748645042
1385575043961258759,-0.00349505270308,0.0170592816568,0.0019033245969,1.0,0.0,0.0283410467804
1385575044162475258,-0.00434432662921,0.0195174238905,0.00187420243158,1.0,0.0,0.0284947793324
1385575044363657266,-0.00503321991999,0.0205207594996,0.001696175945,1.0,0.0,0.0286484929761
1385575044562439145,-0.00527971636405,0.0203832599755,0.00153746693382,1.0,0.0,0.0288189631567
1385575044762299434,-0.00477382978005,0.0191544050579,0.00123532901113,1.0,0.0,0.0289505958895
1385575044961459537,-0.00356185553179,0.0171369251463,0.000909453547143,1.0,0.0,0.0290689333721
1385575045162313672,-0.00223139831951,0.0145176854787,0.000408265466648,1.0,0.0,0.0292434011986
1385575045361353035,-0.00138099552484,0.0117581415235,-5.9767652317e-05,1.0,0.0,0.0295291065645
1385575045562283433,-0.00129428839141,0.00956523443124,-0.000333924788711,1.0,0.0,0.0298972222322
1385575045761320108,-0.00224425467378,0.00825818567526,-0.000571019903833,1.0,0.0,0.0302772890452
1385575045961336423,-0.00447384690573,0.00757856591174,-0.000639752615122,1.0,0.0,0.0307893230215
1385575046161480757,-0.00765491289381,0.00774144906206,-0.000909498805422,1.0,0.0,0.0313128884491
1385575046361277820,-0.0114160297439,0.00879008821165,-0.00142421766383,1.0,0.0,0.0317913488727
1385575046561370670,-0.0154650768272,0.0108495002674,-0.00213824131316,1.0,0.0,0.032388595513
1385575046761650953,-0.0190481299861,0.0137817623479,-0.00271800126335,1.0,0.0,0.0330057967635
1385575046963534544,-0.0216182859877,0.0174301192906,-0.00280929010358,1.0,0.0,0.0336307142747
1385575047161554245,-0.0220943347042,0.02111151444,-0.00253517163865,1.0,0.0,0.034268506208
1385575047361886181,-0.0203079908204,0.0240868894559,-0.00226247392847,1.0,0.0,0.0350575716575
1385575047562211292,-0.0162985980414,0.0259012446476,-0.00166834396307,1.0,0.0,0.0358343905171
1385575047762456864,-0.0108198566769,0.0258337587165,-0.00120086553137,1.0,0.0,0.0366483273761
1385575047962512413,-0.00494752322654,0.0240841450126,-0.000429103643582,1.0,0.0,0.0376259288966
1385575048161461087,0.000579792765028,0.0208090642639,0.000311236152716,1.0,0.0,0.0386891531077
1385575048361547414,0.005024402679,0.0164050609441,0.000804958874927,1.0,0.0,0.0397432510233
1385575048561709117,0.00720055203845,0.0113756974085,0.00109892003513,1.0,0.0,0.0408322464801
1385575048761691045,0.00695618302261,0.006923555415,0.00136597121013,1.0,0.0,0.0418466255477
1385575048961559155,0.00409160714934,0.00348526328456,0.00170347240048,1.0,0.0,0.0430025265611
1385575049161668048,-0.000485306290944,0.00171203498407,0.00212440338012,1.0,0.0,0.0442084702435
1385575049361647472,-0.00576152374736,0.00193793976472,0.00252959788361,1.0,0.0,0.0454059658332
1385575049561510031,-0.0107793302426,0.00378758121688,0.00266575131729,1.0,0.0,0.0467398296184
1385575049762524752,-0.0146169176607,0.00718407740906,0.00286605681106,1.0,0.0,0.0481046583286
1385575049961530011,-0.016478516723,0.011416645915,0.00310930106284,1.0,0.0,0.0494613622314
1385575050161542188,-0.0158923771887,0.0157938089161,0.00319289677929,1.0,0.0,0.0507983449878
1385575050361465093,-0.0131388514977,0.0193200986115,0.00317540018191,1.0,0.0,0.0520293710462
1385575050561730485,-0.00866300722237,0.0209483729609,0.00287029982206,1.0,0.0,0.0531890163309
1385575050761671150,-0.00322986603776,0.0205658506136,0.00247309397002,1.0,0.0,0.0543261656616
1385575050961667535,0.00218520920036,0.0181844573156,0.0023812578484,1.0,0.0,0.0554268011514
1385575051161597424,0.00657745805743,0.0140199711384,0.00254063481787,1.0,0.0,0.0566004219298
1385575051361518400,0.00935724475866,0.00880434234586,0.00263637848069,1.0,0.0,0.0578189969142
1385575051561582523,0.0102618449906,0.00320165262377,0.00249533580097,1.0,0.0,0.0589288200438
1385575051761514396,0.00906769226395,-0.00212559697174,0.00213993552872,1.0,0.0,0.0602518991461
1385575051961537597,0.006163517513,-0.00630131494786,0.00183709146172,1.0,0.0,0.0615550277262
1385575052161466887,0.00164080970811,-0.00902236070615,0.00127879420041,1.0,0.0,0.0631150522661
1385575052362449893,-0.00333069893218,-0.00961967543085,0.000429430615524,1.0,0.0,0.0645974703247
1385575052561463940,-0.00801256424398,-0.00776234771201,-0.000191364398597,1.0,0.0,0.0662598895461
1385575052761577291,-0.0115479866204,-0.0037580039676,-0.000864248047552,1.0,0.0,0.0680101174586
1385575052961972257,-0.0131701674245,0.00178246817163,-0.00154624165272,1.0,0.0,0.0698756447793
1385575053161634777,-0.0125837280158,0.0081877555421,-0.00213371202856,1.0,0.0,0.0716026670346
1385575053362760145,-0.00982182581929,0.0145137199144,-0.00263831433702,1.0,0.0,0.0731280297021
1385575053561869760,-0.00549303036292,0.0192431881373,-0.00310496603804,1.0,0.0,0.0744639135101
1385575053762360460,-0.000319082157356,0.0215002359649,-0.00330191195056,1.0,0.0,0.0754785069445
1385575053961412161,0.00481408113037,0.0202614277509,-0.00327664173143,1.0,0.0,0.0762982396617
1385575054162683627,0.00905771679888,0.0153738110616,-0.00308986529189,1.0,0.0,0.0769639878636
1385575054361325156,0.0117147780035,0.00777350894472,-0.00290316272188,1.0,0.0,0.0776866314105
1385575054562582890,0.0124020726859,-0.00131600110718,-0.00282844296965,1.0,0.0,0.0782978707085
1385575054761376656,0.0100575870423,-0.0103708678244,-0.00275031488848,1.0,0.0,0.0788886086759
1385575054961525189,0.00483905417076,-0.0179714123064,-0.00262615367076,1.0,0.0,0.0794975985316
1385575055161344541,-0.00260054524109,-0.0226174538957,-0.00230877593743,1.0,0.0,0.0800988334471
1385575055362338429,-0.0112033305799,-0.0228652476779,-0.00229212010278,1.0,0.0,0.0805511671001
1385575055561326099,-0.0198840259232,-0.0179944703393,-0.00233312219799,1.0,0.0,0.0808854646565
1385575055761578504,-0.0272126685948,-0.00856918649011,-0.00249037101521,1.0,0.0,0.0811181732279
1385575055962386029,-0.0319720971341,0.00396228708585,-0.00276649536923,1.0,0.0,0.0812745755804
1385575056161556606,-0.0327577314084,0.0178702039416,-0.00309021911301,1.0,0.0,0.0812200588426
1385575056362327347,-0.0292526320065,0.0310147925154,-0.00328449581583,1.0,0.0,0.0812752410017
1385575056562408632,-0.0214481958231,0.0411252243829,-0.00358992955185,1.0,0.0,0.081339301951
1385575056761297152,-0.0107062625869,0.0459469370404,-0.00390186819089,1.0,0.0,0.0812171470436
1385575056962379204,0.000931113754491,0.0441312130521,-0.004310117233,1.0,0.0,0.0810406548213
1385575057161401994,0.0112105472566,0.0360795320792,-0.00473628131427,1.0,0.0,0.0808305505545
1385575057361446108,0.0183643152187,0.0227398127813,-0.0051834349746,1.0,0.0,0.0807079194105
1385575057561465338,0.0216264315817,0.00658661399156,-0.00531097014633,1.0,0.0,0.0803065953931
1385575057762384343,0.0197932661405,-0.0098618962426,-0.00496684031772,1.0,0.0,0.0799922509965
1385575057961294997,0.0131989201367,-0.0239164020605,-0.00431055897498,1.0,0.0,0.0796009756949
1385575058161424600,0.00269165296191,-0.0334907657985,-0.00332271911062,1.0,0.0,0.0792220749817
1385575058362346045,-0.0101532293626,-0.0368300298575,-0.00221834750938,1.0,0.0,0.078854519369
1385575058562391430,-0.0233077891847,-0.0331321977917,-0.000849484399515,1.0,0.0,0.0785808751597
1385575058761310371,-0.0350257266744,-0.0227840645994,0.000673459373667,1.0,0.0,0.0784539171023
1385575058961410327,-0.0437301470767,-0.00677859439605,0.00189322579269,1.0,0.0,0.07819738137
1385575059161447202,-0.0479612377256,0.0123313863013,0.00311056375773,1.0,0.0,0.0780468395747
1385575059361618503,-0.0468783733783,0.0321785493877,0.00398070704341,1.0,0.0,0.0778470155934
1385575059561576145,-0.0404411831185,0.0493466250947,0.0046234394627,1.0,0.0,0.077738673408
1385575059761775988,-0.0292314052334,0.0606154138038,0.00488571944258,1.0,0.0,0.0777377901501
1385575059962361825,-0.0147367679076,0.0634851343345,0.00480077693635,1.0,0.0,0.0778784145948
1385575060162945809,0.00122160180206,0.0571172392819,0.00435095567307,1.0,0.0,0.0779161447556
1385575060363338823,0.015972594577,0.042178976021,0.00332627834979,1.0,0.0,0.0777563281414
1385575060561721363,0.0272852822791,0.0208767797603,0.00215309035323,1.0,0.0,0.0773001497488
1385575060761791435,0.0329138642417,-0.0035140818894,0.000933601174386,1.0,0.0,0.0765882639839
1385575060961933770,0.0314403524875,-0.0275572113072,6.07277972555e-05,1.0,0.0,0.0758737537165
1385575061161942058,0.0227518352713,-0.047515914903,-0.000693255421751,1.0,0.0,0.0754628222337
1385575061361814584,0.00806580044878,-0.0596971591156,-0.000831662717615,1.0,0.0,0.0750817408504
1385575061561971365,-0.0107199505089,-0.0618572912949,-0.000223735548351,1.0,0.0,0.0747113126697
1385575061761764370,-0.0307326853973,-0.0534742368701,0.00102190347968,1.0,0.0,0.0742685510577
1385575061962877647,-0.0483998296921,-0.0350445363076,0.00276860368158,1.0,0.0,0.0738824159624
1385575062161896863,-0.0603869873488,-0.00942262919853,0.00429230778476,1.0,0.0,0.0735255152632
1385575062362749639,-0.0641595983456,0.0195046189862,0.00528231743894,1.0,0.0,0.0730979200525
1385575062561867354,-0.0590078633335,0.0464885488413,0.00562136441047,1.0,0.0,0.0726758968291
1385575062762935514,-0.0455901069467,0.0674996073989,0.00584094898263,1.0,0.0,0.0720776755587
1385575062961775666,-0.0260266056316,0.0787354803397,0.00618769133742,1.0,0.0,0.0714180525386
1385575063161900537,-0.00339346137744,0.07772562137,0.00575165413074,1.0,0.0,0.070760192856
1385575063361858183,0.0190983047633,0.0641364980705,0.00505375279877,1.0,0.0,0.0701827374275
1385575063561758457,0.0379034598171,0.0397136587194,0.00409141191775,1.0,0.0,0.0696620888857
1385575063762326147,0.0493514789002,0.00757223410085,0.00288020118263,1.0,0.0,0.0696533326424
1385575063962731684,0.0514804202102,-0.0264633705709,0.00202454873413,1.0,0.0,0.0698824734519
1385575064161744214,0.0429496617113,-0.0572985528277,0.00149564930792,1.0,0.0,0.0702306152723
1385575064361747986,0.0243371062639,-0.079348679012,0.00170090537866,1.0,0.0,0.0706326327782
1385575064561745929,-0.00195493923949,-0.0886429929021,0.00265735199478,1.0,0.0,0.071034765146
1385575064761817779,-0.0310883802425,-0.0827808328491,0.0039454676684,1.0,0.0,0.071631505531
1385575064962725234,-0.0576158014693,-0.0621723078733,0.00535653153848,1.0,0.0,0.072138533879
1385575065161758245,-0.0766340913459,-0.0299719080537,0.00658951505884,1.0,0.0,0.0725307370194
1385575065361742490,-0.0846383288421,0.00835417189863,0.00796103225247,1.0,0.0,0.0726896275427
1385575065561713422,-0.0799570048517,0.0464363629582,0.00925810872327,1.0,0.0,0.0726686041654
1385575065762931165,-0.0634849090938,0.0780582722903,0.00987457797933,1.0,0.0,0.0724534601433
1385575065961755157,-0.0386465694207,0.0978725702463,0.00958950654728,1.0,0.0,0.0720571673601
1385575066163508672,-0.00979461736418,0.102035856627,0.00885092716152,1.0,0.0,0.071444603596
1385575066362268692,0.0188878680911,0.089451230793,0.00729131060613,1.0,0.0,0.0706119153503
1385575066562121516,0.0434457906128,0.0615527727361,0.00543513308025,1.0,0.0,0.0698979384086
1385575066763059198,0.0603483937316,0.0228816562291,0.00323903623424,1.0,0.0,0.0694438927166
1385575066963067627,0.0663276118478,-0.0209850395362,0.00130530211544,1.0,0.0,0.0692442468382
1385575067162065465,0.0597389404352,-0.0635943822855,-0.000652193489887,1.0,0.0,0.0692775176636
1385575067363153769,0.0412886547941,-0.0980623245992,-0.00221457608324,1.0,0.0,0.06902685629
1385575067562177160,0.0130699373801,-0.11829740738,-0.00265614294634,1.0,0.0,0.0687151700425
1385575067761531311,-0.0201329748822,-0.119735929843,-0.00226818131591,1.0,0.0,0.0686165173889
1385575067962368339,-0.0528000235661,-0.100927697741,-0.0012366044893,1.0,0.0,0.0686249022135
1385575068161213434,-0.079133866184,-0.0640671956163,-0.000155680790197,1.0,0.0,0.0688395272722
1385575068362263635,-0.0948287693353,-0.0144682552765,0.000752416300597,1.0,0.0,0.0688277586048
1385575068563197010,-0.0966197920547,0.0391652116892,0.00170394930691,1.0,0.0,0.0688569462196
1385575068761269222,-0.0838424605997,0.0870385358377,0.00262844943488,1.0,0.0,0.0689076759565
1385575068962173870,-0.0584127713232,0.12051772634,0.00307607332997,1.0,0.0,0.0691426262879
1385575069161329268,-0.0241334415614,0.134532202183,0.00321966849802,1.0,0.0,0.0692969006351
1385575069362181010,0.0135563683538,0.126328060334,0.00302588159163,1.0,0.0,0.0693538948624
1385575069561458504,0.0485964286092,0.0962739462688,0.00277187705836,1.0,0.0,0.0694347346167
1385575069762206614,0.0751748030858,0.0484188831197,0.00177668783171,1.0,0.0,0.0695689160242
1385575069961373315,0.0884942818871,-0.00976444430253,0.000670433304619,1.0,0.0,0.0695345309172
1385575070162255507,0.0853031510084,-0.0689595706377,-0.000433000449659,1.0,0.0,0.0688913433726
1385575070362386145,0.0648600652867,-0.119278476758,-0.00105850080979,1.0,0.0,0.0678292891186
1385575070561287769,0.0303080113051,-0.151692536784,-0.000439145283571,1.0,0.0,0.06656712225
1385575070762405171,-0.012364345286,-0.159847202782,0.00154842896596,1.0,0.0,0.0652115672468
1385575070962184862,-0.0557501474774,-0.14116949326,0.00426429472261,1.0,0.0,0.0638693692496
1385575071161382139,-0.0922112108163,-0.0978678673512,0.00644608357847,1.0,0.0,0.0627294473486
1385575071361482022,-0.116165876567,-0.0372036588581,0.0076824665227,1.0,0.0,0.0616859184917
1385575071564531226,-0.123447286912,0.0292215240733,0.00778845273586,1.0,0.0,0.0608964972454
1385575071762698680,-0.112842934935,0.0900424913359,0.0077973963525,1.0,0.0,0.0600804737102
1385575071961899757,-0.0852580274839,0.134473496355,0.00745492587907,1.0,0.0,0.0592729707708
1385575072162736952,-0.0450686586676,0.155111847645,0.00689404748293,1.0,0.0,0.0585401000871
1385575072361757785,0.000881602612508,0.148509417614,0.00645244449623,1.0,0.0,0.0579180684625
1385575072562656976,0.0444561902847,0.115512110955,0.00565487305202,1.0,0.0,0.057413519472
1385575072762024208,0.0779720489284,0.0624489634956,0.00383411198891,1.0,0.0,0.0570118731024
1385575072962950101,0.0960932487595,-0.0010706855441,0.000707393359077,1.0,0.0,0.0564752326258
1385575073162038340,0.0958265946651,-0.0641679220646,-0.00309661243753,1.0,0.0,0.0555727352396
1385575073361990217,0.077164178937,-0.116510848661,-0.00593865958271,1.0,0.0,0.0543665782778
1385575073561924070,0.0428162615449,-0.149010771832,-0.00703058275245,1.0,0.0,0.05298201249
1385575073762036506,-0.00215568437902,-0.155471648419,-0.00621617119566,1.0,0.0,0.0512030377395
1385575073961840821,-0.0493724443009,-0.134975709076,-0.00420827527708,1.0,0.0,0.0494942519809
1385575074161843381,-0.0898414680279,-0.0920420492357,-0.00145769544845,1.0,0.0,0.0480984773461
1385575074361900458,-0.116497173796,-0.0345628952242,0.00169272614673,1.0,0.0,0.046995912915
1385575074561884942,-0.124622697556,0.0276146621851,0.00410075426103,1.0,0.0,0.0463502658626
1385575074762936708,-0.113087688938,0.0840878483932,0.005620930744,1.0,0.0,0.0458199443133
1385575074961982050,-0.0841128982834,0.124612687163,0.0058523753612,1.0,0.0,0.0451966183794
1385575075161863347,-0.0437525365253,0.142830301033,0.00477500706341,1.0,0.0,0.0445125553483
1385575075362854246,0.000102107076235,0.137078358558,0.003057671215,1.0,0.0,0.0439874999249
1385575075561931585,0.0397618277204,0.109116994827,0.0016091546457,1.0,0.0,0.0438553421061
1385575075761952232,0.0690056589724,0.0632359867593,-0.000931789512389,1.0,0.0,0.0444235628648
1385575075961861053,0.0843503853311,0.0070814422127,-0.00329034504994,1.0,0.0,0.0454419796431
1385575076162864177,0.0838657000602,-0.050449114976,-0.00596157329644,1.0,0.0,0.0465033307235
1385575076361984061,0.0676384435068,-0.0996468545475,-0.00720538166557,1.0,0.0,0.0471777471211
1385575076561995940,0.0385269141648,-0.132648941652,-0.00737943263483,1.0,0.0,0.0472394023751
1385575076762120328,0.00197579580678,-0.144693860913,-0.00652543175005,1.0,0.0,0.046878592412
1385575076962995378,-0.0356335600837,-0.134261980294,-0.00476099861901,1.0,0.0,0.0463327081137
1385575077161985422,-0.0683052300979,-0.103355945877,-0.00280994560053,1.0,0.0,0.0457044305121
1385575077361937204,-0.0911917834157,-0.0577788159706,-0.00131033269526,1.0,0.0,0.0452438210969
1385575077562858084,-0.101135164967,-0.00572664554916,-0.000658385470543,1.0,0.0,0.0450555978417
1385575077762881189,-0.0965914795553,0.0437613493972,-0.000452548453839,1.0,0.0,0.045341817021
1385575077961977027,-0.0786211381802,0.0836083987737,-0.000711341513131,1.0,0.0,0.0458703694177
1385575078161900987,-0.0500347554281,0.10836038359,-0.00137435192206,1.0,0.0,0.0466160222392
1385575078361978317,-0.0156526419781,0.114679283683,-0.00199874471449,1.0,0.0,0.0475062166567
1385575078562437641,0.0193226002919,0.101427591681,-0.00267997594707,1.0,0.0,0.0484944378285
1385575078761860470,0.0489492119676,0.0700871017606,-0.00321880002584,1.0,0.0,0.0498047568012
1385575078962470920,0.0680571810054,0.0256565773965,-0.003593159558,1.0,0.0,0.0512497236896
1385575079161489116,0.0734908401455,-0.0244949484531,-0.00403498456552,1.0,0.0,0.0526033717138
1385575079361595328,0.0644401649167,-0.0715694499011,-0.00423402826415,1.0,0.0,0.0535074859976
1385575079561484872,0.0421752024004,-0.107308311291,-0.00385780824638,1.0,0.0,0.0538056353114
1385575079761607893,0.0104683144077,-0.12485872588,-0.00225679743573,1.0,0.0,0.0534698771944
1385575079961394929,-0.0258563920716,-0.119975941438,5.37394966204e-05,1.0,0.0,0.0526413125551
1385575080161453251,-0.0598777695944,-0.0930866758512,0.00251953457763,1.0,0.0,0.0518933465287
1385575080361658156,-0.0853017941646,-0.0492628486317,0.00411846909792,1.0,0.0,0.0512747245375
1385575080561594399,-0.0972690728131,0.00281410634922,0.00478928893547,1.0,0.0,0.0509974490528
1385575080761499223,-0.094061312874,0.0535217440497,0.00476205762616,1.0,0.0,0.0509678388821
1385575080961619529,-0.0768515943042,0.0941046316025,0.00422610390503,1.0,0.0,0.0509732712027
1385575081161586749,-0.0486702616225,0.118060009062,0.00340749524775,1.0,0.0,0.0510942695199
1385575081361584616,-0.0141450998217,0.122034499065,0.00301075820245,1.0,0.0,0.0512320888519
1385575081561531751,0.0212679435498,0.105215537397,0.00266097409941,1.0,0.0,0.0515103689498
1385575081762646322,0.0518844267835,0.0708733030244,0.00215236666055,1.0,0.0,0.0519858681813
1385575081961660512,0.0724819706981,0.0247404211453,0.00150389699799,1.0,0.0,0.0527581389596
1385575082161399991,0.079780191235,-0.025447724933,0.000231635709336,1.0,0.0,0.0534334384138
1385575082361539217,0.0719194807632,-0.0719682292657,-0.00108494664688,1.0,0.0,0.0539050982854
1385575082561414736,0.0497339589954,-0.106968423167,-0.00147954285863,1.0,0.0,0.0537092762567
1385575082762576634,0.0166376913276,-0.124891462076,-0.000792033609795,1.0,0.0,0.0528303387688
1385575082961454329,-0.0216279786615,-0.122117092103,0.000686820340603,1.0,0.0,0.0515506937583
1385575083161551826,-0.0579442612889,-0.0987539119638,0.00231573632398,1.0,0.0,0.050116171492
1385575083362456723,-0.0852154047881,-0.0589665292549,0.0031193302681,1.0,0.0,0.0492005674377
1385575083562506717,-0.0994665016356,-0.00951599870601,0.00309323070787,1.0,0.0,0.0486956239487
1385575083761449443,-0.0987378581967,0.0417854295086,0.00252297370477,1.0,0.0,0.0483761073356
1385575083961583184,-0.082906196389,0.0865469762601,0.00221852939584,1.0,0.0,0.0482784199093
1385575084161827561,-0.0536527147077,0.117841382256,0.00224172155604,1.0,0.0,0.0482756690359
1385575084362592605,-0.015172638165,0.130148666908,0.00266922948932,1.0,0.0,0.0486259061827
1385575084561606005,0.0258862688364,0.121354247023,0.00326614436512,1.0,0.0,0.0496566674588
1385575084762662090,0.0621404789582,0.0934280505414,0.00384873919534,1.0,0.0,0.0515808488641
1385575084962626961,0.0864916710719,0.0510219229497,0.00391455466518,1.0,0.0,0.0544569405433
1385575085161435311,0.095445477722,0.00105184928639,0.00281166812573,1.0,0.0,0.0575390528182
1385575085361516589,0.0886485424642,-0.0492341017798,0.000688399274987,1.0,0.0,0.0598399537263
1385575085561449212,0.0676686406309,-0.0925878022082,-0.00172832482535,1.0,0.0,0.0609975933006
1385575085761777477,0.0350026107121,-0.121983188083,-0.00354369570165,1.0,0.0,0.0604967691826
1385575085962431251,-0.00545047150748,-0.130667142967,-0.0036745074887,1.0,0.0,0.0588868814394
1385575086161485331,-0.0470590171703,-0.115320949959,-0.00236525976045,1.0,0.0,0.0568183171771
1385575086362484960,-0.0820174060718,-0.0777435687086,-0.000469817836775,1.0,0.0,0.0547549935805
1385575086561509593,-0.103481212065,-0.0251343504145,0.00135194264895,1.0,0.0,0.0530838250829
1385575086761503914,-0.107530504189,0.0334318578174,0.00322312004432,1.0,0.0,0.0516402186515
1385575086961472996,-0.0926313652283,0.0883118940979,0.00513299283968,1.0,0.0,0.0506136991653
1385575087161447559,-0.0605222248373,0.129044118835,0.00706848335322,1.0,0.0,0.050497700834
1385575087361411830,-0.0173606833274,0.14871859266,0.00808737616702,1.0,0.0,0.0514472871563
1385575087561534151,0.0281660582337,0.144449029198,0.00840089757533,1.0,0.0,0.0536627651442
1385575087762637362,0.0676582344883,0.117885667929,0.00808071184927,1.0,0.0,0.0567879649174
1385575087961489466,0.0946281061257,0.0736345102778,0.00644313992102,1.0,0.0,0.0604615802641
1385575088162474335,0.106140790658,0.0188592258197,0.00334199048503,1.0,0.0,0.0641101743582
1385575088361482619,0.101722339849,-0.0383335247881,-0.000812904911417,1.0,0.0,0.0670446289559
1385575088561596593,0.0826823557771,-0.0895422367655,-0.00513407531567,1.0,0.0,0.0688729159749
1385575088761589723,0.0518220741048,-0.127779046598,-0.00923834902412,1.0,0.0,0.0689833558662
1385575088961472260,0.0122759215511,-0.146275556078,-0.0111151248588,1.0,0.0,0.0674669195089
1385575089161601665,-0.0308197106907,-0.139921116044,-0.0108459746714,1.0,0.0,0.0647459232835
1385575089361638491,-0.0703954908373,-0.108866268459,-0.0094044501393,1.0,0.0,0.0612763819225
1385575089561591758,-0.099451617304,-0.058377511594,-0.0073182925041,1.0,0.0,0.0577642940041
1385575089761614680,-0.112441772509,0.002931572815,-0.00458672222056,1.0,0.0,0.0548660211834
1385575089961599394,-0.106728408482,0.0658836059725,-0.00170744392347,1.0,0.0,0.0525045635876
1385575090161867753,-0.0824998967581,0.120299294824,0.00151598434193,1.0,0.0,0.050724629595
1385575090361780995,-0.0442095014835,0.156219057338,0.00483456715883,1.0,0.0,0.0503998500722
1385575090561688392,0.00018416520107,0.167855115592,0.00755938793392,1.0,0.0,0.0515806068804
1385575090762788019,0.0426894833632,0.153447739858,0.00924044204859,1.0,0.0,0.0543027070687
1385575090962235029,0.0773257407125,0.115718420028,0.00969951544978,1.0,0.0,0.0582621486797
1385575091162288334,0.0995738073097,0.0595379685797,0.00927446118673,1.0,0.0,0.0628584496249
1385575091361539232,0.106636574037,-0.00724284622823,0.00679344904238,1.0,0.0,0.0672330403908
1385575091561563464,0.0976813117762,-0.0746805822521,0.00229220836051,1.0,0.0,0.0703708351112
1385575091762672607,0.073666044336,-0.131048117467,-0.00280985527081,1.0,0.0,0.0716843958377
1385575091961507586,0.0374964935771,-0.165378204434,-0.00639043579877,1.0,0.0,0.0711980168784
1385575092161659671,-0.00666035911403,-0.170830925243,-0.00749960726691,1.0,0.0,0.0691322309125
