%time,field.linear.x,field.linear.y,field.linear.z,field.angular.x,field.angular.y,field.angular.z
1385574966371416427,0.0,0.0,0.0,0.0,0.0,0.0
1385574966371458529,0.163076647754,-0.0849297065722,-0.113921573085,-0.0172956271756,0.00612185444071,-1.56723271311
1385574966382681784,0.163083159715,-0.0849283085707,-0.113925233348,-0.0172875567177,0.00617037379954,-1.56722219325
1385574966391003325,0.163074413675,-0.0849337116384,-0.113926258945,-0.0172845976047,0.00614394092701,-1.56720969453
1385574966401047791,0.163050866546,-0.0849317478427,-0.113886976662,-0.0173648410921,0.00706495672883,-1.56707182395
1385574966411174512,0.163083879356,-0.0849298630483,-0.113910389722,-0.0173495906273,0.00616853116955,-1.5672505323
1385574966421112115,0.16308077674,-0.0849377077277,-0.113919010678,-0.0173398898885,0.00620596413453,-1.56722273486
1385574966431008590,0.163068510659,-0.0849384110691,-0.113934891199,-0.0172494535341,0.0061619855072,-1.56723495767
1385574966441170128,0.163071566462,-0.0849366024953,-0.113918822053,-0.0172969268867,0.0060868823282,-1.56721037155
1385574966450986889,0.16302842068,-0.084946052826,-0.113858587989,-0.0174579607219,0.00679633487058,-1.56714175471
1385574966461191901,0.163083032691,-0.0849275535623,-0.113910559747,-0.0173720394666,0.00620278317576,-1.56725211136
1385574966471241716,0.16307750933,-0.0849289188206,-0.11390855781,-0.0173686655247,0.00621165740636,-1.56723690487
1385574966481002045,0.163068557345,-0.0849431502817,-0.113925159361,-0.017276717202,0.00617922677284,-1.56722348324
1385574966491132140,0.163076850875,-0.0849374475874,-0.113923480759,-0.0172796724648,0.00617041953646,-1.56722710004
1385574966501118092,0.163074302415,-0.084936896497,-0.113906352822,-0.0173908149043,0.00621551666864,-1.56722342834
1385574966511013938,0.163081404663,-0.0849299272557,-0.1139210669,-0.0173456910187,0.00622035542744,-1.56722663709
1385574966521073638,0.163083307393,-0.0849314340518,-0.113917219925,-0.0173598970186,0.006230506276,-1.56723486366
1385574966531023479,0.163086763972,-0.0849232416283,-0.113951995578,-0.0172701607843,0.00645147398469,-1.56718279865
1385574966541006086,0.163080411676,-0.0849366940554,-0.113915669924,-0.0173623330066,0.00625423548992,-1.56722206508
1385574966550987997,0.163075746505,-0.0849347837137,-0.113905443876,-0.0173682887989,0.0061777698984,-1.56721463869
1385574966561461085,0.163073560226,-0.0849386593104,-0.113926762803,-0.0172901711795,0.00615221514813,-1.56724662373
1385574966571254724,0.163067745019,-0.0849374326106,-0.113924021116,-0.017275707747,0.00612057741916,-1.56720928842
1385574966580986609,0.163080414446,-0.0849275606771,-0.113919962639,-0.017352377459,0.0062614117772,-1.56726241208
1385574966591156688,0.16307419433,-0.0849343937095,-0.113915261142,-0.0173959272574,0.0061781606265,-1.56724803013
1385574966600995753,0.163085503045,-0.0849195346978,-0.11393667735,-0.0173396455083,0.00647224890623,-1.56721793792
1385574966611044509,0.163071028276,-0.0849380818577,-0.11392453713,-0.0172841967498,0.00615836450216,-1.5672173344
1385574966621137127,0.163070399393,-0.0849402729566,-0.113918580979,-0.0172761519173,0.00614904540142,-1.56721862286
1385574966630993634,0.163076085277,-0.0849306784454,-0.11391963056,-0.0173754163487,0.00623308037956,-1.5672551309
1385574966640966605,0.163080917314,-0.0849344680255,-0.113913461133,-0.0173658192379,0.00621336539236,-1.56723645412
1385574966650888671,0.163070560742,-0.084942128534,-0.113922914374,-0.0172706226685,0.00613816124857,-1.5672472843
1385574966660905864,0.163075592294,-0.0849322799956,-0.113906181359,-0.0173624206279,0.00619563820881,-1.56724644936
1385574966671325370,0.163085535773,-0.0849335007489,-0.113907966321,-0.0173646033586,0.00621958840848,-1.56724477758
1385574966680968064,0.163084111422,-0.0849284916087,-0.113950849588,-0.017242558368,0.00639617356092,-1.56721598122
1385574966691039611,0.163069361328,-0.0849390473887,-0.11392516416,-0.0172798941584,0.00618576164778,-1.56724377216
1385574966700985878,0.163072898051,-0.0849340750711,-0.113926696101,-0.0172587420699,0.00610086342507,-1.5672227858
1385574966710937901,0.1630762341,-0.0849330206251,-0.113925415851,-0.0172768935771,0.00617669010939,-1.56722894844
1385574966721082956,0.163071526912,-0.0849376629481,-0.113913987761,-0.0173412665386,0.00618779448685,-1.56721956098
1385574966731234681,0.16307575621,-0.0849340863579,-0.113907892608,-0.0173673945066,0.00620308999118,-1.56726081558
1385574966740986103,0.163070422979,-0.0849426989716,-0.113926970167,-0.0173115863469,0.00616814107212,-1.56722518853
1385574966750934556,0.1630684735,-0.0849393444527,-0.113921569088,-0.0172893717212,0.00614532978833,-1.56721726621
1385574966760994787,0.163070559742,-0.0849372972484,-0.113923115722,-0.0172884486805,0.00614731802611,-1.56722234036
1385574966770922241,0.163074433879,-0.0849354214515,-0.113927226503,-0.0172902261441,0.00616301044939,-1.56722751067
1385574966781340806,0.163074778588,-0.0849398483164,-0.113923372824,-0.0172902035175,0.00613629688213,-1.56718583468
1385574966791077691,0.163077028212,-0.0849325848613,-0.113921431436,-0.0173487597145,0.00617071444528,-1.56723764832
1385574966801147702,0.163073875715,-0.0849330271194,-0.113930033742,-0.0172557544395,0.00614526314667,-1.56724087733
1385574966811251561,0.163070229294,-0.0849359780371,-0.113927402987,-0.0172789076885,0.00616330976969,-1.56724024487
1385574966821052215,0.163070212359,-0.0849286724579,-0.113922820637,-0.0173539420447,0.00622704259421,-1.56725031387
1385574966831378870,0.163073759403,-0.0849410723417,-0.113907314993,-0.0173823324779,0.00620932337261,-1.5672822121
1385574966841050205,0.163075319967,-0.084934486458,-0.113906266123,-0.0173740453034,0.00620819143474,-1.56724853374
1385574966850980353,0.163087080514,-0.0849155440855,-0.113953546484,-0.0172421921401,0.00642760952915,-1.56720700928
1385574966861122302,0.163074008288,-0.0849377470489,-0.113915881621,-0.0173549423391,0.00616469825694,-1.5672280761
1385574966871053400,0.163079871693,-0.0849358045601,-0.113913120193,-0.0173583804871,0.00622700904426,-1.56722442376
1385574966880975207,0.163071610847,-0.0849313091661,-0.113920001119,-0.0173458318529,0.00619807651569,-1.56724446499
1385574966890998576,0.163071581153,-0.0849370635388,-0.113928791935,-0.0172559975712,0.00613383465465,-1.56723197234
1385574966901071010,0.16306993881,-0.0849452740271,-0.113927382983,-0.01727968162,0.00620420555682,-1.567238197
1385574966911001937,0.163091419582,-0.0849149771526,-0.113940536482,-0.017312281732,0.00645773237038,-1.56722560881
1385574966921005181,0.163073807035,-0.0849346518801,-0.113931853533,-0.0172611761622,0.00616584959245,-1.56720629983
1385574966931047518,0.163070894615,-0.0849415703602,-0.113920542667,-0.0172855476914,0.00614105793894,-1.56725668802
1385574966940953080,0.163087164598,-0.0849450302361,-0.113917910782,-0.0173681611359,0.00625083469668,-1.567141561
1385574966950966207,0.163023686517,-0.0849953381906,-0.113899516564,-0.0172520032129,0.00683028942607,-1.56693496675
1385574966961116899,0.1630939942,-0.0849634190935,-0.11393396056,-0.0173310815083,0.00630391288198,-1.56686397344
1385574966971001204,0.163076362811,-0.0849879247387,-0.11391435483,-0.0173841402523,0.00624658409314,-1.56697692425
1385574966981155484,0.1630487902,-0.0849976270604,-0.113867216387,-0.0173936157093,0.00695379218118,-1.5670736807
1385574966991139423,0.163121250836,-0.0849869387591,-0.113871491552,-0.0175410662797,0.00622853363704,-1.56695710288
1385574967000958354,0.16305922729,-0.0849903718323,-0.113905188573,-0.0170669742618,0.00614930036998,-1.56679560988
1385574967010945653,0.163099964212,-0.0849967835006,-0.113930010955,-0.0172417112124,0.00637324814182,-1.56741576452
1385574967020932052,0.163156363315,-0.0850056876823,-0.113839121294,-0.0176006609048,0.0063356079001,-1.56678961391
1385574967031000225,0.163098572724,-0.0849502117652,-0.113907641291,-0.0179531153428,0.00589995717911,-1.5662278276
1385574967040956073,0.163146118389,-0.0849974841333,-0.113886688177,-0.0174065255438,0.00628274835359,-1.56685315783
1385574967051001643,0.163157474019,-0.0850193977162,-0.113869631211,-0.0174480651699,0.00645147114146,-1.56765944511
1385574967061064482,0.163100062667,-0.0850048011954,-0.113798262462,-0.0172194959545,0.00680239530614,-1.56657106043
1385574967070969412,0.163180353368,-0.0849521688068,-0.113881382682,-0.017034038263,0.00630590049879,-1.56614069316
1385574967081039127,0.163063320884,-0.0849804655923,-0.113790835912,-0.0168378596409,0.00648500119681,-1.56743974363
1385574967091141516,0.16318483777,-0.0850077203365,-0.113855787318,-0.0167969953162,0.00635585227963,-1.56734595078
1385574967100920629,0.163222424018,-0.0849321703616,-0.113827431803,-0.0164096166114,0.00648514912838,-1.56657761962
1385574967110940405,0.163205848104,-0.0849871432765,-0.113841663937,-0.0163264189022,0.00597142486769,-1.56701485147
1385574967121255709,0.163140096342,-0.0850343446168,-0.113827188311,-0.0165970821873,0.00686538701832,-1.56760063616
1385574967131004561,0.163082661228,-0.0849001394444,-0.113886633897,-0.0161019996573,0.0060686816832,-1.5669108035
1385574967140981430,0.16320232363,-0.0849282433075,-0.113789853547,-0.0169772104647,0.00599995617399,-1.56703109278
1385574967151177809,0.163180493381,-0.0849975459966,-0.113832382899,-0.0167807157142,0.00621078809937,-1.56760846965
1385574967161045542,0.163144081169,-0.084998111009,-0.113802085173,-0.0168058157135,0.00679398223236,-1.56708976728
1385574967170961213,0.163172727869,-0.0849926755669,-0.113855988979,-0.0166808898831,0.00628307518009,-1.56646411098
1385574967181072479,0.16316874801,-0.0850035987079,-0.113842170708,-0.0164721902816,0.00615389247562,-1.56722338397
1385574967190995975,0.163137215158,-0.0849822663161,-0.113818413798,-0.0162991303802,0.00589593298534,-1.56746292668
1385574967201150751,0.163185692418,-0.0849945411797,-0.113837145964,-0.0165194423904,0.00617551812265,-1.56675621669
1385574967211012818,0.163134201355,-0.0849444023269,-0.113840686833,-0.0168751848288,0.00554358318403,-1.56678842313
1385574967221005362,0.163193504599,-0.0850128790651,-0.113852976342,-0.0166740926321,0.00616860372826,-1.56744408537
1385574967230990562,0.163154032031,-0.085003331063,-0.113786953181,-0.0165929218987,0.00673125195609,-1.56719462034
1385574967240949528,0.163177951774,-0.0850006688043,-0.113857249686,-0.0166074827475,0.0062810397856,-1.56673326744
1385574967251162677,0.163182295976,-0.0850083472226,-0.113859729329,-0.0165395471694,0.00618765506404,-1.56697656703
1385574967261014267,0.163076803323,-0.0849424994466,-0.113787557903,-0.0160378134662,0.00641481279873,-1.567309409
1385574967270958506,0.163194388774,-0.0849980539997,-0.11383926817,-0.0164317685744,0.00618978787772,-1.56707392456
1385574967281010310,0.16321320987,-0.0849879395023,-0.113871520054,-0.0166337197421,0.00654200745718,-1.56684224763
1385574967291027324,0.163192652141,-0.0850068325106,-0.113876618869,-0.0166343760351,0.00640539760759,-1.56711693783
1385574967300981596,0.163199400231,-0.0849946777592,-0.113833757994,-0.0164450133869,0.0061890646653,-1.56716673248
1385574967311279449,0.163132189664,-0.0850032226598,-0.113937625135,-0.0161342984931,0.00640555877478,-1.56717878854
1385574967320987369,0.163157601368,-0.0850149906054,-0.113895704195,-0.0167099706385,0.00579952978761,-1.5670212685
1385574967330970005,0.16316684308,-0.0850286500822,-0.113893346654,-0.0167231649245,0.00575468509449,-1.56714850856
1385574967340995103,0.163184085003,-0.0850054584828,-0.113832980021,-0.016533158524,0.00626058741484,-1.56726779504
1385574967351065901,0.163148030767,-0.0849905230423,-0.113905472033,-0.0162056303854,0.00630054109841,-1.56707555402
1385574967361035619,0.163180802463,-0.0850105416762,-0.113864319162,-0.0166228301931,0.00616608225854,-1.56715473595
1385574967371015010,0.163190484756,-0.08499997504,-0.113840250375,-0.0164503561496,0.00604433535157,-1.5670704982
1385574967381064184,0.16318185567,-0.084999226849,-0.113842679235,-0.0165596539541,0.00627557994561,-1.56693609858
1385574967391010536,0.163130728009,-0.0850067594144,-0.113908284798,-0.0161054374446,0.00629867751847,-1.56729665729
1385574967401106953,0.163192337391,-0.0849996017481,-0.113836974193,-0.0164090177765,0.00610543283198,-1.56718123546
1385574967410984314,0.163173477361,-0.084998424533,-0.113852967276,-0.0166456296675,0.00627136068074,-1.56675060854
1385574967420910415,0.163179433298,-0.0850059524403,-0.113850916561,-0.0165726989698,0.00619725890262,-1.56715226578
1385574967431135021,0.163085325598,-0.0849806396405,-0.113758043913,-0.0164844575519,0.00661245979139,-1.56724549418
1385574967441019608,0.163117687471,-0.0850384154009,-0.113756283556,-0.0163177907902,0.00661185517686,-1.56695442652
1385574967450956869,0.163175986969,-0.0849871294571,-0.113875435733,-0.016559080614,0.00618963130356,-1.56661003658
1385574967460884347,0.163119372212,-0.084971580576,-0.113826602439,-0.0162940553532,0.00592432315787,-1.56728535969
1385574967471000183,0.1631702463,-0.0850155430745,-0.113819933917,-0.0165280644698,0.00634274293746,-1.56746166066
1385574967481069521,0.163167957806,-0.0849933641815,-0.113844576353,-0.0167336487962,0.006320313422,-1.56680618219
1385574967490929425,0.163175799787,-0.0849992155142,-0.113857948699,-0.0166629048269,0.00617963286705,-1.56681975059
1385574967500909291,0.163203815405,-0.0850071703019,-0.113829985077,-0.0163581148002,0.00617019528583,-1.56733988895
1385574967510913945,0.163182847867,-0.0850013315064,-0.113862423223,-0.016308588223,0.00630303911916,-1.56732558696
1385574967520917427,0.163192735547,-0.0849933528955,-0.113905612985,-0.0162143892621,0.0062726120943,-1.56674105275
1385574967531001611,0.163191219868,-0.0850129377504,-0.113927310266,-0.0161837831303,0.00607201883505,-1.56695563634
1385574967540988663,0.163142819102,-0.085017459909,-0.113969516767,-0.0157440228429,0.00614617083732,-1.56739575407
1385574967551030491,0.163209345461,-0.0849943198762,-0.113882627279,-0.016327264121,0.00604236805399,-1.56731058868
1385574967560974639,0.163159987445,-0.0850024711783,-0.113879402334,-0.0166608721745,0.0061051392712,-1.56661670781
1385574967571135259,0.163195824885,-0.0850193523332,-0.113863922308,-0.0169272491414,0.0062274447998,-1.5667841967
1385574967581071829,0.163101028498,-0.0849731538921,-0.113789651565,-0.0164089152413,0.00660944074762,-1.56769874126
1385574967591092072,0.163178365028,-0.0849964662529,-0.113905979138,-0.0158075079444,0.00626026423155,-1.56688831459
1385574967600899001,0.163238729953,-0.0850019993911,-0.113932400367,-0.0153636142268,0.00596949406129,-1.56652673287
1385574967611267418,0.163131255363,-0.0850268349114,-0.113890345256,-0.0158663380953,0.00570789162964,-1.56805740093
1385574967620992557,0.163084834938,-0.0849669379862,-0.113978932258,-0.0150655286842,0.00596113080644,-1.56676891483
1385574967630955674,0.163168816113,-0.0849789836404,-0.113899229432,-0.0160127473292,0.00612439161149,-1.56738437757
1385574967640941378,0.163099529143,-0.0849687526484,-0.113849660297,-0.0162992162589,0.0067833872069,-1.56749649428
1385574967650990943,0.163126519152,-0.084976664609,-0.113942982701,-0.0164857911044,0.00633439434969,-1.56691053228
1385574967660955628,0.162992471252,-0.0849667796026,-0.113936179163,-0.0163399658474,0.00601134779081,-1.568675519
1385574967670976552,0.163033074639,-0.0849373532224,-0.113891954375,-0.016027104265,0.00613478113638,-1.56762904235
1385574967680964386,0.163081032161,-0.0849344953098,-0.113845752964,-0.0156263235865,0.00603149258327,-1.56729644579
1385574967691021446,0.163010994063,-0.0849457932719,-0.11376620437,-0.0157573630877,0.00634207053391,-1.56806712452
1385574967701001240,0.163056729792,-0.0849000387304,-0.113958037699,-0.0156109265779,0.00589364746535,-1.56719334302
1385574967711042238,0.163018012167,-0.0849330949627,-0.1139119726,-0.0166546047023,0.00598755206631,-1.56807715959
1385574967720980751,0.163051071829,-0.0849027901536,-0.113854702875,-0.0163153119891,0.00693021715882,-1.5679859312
1385574967731028815,0.163146792919,-0.0848737550258,-0.113827749976,-0.0159176431576,0.00628738682421,-1.5670472195
1385574967740963615,0.163009323123,-0.0848717797762,-0.11382205355,-0.0159913617927,0.00550656083393,-1.56810861964
1385574967751019155,0.163016162601,-0.0849425018433,-0.113943983883,-0.0164338174521,0.00599259583118,-1.56815356958
1385574967761225343,0.163098813536,-0.0849077082391,-0.113925911541,-0.0159369721908,0.00651424334172,-1.56714831512
1385574967770957537,0.163020027222,-0.0848657874547,-0.113874499378,-0.0153357913672,0.00606374144303,-1.56821162223
1385574967780977545,0.163030924115,-0.0849088513227,-0.113862161408,-0.0163888885023,0.00687324526201,-1.56766270744
1385574967791072111,0.163080394601,-0.0848920896734,-0.114014216996,-0.0167015785536,0.00637193081388,-1.56720666739
1385574967801038327,0.163077353501,-0.0848907336909,-0.113955623902,-0.0163651149488,0.006145801011,-1.56836489042
1385574967810939924,0.163112574376,-0.0849107316554,-0.113861627043,-0.0153492836626,0.00604323550467,-1.56730918819
1385574967820985230,0.163063739072,-0.0849068907517,-0.113814135124,-0.0155955731644,0.00596265450302,-1.56737674979
1385574967830967830,0.162995432286,-0.0848953743551,-0.11387706157,-0.0158115256902,0.00588045995171,-1.56832679324
1385574967841014251,0.162976161238,-0.0848709728008,-0.114037589604,-0.0156319235422,0.00618018377134,-1.56715346164
1385574967851006761,0.163056011208,-0.0849091961142,-0.113871145525,-0.0167693570521,0.00615294244237,-1.56776978774
1385574967860920670,0.163072003924,-0.0848949281309,-0.113858080112,-0.0167695291833,0.00629750129001,-1.56821232592
1385574967871056362,0.163084090131,-0.0848959698039,-0.113945682625,-0.0164229998924,0.00650399393129,-1.56701824726
1385574967880972157,0.163018301676,-0.0849143670112,-0.113890940445,-0.016130156539,0.00590317303119,-1.56819672635
1385574967890913583,0.163026223481,-0.0848993460005,-0.113881103961,-0.01582100746,0.00590162046148,-1.56816033083
1385574967900949683,0.163119100417,-0.084911282265,-0.113880334949,-0.0151786570985,0.00596724435748,-1.56715299929
1385574967910916330,0.163043681061,-0.084866765266,-0.113888283154,-0.0159395949126,0.00590428590539,-1.5682043503
1385574967920965127,0.163082147211,-0.084903120983,-0.113930525911,-0.0165051023314,0.00644051953269,-1.56767996619
1385574967930954019,0.163066332547,-0.0849038608174,-0.11392889771,-0.0165990971816,0.0064233087082,-1.56743963364
1385574967940951124,0.163085793721,-0.0848963440619,-0.113895228812,-0.0164312100839,0.00610643265751,-1.56848934906
1385574967950964741,0.16304815046,-0.084909135974,-0.113996456284,-0.015432471755,0.00639890939625,-1.56727989049
1385574967961500181,0.163047252025,-0.0849139386797,-0.113850302862,-0.0158246780511,0.00601504509224,-1.56760134081
1385574967970958991,0.163010129634,-0.0849263389299,-0.113788438548,-0.0157432368191,0.00658492866624,-1.56839688045
1385574967980978545,0.163088464935,-0.084861650239,-0.113880874593,-0.0153020199533,0.00597689685704,-1.56704674753
1385574967991142821,0.163060312596,-0.0849033356385,-0.113944911408,-0.015687658487,0.00611203495221,-1.56798417416
1385574968001006476,0.163084749067,-0.0849050845969,-0.113937014171,-0.016607100218,0.00611282637965,-1.56818531564
1385574968010928282,0.163022863523,-0.0849177665027,-0.113890898451,-0.0167192361839,0.0069856816976,-1.56706490606
1385574968020974584,0.162987425589,-0.084882692175,-0.11381265101,-0.0164390372296,0.00664970156359,-1.5678557849
1385574968030907507,0.163054700433,-0.0848988803437,-0.113845804897,-0.0161864728319,0.00695793224127,-1.5677543963
1385574968040953908,0.163064389694,-0.0848797249022,-0.113939027459,-0.0159688325418,0.00635045799816,-1.56734420117
1385574968050906857,0.163034540997,-0.0848565543423,-0.113901088948,-0.0161084359036,0.00584454354656,-1.56837452194
1385574968060914844,0.163091160971,-0.0848612576096,-0.113884918517,-0.0165617494019,0.0064274861131,-1.56760398974
1385574968070970214,0.163044060998,-0.0848903702139,-0.113799645681,-0.0163252500682,0.00690186815884,-1.5674098645
1385574968080961289,0.163089655544,-0.0848927052025,-0.11388032562,-0.0163860038312,0.00610947199533,-1.56850876553
1385574968090906631,0.162972598678,-0.0848745787326,-0.11385792432,-0.0163095646469,0.00676335897895,-1.56724626842
1385574968100932664,0.163002842568,-0.0848984520384,-0.113960023484,-0.0160558474067,0.00639154261663,-1.56796803746
1385574968110923920,0.163112841396,-0.0848875420628,-0.113835364246,-0.016111078394,0.00611505796545,-1.568191144
1385574968120909084,0.163105257656,-0.084879397363,-0.113860403691,-0.0158711152677,0.00622197242348,-1.56724233059
1385574968130967834,0.163064612526,-0.0849135638433,-0.113942355555,-0.0163126334261,0.00617934946335,-1.56825736383
1385574968140933645,0.163037520162,-0.0848960369956,-0.113891926463,-0.016456315708,0.0069122741598,-1.56790053295
1385574968150953736,0.163041988531,-0.0848837082142,-0.113779990919,-0.0159472353042,0.00678502855163,-1.5671147535
1385574968161228798,0.163041561229,-0.0848524889536,-0.113800132231,-0.0157981244284,0.00613824874258,-1.5682684682
1385574968170974105,0.163109613942,-0.0848482289946,-0.11387633757,-0.0161033194749,0.00618995763284,-1.5676229494
1385574968181008650,0.163055820633,-0.0848881769153,-0.113976464551,-0.0166715494451,0.00631138796628,-1.56766365327
1385574968190990956,0.16300806953,-0.0848961835627,-0.113864726561,-0.016593106894,0.00709514360179,-1.56833916833
1385574968200991173,0.163065230071,-0.0848625847144,-0.113854507572,-0.0159850222584,0.00631522115838,-1.56722887701
1385574968210982467,0.163060313316,-0.0848719262299,-0.113906188915,-0.0155751225091,0.00619238122801,-1.56815536587
1385574968221039477,0.16306856764,-0.0848998524406,-0.113888317661,-0.0159929764756,0.00607022023797,-1.56799904034
1385574968230974121,0.163027768841,-0.0848280850837,-0.113876516817,-0.0156005001882,0.0058767667186,-1.56718825203
1385574968240969132,0.163051605258,-0.0848509873372,-0.113812393389,-0.0157350544694,0.00596353702289,-1.56825009694
1385574968250998094,0.163080197472,-0.0848476474549,-0.113809319842,-0.0163453550973,0.00602415827372,-1.56746628322
1385574968260969860,0.163044218696,-0.0848804662023,-0.113901247421,-0.0169905541844,0.0063397746178,-1.56787681412
1385574968271041907,0.162979807091,-0.0848808651634,-0.113886996709,-0.0167313138848,0.00629932129139,-1.5679406685
1385574968281010310,0.163038718529,-0.0848478873717,-0.113877715923,-0.0165084226033,0.0062551066836,-1.56736587569
1385574968291019492,0.16301443011,-0.0848996328697,-0.11381207044,-0.0161371030144,0.00670567938395,-1.56782745087
1385574968301032343,0.163040109967,-0.08488371358,-0.113907711156,-0.0155557180278,0.00618103449748,-1.56730503249
1385574968311020071,0.163033351674,-0.0847996267825,-0.113873447259,-0.0155972695484,0.00592236478964,-1.56745283159
1385574968321021672,0.162957202831,-0.0848908655516,-0.113800871499,-0.0165180563291,0.00682144704292,-1.56776652583
1385574968331027066,0.162983540288,-0.0848186854667,-0.113861743492,-0.0169381924811,0.00631260900342,-1.56750286337
1385574968340992706,0.16290660417,-0.0848317936602,-0.113837148061,-0.0169158984063,0.00698119730808,-1.56798170099
1385574968350975826,0.162919466235,-0.0847991057022,-0.113918107588,-0.0161942930689,0.00616950034359,-1.56763621228
1385574968361482454,0.16292028632,-0.0847295605817,-0.113853319242,-0.0155017480184,0.00602367124847,-1.56782639685
1385574968370959492,0.162942935583,-0.0847578044337,-0.113875660254,-0.015634863958,0.00660134186172,-1.56789984387
1385574968380954364,0.162939701305,-0.0847317112052,-0.113898060339,-0.0162882076276,0.00624757228733,-1.56797750123
1385574968391032044,0.162823916118,-0.0847364150662,-0.113808237881,-0.0165970800246,0.00650056119544,-1.56800490166
1385574968401029946,0.1627299352,-0.084701505071,-0.113824937215,-0.0165412651873,0.00640450309061,-1.5679444756
1385574968410981089,0.162852175857,-0.0847191684739,-0.113901706641,-0.0164583512921,0.00593346039044,-1.5680731208
1385574968420926498,0.162900081348,-0.0847096623591,-0.113910334899,-0.0159710965942,0.00606284809035,-1.5678255884
1385574968431041981,0.162851255379,-0.0847925764201,-0.113857196763,-0.016228120236,0.0055786351935,-1.56846724066
1385574968440972257,0.16289478634,-0.084744639163,-0.113822213225,-0.0156026742383,0.0068642621533,-1.5675744047
1385574968450960478,0.162892468579,-0.0847710227789,-0.113942696,-0.0157605390822,0.00644372523317,-1.56834077812
1385574968460990979,0.162869135956,-0.0847160982896,-0.113921153244,-0.0167018383453,0.00620518723883,-1.56779783814
1385574968470931245,0.162916039416,-0.0847595735775,-0.11393698371,-0.0171896222208,0.00636350872669,-1.56831352446
1385574968480950882,0.16294401697,-0.084797738406,-0.113891012036,-0.0168356563668,0.00638456501896,-1.56883615471
1385574968490935592,0.162875726962,-0.0846735538141,-0.113825113879,-0.0168668204125,0.00676330037576,-1.56845496313
1385574968500928262,0.162856303685,-0.0848418935314,-0.113863857934,-0.0167847014333,0.00606709907782,-1.56910223346
1385574968510969726,0.162866135603,-0.0846990035563,-0.11395795495,-0.0165674110805,0.00610101255501,-1.56854785007
1385574968521301123,0.162807083284,-0.084759129521,-0.113923493389,-0.015734164503,0.00634977041054,-1.56946110946
1385574968531007864,0.163024060123,-0.0847713159405,-0.113794466334,-0.0159468498145,0.00659822000644,-1.56891753157
1385574968540949656,0.162917943217,-0.0848328626722,-0.11378673794,-0.0167547412321,0.00630913459789,-1.56963787936
1385574968551045909,0.162928479899,-0.0848832873673,-0.113976785705,-0.0168623804477,0.0058731713409,-1.56997873028
1385574968561065408,0.162948686568,-0.0847817029283,-0.113980098827,-0.0169634548933,0.00667668723434,-1.57016638094
1385574968570998722,0.162793020975,-0.0849142093416,-0.113853186495,-0.0173984796733,0.00578337732241,-1.57085358285
1385574968580941994,0.162785289723,-0.0847696992748,-0.113893471058,-0.0170224321389,0.00516304198752,-1.57077093762
1385574968590951069,0.162830261424,-0.0849123621771,-0.114011286019,-0.0168426576151,0.00460759053198,-1.57186814258
1385574968600906760,0.162779656192,-0.0847491241654,-0.114044853397,-0.0157911880455,0.00530603005482,-1.57191005615
1385574968610942372,0.162993901388,-0.0847433636574,-0.113869962626,-0.0152572757172,0.00649116184581,-1.57326496761
1385574968620939646,0.162983331232,-0.0846730140362,-0.113823009625,-0.0156460501668,0.00590803258523,-1.57346991419
1385574968630979855,0.162967990097,-0.0846455840699,-0.113814207935,-0.0167195445431,0.0062201681853,-1.57329570577
1385574968640935271,0.162953450647,-0.084672132547,-0.113929567932,-0.0173904892823,0.00645278987568,-1.57361397075
1385574968650911774,0.16305237582,-0.0845682911139,-0.114069811992,-0.0171627712899,0.00706367689298,-1.57357413694
1385574968660960858,0.16284339526,-0.0846884802692,-0.113810300349,-0.0162082180104,0.00666659288886,-1.57366383094
1385574968671004450,0.162922237777,-0.0844560099693,-0.113763280208,-0.0150814578715,0.00544207124536,-1.57418116022
1385574968680974256,0.162796618168,-0.0845365187214,-0.113999199565,-0.0156088051954,0.00486221953886,-1.57362277255
1385574968690941519,0.162926744463,-0.0842768800706,-0.114210895204,-0.0166856614046,0.00594955762344,-1.57388518046
1385574968700993133,0.162727555257,-0.0843103763223,-0.11417818317,-0.0163245764697,0.00528657748298,-1.57305293605
1385574968710929858,0.162725489415,-0.0840409129407,-0.113803390114,-0.0164349796781,0.00464881204358,-1.57331462867
1385574968720921203,0.162741160463,-0.0840230498143,-0.113766166113,-0.0163157332401,0.00444600229066,-1.57274974786
1385574968731008151,0.162798299481,-0.0837510995323,-0.113952372588,-0.0160392470688,0.0043761611721,-1.57324621302
1385574968740934612,0.162800266991,-0.0837260877709,-0.114156648648,-0.0166521185478,0.00545680206832,-1.57332739944
1385574968751014790,0.162712293518,-0.0835778497753,-0.114124126785,-0.0165771686988,0.00553696967741,-1.57355848989
1385574968761103098,0.162709862289,-0.0834496350696,-0.113951545605,-0.0170904698127,0.00490020521216,-1.5733113143
1385574968770975723,0.162637647161,-0.0833235869983,-0.1139405246,-0.0162176788533,0.00416155494109,-1.57367805594
1385574968780977719,0.162715966607,-0.0830720779271,-0.113962902171,-0.0152362021107,0.00593959268735,-1.57368769386
1385574968791067923,0.162589003252,-0.0829758187204,-0.11398104613,-0.0144421275119,0.00622876524051,-1.57418726641
1385574968801042221,0.162533885821,-0.0827753119967,-0.113965064474,-0.0145712945621,0.00593374328275,-1.57450241548
1385574968811017222,0.162213729068,-0.0826251559001,-0.113801683641,-0.0147290963409,0.00505430328009,-1.57487175069
1385574968820927005,0.162210219418,-0.082404171464,-0.113906090222,-0.0160769330037,0.00535248150907,-1.57507370832
1385574968830982807,0.161921755697,-0.0821735375167,-0.114092520916,-0.0161502076195,0.00512705295754,-1.57547550747
1385574968840964947,0.161764507889,-0.0819259419706,-0.11406302953,-0.0150509985398,0.00682288325495,-1.5761464661
1385574968850975774,0.161594123517,-0.0817099089588,-0.113884351638,-0.0143238556807,0.00594841175267,-1.57696289541
1385574968861002588,0.161481901856,-0.0814328534241,-0.113930622187,-0.0144489304817,0.00728042182028,-1.57775232394
1385574968870997670,0.161068939756,-0.0812025484887,-0.114123384727,-0.0138854208711,0.00605914570696,-1.57945250061
1385574968881117500,0.160985415694,-0.0809512150196,-0.114001281167,-0.0148913293547,0.00364610563618,-1.58040929051
1385574968890988453,0.16066660007,-0.0806481617293,-0.114035485553,-0.0155009481758,0.00572243231406,-1.58195201846
1385574968900994287,0.160495016217,-0.0803915977518,-0.11421005013,-0.0142530534829,0.00535551341703,-1.58280305559
1385574968911008962,0.160186050643,-0.0803004585308,-0.114035359228,-0.0132711803471,0.00445433057785,-1.58406964939
1385574968920987894,0.15990506639,-0.0799167728687,-0.11379710516,-0.0139959893746,0.00503236853312,-1.58443181522
1385574968930990122,0.159473576524,-0.0797559000941,-0.113912941089,-0.0157396706701,0.00517051310098,-1.5851741755
1385574968941036800,0.159006072813,-0.0794238342318,-0.114298843017,-0.0148752281896,0.00537172221623,-1.58536887974
1385574968950979380,0.158827879489,-0.0792558692056,-0.114402445533,-0.0148494465118,0.00470791234511,-1.58537393753
1385574968961031532,0.158587147249,-0.0789280521125,-0.114177944196,-0.0136890917126,0.00561881427104,-1.58579057627
1385574968971031965,0.158361238478,-0.0787146612849,-0.11397693535,-0.0116624444363,0.00450386009985,-1.58640356373
1385574968981036419,0.158164717072,-0.0785351499463,-0.11415229724,-0.0119081271103,0.00365953100146,-1.5867650841
1385574968991183937,0.157970975184,-0.0782397797965,-0.114286573699,-0.0136961838878,0.00469634137283,-1.58754811394
1385574969001092015,0.15792293301,-0.0778753512673,-0.114158614552,-0.0133795526911,0.00635468847138,-1.58791525025
1385574969011064168,0.157754523107,-0.0775715999767,-0.114095714574,-0.0127578926911,0.00619420012691,-1.58891823215
1385574969021026123,0.157723964575,-0.0772639314286,-0.114227839901,-0.0139779258679,0.00545227169557,-1.58952311276
1385574969031063190,0.15735946972,-0.0769677002988,-0.114270274496,-0.0150548957176,0.00537875282459,-1.59054482695
1385574969040951232,0.157117377416,-0.0766562186102,-0.114012486047,-0.0140060020909,0.00591385297014,-1.59088303113
1385574969050996577,0.15663197438,-0.0762195788661,-0.114009941478,-0.0128319384251,0.00774940465101,-1.59233419373
1385574969060996510,0.156384155932,-0.0760267986434,-0.114229193061,-0.0131042811348,0.00406014398308,-1.59284035969
1385574969071248801,0.156156188478,-0.0755641562309,-0.114318508737,-0.014380253835,0.00580519699542,-1.59460913147
1385574969080978380,0.155839492032,-0.0753879373296,-0.114008135743,-0.0146798587727,0.00600874523596,-1.5952886137
1385574969091011913,0.155447406512,-0.0750313419753,-0.113903968134,-0.0152879970913,0.00484743075027,-1.59596855397
1385574969101024657,0.155102742201,-0.0747491627487,-0.114035565964,-0.0159644484598,0.00471220369143,-1.59717725281
1385574969110997976,0.154716727319,-0.0742685777121,-0.114160570348,-0.0155004628413,0.00840551246085,-1.59852226788
1385574969121015119,0.154307542208,-0.0739189251339,-0.114032062117,-0.0137625431961,0.00819111752196,-1.59910613841
1385574969130956699,0.154185707173,-0.0735407882435,-0.114219367497,-0.0135140678822,0.00610666846904,-1.600244456
1385574969140968216,0.153892701594,-0.0730977706519,-0.114311074634,-0.014599806356,0.00659293201494,-1.6015717882
1385574969151018016,0.153529726228,-0.0727181116264,-0.114174568637,-0.0154135996727,0.00534102643843,-1.60159831059
1385574969161210567,0.152907302855,-0.0723423591357,-0.113895086422,-0.0162766565703,0.00401964661925,-1.60181048465
1385574969170967657,0.152636615029,-0.0720013812802,-0.114004030902,-0.0157933514225,0.00333949651457,-1.60218117246
1385574969181040815,0.152413308283,-0.0715590997071,-0.114340380245,-0.0142688948405,0.00358312264754,-1.60286682254
1385574969190926184,0.151951177405,-0.0711660987342,-0.11452531305,-0.0139802619525,0.00643918024318,-1.60430474649
1385574969201023724,0.151722932437,-0.0707265662384,-0.114675092557,-0.0142401123346,0.00566956636846,-1.60439634207
1385574969210960108,0.15161739683,-0.0704160086419,-0.114876458737,-0.0147829795804,0.00332709160103,-1.60497902046
1385574969221023637,0.151253414364,-0.0699504546278,-0.115219254964,-0.0154296491922,0.00222967242539,-1.60485797357
1385574969231096096,0.151222558818,-0.069619652047,-0.115636745557,-0.0159391475576,7.6150046624e-05,-1.60478812622
1385574969241363583,0.151121029621,-0.0692595872744,-0.116034608057,-0.0156937497292,-0.00173607901528,-1.60462808763
1385574969250991371,0.150943901496,-0.0689482302668,-0.116331655226,-0.0149284081724,-0.00335639381816,-1.60435343728
1385574969260998552,0.150742705421,-0.0686014110495,-0.116476436261,-0.0143564124638,-0.00368775964204,-1.60408990158
1385574969271007571,0.150684678743,-0.068140455621,-0.117219306178,-0.014426935513,-0.00695856411703,-1.60402525921
1385574969281097294,0.150690048646,-0.0677630410282,-0.117920134622,-0.014741766206,-0.0108564057716,-1.60439778983
1385574969290950149,0.15064987614,-0.0672957969367,-0.118565308697,-0.0145115542132,-0.0130866223372,-1.60356305223
1385574969300945473,0.150612106586,-0.0668777318044,-0.119226614534,-0.0145091483504,-0.015275509317,-1.60299087886
1385574969310932737,0.150459792368,-0.0665124293056,-0.120016233022,-0.0147289860557,-0.0177548759861,-1.602714449
1385574969320957228,0.150541365856,-0.0660699867261,-0.121233251546,-0.0141135282934,-0.020703176797,-1.6018536501
1385574969330966758,0.150647755175,-0.065641508496,-0.122110626786,-0.0138330626593,-0.0232678200571,-1.60142630038
1385574969341024916,0.150375641214,-0.0650861987963,-0.123330208853,-0.0135724966726,-0.0248089385143,-1.60137359771
1385574969351024124,0.150381439401,-0.0646314125277,-0.124604216584,-0.0149767500689,-0.0289517727118,-1.60126632839
1385574969361100416,0.150196012466,-0.0642192305777,-0.12587242198,-0.0159533681506,-0.0309197712238,-1.60137512971
1385574969370956023,0.150289391345,-0.0636119696936,-0.127127007804,-0.0158668629885,-0.0342358570061,-1.60149056107
1385574969380956578,0.150035921138,-0.0632473096878,-0.128663674818,-0.0154668331321,-0.0375384156203,-1.6014983482
1385574969391031660,0.149777618266,-0.0626539084041,-0.130308249423,-0.0152859756749,-0.0398464037934,-1.60191639231
1385574969400963920,0.149702737772,-0.0622831705469,-0.13222912622,-0.0152788002207,-0.0433296685953,-1.60246684483
1385574969410997589,0.149354506802,-0.0617604305441,-0.133947477539,-0.0157948835218,-0.0456720495622,-1.60331401984
1385574969421005826,0.149009666811,-0.0614015054018,-0.135933366123,-0.0151751857008,-0.0490955185451,-1.60405409423
1385574969430951401,0.148581399555,-0.0610566736406,-0.137976024504,-0.0146859860931,-0.0498137958403,-1.60479334533
1385574969440947272,0.148208754732,-0.0606593446305,-0.140270970304,-0.0129894243273,-0.0541871817068,-1.6054000421
1385574969450951146,0.147939383507,-0.0604281279583,-0.142635931037,-0.0109159241306,-0.0559723364104,-1.60570451215
1385574969460994044,0.147558405407,-0.0600376291896,-0.144984365232,-0.00722097831253,-0.0579027902561,-1.60603801732
1385574969470940514,0.14712919655,-0.0598846957237,-0.147534514557,-0.00573188055581,-0.0609461365116,-1.60624584353
1385574969480935876,0.146675791601,-0.0596149580441,-0.149983114126,-0.00381709503265,-0.0629786252085,-1.60609189164
1385574969490946505,0.146199311576,-0.0594662890439,-0.152534816644,-0.00210751878143,-0.0660489014755,-1.60482475437
1385574969501010033,0.145983401493,-0.0594574635664,-0.155301512811,-0.000409613777424,-0.0682172985146,-1.60337909932
1385574969511020678,0.145738379915,-0.0594457144259,-0.157972103142,0.00265897199021,-0.071744073608,-1.60263516505
1385574969520924753,0.14569833347,-0.0595845349784,-0.161194304384,0.00605081258827,-0.0741401682688,-1.60121073089
1385574969530998683,0.145412896758,-0.0598186183863,-0.16434926932,0.00855983412529,-0.0766155217254,-1.60040860786
1385574969540985859,0.145246560826,-0.0602112033559,-0.167239500561,0.0103948367525,-0.0776776245565,-1.59992391656
1385574969550976371,0.145160039996,-0.0605368645456,-0.170419374946,0.0122447260914,-0.078424753767,-1.59944644335
1385574969561121254,0.144944488025,-0.0608902338041,-0.173737768565,0.0128053035451,-0.0800712070683,-1.59917878146
1385574969570960705,0.144647528805,-0.0614398910166,-0.177302913514,0.0135588000852,-0.0825838676814,-1.59948221718
1385574969581003714,0.144413590332,-0.0620299778567,-0.180643159689,0.013936888246,-0.0835432240633,-1.59922369666
1385574969591195567,0.144254730142,-0.0627104262601,-0.184092185303,0.0136661734047,-0.0830640202325,-1.59835289402
1385574969601045069,0.144124478792,-0.0635532867808,-0.187673554969,0.0128938981436,-0.0843183410123,-1.5975443673
1385574969610979013,0.144007978359,-0.0644963792294,-0.19143892481,0.0118949152236,-0.0843225032409,-1.59691569606
1385574969620968488,0.143596409024,-0.0654728434412,-0.194990312764,0.0116557008023,-0.0831558960076,-1.5966964747
1385574969630967724,0.143403185497,-0.0665215681392,-0.198608109466,0.0112722962382,-0.0820863185405,-1.59631884097
1385574969641020005,0.143472258404,-0.0678525897285,-0.202530805839,0.0113757132054,-0.0818565761054,-1.59623337656
1385574969651053942,0.143202747221,-0.0690612142019,-0.206265556868,0.0101027754043,-0.0791227039098,-1.59638058741
1385574969660957280,0.143234494614,-0.0703725738674,-0.210396448185,0.00983756728575,-0.078412276511,-1.59653235604
1385574969671259834,0.142932106284,-0.0718153889049,-0.214216448625,0.00923996010832,-0.0759403153228,-1.59595522821
1385574969681099965,0.142829765058,-0.073280046342,-0.21839480759,0.00767286046801,-0.0742979847547,-1.59609459388
1385574969691072028,0.142701353085,-0.0748341688837,-0.222712307412,0.00697788503248,-0.0723021163506,-1.59525412114
1385574969700961566,0.142415157598,-0.0765848014922,-0.2268776491,0.00547712576987,-0.0680325524089,-1.59535134774
1385574969710939784,0.142459479566,-0.0780307914045,-0.231061425486,0.00389190584598,-0.0659385887602,-1.59555929755
1385574969720947420,0.142237678339,-0.0799586682031,-0.235238142455,0.00225055760001,-0.0652809068763,-1.59552376177
1385574969731010106,0.142148911615,-0.0818179534124,-0.23961909162,0.00114510263313,-0.0630587260579,-1.59559540862
1385574969740917947,0.142108231043,-0.083726763424,-0.244052103769,0.000642517634646,-0.0604613878502,-1.59528124884
1385574969750962336,0.141829976517,-0.0857333971445,-0.248457608668,0.000921689216601,-0.0588312157812,-1.5950707473
1385574969761142797,0.141790237032,-0.0877785510329,-0.25290509723,0.000222435158029,-0.0574283676344,-1.59467438283
1385574969771009216,0.141658532023,-0.0899314305276,-0.257620252615,0.000507273200579,-0.056750364527,-1.59460524448
1385574969781019425,0.141638606371,-0.0920491228231,-0.262165528697,0.00100801617239,-0.0541057209339,-1.59434313032
1385574969791028019,0.141742574361,-0.0943609427435,-0.26698840507,0.00147050064005,-0.052210634953,-1.59441376955
1385574969801050606,0.141628752784,-0.0965663025777,-0.271631033071,0.00245953460277,-0.0507222530577,-1.59402404048
1385574969811059422,0.141513022321,-0.0988265247025,-0.276420445102,0.0028866975019,-0.0477894113147,-1.59334288268
1385574969820949076,0.141534784811,-0.101201101592,-0.281142478144,0.00414914346396,-0.046519140207,-1.59287948505
1385574969830954783,0.141548588325,-0.103490506961,-0.285905585118,0.00564247361095,-0.0435149072077,-1.59277016623
1385574969840975123,0.141683717081,-0.105871360295,-0.290863876955,0.00697994181961,-0.0407480995025,-1.59251320588
1385574969851003168,0.141685790296,-0.108242458234,-0.295752615687,0.00868856603034,-0.0381789784773,-1.59261899779
1385574969860913772,0.141841511763,-0.110746738014,-0.30061352464,0.0101850518804,-0.0340552860118,-1.59334315322
1385574969870966641,0.141847795591,-0.113164154298,-0.305493452024,0.0107130011236,-0.0312540571194,-1.59302203828
1385574969880937159,0.141783398195,-0.115653372713,-0.310339597355,0.0109794728666,-0.0274523087646,-1.59314767274
1385574969890911056,0.14197579676,-0.118155032105,-0.315267445146,0.0119458864056,-0.0251445350888,-1.59280507105
1385574969900987889,0.142158068992,-0.120643492799,-0.320302408909,0.0130719623728,-0.0214888920449,-1.59236834744
1385574969910932059,0.142266414033,-0.123252049551,-0.325300909204,0.0133621181572,-0.0186496753368,-1.59257387411
1385574969920943579,0.142449364884,-0.125789204777,-0.330315778158,0.0150020918017,-0.0171410155889,-1.59234131088
1385574969930985532,0.14277957797,-0.128526379381,-0.335434697167,0.0162340186339,-0.0149778128096,-1.59219632559
1385574969940987783,0.14288419626,-0.131064416392,-0.340476881737,0.0172411598382,-0.0132881256174,-1.59234082821
1385574969950980283,0.143188068031,-0.133735138804,-0.345606165658,0.0184478491852,-0.0110186560807,-1.59188123267
1385574969961016457,0.143546339644,-0.136399005373,-0.350877279868,0.0184973085692,-0.0100118633284,-1.59218001084
1385574969970948587,0.143689278693,-0.13909283083,-0.355997667275,0.0183938398596,-0.00782978813064,-1.59197028458
1385574969981116927,0.144114641272,-0.141770406836,-0.361284238471,0.0180773414846,-0.00803424204501,-1.5918832541
1385574969991114796,0.144398221917,-0.144434716382,-0.366615749043,0.0184157942185,-0.00666087179045,-1.59154051409
1385574970001238553,0.144843488498,-0.147088845227,-0.371905130299,0.0176892340936,-0.00746049939784,-1.59134767451
1385574970010958654,0.145092192758,-0.149829082072,-0.377101867177,0.018089053941,-0.00690686194373,-1.59101383727
1385574970020982462,0.145758849307,-0.152471761024,-0.382823958489,0.0180482813892,-0.00668410815545,-1.59085982464
1385574970030993047,0.14601678912,-0.155170292416,-0.388317936787,0.0178280829919,-0.00676310882983,-1.59049595675
1385574970040915876,0.146519079096,-0.157908137514,-0.393864425556,0.0161005297832,-0.00696603028216,-1.59007217498
1385574970050930429,0.146934060553,-0.160592469889,-0.399789039705,0.0147396879136,-0.00590726924476,-1.5904150668
1385574970060984035,0.147505064798,-0.163259526906,-0.405384491904,0.0134058251505,-0.00666163973361,-1.5898066623
1385574970070986178,0.147906118212,-0.16588780293,-0.410826286005,0.012682613203,-0.00609691149272,-1.58888009484
1385574970080993868,0.148248128414,-0.168539972218,-0.416087506904,0.0116008555749,-0.00640568729238,-1.58869419159
1385574970090996173,0.1490235611,-0.171205149474,-0.421349662519,0.0100486108523,-0.00499326044962,-1.58817341379
1385574970100988061,0.149520220683,-0.173849991064,-0.426391722049,0.00861959444461,-0.00478801670648,-1.58817079704
1385574970110991751,0.150050021992,-0.176517782841,-0.431421424505,0.00744261892123,-0.00419187791036,-1.58784052304
1385574970121046286,0.150476605032,-0.179157618374,-0.436133360185,0.0059832669746,-0.0037578393048,-1.58738639136
1385574970130979467,0.151211277553,-0.181847699131,-0.440920927626,0.00533850507621,-0.00360834715119,-1.5870862536
1385574970140930668,0.151681956085,-0.184475684348,-0.445385553573,0.00446685923018,-0.00369164786262,-1.58638123017
1385574970151008686,0.152445927219,-0.186952942669,-0.449969289955,0.00310867908229,-0.000884781584115,-1.58610947572
1385574970161153209,0.152856769984,-0.189695608062,-0.453983532598,0.00204097343601,-0.00226930772983,-1.58576750582
1385574970171004072,0.153562147917,-0.192362578247,-0.457997256778,0.000477425225108,-0.00056842866881,-1.58513454442
1385574970180974403,0.154073844362,-0.194965077619,-0.462065637511,-1.26618740468e-05,-0.00217559860131,-1.58513187077
1385574970191001247,0.15471069578,-0.197730282249,-0.465838227873,-0.00122832952483,-0.00170663033179,-1.58478561947
1385574970200972405,0.155492538152,-0.200240555566,-0.469631894282,-0.00215222467746,-0.000714800338997,-1.58447388695
1385574970210951095,0.155886577415,-0.202942432717,-0.473059363704,-0.00231190565485,-0.000993938021254,-1.58407099374
1385574970220945305,0.156629663458,-0.205563775445,-0.476375623946,-0.00430048463815,-0.000710881423028,-1.58422014913
1385574970230977868,0.157108304134,-0.208183354102,-0.479600955284,-0.00471579793188,-0.00154527355812,-1.58348969235
1385574970241001434,0.157772988064,-0.210789190923,-0.482670025923,-0.00560302730763,-0.000663037774846,-1.58320890197
1385574970250962444,0.158461220394,-0.213442164947,-0.485588401482,-0.00635102753066,-0.000408197125671,-1.58304808727
1385574970260946770,0.158895897674,-0.216091124022,-0.488261645789,-0.00722496030594,-0.000714195583252,-1.58306013843
1385574970270993232,0.159523883404,-0.218664650187,-0.490760490626,-0.00918185472378,-0.000845839589651,-1.58260875639
1385574970280958334,0.160039148326,-0.221336386324,-0.493216255163,-0.00989544517053,-0.00128086301954,-1.58233602529
1385574970290978845,0.160703768857,-0.223960303132,-0.495460994928,-0.0105338819033,-0.0013989178765,-1.5817740455
1385574970301002437,0.161203840266,-0.226527976744,-0.49762867941,-0.0107803172494,-0.00241451589166,-1.58157897863
1385574970310942493,0.161803211835,-0.229068355387,-0.499689675074,-0.0115655518234,-0.00143824592166,-1.58129334234
1385574970320949647,0.162481264235,-0.23179179145,-0.501434774679,-0.012836666373,-0.00204449319164,-1.58079366694
1385574970331022602,0.162895211217,-0.234378426324,-0.503176546113,-0.0129872439892,-0.00208424933404,-1.58001669607
1385574970341171447,0.163499866483,-0.237021780136,-0.504615769401,-0.0144211613182,-0.00127377263468,-1.5801759394
1385574970350975308,0.163935113123,-0.239692703635,-0.506021875306,-0.0145611055189,-0.00192786448319,-1.57987774829
1385574970361237761,0.164503237235,-0.242234210409,-0.507336908073,-0.0152783333721,-0.00203298619698,-1.57955023552
1385574970371018494,0.165021077192,-0.244885560317,-0.508556609101,-0.0150693863105,-0.00181040926985,-1.57935397045
1385574970380960275,0.165495546077,-0.247468664675,-0.509469326014,-0.0161812445558,-0.00172366515661,-1.57966348914
1385574970390985016,0.16594656945,-0.250070821415,-0.510500163126,-0.0158954737496,-0.00125957596033,-1.5785522289
1385574970401007529,0.1663419395,-0.252717154136,-0.511276685537,-0.0165517879466,-0.00133679873146,-1.57861526624
1385574970410933839,0.166989206697,-0.255306115031,-0.511807945392,-0.0171570752954,-0.00161978275935,-1.57810007658
1385574970421032220,0.167326410321,-0.25785106153,-0.512412447027,-0.016958060558,-0.000957834268604,-1.57732391274
1385574970430946861,0.167812101021,-0.260478596885,-0.512985415848,-0.0172155495938,-0.000771420839125,-1.577469422
1385574970440961888,0.168105101551,-0.263206080921,-0.513291747805,-0.01678473715,-0.00248067554311,-1.57607656478
1385574970451006926,0.168540128731,-0.265734129537,-0.51340508204,-0.0178671038696,-0.00110682523291,-1.57631193254
1385574970460957978,0.169058921409,-0.268277925971,-0.513567513521,-0.0176596428603,-0.00183075651053,-1.57580729466
1385574970470984400,0.169392158536,-0.27084400417,-0.513685904116,-0.0172494512197,-0.00281523872078,-1.57552849241
1385574970481002866,0.169858058857,-0.273384672212,-0.513626642346,-0.0179642457785,-0.00300260474013,-1.57541706763
1385574970490981547,0.170051388806,-0.276035332311,-0.513541833002,-0.0175442765013,-0.00250716762495,-1.57467748647
1385574970501040619,0.170414687912,-0.278659507926,-0.513294404271,-0.0177139304244,-0.00338747193871,-1.5745188145
1385574970511008540,0.170697587776,-0.281196462388,-0.513003268639,-0.0181244496067,-0.00300025414401,-1.57392244125
1385574970520983833,0.171087505858,-0.283834628595,-0.512695380305,-0.0186154534275,-0.00324360680694,-1.57398095347
1385574970530979126,0.17133246668,-0.286334853072,-0.512207681284,-0.0189095904628,-0.00344130992281,-1.57350091488
1385574970540978861,0.171697028912,-0.288934407413,-0.511741343518,-0.0189233583165,-0.00382861118289,-1.57290072977
1385574970551015330,0.171774444325,-0.291565388919,-0.511102640999,-0.0194938335408,-0.00356952412116,-1.57292765018
1385574970560971379,0.172171279139,-0.294021146031,-0.510567917036,-0.0192890671233,-0.00334901458288,-1.57242836267
1385574970570956746,0.172242845385,-0.296620654119,-0.509703206985,-0.0197304916228,-0.00319876418053,-1.57248141913
1385574970580932041,0.172583088529,-0.29914207395,-0.508949334408,-0.0195752225348,-0.00330800107612,-1.57197661093
1385574970590895092,0.172830866797,-0.301777105561,-0.508237304709,-0.019987156898,-0.00287979644824,-1.57165708161
1385574970600935005,0.172964527973,-0.30427038697,-0.507354200747,-0.019442899713,-0.00264369129888,-1.57110452368
1385574970610958728,0.173228998258,-0.306771359355,-0.506367160175,-0.019554801462,-0.00198525584991,-1.57086174247
1385574970620983297,0.173349759352,-0.309430896173,-0.505408270731,-0.0198555448196,-0.00170077770722,-1.57103460299
1385574970630978789,0.173478454697,-0.311847624339,-0.504333543635,-0.0195050396068,-0.00143816076329,-1.57057352835
1385574970640990821,0.173812706165,-0.314320421133,-0.503404333173,-0.0181603194035,-0.000816882591173,-1.57060977109
1385574970650980982,0.173654345054,-0.316965513634,-0.502135231928,-0.0190954335795,-0.000405640453411,-1.57077314577
1385574970660919500,0.17394181757,-0.319466830894,-0.500953889623,-0.0188339254522,-0.000421763837811,-1.570219012
1385574970670960948,0.174002221362,-0.321949094835,-0.499711689702,-0.0183293343655,0.000357838919457,-1.56971617214
1385574970681022309,0.174297284704,-0.324509880873,-0.498426761072,-0.0176988923184,0.000211553950466,-1.56917948322
1385574970691014877,0.174272945707,-0.326983685236,-0.497071005547,-0.0163603211233,6.08504579172e-05,-1.56910603939
1385574970700940274,0.174404880664,-0.329601619097,-0.495827769274,-0.015932980858,0.00145587568167,-1.56870858548
1385574970710933517,0.174671847228,-0.331962288618,-0.494420279629,-0.0148676408107,0.00144145035113,-1.56848177316
1385574970720969627,0.174596724746,-0.334538141568,-0.492890941592,-0.0140981386932,0.00134764735206,-1.56784817454
1385574970730955157,0.174811181971,-0.337021238132,-0.491469356955,-0.0143218250946,0.00192464492553,-1.56791921501
1385574970740992705,0.174849073955,-0.339506926464,-0.489954255888,-0.0135279688063,0.00266723153195,-1.56767644002
1385574970751043750,0.174876653231,-0.341959019689,-0.488404749642,-0.0131957576333,0.00248378322946,-1.56775074292
1385574970761016493,0.174920921435,-0.344411332484,-0.486825702423,-0.0129304967915,0.00313996383252,-1.56765190433
1385574970770952552,0.17496020087,-0.346867372545,-0.485361519815,-0.0135525209609,0.00498693180363,-1.56756395329
1385574970781067952,0.174996700778,-0.349233000029,-0.483779662438,-0.0134755707558,0.00511889686869,-1.5677363069
1385574970791229648,0.174898517318,-0.351717683955,-0.482287770939,-0.0137440443044,0.00642995196672,-1.56721042691
1385574970801019904,0.174991333037,-0.35418743609,-0.480783124335,-0.0144881656235,0.00567446898294,-1.56692789402
1385574970810978085,0.174933242709,-0.356605158395,-0.479193407904,-0.0149516055205,0.00630342962297,-1.56663934202
1385574970820989939,0.175062902485,-0.359013458787,-0.477734640683,-0.0152414358288,0.00810239420326,-1.56619243275
1385574970830953414,0.175137196714,-0.361176398476,-0.476415041137,-0.0142088858871,0.00879247096329,-1.56607534536
1385574970840943477,0.175237348498,-0.363673335116,-0.474784712041,-0.0140871669329,0.00801768606275,-1.56558282207
1385574970850955297,0.175174864181,-0.36599518093,-0.473378797102,-0.0142133461688,0.00903940367263,-1.56573169103
1385574970861024132,0.175173327857,-0.36841254107,-0.471761199577,-0.0141703466624,0.00887250945604,-1.56552912981
1385574970871205830,0.175259172117,-0.370722603476,-0.470424830027,-0.0136638646043,0.0090205135601,-1.56498726284
1385574970880998610,0.175244714145,-0.373076649761,-0.469077182756,-0.0130918888353,0.00928126566515,-1.56519453825
1385574970890941634,0.175311261376,-0.375340252026,-0.467720204019,-0.0118227885139,0.00925451519169,-1.56439014201
1385574970901005357,0.175226099831,-0.377618784166,-0.466364682934,-0.0108927562596,0.00870359126019,-1.56501778327
1385574970910943105,0.175190520268,-0.379918113483,-0.464934337297,-0.011008092089,0.00939598274416,-1.56463071139
1385574970920929153,0.175370123284,-0.382170133676,-0.463606780966,-0.00992628883498,0.0097758179767,-1.56416229134
1385574970930928270,0.175422255167,-0.384380399755,-0.462244225069,-0.00935923326705,0.00999945696888,-1.56425160289
1385574970940932128,0.17544610886,-0.386524653241,-0.461007688943,-0.00925088759941,0.0116365761636,-1.56429188724
1385574970950932725,0.175291772855,-0.388774852977,-0.459633973225,-0.00803933640599,0.010530211359,-1.56375149776
1385574970961136457,0.175242514083,-0.390943429241,-0.458495260154,-0.00757069809913,0.0122362763398,-1.56337520164
1385574970971077396,0.175199603778,-0.393063194313,-0.457115082777,-0.00817612916902,0.0128095571067,-1.56364738157
1385574970981035917,0.175076232894,-0.395174660356,-0.455753900811,-0.00767874246206,0.0129599294001,-1.56309430468
1385574970990953061,0.175046490532,-0.397360009275,-0.454670663495,-0.00809291915391,0.0130676924253,-1.56285506989
1385574971001021935,0.174985674754,-0.399518504593,-0.453367913312,-0.00931232572552,0.0151374330995,-1.5629528369
1385574971011073928,0.174853209009,-0.401724013856,-0.452013088811,-0.00922593818081,0.0147874154714,-1.5624925714
1385574971021005686,0.174928782863,-0.403714671808,-0.450746761506,-0.0101706963372,0.0152562583394,-1.56218908563
1385574971031029661,0.174710141522,-0.405757773469,-0.449688951387,-0.00976288618057,0.0147029015061,-1.56211263457
1385574971041006393,0.174603072413,-0.407935471345,-0.448514790603,-0.0113989246134,0.0159410894882,-1.5618445613
1385574971050982684,0.174511421219,-0.40981252359,-0.447349540079,-0.0124130076514,0.0162497961239,-1.56151755828
1385574971060915452,0.174240169692,-0.411930013945,-0.446093822666,-0.0142061846757,0.0167718896432,-1.56149030926
1385574971071031276,0.174008902344,-0.413940357127,-0.444779097179,-0.0148002675218,0.015288958148,-1.56080070876
1385574971080981818,0.173939376125,-0.416014239477,-0.443852901531,-0.0163131111431,0.0170451802063,-1.56117911015
1385574971090976966,0.173737965962,-0.417768746689,-0.442753311681,-0.0171058592356,0.0170690019666,-1.56017005587
1385574971100983932,0.173617236285,-0.419955622741,-0.441601825493,-0.0191040935103,0.0170201904339,-1.55987897753
1385574971110971488,0.173280136939,-0.421695505452,-0.440536256365,-0.0194151283565,0.0183194624845,-1.55923131089
1385574971120984379,0.172991448641,-0.423729687097,-0.439454350468,-0.0211851755499,0.0171748512884,-1.55857081188
1385574971130978234,0.172862676395,-0.425621508823,-0.438338963346,-0.0211562940055,0.017853201847,-1.55877245266
1385574971140981551,0.172505268224,-0.42745626915,-0.437447854935,-0.0213690189947,0.0183735083532,-1.5582242629
1385574971150962272,0.172415356724,-0.429559378259,-0.436499207277,-0.0220259526844,0.0189438251375,-1.55853983357
1385574971161145389,0.172089967115,-0.431241739997,-0.435380916895,-0.0210747754564,0.0189392144986,-1.55753611578
1385574971171221455,0.17172169128,-0.433321096203,-0.434577526988,-0.0215511238507,0.019350428074,-1.55708527562
1385574971181011047,0.171535268115,-0.434965508571,-0.433438497578,-0.0218255930953,0.0200821827596,-1.55612233501
1385574971190976973,0.171229826928,-0.436599041666,-0.43261394682,-0.0211795278469,0.0231996836422,-1.55541461502
1385574971200986503,0.17071918788,-0.438714938924,-0.431916546192,-0.0220831479196,0.0186123391096,-1.55569642227
1385574971211123320,0.170502694789,-0.440150455963,-0.430657927286,-0.0206874349314,0.020208477834,-1.55499708745
1385574971220976018,0.170207640669,-0.441951665412,-0.429979500107,-0.019626330325,0.0204033277411,-1.5550203604
1385574971231168796,0.169938668142,-0.443577286128,-0.428970053689,-0.0196724332083,0.0214879095131,-1.55504858917
1385574971240950600,0.169549710505,-0.445193417549,-0.428292073495,-0.0183982935111,0.0216718971238,-1.55461300029
1385574971250926324,0.169149651075,-0.446962584408,-0.42748858629,-0.0181057078381,0.0212352470391,-1.55488833291
1385574971261067948,0.168810252713,-0.448518517655,-0.426659165972,-0.0178638719562,0.0220634973059,-1.55422253347
1385574971271008499,0.168316136938,-0.450331147632,-0.42599067841,-0.017898861223,0.0217502237169,-1.55437124002
1385574971280964486,0.168018147603,-0.451581797088,-0.425464669972,-0.0174381347184,0.0234579798006,-1.55390140471
1385574971290957539,0.167427478359,-0.453453318949,-0.42456388821,-0.018041483956,0.0229059609342,-1.55373104567
1385574971300994791,0.167123049001,-0.454766208107,-0.423756916245,-0.0173483686935,0.0211286585415,-1.55297536117
1385574971310980144,0.166674327736,-0.456360104818,-0.42325665324,-0.0179322763359,0.0214413788656,-1.5531187011
1385574971320973244,0.166069829212,-0.457874417649,-0.422578869334,-0.0175212765951,0.0208544417637,-1.55293889321
1385574971331066920,0.165551187212,-0.45926757217,-0.422189420113,-0.0198440487222,0.0202187359854,-1.55280434256
1385574971341003019,0.164989109189,-0.460833386189,-0.421221448203,-0.0195007513744,0.0202919617955,-1.55277607782
1385574971350945284,0.164483156131,-0.462087311987,-0.420772222395,-0.0188508304437,0.020038715661,-1.55214145711
1385574971361173098,0.163818972668,-0.463740436298,-0.42023597974,-0.0196989168385,0.019512212322,-1.55164565112
1385574971371444192,0.163358649249,-0.465019086801,-0.419896534676,-0.0185732310105,0.0204466380798,-1.55187216182
1385574971381051077,0.162674849432,-0.466681916627,-0.419366718978,-0.0209958462539,0.0181037699312,-1.55136479795
1385574971391763281,0.162284228579,-0.467827995118,-0.41891533328,-0.0193602794836,0.0193921162155,-1.55122477817
1385574971401057785,0.161699323187,-0.469281993294,-0.418174901995,-0.0196228061108,0.0171606796391,-1.55115948052
1385574971410964216,0.161094697308,-0.470589929474,-0.417912811346,-0.018911060763,0.0171834990088,-1.55102368686
1385574971420970511,0.160639295095,-0.471874736972,-0.417542893432,-0.0191673687592,0.0164898149623,-1.55079804437
1385574971430967979,0.159906538615,-0.473298127042,-0.417130646148,-0.0178630378574,0.015770753393,-1.55064919304
1385574971440962190,0.159335207052,-0.474565409727,-0.416780712193,-0.0179392244531,0.0155992456637,-1.55018531248
1385574971450972967,0.158412690851,-0.475997843722,-0.416409164372,-0.0190150739619,0.0137167769212,-1.55001931651
1385574971461018454,0.157889646041,-0.47723012907,-0.416311650981,-0.018104570169,0.0146706876576,-1.54957691768
1385574971471087778,0.157247915046,-0.478619409945,-0.415914945874,-0.0180806569874,0.0126986460252,-1.55000044085
1385574971480985534,0.156589987215,-0.47970780501,-0.415562214783,-0.0181289993111,0.0121661579691,-1.54955458523
1385574971490978624,0.155934662487,-0.480958418608,-0.415348644687,-0.0168811538885,0.0112801578544,-1.548931966
1385574971500979071,0.155244975917,-0.482256741099,-0.415108706245,-0.0165062781148,0.0122135115001,-1.5493371237
1385574971510989344,0.154645322045,-0.483424068111,-0.415174585769,-0.017284227987,0.0142185307571,-1.54956340015
