%time,field.header.seq,field.header.stamp,field.header.frame_id,field.child_frame_id,field.transform.translation.x,field.transform.translation.y,field.transform.translation.z,field.transform.rotation.x,field.transform.rotation.y,field.transform.rotation.z,field.transform.rotation.w
1385574963462302547,1204228,1385574963462302547,/world,vicon/Archie/Archie,0.163079715707,0.0849316692287,0.113924588501,-0.00395253715805,-0.0082879594471,0.705795672283,0.70835595301
1385574963471779803,1204229,1385574963471779803,/world,vicon/Archie/Archie,0.163071239365,0.0849374411008,0.11391510992,-0.00395691903966,-0.00830519898145,0.705805831668,0.708345603816
1385574963481834580,1204230,1385574963481834580,/world,vicon/Archie/Archie,0.163074242782,0.0849345632822,0.113925168971,-0.00395220154736,-0.0082790209495,0.705796456771,0.708355277756
1385574963491819820,1204231,1385574963491819820,/world,vicon/Archie/Archie,0.163081824418,0.0849337129905,0.113929775701,-0.00393957738383,-0.00827019468494,0.70579491848,0.708356983913
1385574963501710543,1204232,1385574963501710543,/world,vicon/Archie/Archie,0.163070400084,0.0849454035173,0.113918823361,-0.0039587448237,-0.00828772087302,0.705783072106,0.708368475549
1385574963511822200,1204233,1385574963511822200,/world,vicon/Archie/Archie,0.163092135711,0.0849161633035,0.113946635549,-0.00384686692629,-0.00835390404777,0.705781581871,0.708369799323
1385574963521777605,1204234,1385574963521777605,/world,vicon/Archie/Archie,0.163079612902,0.0849364367147,0.113928025253,-0.00394689230892,-0.00827309338054,0.705788693942,0.708363111314
1385574963531756771,1204235,1385574963531756771,/world,vicon/Archie/Archie,0.163023815754,0.0849520192395,0.113876365764,-0.00376680816639,-0.00851770451358,0.705748398971,0.708401339084
1385574963541937898,1204236,1385574963541937898,/world,vicon/Archie/Archie,0.163070614121,0.0849384300634,0.113928617068,-0.00395673531964,-0.00827948041812,0.70579653461,0.708355169518
1385574963551832108,1204237,1385574963551832108,/world,vicon/Archie/Archie,0.163089227509,0.0849258721571,0.113956769511,-0.003823078845,-0.00836218989949,0.705795214487,0.708356247277
1385574963561719081,1204238,1385574963561719081,/world,vicon/Archie/Archie,0.163063879884,0.0849334918818,0.113910459985,-0.00393663725226,-0.0082734156834,0.705784726642,0.708367117474
1385574963571690479,1204239,1385574963571690479,/world,vicon/Archie/Archie,0.163075156972,0.0849393873588,0.113917156556,-0.00395292356825,-0.00832112124883,0.705781591162,0.70836959203
1385574963581835288,1204240,1385574963581835288,/world,vicon/Archie/Archie,0.163076958714,0.0849290282126,0.113911080303,-0.00397091440101,-0.00831982142447,0.705788737262,0.708362386611
1385574963591706050,1204241,1385574963591706050,/world,vicon/Archie/Archie,0.163076199029,0.0849334780853,0.113924524615,-0.00396556923951,-0.00826360097812,0.705788877726,0.708362934687
1385574963601795867,1204242,1385574963601795867,/world,vicon/Archie/Archie,0.163078241896,0.0849214160979,0.113934431303,-0.00393451875026,-0.00828093489401,0.705803561218,0.708348274969
1385574963611795550,1204243,1385574963611795550,/world,vicon/Archie/Archie,0.163074806358,0.0849356511057,0.11392139764,-0.00395381021102,-0.00827915264751,0.705790413505,0.708361288624
1385574963621655877,1204244,1385574963621655877,/world,vicon/Archie/Archie,0.163059969414,0.0849401077065,0.113914837016,-0.00394263210965,-0.00825608076927,0.705797925458,0.708354135445
1385574963631935122,1204245,1385574963631935122,/world,vicon/Archie/Archie,0.163080586065,0.0849268072601,0.113911823338,-0.00396428492101,-0.00832312956468,0.705797249688,0.708353903281
1385574963641814049,1204246,1385574963641814049,/world,vicon/Archie/Archie,0.163079798572,0.0849339144986,0.113925167441,-0.00394734372849,-0.00827469734878,0.705790524287,0.708361266367
1385574963651811726,1204247,1385574963651811726,/world,vicon/Archie/Archie,0.163077752137,0.0849335162845,0.11392070876,-0.00394945713744,-0.008265143225,0.705790617573,0.708361273181
1385574963661820584,1204248,1385574963661820584,/world,vicon/Archie/Archie,0.163082336771,0.0849293185081,0.113910891268,-0.00395422728897,-0.00833512080587,0.705788315407,0.708362720421
1385574963671770117,1204249,1385574963671770117,/world,vicon/Archie/Archie,0.163081693946,0.0849269705243,0.113952488597,-0.00385001134451,-0.00836856460806,0.705795490228,0.70835575138
1385574963681936610,1204250,1385574963681936610,/world,vicon/Archie/Archie,0.163073159015,0.0849346783308,0.113929595022,-0.00395881735133,-0.00828346952646,0.705784989173,0.708366614795
1385574963692211797,1204251,1385574963692211797,/world,vicon/Archie/Archie,0.16307638778,0.0849345151077,0.113922966351,-0.00395222950153,-0.00827132303323,0.705795853159,0.70835596896
1385574963701879140,1204252,1385574963701879140,/world,vicon/Archie/Archie,0.163081716899,0.0849294655307,0.113916754267,-0.00395175708122,-0.00832423168763,0.705794114101,0.708357084586
1385574963711829309,1204253,1385574963711829309,/world,vicon/Archie/Archie,0.163035464803,0.0849443704687,0.113896214148,-0.00366201229071,-0.00860416826573,0.705736594724,0.708412603517
1385574963721878351,1204254,1385574963721878351,/world,vicon/Archie/Archie,0.163081528548,0.0849287612947,0.113916459039,-0.00396101690013,-0.00831426146113,0.705796949678,0.708354324633
1385574963731852153,1204255,1385574963731852153,/world,vicon/Archie/Archie,0.163081027432,0.0849325428876,0.113915254745,-0.00397382093295,-0.00831500196127,0.705799521951,0.708351681232
1385574963741786505,1204256,1385574963741786505,/world,vicon/Archie/Archie,0.163026229223,0.0849545103808,0.113874484792,-0.00379227521753,-0.00848831840274,0.705753070377,0.708396901992
1385574963751951880,1204257,1385574963751951880,/world,vicon/Archie/Archie,0.163089565959,0.0849266467396,0.113950263351,-0.0038460390535,-0.00836426145416,0.705770790622,0.708380433255
1385574963761899125,1204258,1385574963761899125,/world,vicon/Archie/Archie,0.163078566101,0.0849263585036,0.113918997302,-0.00394010788391,-0.00834005593613,0.705796867122,0.708354220273
1385574963771665346,1204259,1385574963771665346,/world,vicon/Archie/Archie,0.163079792718,0.0849458129608,0.113926876855,-0.0039510098503,-0.00826038500683,0.705779679977,0.708372217759
1385574963781884888,1204260,1385574963781884888,/world,vicon/Archie/Archie,0.163075197158,0.0849247198921,0.113913543424,-0.00396265330804,-0.00832204396318,0.70579818511,0.708352993117
1385574963791812705,1204261,1385574963791812705,/world,vicon/Archie/Archie,0.163083582439,0.0849214687887,0.113948874724,-0.00383965623722,-0.00835257074316,0.705791017965,0.708360452427
1385574963801824042,1204262,1385574963801824042,/world,vicon/Archie/Archie,0.163082269618,0.0849309935649,0.113916291807,-0.00396599865491,-0.00831060241825,0.705791786501,0.708359484196
1385574963811729019,1204263,1385574963811729019,/world,vicon/Archie/Archie,0.163074114083,0.0849346101933,0.113912624798,-0.00396927741895,-0.00831654792017,0.705817500826,0.708333774005
1385574963822251902,1204264,1385574963822251902,/world,vicon/Archie/Archie,0.163067414259,0.0849354855098,0.113929371034,-0.00394883522257,-0.00828704680855,0.705798148144,0.708353517413
1385574963831887492,1204265,1385574963831887492,/world,vicon/Archie/Archie,0.163027218421,0.0849535122017,0.113875872043,-0.00377034525268,-0.00851878112571,0.705751111792,0.70839860465
1385574963841850170,1204266,1385574963841850170,/world,vicon/Archie/Archie,0.163067784771,0.0849335043918,0.113926099405,-0.00395452474102,-0.00827742390399,0.705795771448,0.7083559663
1385574963851760445,1204267,1385574963851760445,/world,vicon/Archie/Archie,0.163074129686,0.0849286427412,0.113911293727,-0.00396649814918,-0.00833053216373,0.705803634333,0.708347442212
1385574963861737355,1204268,1385574963861737355,/world,vicon/Archie/Archie,0.163071378108,0.084932954845,0.113918627769,-0.00396267632358,-0.00832807053727,0.705796969627,0.708354133257
1385574963871716471,1204269,1385574963871716471,/world,vicon/Archie/Archie,0.163071944822,0.0849454470337,0.113926533975,-0.00395846324076,-0.00825489397905,0.705789157804,0.708362796892
1385574963881937233,1204270,1385574963881937233,/world,vicon/Archie/Archie,0.16306863054,0.0849329151211,0.113918813753,-0.00394217176581,-0.0083399681089,0.705804539569,0.708346564994
1385574963891825797,1204271,1385574963891825797,/world,vicon/Archie/Archie,0.163089390558,0.0849197538493,0.113938898603,-0.00384684407386,-0.00840347355993,0.705799665976,0.708351194628
1385574963901922195,1204272,1385574963901922195,/world,vicon/Archie/Archie,0.163077095233,0.0849373502896,0.113924527264,-0.00396030432436,-0.00827146982636,0.705779958761,0.708371758746
1385574963911701080,1204273,1385574963911701080,/world,vicon/Archie/Archie,0.163077473546,0.0849342508887,0.113923563829,-0.00398109814287,-0.00827740450947,0.705787578267,0.708363981154
1385574963921785670,1204274,1385574963921785670,/world,vicon/Archie/Archie,0.163076678334,0.0849275766822,0.113920893154,-0.00393269121874,-0.00833838007368,0.705791192941,0.708359934867
1385574963931798228,1204275,1385574963931798228,/world,vicon/Archie/Archie,0.163070946292,0.0849354262751,0.113937574784,-0.00393962023256,-0.00827297690836,0.705787142543,0.708364698913
1385574963941767755,1204276,1385574963941767755,/world,vicon/Archie/Archie,0.16307117229,0.0849295984851,0.113911511385,-0.00394604841166,-0.00834004242705,0.705808819712,0.708342277724
1385574963951915094,1204277,1385574963951915094,/world,vicon/Archie/Archie,0.163075444848,0.0849298690195,0.11392751113,-0.00392673824025,-0.00829412480575,0.705799635668,0.708352075251
1385574963961735089,1204278,1385574963961735089,/world,vicon/Archie/Archie,0.163068710167,0.0849331775737,0.113923373137,-0.00395994258115,-0.00833616331973,0.705791236962,0.708359765277
1385574963971709215,1204279,1385574963971709215,/world,vicon/Archie/Archie,0.163079394734,0.0849311459463,0.113917550207,-0.0039363009501,-0.0083394276804,0.705791150748,0.708359944524
1385574963981894524,1204280,1385574963981894524,/world,vicon/Archie/Archie,0.163072925968,0.0849364678698,0.113929916332,-0.00394370690023,-0.00828345082922,0.705798673527,0.708353064556
1385574963991777513,1204281,1385574963991777513,/world,vicon/Archie/Archie,0.163089852171,0.0849181303482,0.113959424252,-0.0038215903976,-0.00837460580437,0.705784880243,0.708366405361
1385574964001842190,1204282,1385574964001842190,/world,vicon/Archie/Archie,0.163069031273,0.0849415041505,0.113931348271,-0.00394199324749,-0.00828773579772,0.705782097877,0.708369539464
1385574964011711729,1204283,1385574964011711729,/world,vicon/Archie/Archie,0.163070336295,0.0849421585476,0.113911686027,-0.00398146983292,-0.00830850369178,0.705803384478,0.708347865899
1385574964021700499,1204284,1385574964021700499,/world,vicon/Archie/Archie,0.163021765369,0.0849557021616,0.113867520272,-0.00377361798453,-0.00855914194442,0.705761369978,0.708387880714
1385574964031990350,1204285,1385574964031990350,/world,vicon/Archie/Archie,0.163069512874,0.0849354652474,0.113916551074,-0.00395419027573,-0.00833912323788,0.705794703778,0.70835630831
1385574964041808554,1204286,1385574964041808554,/world,vicon/Archie/Archie,0.163072451651,0.0849406311147,0.113931685086,-0.00392988274925,-0.00828216086771,0.705798493384,0.708353335963
1385574964051750115,1204287,1385574964051750115,/world,vicon/Archie/Archie,0.163073172019,0.0849405671086,0.113924663747,-0.00395698921988,-0.00828746371724,0.705789075355,0.708362506977
1385574964061791469,1204288,1385574964061791469,/world,vicon/Archie/Archie,0.163073858926,0.0849406092124,0.113923492651,-0.00395453492176,-0.00827715629542,0.705790030927,0.708361689098
1385574964071773155,1204289,1385574964071773155,/world,vicon/Archie/Archie,0.163083087159,0.0849305075777,0.113918893831,-0.0039701286073,-0.00831764240997,0.705796843509,0.708354339718
1385574964081881198,1204290,1385574964081881198,/world,vicon/Archie/Archie,0.163077942031,0.08493380816,0.113915082066,-0.00395344412069,-0.00833312779137,0.705797495544,0.708353601349
1385574964091776540,1204291,1385574964091776540,/world,vicon/Archie/Archie,0.163092089806,0.0849182331176,0.113940599767,-0.0038600935124,-0.00842293070453,0.705791659535,0.708358868969
1385574964101898216,1204292,1385574964101898216,/world,vicon/Archie/Archie,0.16307600455,0.0849311529381,0.113916337163,-0.00396568348272,-0.00831992466378,0.70579879133,0.708352397021
1385574964111784133,1204293,1385574964111784133,/world,vicon/Archie/Archie,0.163041396386,0.0849393873441,0.11389349945,-0.00365875799304,-0.00866683000053,0.705750128414,0.708398373651
1385574964121783514,1204294,1385574964121783514,/world,vicon/Archie/Archie,0.163074898475,0.0849358266196,0.113937175176,-0.00394513416429,-0.00828591757962,0.705779069267,0.708372560784
1385574964131808312,1204295,1385574964131808312,/world,vicon/Archie/Archie,0.163072657573,0.0849320824084,0.113915898159,-0.00396460201138,-0.00833025462683,0.705795695299,0.708355366526
1385574964141787407,1204296,1385574964141787407,/world,vicon/Archie/Archie,0.163071435492,0.0849340200363,0.113936699209,-0.0039143570728,-0.00829662290437,0.705798389115,0.708353356582
1385574964151768658,1204297,1385574964151768658,/world,vicon/Archie/Archie,0.163067239344,0.0849404708906,0.113927134538,-0.00395709611983,-0.00828995314041,0.705789339715,0.708362213851
1385574964161851720,1204298,1385574964161851720,/world,vicon/Archie/Archie,0.163063857141,0.084951489691,0.113932768141,-0.00393333809759,-0.00828927478603,0.705788429401,0.708363261116
1385574964171739407,1204299,1385574964171739407,/world,vicon/Archie/Archie,0.163020703701,0.0849465880016,0.113876421979,-0.00376243375395,-0.00852910953841,0.705758885158,0.708390778034
1385574964181936200,1204300,1385574964181936200,/world,vicon/Archie/Archie,0.163074352749,0.0849382511996,0.113932749493,-0.0039338947753,-0.00828098030794,0.705791408015,0.708360387239
1385574964191851264,1204301,1385574964191851264,/world,vicon/Archie/Archie,0.163072531036,0.0849431130966,0.113926861425,-0.00396351698947,-0.00827511271394,0.705783109731,0.708368558775
1385574964201839557,1204302,1385574964201839557,/world,vicon/Archie/Archie,0.163074929073,0.0849352759332,0.113936979287,-0.00392784651931,-0.00829948425059,0.705795360576,0.708356265993
1385574964211696565,1204303,1385574964211696565,/world,vicon/Archie/Archie,0.1630700344,0.0849319689244,0.113927603442,-0.00393669674543,-0.00830647785063,0.705803002591,0.708348520418
1385574964221814500,1204304,1385574964221814500,/world,vicon/Archie/Archie,0.163071349041,0.0849376012724,0.113929670664,-0.00393830770403,-0.00829332725962,0.705799931297,0.708351725795
1385574964231803480,1204305,1385574964231803480,/world,vicon/Archie/Archie,0.16306631844,0.0849375349756,0.113929978901,-0.00393940535623,-0.00829034983215,0.705801390602,0.708350300493
1385574964241781819,1204306,1385574964241781819,/world,vicon/Archie/Archie,0.163059575187,0.0849453324269,0.113935497146,-0.00394502914467,-0.00828746261647,0.705780560034,0.708371057982
1385574964251804872,1204307,1385574964251804872,/world,vicon/Archie/Archie,0.163078569361,0.0849399420497,0.113916827637,-0.00396515552773,-0.00833012562056,0.705787924278,0.7083631078
1385574964261823641,1204308,1385574964261823641,/world,vicon/Archie/Archie,0.163066698766,0.0849478374064,0.113931017356,-0.00394114430592,-0.00829107133272,0.705793345133,0.708358298804
1385574964271681353,1204309,1385574964271681353,/world,vicon/Archie/Archie,0.16308112716,0.0849284804137,0.113943394419,-0.00385046150656,-0.00841423232887,0.705795690321,0.708355008569
1385574964281938407,1204310,1385574964281938407,/world,vicon/Archie/Archie,0.163033658701,0.0849586094382,0.113867522071,-0.0037836483533,-0.00853992229482,0.70574102069,0.708408332424
1385574964291957327,1204311,1385574964291957327,/world,vicon/Archie/Archie,0.163068788685,0.0849391063687,0.113928630744,-0.00394488261123,-0.00828320911658,0.70578891173,0.708362787296
1385574964302224900,1204312,1385574964302224900,/world,vicon/Archie/Archie,0.163076294245,0.0849254569758,0.113917988812,-0.00394492121737,-0.00833701458394,0.705794651831,0.708356436571
1385574964311855003,1204313,1385574964311855003,/world,vicon/Archie/Archie,0.163065476673,0.0849421158059,0.113927630986,-0.00394397942329,-0.0082924598591,0.705786879056,0.708364709375
1385574964321735407,1204314,1385574964321735407,/world,vicon/Archie/Archie,0.163073302714,0.0849303588834,0.113920658436,-0.00394914938909,-0.00833228589593,0.705806917023,0.708344247604
1385574964331954976,1204315,1385574964331954976,/world,vicon/Archie/Archie,0.163075019633,0.0849349952703,0.113915356777,-0.00395819282778,-0.00833223948147,0.705806209177,0.708344902983
1385574964341829343,1204316,1385574964341829343,/world,vicon/Archie/Archie,0.163067683867,0.0849354152097,0.11392941983,-0.00394132317565,-0.00828610505236,0.705794619888,0.708357085778
1385574964351827474,1204317,1385574964351827474,/world,vicon/Archie/Archie,0.163069394095,0.08494236063,0.113929728894,-0.00394386811228,-0.00828216663181,0.705800068227,0.708351689002
1385574964361890640,1204318,1385574964361890640,/world,vicon/Archie/Archie,0.163083779835,0.0849244294384,0.113959698287,-0.00382140892577,-0.00836856277465,0.705785949847,0.70836541205
1385574964371885171,1204319,1385574964371885171,/world,vicon/Archie/Archie,0.16307516428,0.0849509776122,0.113926164292,-0.00394041134979,-0.00827803388556,0.705796152178,0.708355658468
1385574964381826930,1204320,1385574964381826930,/world,vicon/Archie/Archie,0.163028112124,0.0849520819858,0.113867398613,-0.00377958177361,-0.00855934445498,0.705749484623,0.708399687563
1385574964391931076,1204321,1385574964391931076,/world,vicon/Archie/Archie,0.163070686824,0.0849356405713,0.113931464054,-0.00394665905403,-0.00828721313393,0.705794860285,0.708356803578
1385574964401875787,1204322,1385574964401875787,/world,vicon/Archie/Archie,0.163074408887,0.0849413927516,0.113940913844,-0.00394517719776,-0.00826254839849,0.705780198505,0.708371708405
1385574964411792946,1204323,1385574964411792946,/world,vicon/Archie/Archie,0.163058927663,0.0849376488887,0.113924265999,-0.00393314321876,-0.00826673893406,0.70580384981,0.708348160868
1385574964421727071,1204324,1385574964421727071,/world,vicon/Archie/Archie,0.163063685091,0.0849461385232,0.113928480905,-0.00393922287704,-0.00829727506657,0.705788591542,0.708362973199
1385574964431838313,1204325,1385574964431838313,/world,vicon/Archie/Archie,0.163073273506,0.0849367282322,0.113932257108,-0.00393948834412,-0.00827349154988,0.705790183674,0.708361663558
1385574964441857338,1204326,1385574964441857338,/world,vicon/Archie/Archie,0.163069179063,0.0849350023793,0.113935711098,-0.00395115362476,-0.00830502774159,0.705791820129,0.70835959903
1385574964451829578,1204327,1385574964451829578,/world,vicon/Archie/Archie,0.163080359909,0.0849242365254,0.113953225893,-0.0038268752306,-0.00837857542273,0.705788901028,0.708362323734
1385574964461897756,1204328,1385574964461897756,/world,vicon/Archie/Archie,0.163076185682,0.084927041051,0.113912875455,-0.00396265694649,-0.00834150452713,0.705804786534,0.70834618652
1385574964471670076,1204329,1385574964471670076,/world,vicon/Archie/Archie,0.163071889859,0.0849353209208,0.113934862615,-0.00395043519537,-0.00827393813978,0.70579253545,0.708359254131
1385574964481935157,1204330,1385574964481935157,/world,vicon/Archie/Archie,0.163078556488,0.0849403468929,0.11391711773,-0.00394573579837,-0.00834752223987,0.705785416454,0.708365510144
1385574964491764265,1204331,1385574964491764265,/world,vicon/Archie/Archie,0.163073173521,0.0849375429148,0.113930936449,-0.00394747249458,-0.00828129716161,0.705791560732,0.708360155837
1385574964501818827,1204332,1385574964501818827,/world,vicon/Archie/Archie,0.163070313758,0.0849323720464,0.113924414385,-0.00394040730807,-0.00832171390903,0.705812409085,0.708338948138
1385574964511832718,1204333,1385574964511832718,/world,vicon/Archie/Archie,0.163071662984,0.0849324140115,0.113915516752,-0.00394246476886,-0.00833869493788,0.705800187963,0.708350914314
1385574964521719170,1204334,1385574964521719170,/world,vicon/Archie/Archie,0.163066309333,0.084945496224,0.113936842164,-0.00395367787389,-0.00829722594186,0.705784056256,0.708367412017
1385574964531795975,1204335,1385574964531795975,/world,vicon/Archie/Archie,0.163071671951,0.0849346979707,0.113921819539,-0.00393823677308,-0.00832438348216,0.705794514185,0.708356759463
1385574964541748313,1204336,1385574964541748313,/world,vicon/Archie/Archie,0.163079121978,0.0849272418095,0.113959057758,-0.00382081055539,-0.00837287597214,0.705787643017,0.708363677301
1385574964551848964,1204337,1385574964551848964,/world,vicon/Archie/Archie,0.163074369102,0.0849453734479,0.113934751746,-0.00393611671908,-0.00828759498103,0.705786697133,0.708364991304
1385574964561793481,1204338,1385574964561793481,/world,vicon/Archie/Archie,0.163073878093,0.0849415830396,0.113934303553,-0.00394151008214,-0.00828093838685,0.705788309287,0.708363432873
1385574964571748537,1204339,1385574964571748537,/world,vicon/Archie/Archie,0.163074143971,0.0849350481948,0.113932912894,-0.00394201016512,-0.00828557898308,0.705793698721,0.708358005942
1385574964582067878,1204340,1385574964582067878,/world,vicon/Archie/Archie,0.163066388284,0.0849365177722,0.113937505975,-0.00393546953682,-0.00828213925114,0.705797834613,0.708353961593
1385574964591866043,1204341,1385574964591866043,/world,vicon/Archie/Archie,0.163071643788,0.0849374358098,0.113916541809,-0.00395656340836,-0.00832881092645,0.705798177781,0.708352954928
1385574964601780989,1204342,1385574964601780989,/world,vicon/Archie/Archie,0.163069245677,0.0849408326381,0.113932322506,-0.00392674865513,-0.00828200808467,0.70579066385,0.708361156339
1385574964611890210,1204343,1385574964611890210,/world,vicon/Archie/Archie,0.16306984452,0.0849454805111,0.113922683258,-0.00393887139745,-0.00833418967701,0.705797232572,0.708353932062
1385574964621863741,1204344,1385574964621863741,/world,vicon/Archie/Archie,0.163066821586,0.084938443646,0.113935418819,-0.00392725499648,-0.00827405360613,0.70578373402,0.708368151103
1385574964631790617,1204345,1385574964631790617,/world,vicon/Archie/Archie,0.163076377905,0.0849409133691,0.11392232684,-0.00394272393083,-0.00833647131864,0.705786802955,0.708364275602
1385574964641764209,1204346,1385574964641764209,/world,vicon/Archie/Archie,0.163070580496,0.0849403474343,0.113929116037,-0.00394875791791,-0.00828811917963,0.705802275107,0.708349393199
1385574964651899140,1204347,1385574964651899140,/world,vicon/Archie/Archie,0.163065286423,0.0849391772741,0.113938588512,-0.00392718727684,-0.00828116613563,0.705800153675,0.708351708235
1385574964661719539,1204348,1385574964661719539,/world,vicon/Archie/Archie,0.163083065155,0.084923342076,0.113951726387,-0.00382935424392,-0.00836532325662,0.705783144047,0.708368202979
1385574964671868605,1204349,1385574964671868605,/world,vicon/Archie/Archie,0.163063490441,0.084934685771,0.113929374146,-0.00394410493039,-0.00828442149823,0.705806420608,0.708345331759
1385574964681952444,1204350,1385574964681952444,/world,vicon/Archie/Archie,0.163075317274,0.0849374370975,0.113915721225,-0.00394760535876,-0.00833415655475,0.705803694564,0.708347445105
1385574964691768548,1204351,1385574964691768548,/world,vicon/Archie/Archie,0.163067423327,0.084938217777,0.113920248301,-0.00395228723755,-0.00834535750064,0.705799164148,0.708351801241
1385574964701924775,1204352,1385574964701924775,/world,vicon/Archie/Archie,0.163066581018,0.0849449189543,0.113931711112,-0.00395192155266,-0.00827269157393,0.705793117225,0.708358680732
1385574964711824876,1204353,1385574964711824876,/world,vicon/Archie/Archie,0.163074499306,0.0849382970381,0.1139343228,-0.0039494847301,-0.00826262215515,0.70579255012,0.708359376899
1385574964721645143,1204354,1385574964721645143,/world,vicon/Archie/Archie,0.163024767297,0.0849578546431,0.113880767719,-0.00377616102425,-0.00850180191802,0.705739051098,0.708410793062
1385574964731968197,1204355,1385574964731968197,/world,vicon/Archie/Archie,0.16308512111,0.0849260004565,0.113955736978,-0.00384278380479,-0.00836839220012,0.705790145321,0.70836111821
1385574964741862129,1204356,1385574964741862129,/world,vicon/Archie/Archie,0.163073504463,0.0849390657341,0.113928007372,-0.00395049371984,-0.00827499109276,0.705798674552,0.708353124594
1385574964751822342,1204357,1385574964751822342,/world,vicon/Archie/Archie,0.163082930092,0.0849296417095,0.11395522211,-0.0038286049065,-0.00835681972265,0.705792491283,0.708358994153
1385574964761842033,1204358,1385574964761842033,/world,vicon/Archie/Archie,0.163071347404,0.0849387526483,0.113930405087,-0.00392039072876,-0.00828340350079,0.705790402195,0.708361435944
1385574964771657325,1204359,1385574964771657325,/world,vicon/Archie/Archie,0.16307204136,0.0849344822581,0.113917411753,-0.00394361386947,-0.00833152760867,0.705801860739,0.708349325499
1385574964781839159,1204360,1385574964781839159,/world,vicon/Archie/Archie,0.163062563959,0.0849398763921,0.113923632925,-0.0039477269648,-0.00829373752273,0.705801548821,0.708350056859
1385574964791756707,1204361,1385574964791756707,/world,vicon/Archie/Archie,0.163063299582,0.084940603231,0.11392771497,-0.00394632961801,-0.00828940515756,0.705793473855,0.708358161178
1385574964801779498,1204362,1385574964801779498,/world,vicon/Archie/Archie,0.163067655882,0.0849448462203,0.113930967873,-0.00393579610637,-0.00828923365055,0.705795756349,0.708355947553
1385574964811806471,1204363,1385574964811806471,/world,vicon/Archie/Archie,0.163071527372,0.0849293660507,0.113932919497,-0.00393211288473,-0.00830159461181,0.705800767873,0.708350829805
1385574964821705966,1204364,1385574964821705966,/world,vicon/Archie/Archie,0.163070837252,0.08493420813,0.113918920587,-0.0039590123434,-0.00832657853829,0.705781275079,0.708369808828
1385574964831805400,1204365,1385574964831805400,/world,vicon/Archie/Archie,0.16308672155,0.0849341514192,0.113946572889,-0.00383105201542,-0.00842623601226,0.705781744509,0.708368866273
1385574964841887947,1204366,1385574964841887947,/world,vicon/Archie/Archie,0.163071605704,0.0849390432861,0.113928962543,-0.00394462284135,-0.00830268312216,0.705790742058,0.708360737075
1385574964851765686,1204367,1385574964851765686,/world,vicon/Archie/Archie,0.163080902117,0.0849353441716,0.113928310806,-0.00393967450414,-0.00828793862924,0.705800380103,0.708351334074
1385574964861711272,1204368,1385574964861711272,/world,vicon/Archie/Archie,0.163094374053,0.0849121679359,0.113942348787,-0.00384487916833,-0.00840205531656,0.705801832766,0.708349063128
1385574964871840372,1204369,1385574964871840372,/world,vicon/Archie/Archie,0.163075604965,0.0849403706874,0.113915507939,-0.00396671722913,-0.00830960125207,0.705794832504,0.708356456942
1385574964881842583,1204370,1385574964881842583,/world,vicon/Archie/Archie,0.163030534461,0.0849443962753,0.113864097292,-0.00376129876758,-0.00858082507053,0.705759870792,0.708389177538
1385574964891924848,1204371,1385574964891924848,/world,vicon/Archie/Archie,0.163087309911,0.084929594307,0.11394005056,-0.00384917092246,-0.00840702713686,0.705794376867,0.708356409839
1385574964901914596,1204372,1385574964901914596,/world,vicon/Archie/Archie,0.163081509354,0.0849349282872,0.113912555197,-0.00396549810213,-0.00832945228712,0.705791980435,0.708359072366
1385574964911708442,1204373,1385574964911708442,/world,vicon/Archie/Archie,0.163069860226,0.084941111169,0.113928038414,-0.00395165626026,-0.00827899787267,0.705799962505,0.708351787981
1385574964921685694,1204374,1385574964921685694,/world,vicon/Archie/Archie,0.163067221636,0.0849442775315,0.113927099139,-0.00393847598316,-0.00829617013378,0.705803192693,0.708348441908
1385574964931915569,1204375,1385574964931915569,/world,vicon/Archie/Archie,0.163072844812,0.084937869179,0.113917603033,-0.00394083839688,-0.0083418493702,0.705795686126,0.708355371821
1385574964941755848,1204376,1385574964941755848,/world,vicon/Archie/Archie,0.163069719646,0.0849405082653,0.113927326633,-0.00393590907847,-0.00829751606612,0.705800729992,0.708350894254
1385574964951757608,1204377,1385574964951757608,/world,vicon/Archie/Archie,0.163070884687,0.0849382793868,0.113919346312,-0.00395002074241,-0.00829153665125,0.705792080426,0.70835950404
1385574964961821640,1204378,1385574964961821640,/world,vicon/Archie/Archie,0.163073581701,0.0849396393392,0.113938767836,-0.00393644388304,-0.00826949382831,0.705794386611,0.70835753946
1385574964971769080,1204379,1385574964971769080,/world,vicon/Archie/Archie,0.163070875626,0.0849491968908,0.113926089256,-0.0039535513929,-0.00828798260033,0.705787949416,0.708363641949
1385574964981968227,1204380,1385574964981968227,/world,vicon/Archie/Archie,0.163071247332,0.0849366214826,0.113927150824,-0.0039449735688,-0.00828204696357,0.705793170982,0.708358556578
1385574964991727994,1204381,1385574964991727994,/world,vicon/Archie/Archie,0.163029947623,0.0849550961445,0.113881019657,-0.00376708622593,-0.00850492298287,0.705743271406,0.708406599497
1385574965001940157,1204382,1385574965001940157,/world,vicon/Archie/Archie,0.163080126202,0.0849378814329,0.113912502258,-0.00397357329217,-0.00832269166036,0.705791604038,0.708359481611
1385574965011782580,1204383,1385574965011782580,/world,vicon/Archie/Archie,0.163067038243,0.0849441477757,0.113927318934,-0.00393015801031,-0.00829701413381,0.705799851838,0.708351807056
1385574965021735587,1204384,1385574965021735587,/world,vicon/Archie/Archie,0.163075229124,0.084934940594,0.113918315871,-0.00395217592214,-0.00833453888763,0.705789925328,0.708361134643
1385574965031822164,1204385,1385574965031822164,/world,vicon/Archie/Archie,0.163077763693,0.0849348569702,0.113910657998,-0.00397024359689,-0.00832027879529,0.705793250715,0.708357887915
1385574965042324355,1204386,1385574965042324355,/world,vicon/Archie/Archie,0.163075571374,0.0849295546344,0.113917440884,-0.00395586471193,-0.00833282721388,0.70580102259,0.708350077035
1385574965051782150,1204387,1385574965051782150,/world,vicon/Archie/Archie,0.163090572988,0.0849305382067,0.113944110265,-0.00385380748612,-0.00836318132416,0.705775718539,0.708375493991
1385574965061801758,1204388,1385574965061801758,/world,vicon/Archie/Archie,0.163069742741,0.0849435585732,0.11393148998,-0.00394227501527,-0.00829145495563,0.705795122392,0.708356517193
1385574965071779350,1204389,1385574965071779350,/world,vicon/Archie/Archie,0.163072449891,0.0849405525023,0.113916010491,-0.0039631003333,-0.00833270780754,0.705793998467,0.708357036772
1385574965081907777,1204390,1385574965081907777,/world,vicon/Archie/Archie,0.163069852437,0.0849378996606,0.113923314809,-0.00395697717359,-0.0082798936603,0.705801697145,0.708350019411
1385574965091952896,1204391,1385574965091952896,/world,vicon/Archie/Archie,0.163070460997,0.0849341069602,0.113927042447,-0.00395889159051,-0.00827611619238,0.705789331697,0.708362373607
1385574965101798647,1204392,1385574965101798647,/world,vicon/Archie/Archie,0.163027713114,0.084950426162,0.113878683622,-0.0037790595258,-0.0085007853413,0.705748131553,0.708401743481
1385574965111794960,1204393,1385574965111794960,/world,vicon/Archie/Archie,0.163072498327,0.0849326174324,0.113919912681,-0.00394317687802,-0.00832815535233,0.705793635758,0.708357562893
1385574965121826215,1204394,1385574965121826215,/world,vicon/Archie/Archie,0.163071817775,0.0849387898121,0.113924635048,-0.00396470848539,-0.00826689310742,0.705789540163,0.708362241062
1385574965131837713,1204395,1385574965131837713,/world,vicon/Archie/Archie,0.163092100027,0.0849241512339,0.113950036056,-0.00384958666172,-0.00835388539911,0.705786880466,0.708364505493
1385574965141958214,1204396,1385574965141958214,/world,vicon/Archie/Archie,0.163081655188,0.0849305785888,0.113915645598,-0.00396712422078,-0.00832436590126,0.705795031134,0.708356083396
1385574965151850846,1204397,1385574965151850846,/world,vicon/Archie/Archie,0.163046182691,0.0849453474978,0.113907054607,-0.0036505185683,-0.008599981893,0.705733630316,0.708415666869
1385574965161896053,1204398,1385574965161896053,/world,vicon/Archie/Archie,0.163077975529,0.0849330498703,0.113908958554,-0.00396246366345,-0.00832843428027,0.705792800794,0.70835828393
1385574965171692833,1204399,1385574965171692833,/world,vicon/Archie/Archie,0.163035391403,0.0849560731013,0.113873813573,-0.00376698492105,-0.00854810495981,0.70575269843,0.708396688575
1385574965181918492,1204400,1385574965181918492,/world,vicon/Archie/Archie,0.163078442484,0.0849441384403,0.113931590358,-0.00395355216464,-0.00829852677584,0.705778023967,0.70837340772
1385574965191920809,1204401,1385574965191920809,/world,vicon/Archie/Archie,0.163071522482,0.0849467572659,0.113930414839,-0.0039366779662,-0.00828805480471,0.70578899189,0.708362696393
1385574965201835979,1204402,1385574965201835979,/world,vicon/Archie/Archie,0.163079668995,0.0849361822192,0.113912461879,-0.00396081315898,-0.00832870792538,0.70579413017,0.708356965379
1385574965211804437,1204403,1385574965211804437,/world,vicon/Archie/Archie,0.163072598334,0.0849473879701,0.113931522057,-0.00393854677261,-0.00827711717164,0.705786576535,0.708365220464
1385574965221642811,1204404,1385574965221642811,/world,vicon/Archie/Archie,0.163033477315,0.0849502472119,0.113863027975,-0.00378596772364,-0.00857235611936,0.705761482667,0.708387542764
1385574965231906154,1204405,1385574965231906154,/world,vicon/Archie/Archie,0.163068768428,0.0849443837724,0.113911993897,-0.00395336769642,-0.00832965816285,0.705794085897,0.708357039911
1385574965241931901,1204406,1385574965241931901,/world,vicon/Archie/Archie,0.16308257824,0.0849399245344,0.113930203099,-0.00394978393677,-0.00826919925963,0.705793959115,0.70835789459
1385574965251788783,1204407,1385574965251788783,/world,vicon/Archie/Archie,0.16308829637,0.0849309439055,0.11394532526,-0.00382855033358,-0.00842946898371,0.705787392302,0.708363214123
1385574965262184359,1204408,1385574965262184359,/world,vicon/Archie/Archie,0.16307392196,0.084936552668,0.113911119935,-0.00396245290035,-0.00832962225918,0.705796658455,0.708354426311
1385574965271759162,1204409,1385574965271759162,/world,vicon/Archie/Archie,0.163074883492,0.0849340714142,0.113919544278,-0.00394667237896,-0.00832587985306,0.705798867092,0.708352357739
1385574965281879907,1204410,1385574965281879907,/world,vicon/Archie/Archie,0.163076774016,0.0849401380978,0.113935107421,-0.00393196877494,-0.00827117308644,0.705796288841,0.708355649357
1385574965291835233,1204411,1385574965291835233,/world,vicon/Archie/Archie,0.163022423398,0.084966597808,0.113880530635,-0.00377593802995,-0.00849340129098,0.705755769848,0.708394238932
1385574965301993803,1204412,1385574965301993803,/world,vicon/Archie/Archie,0.163073681504,0.0849508378193,0.113914853599,-0.00395643056781,-0.0083216733447,0.705790922115,0.70836026898
1385574965311910546,1204413,1385574965311910546,/world,vicon/Archie/Archie,0.163091061684,0.0849227451405,0.113944359965,-0.00383198919624,-0.00840441682677,0.705795262391,0.708355651649
1385574965321961807,1204414,1385574965321961807,/world,vicon/Archie/Archie,0.163072742325,0.0849339948195,0.113913158595,-0.00395162955427,-0.00832884884678,0.70579448981,0.708356656674
1385574965331883925,1204415,1385574965331883925,/world,vicon/Archie/Archie,0.163063732737,0.0849450890939,0.113933220153,-0.00394018505969,-0.00829103032969,0.705801262416,0.708350415917
1385574965341896872,1204416,1385574965341896872,/world,vicon/Archie/Archie,0.163064736551,0.0849399568445,0.113917529327,-0.00394415436164,-0.00829568017422,0.70579133008,0.708360235841
1385574965351959905,1204417,1385574965351959905,/world,vicon/Archie/Archie,0.163072093501,0.084944728025,0.113935565994,-0.00392778042347,-0.00829390028273,0.705802261165,0.708349456055
1385574965361954853,1204418,1385574965361954853,/world,vicon/Archie/Archie,0.163071433722,0.0849418648876,0.113919150433,-0.00394293073644,-0.00832790737201,0.705805504366,0.708345741332
1385574965371755528,1204419,1385574965371755528,/world,vicon/Archie/Archie,0.16307655187,0.0849394137403,0.113910494671,-0.00395897013004,-0.00834494283285,0.705805579153,0.708345376862
1385574965381947598,1204420,1385574965381947598,/world,vicon/Archie/Archie,0.163067783394,0.0849401930602,0.113924560709,-0.0039295600672,-0.00830741595664,0.705799127554,0.708352410133
1385574965391913356,1204421,1385574965391913356,/world,vicon/Archie/Archie,0.163086879871,0.0849246583282,0.11393963231,-0.0038379827262,-0.00840816562004,0.70579608293,0.708354757138
1385574965401868683,1204422,1385574965401868683,/world,vicon/Archie/Archie,0.163081998147,0.0849383438033,0.11391551091,-0.00395425862836,-0.00833318925891,0.705801083977,0.708350020578
1385574965411776498,1204423,1385574965411776498,/world,vicon/Archie/Archie,0.163068489339,0.0849385472898,0.113933967606,-0.00394976353711,-0.00827253070443,0.705792680294,0.708359129995
1385574965421773774,1204424,1385574965421773774,/world,vicon/Archie/Archie,0.163073790116,0.0849415071041,0.113912493965,-0.00396794828942,-0.00832753305372,0.705789651485,0.708361401712
1385574965431936408,1204425,1385574965431936408,/world,vicon/Archie/Archie,0.163076768634,0.0849381993857,0.113910086717,-0.00396034090549,-0.00831893666493,0.705798642992,0.708352586318
1385574965441927254,1204426,1385574965441927254,/world,vicon/Archie/Archie,0.163070187165,0.0849438796301,0.113926835538,-0.00394877839703,-0.00827049970731,0.705790574417,0.708361257444
1385574965451805608,1204427,1385574965451805608,/world,vicon/Archie/Archie,0.163073534642,0.0849465086886,0.113915767842,-0.00397094183752,-0.00828280856933,0.705780913786,0.708370615172
1385574965461830343,1204428,1385574965461830343,/world,vicon/Archie/Archie,0.163087681377,0.0849299784992,0.113940790283,-0.0038361047314,-0.00840969563715,0.705781744336,0.70836903566
1385574965471888050,1204429,1385574965471888050,/world,vicon/Archie/Archie,0.163077492669,0.0849477118993,0.113930111554,-0.00394192967144,-0.00825222098121,0.705776931733,0.708375101674
1385574965481949862,1204430,1385574965481949862,/world,vicon/Archie/Archie,0.163087438135,0.0849285541475,0.11393962993,-0.00385313116611,-0.00843338655144,0.705800131664,0.708350340944
1385574965491840959,1204431,1385574965491840959,/world,vicon/Archie/Archie,0.163041950905,0.084937551488,0.113895056466,-0.00365297266921,-0.00866799243656,0.705760031245,0.708388523337
1385574965501849727,1204432,1385574965501849727,/world,vicon/Archie/Archie,0.163071184523,0.084939855745,0.113927117845,-0.00396808732598,-0.00826350034725,0.705792940253,0.708358873972
1385574965511749132,1204433,1385574965511749132,/world,vicon/Archie/Archie,0.163063173038,0.0849515671683,0.113925686695,-0.00392768333232,-0.00825047625658,0.705791999178,0.708360188634
1385574965521703470,1204434,1385574965521703470,/world,vicon/Archie/Archie,0.163039064684,0.0849402435655,0.113893726394,-0.00365660318084,-0.0086345333039,0.705757540079,0.708391395141
1385574965531828737,1204435,1385574965531828737,/world,vicon/Archie/Archie,0.163095741168,0.0849215118376,0.113939858902,-0.00383195787675,-0.00841103371031,0.705790204823,0.708360612532
1385574965542095558,1204436,1385574965542095558,/world,vicon/Archie/Archie,0.163031692137,0.0849553537541,0.11386298684,-0.0037881746419,-0.00856026483756,0.705753190758,0.708395938253
1385574965551921869,1204437,1385574965551921869,/world,vicon/Archie/Archie,0.163069648203,0.0849457987738,0.11392472104,-0.00393908897161,-0.00831111174571,0.705798424204,0.708353014669
1385574965561736237,1204438,1385574965561736237,/world,vicon/Archie/Archie,0.16306396603,0.0849508435587,0.113929842013,-0.00394033764031,-0.0082722588167,0.705786551902,0.708365291801
1385574965571755618,1204439,1385574965571755618,/world,vicon/Archie/Archie,0.163073066443,0.0849513897214,0.113924331694,-0.00396062013452,-0.00827188570736,0.705788317616,0.708363423754
1385574965581842110,1204440,1385574965581842110,/world,vicon/Archie/Archie,0.163072965597,0.0849431650144,0.11391335556,-0.0039520317473,-0.00832600796825,0.705791856426,0.708359311677
1385574965591879641,1204441,1385574965591879641,/world,vicon/Archie/Archie,0.163072541388,0.0849464315898,0.113929228728,-0.00394181642569,-0.00827139764581,0.705787463953,0.708364384897
1385574965601808742,1204442,1385574965601808742,/world,vicon/Archie/Archie,0.163080524988,0.0849320675472,0.113919204727,-0.0039399090992,-0.00833281317745,0.705801692622,0.708349498505
1385574965611915664,1204443,1385574965611915664,/world,vicon/Archie/Archie,0.163075879417,0.0849420702659,0.11392284758,-0.003961274889,-0.00828397207719,0.705791163126,0.708360443674
1385574965621747010,1204444,1385574965621747010,/world,vicon/Archie/Archie,0.16308168571,0.0849343289635,0.113916285043,-0.00393960807795,-0.0083364732362,0.705796360957,0.708354769563
1385574965631861442,1204445,1385574965631861442,/world,vicon/Archie/Archie,0.163083367706,0.0849389724238,0.113918357332,-0.00395632437649,-0.00832075365386,0.705797921984,0.708353305829
1385574965643122304,1204446,1385574965643122304,/world,vicon/Archie/Archie,0.163075470693,0.0849423027063,0.113921636024,-0.00394199747798,-0.00834350394109,0.705804674623,0.708346389754
1385574965651845620,1204447,1385574965651845620,/world,vicon/Archie/Archie,0.163072542605,0.0849429520004,0.113934046364,-0.0039562868899,-0.00826059675937,0.70579470344,0.708357217039
1385574965661851069,1204448,1385574965661851069,/world,vicon/Archie/Archie,0.163075996342,0.0849377363819,0.113913951796,-0.00395499379043,-0.00832238016959,0.705789088789,0.708362095371
1385574965672142390,1204449,1385574965672142390,/world,vicon/Archie/Archie,0.163075080124,0.0849386788334,0.113928537521,-0.00394148187091,-0.00827784716335,0.705790314868,0.708361470865
1385574965681852168,1204450,1385574965681852168,/world,vicon/Archie/Archie,0.163085786527,0.0849385769102,0.113951355275,-0.00385088776119,-0.00835529829531,0.705772790601,0.708378520074
1385574965691837379,1204451,1385574965691837379,/world,vicon/Archie/Archie,0.163069939684,0.0849507744644,0.113933980259,-0.00393774509805,-0.00827691434064,0.705790755054,0.708361063959
1385574965701833882,1204452,1385574965701833882,/world,vicon/Archie/Archie,0.163075901024,0.0849353555212,0.113914913777,-0.00395822180851,-0.00832519474719,0.705789612072,0.708361522885
1385574965712321188,1204453,1385574965712321188,/world,vicon/Archie/Archie,0.163093845889,0.0849289144093,0.113935510297,-0.00385706144546,-0.00839744198317,0.705789191842,0.708361646847
1385574965721790093,1204454,1385574965721790093,/world,vicon/Archie/Archie,0.16308115469,0.0849430381304,0.113932649842,-0.00395587462854,-0.00826090388995,0.705789807322,0.708362094132
1385574965732552265,1204455,1385574965732552265,/world,vicon/Archie/Archie,0.163075322159,0.0849509416944,0.11392792294,-0.00393753881773,-0.00827692361637,0.70578719321,0.708364613899
1385574965742667234,1204456,1385574965742667234,/world,vicon/Archie/Archie,0.16307716691,0.0849393581891,0.113933148516,-0.00395741836838,-0.00826958114577,0.705787162175,0.708364619794
1385574965751825252,1204457,1385574965751825252,/world,vicon/Archie/Archie,0.16306950692,0.0849381028743,0.113933186959,-0.00393765973375,-0.00827477555842,0.705781512768,0.70837029805
1385574965761860955,1204458,1385574965761860955,/world,vicon/Archie/Archie,0.16302601514,0.0849508653647,0.11388049828,-0.00377182825473,-0.00850980982471,0.705752442158,0.708397379185
1385574965771820839,1204459,1385574965771820839,/world,vicon/Archie/Archie,0.163076983471,0.0849316773394,0.113913314408,-0.0039723485525,-0.00832432650351,0.705801484814,0.708349624175
1385574965781842376,1204460,1385574965781842376,/world,vicon/Archie/Archie,0.163091453843,0.0849198445474,0.11393887885,-0.00384802336878,-0.00842970578564,0.705798432745,0.70835210532
1385574965791978901,1204461,1385574965791978901,/world,vicon/Archie/Archie,0.163073820242,0.0849362439856,0.113915580164,-0.00394562481855,-0.00833297401471,0.705790958405,0.708360160245
1385574965801775754,1204462,1385574965801775754,/world,vicon/Archie/Archie,0.163067372701,0.0849418522533,0.113932859541,-0.00393628589832,-0.00829341032483,0.70579519644,0.708356453829
1385574965811913586,1204463,1385574965811913586,/world,vicon/Archie/Archie,0.163079641998,0.0849313308674,0.113932160242,-0.00394461115672,-0.0082856618877,0.705793693591,0.708357995605
1385574965821859653,1204464,1385574965821859653,/world,vicon/Archie/Archie,0.163072501827,0.0849439257648,0.11393080719,-0.00394076105705,-0.00829506123075,0.705788801908,0.70836278097
1385574965831818416,1204465,1385574965831818416,/world,vicon/Archie/Archie,0.163067810283,0.0849367737762,0.113916932266,-0.00394515309494,-0.00827979859675,0.705799909721,0.708351867464
1385574965841885280,1204466,1385574965841885280,/world,vicon/Archie/Archie,0.163066554618,0.0849368415701,0.113922234798,-0.00393561429553,-0.00830152799213,0.705800023439,0.708351552893
1385574965851959915,1204467,1385574965851959915,/world,vicon/Archie/Archie,0.16306768271,0.0849356682553,0.113925082124,-0.00394880819007,-0.00828391624516,0.705808263191,0.708343475481
1385574965861860730,1204468,1385574965861860730,/world,vicon/Archie/Archie,0.163073757722,0.084940224749,0.113914392628,-0.00395075876836,-0.00833210583184,0.705786590914,0.708364493466
1385574965871756093,1204469,1385574965871756093,/world,vicon/Archie/Archie,0.163083718182,0.0849384087697,0.113908431778,-0.00395196846107,-0.00832968947156,0.70578964356,0.708361473587
1385574965881822120,1204470,1385574965881822120,/world,vicon/Archie/Archie,0.163069063782,0.0849510562947,0.113926233673,-0.00394836602729,-0.00827911873231,0.705792709532,0.708359031685
1385574965891907030,1204471,1385574965891907030,/world,vicon/Archie/Archie,0.163063385208,0.0849435565344,0.113929409745,-0.00393697256134,-0.0082915003127,0.7057967171,0.708354957208
1385574965901802327,1204472,1385574965901802327,/world,vicon/Archie/Archie,0.163089447115,0.0849278837257,0.113929639513,-0.00385487379725,-0.00842323920499,0.705787906024,0.708362633614
1385574965911910608,1204473,1385574965911910608,/world,vicon/Archie/Archie,0.163073926516,0.0849401052283,0.113916941424,-0.00395094597414,-0.00835650561626,0.705796034778,0.708354795376
1385574965921693716,1204474,1385574965921693716,/world,vicon/Archie/Archie,0.1630742748,0.0849385630541,0.113917193384,-0.00395033177631,-0.00834197812178,0.705798345564,0.708352667588
1385574965931863091,1204475,1385574965931863091,/world,vicon/Archie/Archie,0.163076662192,0.0849451848597,0.113910388878,-0.00396320453545,-0.00831728717521,0.705793463191,0.70835775076
1385574965941930049,1204476,1385574965941930049,/world,vicon/Archie/Archie,0.163066651766,0.0849406934524,0.113929435832,-0.00393923352928,-0.00829265351964,0.705778826292,0.708372756884
1385574965951737400,1204477,1385574965951737400,/world,vicon/Archie/Archie,0.163027892268,0.0849489379863,0.113864319643,-0.00378116715305,-0.00855657314544,0.705750956614,0.708398246094
1385574965961999430,1204478,1385574965961999430,/world,vicon/Archie/Archie,0.163069972754,0.0849299604322,0.113924114837,-0.00395219251135,-0.0083412610507,0.705803474776,0.7083475549
1385574965971762604,1204479,1385574965971762604,/world,vicon/Archie/Archie,0.163086186166,0.0849338793269,0.113962286372,-0.00381182481997,-0.00836511888618,0.705776776699,0.708374643991
1385574965981975650,1204480,1385574965981975650,/world,vicon/Archie/Archie,0.163075256624,0.0849328767869,0.113919833594,-0.00394449581727,-0.00832931736142,0.705797704563,0.708353487786
1385574965991924520,1204481,1385574965991924520,/world,vicon/Archie/Archie,0.163076187342,0.084933612858,0.113921299586,-0.00396261118489,-0.00826440351536,0.705802143156,0.708349724405
1385574966001738516,1204482,1385574966001738516,/world,vicon/Archie/Archie,0.163025825852,0.0849544352951,0.113873564308,-0.00378318102103,-0.00851076653569,0.7057463465,0.70840338
1385574966011881978,1204483,1385574966011881978,/world,vicon/Archie/Archie,0.163064900297,0.0849310522616,0.113902483635,-0.00394968204959,-0.00830079837529,0.705798310926,0.708353189484
1385574966021790792,1204484,1385574966021790792,/world,vicon/Archie/Archie,0.163075095243,0.0849341137392,0.11393247398,-0.00395717833031,-0.00825244388136,0.705791828653,0.708360171463
1385574966031919901,1204485,1385574966031919901,/world,vicon/Archie/Archie,0.163072284301,0.0849379465717,0.113927767404,-0.00395495478982,-0.00827518089844,0.705782201522,0.708369510728
1385574966041915319,1204486,1385574966041915319,/world,vicon/Archie/Archie,0.163070925978,0.0849374377801,0.11393181335,-0.00394471888859,-0.00829191558105,0.705803752404,0.708347899285
1385574966051808268,1204487,1385574966051808268,/world,vicon/Archie/Archie,0.163073300494,0.0849358905294,0.113919652527,-0.00397241231087,-0.00831951574306,0.705792275992,0.708358855912
1385574966061790114,1204488,1385574966061790114,/world,vicon/Archie/Archie,0.163075037394,0.0849356277133,0.11392327377,-0.00394698830633,-0.00827937567328,0.705797054026,0.708354707579
1385574966071797273,1204489,1385574966071797273,/world,vicon/Archie/Archie,0.163076072343,0.0849396837428,0.113930449549,-0.00394285882004,-0.00826611800473,0.70578547315,0.70836642428
1385574966081910775,1204490,1385574966081910775,/world,vicon/Archie/Archie,0.163073654882,0.0849395665848,0.113926343004,-0.00393631810704,-0.00829168355941,0.705787048546,0.708364592204
1385574966091936552,1204491,1385574966091936552,/world,vicon/Archie/Archie,0.163074816642,0.0849352618815,0.113927444299,-0.00395157158761,-0.00827786568685,0.70580003072,0.708351733715
1385574966101746049,1204492,1385574966101746049,/world,vicon/Archie/Archie,0.163070771361,0.0849415250339,0.113921336282,-0.0039543079137,-0.00828337306919,0.705787255197,0.708364383337
1385574966111860942,1204493,1385574966111860942,/world,vicon/Archie/Archie,0.163043611549,0.0849373435779,0.113908667743,-0.00364411816712,-0.00857127948294,0.705749091011,0.708400645192
1385574966122090322,1204494,1385574966122090322,/world,vicon/Archie/Archie,0.163073602685,0.0849460012615,0.113929347659,-0.00394028886958,-0.00827043559761,0.705787270622,0.708364597257
1385574966131934614,1204495,1385574966131934614,/world,vicon/Archie/Archie,0.163072786179,0.0849319028635,0.113908246233,-0.00395396665959,-0.00834104628402,0.70579753847,0.708353462464
1385574966141902545,1204496,1385574966141902545,/world,vicon/Archie/Archie,0.163022218293,0.0849528978472,0.113875651494,-0.00376345025773,-0.00851201708363,0.70575697469,0.708392881587
1385574966152564035,1204497,1385574966152564035,/world,vicon/Archie/Archie,0.163077101287,0.0849463249961,0.113921925155,-0.00395572475927,-0.0082816027616,0.705788237558,0.708363417337
1385574966161898457,1204498,1385574966161898457,/world,vicon/Archie/Archie,0.163028423042,0.0849514258633,0.113878400679,-0.00377634554668,-0.0085187246931,0.705755593149,0.708394108729
1385574966171833167,1204499,1385574966171833167,/world,vicon/Archie/Archie,0.163045600702,0.0849427697287,0.113906863552,-0.00364041465876,-0.0086234424154,0.705747619846,0.708401496825
1385574966182003550,1204500,1385574966182003550,/world,vicon/Archie/Archie,0.16308733696,0.0849298798413,0.113950680573,-0.0038302579819,-0.00837067027424,0.705789727471,0.708361575468
1385574966191982734,1204501,1385574966191982734,/world,vicon/Archie/Archie,0.163066260062,0.0849412922943,0.113927720996,-0.00396385078472,-0.00826837535172,0.705793722889,0.708358061002
1385574966201848640,1204502,1385574966201848640,/world,vicon/Archie/Archie,0.16307146997,0.0849432887534,0.113926736301,-0.00393351710435,-0.00829468105461,0.705796819316,0.708354837319
1385574966211880576,1204503,1385574966211880576,/world,vicon/Archie/Archie,0.163067513897,0.0849474488689,0.11391444906,-0.00394249449263,-0.0082536789912,0.705796546871,0.708355537809
1385574966221880577,1204504,1385574966221880577,/world,vicon/Archie/Archie,0.163075603802,0.0849386348699,0.113916487822,-0.00396864571636,-0.00828028790294,0.705784259341,0.708367324169
1385574966231848770,1204505,1385574966231848770,/world,vicon/Archie/Archie,0.163024988106,0.0849604451852,0.113875200927,-0.00377436029467,-0.00852455467006,0.705748585039,0.708401031117
1385574966242035685,1204506,1385574966242035685,/world,vicon/Archie/Archie,0.163090019043,0.0849210626179,0.113950835955,-0.00383770899174,-0.00835917814354,0.705778352867,0.708373003971
1385574966251926612,1204507,1385574966251926612,/world,vicon/Archie/Archie,0.163074381028,0.08493001806,0.113916030068,-0.00394055660528,-0.0083564589264,0.705800639413,0.708350265767
1385574966261967965,1204508,1385574966261967965,/world,vicon/Archie/Archie,0.163097093336,0.0849220508687,0.113943413792,-0.00384622389537,-0.00840147051373,0.705798590236,0.70835229362
1385574966271872938,1204509,1385574966271872938,/world,vicon/Archie/Archie,0.163087710578,0.0849274315416,0.11391034948,-0.00397314570037,-0.00831123526362,0.705805778335,0.708345495327
1385574966281860493,1204510,1385574966281860493,/world,vicon/Archie/Archie,0.16307138663,0.0849357390288,0.113909983768,-0.00395558358676,-0.00832383801335,0.705805629311,0.708345594122
1385574966291900915,1204511,1385574966291900915,/world,vicon/Archie/Archie,0.163077868085,0.0849348750197,0.113919887841,-0.00394951081543,-0.00827879890428,0.705797794088,0.70835396287
1385574966302086675,1204512,1385574966302086675,/world,vicon/Archie/Archie,0.163086128416,0.0849233553298,0.113955222917,-0.00383671505698,-0.0083480820324,0.70578982897,0.708361705957
1385574966311880065,1204513,1385574966311880065,/world,vicon/Archie/Archie,0.163074822821,0.0849337734673,0.113926509412,-0.00394043341451,-0.00826321369954,0.705789199297,0.708362759071
1385574966321990867,1204514,1385574966321990867,/world,vicon/Archie/Archie,0.163070884214,0.0849374103719,0.113929546913,-0.0039572648003,-0.00827945707231,0.705792924493,0.708358763891
1385574966331874800,1204515,1385574966331874800,/world,vicon/Archie/Archie,0.163084769208,0.0849300620325,0.113957161125,-0.00381690961054,-0.00836483378434,0.70579176917,0.708359682173
1385574966342022176,1204516,1385574966342022176,/world,vicon/Archie/Archie,0.163068094167,0.0849437479402,0.113920197769,-0.00395676145231,-0.00827604391154,0.705789513658,0.708362205052
1385574966351813915,1204517,1385574966351813915,/world,vicon/Archie/Archie,0.163080733368,0.0849354904659,0.113928430571,-0.0039420953966,-0.00825810401478,0.705787368911,0.708364633143
1385574966361847598,1204518,1385574966361847598,/world,vicon/Archie/Archie,0.163076647754,0.0849297065722,0.113921573085,-0.00396525023563,-0.00827208867564,0.705797281706,0.708354463864
1385574966371851084,1204519,1385574966371851084,/world,vicon/Archie/Archie,0.163083159715,0.0849283085707,0.113925233348,-0.00394531212199,-0.00828640341405,0.705793388018,0.708358287494
1385574966382540524,1204520,1385574966382540524,/world,vicon/Archie/Archie,0.163074413675,0.0849337116384,0.113926258945,-0.00395364435786,-0.00827597296976,0.705789083106,0.708362652274
1385574966391861443,1204521,1385574966391861443,/world,vicon/Archie/Archie,0.163050866546,0.0849317478427,0.113886976662,-0.00365762092731,-0.00863022662685,0.705736011939,0.708412889811
1385574966401892713,1204522,1385574966401892713,/world,vicon/Archie/Archie,0.163083879356,0.0849298630483,0.113910389722,-0.00396781581405,-0.00830769860838,0.705803175355,0.708348160328
1385574966411896239,1204523,1385574966411896239,/world,vicon/Archie/Archie,0.16308077674,0.0849377077277,0.113919010678,-0.00395128480316,-0.00831747736346,0.705793214627,0.70835806278
1385574966421790240,1204524,1385574966421790240,/world,vicon/Archie/Archie,0.163068510659,0.0849384110691,0.113934891199,-0.00393472434683,-0.00827001123637,0.705798101386,0.70835384162
1385574966431887688,1204525,1385574966431887688,/world,vicon/Archie/Archie,0.163071566462,0.0849366024953,0.113918822053,-0.00397814510193,-0.00826011722971,0.705789508211,0.70836227661
1385574966441947821,1204526,1385574966441947821,/world,vicon/Archie/Archie,0.16302842068,0.084946052826,0.113858587989,-0.00378509875224,-0.00856807610584,0.705761537841,0.708387544218
1385574966451883260,1204527,1385574966451883260,/world,vicon/Archie/Archie,0.163083032691,0.0849275535623,0.113910559747,-0.00396367179945,-0.00832775449143,0.705803498565,0.708347625975
1385574966461843663,1204528,1385574966461843663,/world,vicon/Archie/Archie,0.16307750933,0.0849289188206,0.11390855781,-0.00395940826937,-0.00832967656868,0.705798089838,0.708353016479
1385574966471861480,1204529,1385574966471861480,/world,vicon/Archie/Archie,0.163068557345,0.0849431502817,0.113925159361,-0.00393834329491,-0.00828571609685,0.705793853073,0.708357870942
1385574966481935468,1204530,1385574966481935468,/world,vicon/Archie/Archie,0.163076850875,0.0849374475874,0.113923480759,-0.00394248321969,-0.00828364695793,0.705795158371,0.708356571536
1385574966491931274,1204531,1385574966491931274,/world,vicon/Archie/Archie,0.163074302415,0.084936896497,0.113906352822,-0.00396594724476,-0.00833883312601,0.705793208343,0.708357736021
1385574966501925484,1204532,1385574966501925484,/world,vicon/Archie/Archie,0.163081404663,0.0849299272557,0.1139210669,-0.00394824428681,-0.00832462908662,0.705794512602,0.708356702445
1385574966512417882,1204533,1385574966512417882,/world,vicon/Archie/Archie,0.163083307393,0.0849314340518,0.113917219925,-0.00394965906685,-0.0083332536081,0.705797324765,0.708353791147
1385574966521551241,1204534,1385574966521551241,/world,vicon/Archie/Archie,0.163086763972,0.0849232416283,0.113951995578,-0.00384011122467,-0.00837974326795,0.705778334436,0.708372766337
1385574966532056124,1204535,1385574966532056124,/world,vicon/Archie/Archie,0.163080411676,0.0849366940554,0.113915669924,-0.00394220076102,-0.0083424919236,0.705792682542,0.70835834939
1385574966541890107,1204536,1385574966541890107,/world,vicon/Archie/Archie,0.163075746505,0.0849347837137,0.113905443876,-0.00397132695773,-0.00831749789453,0.705790346474,0.708360808215
1385574966551848210,1204537,1385574966551848210,/world,vicon/Archie/Archie,0.163073560226,0.0849386593104,0.113926762803,-0.0039525454273,-0.00828094325684,0.70580210524,0.708349625257
1385574966561979927,1204538,1385574966561979927,/world,vicon/Archie/Archie,0.163067745019,0.0849374326106,0.113924021116,-0.00395874270811,-0.00826456050221,0.705789072806,0.708362767304
1385574966571773807,1204539,1385574966571773807,/world,vicon/Archie/Archie,0.163080414446,0.0849275606771,0.113919962639,-0.00393597381128,-0.00834159960532,0.705806984007,0.708344144574
1385574966581833122,1204540,1385574966581833122,/world,vicon/Archie/Archie,0.16307419433,0.0849343937095,0.113915261142,-0.00398083903192,-0.00832745621732,0.705802056334,0.70834897026
1385574966591921722,1204541,1385574966591921722,/world,vicon/Archie/Archie,0.163085503045,0.0849195346978,0.11393667735,-0.0038572423222,-0.00841168922332,0.705790401139,0.708360271914
1385574966601914696,1204542,1385574966601914696,/world,vicon/Archie/Archie,0.163071028276,0.0849380818577,0.11392453713,-0.00394838047758,-0.00828095488336,0.705791730854,0.708359985273
1385574966611738791,1204543,1385574966611738791,/world,vicon/Archie/Archie,0.163070399393,0.0849402729566,0.113918580979,-0.00394881467578,-0.00827481797488,0.705792259133,0.708359528204
1385574966621902719,1204544,1385574966621902719,/world,vicon/Archie/Archie,0.163076085277,0.0849306784454,0.11391963056,-0.00395416269695,-0.00833968206789,0.705804427482,0.708346613211
1385574966631922410,1204545,1385574966631922410,/world,vicon/Archie/Archie,0.163080917314,0.0849344680255,0.113913461133,-0.00395779927936,-0.00832927612077,0.705797934921,0.708353184538
1385574966641868934,1204546,1385574966641868934,/world,vicon/Archie/Archie,0.163070560742,0.084942128534,0.113922914374,-0.00395057900658,-0.00826906859693,0.705802478326,0.708349403203
1385574966651763133,1204547,1385574966651763133,/world,vicon/Archie/Archie,0.163075592294,0.0849322799956,0.113906181359,-0.00396281022542,-0.00832181834313,0.705801563058,0.70834962911
