%time,field.linear.x,field.linear.y,field.linear.z,field.angular.x,field.angular.y,field.angular.z
1385570988844640700,-0.0,0.0,0.0,1.0,0.0,0.0
1385570989334207431,-0.0,0.0,9.06787044086e-08,1.0,0.0,0.283690762114
1385570989834633769,-0.107780222304,0.0421075453563,-0.00319461268313,1.0,0.0,0.075992635807
1385570990334057834,-0.028000234752,0.0105976098649,0.0198221712265,1.0,0.0,0.00310205592435
1385570990834397803,0.0349488002639,-0.0142998862784,0.0429068444129,1.0,0.0,0.000989325311804
1385570991334681872,0.0177442704282,-0.00721113406352,0.0687983305999,1.0,0.0,0.00619896847824
1385570991834281183,-0.0247052533702,0.0107277769193,0.0949833223336,1.0,0.0,0.00566839834628
1385570992333814558,-0.0307324404716,0.0119125739002,0.116630698497,1.0,0.0,-0.00214098756147
1385570992834560190,-0.0175021612455,0.0138530244069,0.0997557358462,1.0,0.0,-0.00243846194451
1385570993334525744,-0.034777754704,0.015293438082,0.0798822796469,1.0,0.0,-0.00242180085639
1385570993834546031,-0.0520361137839,0.00939847377772,0.111554647341,1.0,0.0,-0.00301021573595
1385570994334569016,-0.0559998505879,-0.00219131131441,0.144940176916,1.0,0.0,-0.0035371509967
1385570994834488146,-0.0461709578207,-0.00659054705238,0.146235550215,1.0,0.0,-0.00393264089456
1385570995334413406,-0.0384655030675,-0.0106500141992,0.138396304862,1.0,0.0,-0.00312085753869
1385570995834721674,-0.0399878115669,-0.00697918818122,0.121443981564,1.0,0.0,-0.00216328935344
1385570996334714068,-0.0473252365825,-0.00441698868034,0.102637226989,1.0,0.0,0.000171634018641
1385570996834381185,-0.0491180385602,-0.00257569876318,0.0886161089589,1.0,0.0,0.00320663270838
1385570997334441238,-0.0424648783514,0.000842610027917,0.0738579489095,1.0,0.0,0.00546900172889
1385570997834420671,-0.0326348886825,0.0061774223724,0.0615748137027,1.0,0.0,0.00632798829958
1385570998334663298,-0.0266494005826,0.00956824921843,0.0514648117565,1.0,0.0,0.00615185268366
1385570998834466060,-0.0267498679919,0.00631992343688,0.0427556727165,1.0,0.0,0.00554510895435
1385570999334061881,-0.0303991127618,-0.00198994598373,0.0367365217603,1.0,0.0,0.00541215965555
1385570999833909136,-0.0310487401812,-0.00894102813845,0.0321526032463,1.0,0.0,0.00541910397348
1385571000333998248,-0.027626738751,-0.0105909513035,0.0279705101167,1.0,0.0,0.00501490850752
1385571000834294404,-0.0217611038307,-0.00772057871278,0.0249609751995,1.0,0.0,0.00500694202268
1385571001333890692,-0.0178033345569,-0.00347237534355,0.0218299850804,1.0,0.0,0.00554438490509
1385571001834073247,-0.0181734647047,-0.00151587461072,0.0199483451345,1.0,0.0,0.00618434533123
1385571002334621700,-0.0196858017697,-0.00367663603523,0.0181289061675,1.0,0.0,0.00641668123595
1385571002833792600,-0.0205604120932,-0.00654728942548,0.0162840688876,1.0,0.0,0.00561380640198
1385571003334107230,-0.0202743335509,-0.00807894932007,0.0153279849267,1.0,0.0,0.00408394051341
1385571003834033509,-0.019289340474,-0.00812841175472,0.0143325100953,1.0,0.0,0.00219824882267
1385571004334509065,-0.0182341555311,-0.00626268554625,0.012690690602,1.0,0.0,0.00055865087201
1385571004834354630,-0.018822562501,-0.00300472311202,0.0122013343242,1.0,0.0,-0.00220700756819
1385571005334414712,-0.0186949074869,-0.00291331828834,0.0113679303091,1.0,0.0,-0.00455550062608
1385571005834445311,-0.0176483919739,-0.00394914632593,0.00954864788324,1.0,0.0,-0.00676271278582
1385571006334326989,-0.0164407012295,-0.00230808505519,0.00834245508587,1.0,0.0,-0.0096052221674
1385571006834326532,-0.0144471798324,-0.00337927869095,0.00707670656354,1.0,0.0,-0.0118351925488
1385571007334303644,-0.0123475874782,-0.0049657446406,0.00539101044457,1.0,0.0,-0.0138431842886
1385571007833830999,-0.0107333006789,-0.00209107674563,0.00647581159963,1.0,0.0,-0.0162149194213
1385571008334808541,-0.0133832569293,0.000961660898367,0.00578736665892,1.0,0.0,-0.0187314221989
1385571008834219075,-0.0168332224229,-0.00161983867029,0.00603843082851,1.0,0.0,-0.020980938222
1385571009333878103,-0.0145015468544,-0.00611599670101,0.00480181079907,1.0,0.0,-0.0220177736249
1385571009833952512,-0.00900677550842,-0.00732196077785,0.00338385481755,1.0,0.0,-0.0224615282852
1385571010334719626,-0.00705510268936,-0.00518682802119,0.00334178723313,1.0,0.0,-0.0229393682398
1385571010833767008,-0.00872598106282,-0.00138576560898,0.00312115108111,1.0,0.0,-0.0231937513215
1385571011333910650,-0.0108754578617,0.000966495582666,0.00232828981805,1.0,0.0,-0.0233663768844
1385571011833915422,-0.0116805663674,-0.000381492310822,0.000534627698778,1.0,0.0,-0.0233596265014
1385571012334843286,-0.0100709509675,-0.00268370242908,0.000511328312928,1.0,0.0,-0.0231215041105
1385571012833852960,-0.00546169295853,-0.00528598167697,-0.000233815896836,1.0,0.0,-0.0223203679641
1385571013333797423,-0.00511599067929,-0.00422450338601,0.000644432541202,1.0,0.0,-0.0212757727389
1385571013833822169,-0.00939027704468,-0.000451227766934,0.000803168307013,1.0,0.0,-0.0196535235583
1385571014333813987,-0.0154585284275,0.00331427639482,0.00045010030298,1.0,0.0,-0.0174419853828
1385571014833767969,-0.019977551431,0.00282723003031,0.000209878674853,1.0,0.0,-0.0144994861613
1385571015334092237,-0.0187454697591,0.00104669302454,0.000518143987615,1.0,0.0,-0.0126624219711
1385571015833805974,-0.0131302789767,0.000652749356192,0.00104739646293,1.0,0.0,-0.0106829592455
1385571016334163826,-0.00726056264181,0.0053870415393,0.00200592314408,1.0,0.0,-0.00996369058723
1385571016833813828,-0.00688530294934,0.0117409274018,0.00273406581336,1.0,0.0,-0.00924599200826
1385571017334013324,-0.015061309455,0.0151881682022,0.00303102888692,1.0,0.0,-0.00894912371146
1385571017833768594,-0.0246653566786,0.0130895806375,0.00240281486755,1.0,0.0,-0.00970488941682
1385571018333763832,-0.0268588569018,0.0083491099693,0.0017767010377,1.0,0.0,-0.0103524594745
1385571018834862363,-0.0227235545775,0.00475138046355,0.00178386600835,1.0,0.0,-0.0115032516855
1385571019334294752,-0.0167042194151,0.00440533602126,0.0015921523486,1.0,0.0,-0.0127015081397
1385571019833966304,-0.00999715058822,0.00629063082147,0.000894822985673,1.0,0.0,-0.0141736440467
1385571020334837880,-0.00985432863172,0.0127511018895,0.000894626669577,1.0,0.0,-0.0157826609105
1385571020833979171,-0.0157147283333,0.013535164255,0.000730954530338,1.0,0.0,-0.0168742368545
1385571021333896761,-0.0189880210794,0.00818304107415,0.0002292886394,1.0,0.0,-0.0169378332209
1385571021833947483,-0.0141805206518,0.00579399806463,-0.000834818755208,1.0,0.0,-0.0174544171867
1385571022333848218,-0.00681587314094,0.0089923014149,-0.00235812996335,1.0,0.0,-0.0170888392714
1385571022834394336,-0.00205439646057,0.0158253699488,-0.00321153937733,1.0,0.0,-0.0168028105995
1385571023333905946,-0.00401421119211,0.0209397298743,-0.00352413583902,1.0,0.0,-0.0160642438854
1385571023834011888,-0.00959163857936,0.0234034063285,-0.00230873661942,1.0,0.0,-0.0146381213713
1385571024333893159,-0.013324344086,0.0173571487497,-0.00150588112449,1.0,0.0,-0.012714382961
1385571024833874261,-0.0152682703068,0.00633142113421,-0.000596095201547,1.0,0.0,-0.0108088055755
1385571025333852357,-0.0113489087783,-7.44315346235e-06,-0.00163472991306,1.0,0.0,-0.00970670773577
1385571025833862136,-0.00766980258094,-0.000731131751352,-0.00226101020828,1.0,0.0,-0.00833355166227
1385571026333924236,-0.00870063896266,0.00341797032757,-0.00198512901551,1.0,0.0,-0.00708242269077
1385571026833911881,-0.0109146720479,0.00821048792925,-0.00158381769249,1.0,0.0,-0.00655354082981
1385571027333997925,-0.014164280809,0.00770171315438,-0.00069138941159,1.0,0.0,-0.00465453028028
1385571027834034207,-0.0119503092877,0.00477537464763,0.000379746692501,1.0,0.0,-0.00342037766562
1385571028333947569,-0.00722657869036,0.00473179559331,0.00137743192671,1.0,0.0,-0.00222509913747
1385571028834598807,-0.00484754708689,0.0083339102728,0.00227388468819,1.0,0.0,-0.000908646565919
1385571029334024087,-0.00815501855211,0.0109281539671,0.00233211572585,1.0,0.0,0.000726896667378
1385571029834340988,-0.0135649166304,0.0110353955995,0.00367946775717,1.0,0.0,0.0017583252715
1385571030334289984,-0.0153540568353,0.00999311477678,0.00378077903564,1.0,0.0,0.00173566491869
1385571030834277817,-0.0141279725875,0.0114655253522,0.0030063235215,1.0,0.0,0.00140605628016
1385571031334340705,-0.015371966449,0.0124621476283,0.00240971150105,1.0,0.0,0.00187840730587
1385571031834314451,-0.0177941109436,0.0123290847282,0.00174764075096,1.0,0.0,0.00255294449101
1385571032334333652,-0.0190053009692,0.00851991636516,0.00134270425874,1.0,0.0,0.00367914299001
1385571032834318246,-0.0190692408907,0.00527380167456,0.000848469597844,1.0,0.0,0.00528161595028
1385571033334272338,-0.0185229292353,0.00603140831045,0.00177501765288,1.0,0.0,0.0065413344387
1385571033834324944,-0.0185372692151,0.0099643990182,0.00316392544509,1.0,0.0,0.00740176354018
1385571034334256622,-0.0202114051541,0.0128583481474,0.00390480411985,1.0,0.0,0.00813236990239
1385571034834361807,-0.020124775503,0.0109998311732,0.003267452858,1.0,0.0,0.00846142974375
1385571035334386288,-0.0181978703712,0.00785167055111,0.00289136004342,1.0,0.0,0.00826753023408
1385571035834315947,-0.0158358278602,0.00432130786315,0.00175391214994,1.0,0.0,0.00793303457223
1385571036334276456,-0.0151820301181,0.00573675081241,0.000908296877517,1.0,0.0,0.00751564535281
1385571036834286270,-0.0153000963454,0.0102463889836,0.000772215368924,1.0,0.0,0.00714443122941
1385571037334277986,-0.0136311296522,0.0119982035292,-0.000986955531899,1.0,0.0,0.00630671701279
1385571037834476755,-0.0135412401014,0.00843458791747,-0.00119958302318,1.0,0.0,0.00496538914027
1385571038334331822,-0.0154469758303,0.00428759041118,-0.00163672817666,1.0,0.0,0.00336768028231
1385571038834369917,-0.0179183801237,0.00252155515229,-0.00240791850831,1.0,0.0,0.00205286330401
1385571039334357344,-0.0200508234941,0.00197225641112,-0.00287314811462,1.0,0.0,0.000849246836894
1385571039834247131,-0.0214290261424,0.00364441667068,-0.00245085908241,1.0,0.0,-0.000529676085836
1385571040334316376,-0.0172114391614,0.00564905512715,-0.00228344241697,1.0,0.0,-0.00227185190499
1385571040834266526,-0.0103461629092,0.00369366288369,-0.00261856068896,1.0,0.0,-0.00372931004183
1385571041334455204,-0.0101710210743,0.000682819811761,-0.00147064591599,1.0,0.0,-0.00381591430487
1385571041834258448,-0.0164758781564,0.000648624642225,0.000131349687875,1.0,0.0,-0.00292102102982
1385571042334337699,-0.0204341794443,0.00330864763138,0.000966563691112,1.0,0.0,-0.00212661320228
1385571042834437488,-0.0187830710123,0.00431617408355,0.0011058132385,1.0,0.0,-0.000683524705801
1385571043334293699,-0.0155868035389,0.00387197377984,0.00262605410354,1.0,0.0,0.00110906115524
1385571043834331443,-0.0129058187978,0.00353052446238,0.00219632412926,1.0,0.0,0.00288716955791
1385571044334533175,-0.0109402067935,0.00343013255646,0.0013629200506,1.0,0.0,0.00427056046478
1385571044834575047,-0.0114422416198,0.00655923124613,0.000819971843985,1.0,0.0,0.0053466741102
1385571045334490493,-0.0137822027064,0.011070536414,0.00107159448879,1.0,0.0,0.00668530189288
1385571045834481515,-0.0145896332806,0.0147522935918,0.00133445062663,1.0,0.0,0.00905325107812
1385571046334382096,-0.0103441484655,0.0164883338212,0.000384022907893,1.0,0.0,0.0110665340425
1385571046834269091,-0.00422956211239,0.0134595765107,-0.000299001372335,1.0,0.0,0.0135127947255
1385571047333756645,-0.00107775727036,0.0103482505307,-0.00117199977297,1.0,0.0,0.0161998757236
1385571047834188672,-0.00389589417476,0.00798323370684,-0.0016345911205,1.0,0.0,0.018904662074
1385571048334378509,-0.00883981361772,0.00808532613731,-0.00278593528376,1.0,0.0,0.0210991892662
1385571048834448598,-0.012749664266,0.00992069688782,-0.00366226497349,1.0,0.0,0.0224559661936
1385571049334174935,-0.012132154101,0.0093261180301,-0.00365216364316,1.0,0.0,0.0239674179905
1385571049835225899,-0.00722713682527,0.00517344355874,-0.00432381126306,1.0,0.0,0.0257237326503
1385571050334283594,-0.00544008858285,0.000731004243885,-0.00448339560128,1.0,0.0,0.026714053382
1385571050834266705,-0.00855844837855,-0.00233067421268,-0.00431027991525,1.0,0.0,0.0274453246771
1385571051334277891,-0.0132610320349,-0.00214500280216,-0.003652273119,1.0,0.0,0.0281567244113
1385571051834153000,-0.0144055040644,0.0017464817801,-0.00174091937469,1.0,0.0,0.028857868962
1385571052334481786,-0.0102131906565,0.00531261415946,-0.000473916042546,1.0,0.0,0.0292551248021
1385571052834223884,-0.00516726507724,0.00618147254297,0.00019837997693,1.0,0.0,0.0292954475132
1385571053334210961,-0.00176229346239,0.0017105299648,-0.000143026286107,1.0,0.0,0.0297634684327
1385571053834283010,-0.00493330926186,-0.00486344703647,-0.000533695924205,1.0,0.0,0.0299416361931
1385571054334251788,-0.0141452890366,-0.00748195930265,-9.72184975246e-05,1.0,0.0,0.02957116283
1385571054834290924,-0.02012143951,-0.0040553761617,0.000265021036417,1.0,0.0,0.0295176426752
1385571055334176099,-0.0180281169519,0.00719325480851,0.000568340067374,1.0,0.0,0.0298611498752
1385571055834245489,-0.0122968853936,0.0138335787243,0.000816377192708,1.0,0.0,0.0304804381102
1385571056334494611,-0.00761399054419,0.0101512190322,0.000362354891369,1.0,0.0,0.0309131366272
1385571056834259936,-0.00693822922255,0.00336928347377,-0.000507722201497,1.0,0.0,0.0311382388336
1385571057334303900,-0.0102968614764,0.000525571722158,-0.000106335277589,1.0,0.0,0.0325527791163
1385571057834333956,-0.0136913371803,0.00483988100864,-0.000270385137218,1.0,0.0,0.0344184352157
1385571058334739300,-0.0163975004675,0.0139011817915,0.000161256455885,1.0,0.0,0.0356802923331
1385571058834203539,-0.0139951639079,0.0198547423752,0.00216315332868,1.0,0.0,0.0380105647308
1385571059333803754,-0.00595777036302,0.0190860187842,0.00280715349444,1.0,0.0,0.0413147906289
1385571059834034219,-0.00082122447314,0.00881685581684,0.00277257241787,1.0,0.0,0.0451454447554
1385571060333957726,-0.00513409260802,-0.0018635753906,0.00271107538916,1.0,0.0,0.0485142860651
1385571060834268362,-0.0148236656383,-0.0021232026979,0.00241407134532,1.0,0.0,0.0520540230505
1385571061335354864,-0.0203517008705,0.00771940594494,0.00160018747412,1.0,0.0,0.0546229390891
1385571061833938363,-0.0198417783252,0.0189273296276,0.000749244619611,1.0,0.0,0.0561950439775
1385571062333861760,-0.0154475680672,0.0219370143933,-0.000875134151863,1.0,0.0,0.0567119752111
1385571062834503983,-0.0110442915645,0.0147898016088,-0.000594706909202,1.0,0.0,0.0566740352662
1385571063334238661,-0.00879658339053,0.00365556615789,-0.000370474558823,1.0,0.0,0.0565043859478
1385571063834378560,-0.00858302870823,-0.00290297254638,-0.00044122006302,1.0,0.0,0.0563525413704
1385571064334283924,-0.0103704267885,0.00121419983908,0.00095148777059,1.0,0.0,0.0561251683459
1385571064834290647,-0.0129408498148,0.01043564828,0.00223018999297,1.0,0.0,0.0560906830137
1385571065334249910,-0.0145162737126,0.0161865787383,0.00308325929696,1.0,0.0,0.0559409344631
1385571065834436607,-0.015442953351,0.00995321531858,0.0022842873083,1.0,0.0,0.0562533625827
1385571066334239108,-0.0152210489026,7.94941450359e-05,0.00172810117807,1.0,0.0,0.0556700977907
1385571066834340408,-0.0170479760498,-0.00150566615647,0.00250499930389,1.0,0.0,0.0544496767023
1385571067334476184,-0.0177984600124,0.00642509635804,0.00254253349059,1.0,0.0,0.0533994936592
1385571067834581373,-0.0201603362252,0.0172809764544,0.00339209707087,1.0,0.0,0.0523671487255
1385571068335227085,-0.0198442791431,0.0212496452326,0.00345063193276,1.0,0.0,0.0507166075767
1385571068834417978,-0.016492776833,0.0151929560178,0.00304912350274,1.0,0.0,0.0489796575594
1385571069334567540,-0.0144142796155,0.0047303630371,0.00118050146334,1.0,0.0,0.0478163281608
1385571069834546962,-0.015429164644,0.00168059496378,0.000682294395845,1.0,0.0,0.0468051098628
1385571070334376370,-0.01919744765,0.00500528398761,-6.67920202303e-05,1.0,0.0,0.0461814222884
1385571070834508102,-0.0216108239418,0.0110103808602,-0.000720446040782,1.0,0.0,0.0453333966034
1385571071334265376,-0.0204068131685,0.010687527547,-0.0010540651263,1.0,0.0,0.0439025375719
1385571071834286192,-0.0154737022975,0.0039059111211,-0.00173636610515,1.0,0.0,0.0416971216742
1385571072334263145,-0.0122960671627,-0.00187522228484,-0.00172545511313,1.0,0.0,0.0395624123434
1385571072834321356,-0.0109866628141,-0.00112160530414,-0.00125192869971,1.0,0.0,0.0373173602624
1385571073334282984,-0.0110841546751,0.00568184608278,-0.00169416757971,1.0,0.0,0.0341574251635
1385571073834281368,-0.0140145741265,0.00985187920165,-0.000729165704222,1.0,0.0,0.0305233093369
1385571074334398292,-0.0123297842583,0.00733299837536,-0.00139807662829,1.0,0.0,0.0269315042454
1385571074834510589,-0.00696793702702,0.00117539278112,-0.00248744367098,1.0,0.0,0.0246528534661
1385571075334353375,-0.00281241992185,-0.00211506873912,-0.00341743699396,1.0,0.0,0.0232585406688
1385571075834422084,-0.00439834029662,0.000490131827625,-0.0046046653546,1.0,0.0,0.0226909083187
1385571076334252424,-0.011964266989,0.00785524778065,-0.00422865231547,1.0,0.0,0.0233457093591
1385571076834484210,-0.0181117649691,0.0137839231399,-0.00355210191363,1.0,0.0,0.0242173927181
1385571077334434895,-0.01788322004,0.0161336023803,-0.00151178073031,1.0,0.0,0.0254942393292
1385571077834280795,-0.011929257177,0.0139580695509,-0.000430371038784,1.0,0.0,0.0273246882921
1385571078334339212,-0.00721041031441,0.00956304332128,4.50733978155e-05,1.0,0.0,0.0298664792612
1385571078834315363,-0.00873122044759,0.00579875743488,-0.000132121296741,1.0,0.0,0.0325199947592
1385571079334290382,-0.0163860775073,0.00766797694097,0.000510035287387,1.0,0.0,0.0341655774875
1385571079834417347,-0.0238558123292,0.0138955653888,0.0015085693593,1.0,0.0,0.035030303663
1385571080334347593,-0.0228602904656,0.018585526226,0.00159546092354,1.0,0.0,0.036017301559
1385571080834269940,-0.0169290907319,0.0192758062236,0.00193118731788,1.0,0.0,0.0372001666891
1385571081334328828,-0.0125613951746,0.0173822021447,0.00150182758627,1.0,0.0,0.0384470165808
1385571081834363256,-0.0121209854306,0.0144753056457,0.000652542668852,1.0,0.0,0.039908495966
1385571082334305130,-0.016544843697,0.0123785380167,3.09327851122e-05,1.0,0.0,0.0415830255152
1385571082834294354,-0.0196103271393,0.0125922447496,0.000346199596767,1.0,0.0,0.0430811652294
1385571083334321467,-0.0204798711252,0.015260481346,0.00056198162008,1.0,0.0,0.0439427488222
1385571083834363132,-0.0174342777284,0.0189141314415,0.00141799118217,1.0,0.0,0.0443113383965
1385571084334290438,-0.0138926484725,0.0184019517583,0.00135892185973,1.0,0.0,0.0448700612233
1385571084834364606,-0.0124265823657,0.01545306064,0.00173936944417,1.0,0.0,0.0458898117462
1385571085334314473,-0.0106505765392,0.0114097616205,0.00136384032712,1.0,0.0,0.0464608008756
1385571085834271205,-0.0120860233888,0.00802100455843,0.000699206315189,1.0,0.0,0.0460756631805
1385571086334324395,-0.0168677860104,0.0070342211451,-0.000594366310484,1.0,0.0,0.0453592384715
1385571086834391872,-0.0207031323029,0.00818118300861,-0.00199722381302,1.0,0.0,0.0448277644071
1385571087334321675,-0.0204167986166,0.0105486831906,-0.00124088821157,1.0,0.0,0.04462714365
1385571087834250435,-0.0171454990316,0.0114977449993,-0.000792049808987,1.0,0.0,0.0448081237748
1385571088334320442,-0.014344463229,0.0114437722708,-0.000107141740914,1.0,0.0,0.0452611025736
1385571088834418333,-0.0131478961806,0.00927761745326,-6.36014236591e-05,1.0,0.0,0.0457019071697
1385571089334416727,-0.0142215896439,0.00479825691645,-0.000499899022347,1.0,0.0,0.0462368206562
1385571089834362928,-0.0160322027078,0.00190559699814,-0.00106417592712,1.0,0.0,0.0461796865113
1385571090334465602,-0.0176540369461,0.00038216025931,-0.00191377289171,1.0,0.0,0.0462764089154
1385571090834420648,-0.0176269316515,0.00273564130229,-0.0016799762635,1.0,0.0,0.0464839569221
1385571091334427379,-0.0177455726501,0.00769878539868,-0.00116653613696,1.0,0.0,0.0467756012649
1385571091834270863,-0.0179817822531,0.00962696080516,-0.00123835246028,1.0,0.0,0.047042883755
1385571092334274963,-0.0188374984291,0.0073077218502,-0.00101392461661,1.0,0.0,0.0465280115964
1385571092834327592,-0.0193048522062,0.00428228261871,-0.000640648095059,1.0,0.0,0.0461523458321
1385571093334625401,-0.0148288752394,0.00261180801612,-0.000727157297816,1.0,0.0,0.0457528764722
1385571093834360063,-0.0103013313285,0.000460541702779,0.000110944275807,1.0,0.0,0.0460574597445
1385571094334297523,-0.0105413247627,-0.00188523192549,0.000827859912479,1.0,0.0,0.0459341052214
1385571094834352220,-0.0166234781317,-0.0043226123026,0.0018807992911,1.0,0.0,0.0450756821346
1385571095334295176,-0.02101226415,-0.00572309807968,0.00205366539854,1.0,0.0,0.044526267721
1385571095834305437,-0.0197246667184,-0.00319334862015,0.00255086570322,1.0,0.0,0.0439197263491
1385571096334320317,-0.0125219864736,-0.00089388225275,0.00256284339081,1.0,0.0,0.0436016741835
1385571096834293050,-0.00586620018076,-0.00140159300213,0.00146228672412,1.0,0.0,0.0435616456177
1385571097334267395,-0.00864238546667,-0.00420718794735,0.000747196976759,1.0,0.0,0.0430629696679
1385571097834547594,-0.0189962976934,-0.00770756266009,0.000642640034042,1.0,0.0,0.0427942378511
1385571098334280857,-0.0252776209962,-0.00504724042158,0.000148632455752,1.0,0.0,0.0431384916578
1385571098834360045,-0.0201742481733,0.00263161396919,0.000125926575894,1.0,0.0,0.043435642545
1385571099334352268,-0.00923215859123,0.00790660139625,0.000112850436556,1.0,0.0,0.043490466427
1385571099834307555,-0.00306546687758,0.00226098863226,0.000191141122732,1.0,0.0,0.0438618430728
1385571100334353965,-0.00539468155229,-0.0116965551619,8.91384063002e-05,1.0,0.0,0.0431292944871
1385571100834302139,-0.015343315625,-0.0208213618236,-0.000178021479204,1.0,0.0,0.0415718149746
1385571101334325310,-0.0256637673764,-0.0171029634089,-8.14208653466e-05,1.0,0.0,0.0405025463571
1385571101834310039,-0.0246162855403,-0.000881742125662,0.000233800126225,1.0,0.0,0.0390145561882
1385571102334303379,-0.0124034122405,0.0183077935295,0.00145516454033,1.0,0.0,0.0381601706388
1385571102834381684,0.00353154569406,0.02340598837,0.00251370645454,1.0,0.0,0.0364229860441
1385571103334288553,0.00740357845483,0.00892473893644,0.00317943859481,1.0,0.0,0.0355556409823
1385571103834418419,-0.00471333731896,-0.0067964640743,0.00306134200193,1.0,0.0,0.035014875564
1385571104334393167,-0.0204217883471,-0.00883130967267,0.00370404346426,1.0,0.0,0.0337317500902
1385571104834314516,-0.0211700033865,0.00605286477611,0.00308898457868,1.0,0.0,0.0331716388637
1385571105334326131,-0.00566434940318,0.0262092017039,0.00180738872118,1.0,0.0,0.0324037470753
1385571105834326000,0.0115892676716,0.0277960622757,0.000395484859188,1.0,0.0,0.0316769231562
1385571106334333454,0.0122972725703,0.00697683063791,-0.00130498273799,1.0,0.0,0.0320997693593
1385571106834229468,-0.00331882032621,-0.0189872886201,-0.00297424433543,1.0,0.0,0.033599134548
1385571107334237270,-0.0231902078117,-0.0228503700311,-0.00424545123362,1.0,0.0,0.0349835510824
1385571107834352848,-0.0356346453712,0.005893727936,-0.0045196770583,1.0,0.0,0.0351629345989
1385571108334276107,-0.0292803985561,0.0400129853396,-0.00402809963004,1.0,0.0,0.035549314449
1385571108834297378,-0.00782304249982,0.0500209804075,-0.00174945955647,1.0,0.0,0.0360296585226
1385571109334263693,0.0107809964452,0.0257051406553,-0.000649351294144,1.0,0.0,0.0362942081948
1385571109834271170,0.011578413524,-0.00910896230497,-9.13308626176e-05,1.0,0.0,0.0364440232882
1385571110334417962,-0.00874153182446,-0.0220168009296,0.00204243416305,1.0,0.0,0.0373056387433
1385571110834305795,-0.0329944996338,-0.00182437481538,0.00243915315646,1.0,0.0,0.0376447717066
1385571111334354646,-0.0413409089907,0.0336487853582,0.00132252899546,1.0,0.0,0.0371486907271
1385571111834320086,-0.0213724451887,0.0548454498626,0.00203063941955,1.0,0.0,0.0359210323105
1385571112334279935,0.0136031300111,0.041227781436,0.00368816669368,1.0,0.0,0.0357708007766
1385571112834623410,0.0299808183449,-0.000857797805784,0.00383296894606,1.0,0.0,0.0379062701159
1385571113334330571,0.00541963621169,-0.0427283997693,0.00130633431021,1.0,0.0,0.0410012051363
1385571113834400440,-0.0412234669544,-0.0458196284662,-0.000713433870079,1.0,0.0,0.042248296887
1385571114334283282,-0.0699306081526,0.00365085565686,-0.000170216573573,1.0,0.0,0.0417960255632
1385571114834664901,-0.0489398787333,0.0633237183086,0.00113550471579,1.0,0.0,0.0408305122145
1385571115334266527,0.00566236279776,0.074412366174,0.00390624056083,1.0,0.0,0.0412496794006
1385571115834255329,0.0459137931246,0.0222275716687,0.00193638280526,1.0,0.0,0.0433924294673
1385571116334397316,0.0272552393887,-0.0445886568533,-0.00321351410122,1.0,0.0,0.0462599887886
1385571116834305190,-0.0324940062149,-0.073555933448,-0.00725935879635,1.0,0.0,0.0487772232827
1385571117334310679,-0.0817194106522,-0.0340576795093,-0.00553215033565,1.0,0.0,0.0484502515282
1385571117834474857,-0.0788243630424,0.0511857194413,0.000701648242308,1.0,0.0,0.0481528100979
1385571118334328263,-0.0145883070635,0.096086141573,0.00531357174743,1.0,0.0,0.0500440531475
1385571118834352685,0.0586211648827,0.0590056553532,0.00229421042917,1.0,0.0,0.0525368090321
1385571119334324924,0.0765456253552,-0.0243997828177,-0.00364329998073,1.0,0.0,0.054228686628
1385571119834499798,0.0230988545269,-0.0845041041296,-0.00953251916567,1.0,0.0,0.0539577569764
1385571120334348879,-0.0647726114355,-0.0632647503752,-0.00634536605255,1.0,0.0,0.0503314899248
1385571120834265320,-0.110286481368,0.0299437288132,-2.1582098854e-05,1.0,0.0,0.0461608421367
1385571121334334060,-0.0630210643651,0.108548350457,0.00805779263565,1.0,0.0,0.0438034354318
1385571121834333785,0.0431630512699,0.0986714628633,0.0104589496399,1.0,0.0,0.0444688328556
1385571122334354629,0.1134360817,0.0097130993326,0.00760212393824,1.0,0.0,0.047080465957
1385571122834377834,0.0820819809216,-0.0846100850559,0.00228278589818,1.0,0.0,0.049970540209
1385571123334350243,-0.0281139459312,-0.0956736195362,0.000420375306354,1.0,0.0,0.050358607509
1385571123834327501,-0.12516379128,-0.00753984412917,0.000293946265283,1.0,0.0,0.047875254319
1385571124334266936,-0.120986478616,0.106126341431,0.00310964831781,1.0,0.0,0.0441298619679
1385571124834341137,-0.0111904107817,0.142936520094,0.008806695493,1.0,0.0,0.0402562572848
1385571125334271610,0.110247942787,0.0635339020898,0.0084838426308,1.0,0.0,0.0390097474689
1385571125834332932,0.133437279301,-0.0593021893456,0.00415442055878,1.0,0.0,0.0432538381137
1385571126334265522,0.0289028994217,-0.124291796085,0.00155082099328,1.0,0.0,0.0469091893338
1385571126834303279,-0.1136367686,-0.0771685496436,-0.000448098502205,1.0,0.0,0.0467085450528
1385571127334556459,-0.163829792582,0.0562067711973,-0.00168181634294,1.0,0.0,0.0449625289218
1385571127834327000,-0.0769307938288,0.151762815938,0.00358341813475,1.0,0.0,0.0417392021602
1385571128334348609,0.0794531986729,0.123470107392,0.00884910967022,1.0,0.0,0.0386175275627
1385571128834340910,0.166666739906,-0.00934191816739,0.00544929702607,1.0,0.0,0.0399983673399
1385571129334511910,0.108248184165,-0.12731509683,0.00460999438555,1.0,0.0,0.0435421400484
1385571129834267840,-0.0538789443266,-0.144850672941,0.00100944386239,1.0,0.0,0.0425465185087
1385571130334248852,-0.180786202527,-0.0330733618182,-0.00220000109815,1.0,0.0,0.040622415454
1385571130834441668,-0.153006076796,0.122665453861,-0.000526649060697,1.0,0.0,0.0389515292943
1385571131334321460,0.0092050754843,0.174680965666,0.0060405897813,1.0,0.0,0.036032257413
1385571131834287046,0.157500397635,0.0767869429467,0.0098737620008,1.0,0.0,0.0372337795911
1385571132334316819,0.163773024403,-0.0874936370726,0.00455680904515,1.0,0.0,0.045678813065
1385571132834261854,0.0341372696253,-0.18641748595,-0.0014162968261,1.0,0.0,0.0487899975297
1385571133334334092,-0.139442842436,-0.121220884264,0.00196963156989,1.0,0.0,0.0447838072339
1385571133834316469,-0.199553357691,0.0660423756469,0.00169394723319,1.0,0.0,0.0398136392108
1385571134334323084,-0.0889580075439,0.200853328964,0.00427860238361,1.0,0.0,0.0322634694826
1385571134834422678,0.0945017722274,0.156591044102,0.00206897162603,1.0,0.0,0.0278683755596
1385571135334388319,0.184764535043,-0.0184299242825,-0.0125855016676,1.0,0.0,0.0352669522334
1385571135834325522,0.127785562853,-0.180649717811,-0.0356846836364,1.0,0.0,0.0417772589856
1385571136334257226,-0.0455697586038,-0.206477468605,-0.0430303980941,1.0,0.0,0.0385607196178
1385571136834515717,-0.193338187912,-0.0366591144888,-0.0452791412019,1.0,0.0,0.0354807579341
1385571137334388759,-0.17264095951,0.164969256591,-0.0520089847042,1.0,0.0,0.0339088651495
1385571137834338667,-0.00960498707992,0.235593373403,-0.0549550201115,1.0,0.0,0.0301318294954
1385571138334507086,0.161531617027,0.123966040573,-0.0511431796129,1.0,0.0,0.0314068773304
1385571138834351643,0.187827131391,-0.0958176554131,-0.0639521839747,1.0,0.0,0.0423465527402
1385571139334316209,0.0626023449814,-0.26320642506,-0.0819516416495,1.0,0.0,0.0438111133322
1385571139834384670,-0.138283302101,-0.203450178536,-0.0782931161124,1.0,0.0,0.0375164650199
1385571140334365027,-0.228977189007,0.0372152308039,-0.0734769795248,1.0,0.0,0.0341830140769
1385571140834339613,-0.133217690355,0.243508130521,-0.0809581437501,1.0,0.0,0.0332550887412
1385571141334370902,0.0683131757266,0.248826314238,-0.0808617744549,1.0,0.0,0.0315509278083
1385571141834317335,0.208250783618,0.0597031117356,-0.0806047817318,1.0,0.0,0.036413662646
1385571142334270816,0.151390160085,-0.1657241502,-0.0889836395249,1.0,0.0,0.0465758213715
1385571142834265924,-0.0155359520935,-0.292596304035,-0.104942325071,1.0,0.0,0.0467102975546
1385571143334377772,-0.202390654348,-0.15437042846,-0.0963588753424,1.0,0.0,0.0423478050612
1385571143834327183,-0.217148242892,0.11786314578,-0.0894106121547,1.0,0.0,0.0392447724015
