%time,field.header.seq,field.header.stamp,field.header.frame_id,field.child_frame_id,field.transform.translation.x,field.transform.translation.y,field.transform.translation.z,field.transform.rotation.x,field.transform.rotation.y,field.transform.rotation.z,field.transform.rotation.w
1385570985105244648,816414,1385570985105244648,/world,vicon/Archie/Archie,0.0917390012163,0.213035533202,0.114432567677,-0.00137358602981,-0.00665765252067,0.694721172774,0.719247023646
1385570985115246483,816415,1385570985115246483,/world,vicon/Archie/Archie,0.0917474549227,0.213018958477,0.114388565807,-0.00157812329845,-0.00648345132268,0.694725482866,0.719244032191
1385570985125176838,816416,1385570985125176838,/world,vicon/Archie/Archie,0.0916717504674,0.212957546967,0.114509366524,-0.00107774548759,-0.00689445305474,0.69483249911,0.719137749782
1385570985135307617,816417,1385570985135307617,/world,vicon/Archie/Archie,0.0917426794083,0.213039588272,0.114435227626,-0.00139811863358,-0.00662937061062,0.694713372868,0.71925477146
1385570985145214246,816418,1385570985145214246,/world,vicon/Archie/Archie,0.0917480627988,0.21303435013,0.114418925918,-0.0013780480546,-0.00660807446048,0.694710017907,0.719258246637
1385570985155267893,816419,1385570985155267893,/world,vicon/Archie/Archie,0.0917465513048,0.213034248312,0.11435699545,-0.00164821522179,-0.00647241351141,0.694726155438,0.719243324752
1385570985165302421,816420,1385570985165302421,/world,vicon/Archie/Archie,0.0917331500563,0.213026700946,0.114388376455,-0.00154001555932,-0.0065013498971,0.694725792866,0.719243653798
1385570985175221896,816421,1385570985175221896,/world,vicon/Archie/Archie,0.0917392227176,0.213018800085,0.114386837768,-0.00155076963745,-0.00648064542669,0.694735453923,0.719234485694
1385570985185265632,816422,1385570985185265632,/world,vicon/Archie/Archie,0.091742175813,0.213019224187,0.114383746999,-0.00155647673992,-0.00649107675556,0.6947271283,0.719242421237
1385570985195247264,816423,1385570985195247264,/world,vicon/Archie/Archie,0.0917444536299,0.213023734117,0.114389707206,-0.0015448076911,-0.00645910523351,0.694727361668,0.71924250881
1385570985205186030,816424,1385570985205186030,/world,vicon/Archie/Archie,0.0917321638275,0.213024757306,0.114397756149,-0.00151516747575,-0.00650765637754,0.694730155706,0.719239435396
1385570985215228863,816425,1385570985215228863,/world,vicon/Archie/Archie,0.0917349659045,0.21302304219,0.114427512232,-0.00161478601174,-0.00659362420014,0.694734546223,0.719234194731
1385570985225514774,816426,1385570985225514774,/world,vicon/Archie/Archie,0.0917417945821,0.213022189049,0.11439141719,-0.00153082005897,-0.00649630561447,0.694734144576,0.719235651899
1385570985235327458,816427,1385570985235327458,/world,vicon/Archie/Archie,0.0917806343179,0.213003352474,0.114409922597,-0.00157770621364,-0.00661423236586,0.694701416038,0.719266087987
1385570985245308421,816428,1385570985245308421,/world,vicon/Archie/Archie,0.0917465593888,0.213040458265,0.11433976248,-0.00157510161308,-0.00647051228855,0.694724522119,0.719245083328
1385570985255307449,816429,1385570985255307449,/world,vicon/Archie/Archie,0.0917455508348,0.213029958963,0.11438547464,-0.0015322615442,-0.0064941468906,0.694723784401,0.719245675426
1385570985265290096,816430,1385570985265290096,/world,vicon/Archie/Archie,0.0917517024339,0.213029454099,0.114387867329,-0.00153496290977,-0.00649455932207,0.694722489029,0.719246917147
1385570985275251920,816431,1385570985275251920,/world,vicon/Archie/Archie,0.0917570549791,0.213020390634,0.1143768394,-0.001533118546,-0.00648656978858,0.69472316429,0.719246340943
1385570985285195324,816432,1385570985285195324,/world,vicon/Archie/Archie,0.0917732629683,0.213024188524,0.114390648309,-0.00150674370757,-0.00651313057016,0.694705179646,0.719263527663
1385570985295292762,816433,1385570985295292762,/world,vicon/Archie/Archie,0.0917655708508,0.213030130265,0.114411183184,-0.0013516029312,-0.0066135198751,0.694716522283,0.719251964329
1385570985305273104,816434,1385570985305273104,/world,vicon/Archie/Archie,0.0917671134328,0.213030258393,0.114345852228,-0.00162703202483,-0.00646077677184,0.694711678866,0.719257460425
1385570985315730622,816435,1385570985315730622,/world,vicon/Archie/Archie,0.0917604388178,0.213021065065,0.114434874286,-0.00144532878938,-0.00660211658178,0.694710757203,0.719257455232
1385570985325381958,816436,1385570985325381958,/world,vicon/Archie/Archie,0.0917540087778,0.213017879343,0.114391569838,-0.00160420431399,-0.00648398074059,0.694720492245,0.719248790181
1385570985335355022,816437,1385570985335355022,/world,vicon/Archie/Archie,0.0917499167188,0.213031212393,0.114336867222,-0.00156184282972,-0.00648707382612,0.694734397489,0.719235424229
1385570985345106096,816438,1385570985345106096,/world,vicon/Archie/Archie,0.0917510717288,0.213050293265,0.114346414124,-0.00156064614107,-0.00649051317326,0.694714264798,0.719254842117
1385570985355149295,816439,1385570985355149295,/world,vicon/Archie/Archie,0.0917748265986,0.213021837031,0.114467055496,-0.00145219647363,-0.00676855250739,0.694675375798,0.71929006672
1385570985365056090,816440,1385570985365056090,/world,vicon/Archie/Archie,0.0917229393839,0.213031182216,0.114415896583,-0.00156529228185,-0.00661358374685,0.69473838693,0.719230410992
1385570985375018568,816441,1385570985375018568,/world,vicon/Archie/Archie,0.0916783942942,0.212949042745,0.11448769028,-0.00119498823252,-0.0068424943268,0.694832590799,0.719137972185
1385570985385129552,816442,1385570985385129552,/world,vicon/Archie/Archie,0.0916567409354,0.212982208138,0.11453427026,-0.000945243509945,-0.00699798768122,0.694843078879,0.719126713742
1385570985395089791,816443,1385570985395089791,/world,vicon/Archie/Archie,0.0916749926195,0.212960290368,0.114487803746,-0.00121030205253,-0.00681200613881,0.694830694032,0.719140068674
1385570985405128672,816444,1385570985405128672,/world,vicon/Archie/Archie,0.0917442775339,0.21304756575,0.114342221153,-0.00157456273422,-0.00648871487829,0.694718267012,0.719250962329
1385570985415222174,816445,1385570985415222174,/world,vicon/Archie/Archie,0.0916666163333,0.212955820914,0.114491686794,-0.00119042917872,-0.00682234310948,0.694848226028,0.719123064085
1385570985425126689,816446,1385570985425126689,/world,vicon/Archie/Archie,0.0916590769854,0.212952993736,0.114480180005,-0.00114708551437,-0.00682319228904,0.69484358166,0.719127614035
1385570985435812626,816447,1385570985435812626,/world,vicon/Archie/Archie,0.0917317501024,0.213016812506,0.114381408559,-0.00153657742765,-0.00649065615647,0.694736362512,0.719233548242
1385570985445886148,816448,1385570985445886148,/world,vicon/Archie/Archie,0.0917332572865,0.213050172882,0.114336629952,-0.00160215991752,-0.00643845964383,0.694715500152,0.71925402548
1385570985455769622,816449,1385570985455769622,/world,vicon/Archie/Archie,0.0917305703593,0.213023001424,0.114380586358,-0.00156124608245,-0.00648130218834,0.694728965123,0.719240724828
1385570985465738340,816450,1385570985465738340,/world,vicon/Archie/Archie,0.0917320028525,0.213015000081,0.114393759998,-0.00159693104474,-0.00646494920739,0.694713858559,0.719255385081
1385570985475975133,816451,1385570985475975133,/world,vicon/Archie/Archie,0.0917269023561,0.213019605078,0.11438998859,-0.00152333393136,-0.00651688046275,0.694737094696,0.71923263203
1385570985485847191,816452,1385570985485847191,/world,vicon/Archie/Archie,0.0917306788625,0.213019070446,0.114390121743,-0.0015969792104,-0.00645996227714,0.694717367679,0.71925204038
1385570985495180712,816453,1385570985495180712,/world,vicon/Archie/Archie,0.0916619829011,0.212955578649,0.114486313862,-0.00121714472326,-0.00681152349526,0.694839825062,0.719131239214
1385570985505212615,816454,1385570985505212615,/world,vicon/Archie/Archie,0.0917244992054,0.213021673916,0.114389382346,-0.0015425434787,-0.0064957485791,0.694737084342,0.719232792251
1385570985515224799,816455,1385570985515224799,/world,vicon/Archie/Archie,0.0916308715169,0.212961580962,0.114520347573,-0.0012088317694,-0.00692405460939,0.694861820531,0.71910892538
1385570985526284900,816456,1385570985526284900,/world,vicon/Archie/Archie,0.0917219527444,0.213020298261,0.114389151947,-0.00154540113902,-0.00648963093618,0.694731143538,0.719238579766
1385570985535248635,816457,1385570985535248635,/world,vicon/Archie/Archie,0.0917553263905,0.213003190777,0.114430660109,-0.0016205361159,-0.00660280642064,0.694698707357,0.719268713908
1385570985545312559,816458,1385570985545312559,/world,vicon/Archie/Archie,0.0917449356059,0.213005735621,0.114417442818,-0.00154010000972,-0.00665774644563,0.694718321209,0.719249439819
1385570985555293894,816459,1385570985555293894,/world,vicon/Archie/Archie,0.0916620694999,0.212956494843,0.114483403122,-0.00120532685853,-0.0068016638237,0.69484192629,0.719129322185
1385570985565322164,816460,1385570985565322164,/world,vicon/Archie/Archie,0.0917404646145,0.213036564744,0.114431409746,-0.00137546253903,-0.00663487515601,0.694711438001,0.71925663323
1385570985575290950,816461,1385570985575290950,/world,vicon/Archie/Archie,0.0917438185839,0.213019336113,0.114394225658,-0.00151470022324,-0.00648025026521,0.694721514659,0.719248030313
1385570985585306281,816462,1385570985585306281,/world,vicon/Archie/Archie,0.0917379467389,0.213021473424,0.114388181398,-0.00154177038759,-0.00650523984867,0.694716814619,0.719252286951
1385570985595264911,816463,1385570985595264911,/world,vicon/Archie/Archie,0.0917093221617,0.213033992916,0.114425548894,-0.00159628488203,-0.00656727116863,0.694735598105,0.719233461089
1385570985605320737,816464,1385570985605320737,/world,vicon/Archie/Archie,0.091738106344,0.213019844608,0.114380951628,-0.00153212523242,-0.00645846569447,0.694726307762,0.719243559663
1385570985615331003,816465,1385570985615331003,/world,vicon/Archie/Archie,0.0917483996748,0.213019689229,0.114385127875,-0.0015731117408,-0.00648365662676,0.694724166161,0.719245313136
1385570985625255188,816466,1385570985625255188,/world,vicon/Archie/Archie,0.0917755859624,0.213028875917,0.114369203882,-0.00159344751785,-0.00662802780836,0.694701608043,0.719265740846
1385570985635219743,816467,1385570985635219743,/world,vicon/Archie/Archie,0.0917683153188,0.213012477749,0.11441428888,-0.00156778049246,-0.00660645215883,0.694699352777,0.719268173983
1385570985645268650,816468,1385570985645268650,/world,vicon/Archie/Archie,0.091745138576,0.213027771745,0.114376732469,-0.00153354022465,-0.00648749976223,0.694726530824,0.719243079891
1385570985655225972,816469,1385570985655225972,/world,vicon/Archie/Archie,0.0917608491203,0.213024833791,0.114466514323,-0.00138954536533,-0.00678579408678,0.694701049832,0.719265231695
1385570985665178539,816470,1385570985665178539,/world,vicon/Archie/Archie,0.091766966043,0.213031997282,0.114469714423,-0.00139922685568,-0.00676384596057,0.69468871023,0.719277337632
1385570985675252285,816471,1385570985675252285,/world,vicon/Archie/Archie,0.0917650692273,0.213015269367,0.114421726144,-0.00157356298811,-0.00664554058094,0.694702436086,0.719264823264
1385570985685294298,816472,1385570985685294298,/world,vicon/Archie/Archie,0.0917629487319,0.213019583142,0.11442547137,-0.00157639719473,-0.00664653831078,0.69471120818,0.719256335202
1385570985695282189,816473,1385570985695282189,/world,vicon/Archie/Archie,0.0916942786843,0.212950926847,0.11451004836,-0.00117589790325,-0.0069621246477,0.694824313582,0.719144852821
1385570985705294131,816474,1385570985705294131,/world,vicon/Archie/Archie,0.0917546428,0.213014537501,0.114386252636,-0.00152134028147,-0.00648267755891,0.694725066061,0.71924456411
1385570985715296860,816475,1385570985715296860,/world,vicon/Archie/Archie,0.0917390172042,0.213024596747,0.114387949429,-0.00152571133178,-0.0064986009493,0.694726225449,0.719243291289
1385570985725299606,816476,1385570985725299606,/world,vicon/Archie/Archie,0.091743804056,0.213029573325,0.114394922106,-0.00152414906831,-0.00650775094495,0.694730188403,0.719239383981
1385570985735221833,816477,1385570985735221833,/world,vicon/Archie/Archie,0.0917740411209,0.213011070533,0.114423352575,-0.00163906906351,-0.00660826318396,0.694689834932,0.719277191041
1385570985745249703,816478,1385570985745249703,/world,vicon/Archie/Archie,0.0917439365033,0.213037829286,0.114435556686,-0.00137214808204,-0.00664205869837,0.694714526134,0.719253590498
1385570985755150981,816479,1385570985755150981,/world,vicon/Archie/Archie,0.0917423520534,0.21302660574,0.114388176785,-0.00153234058447,-0.00650010576386,0.69473726015,0.719232604876
1385570985765025154,816480,1385570985765025154,/world,vicon/Archie/Archie,0.0917401552202,0.213047291175,0.114352513232,-0.00158673510897,-0.00648258930551,0.694719793325,0.719249516559
1385570985775051904,816481,1385570985775051904,/world,vicon/Archie/Archie,0.0917166626026,0.213029818904,0.114420258243,-0.00154818573091,-0.00659715990539,0.694740928952,0.719228143388
1385570985784996608,816482,1385570985784996608,/world,vicon/Archie/Archie,0.0917451018287,0.21302297145,0.114384191133,-0.00152876286666,-0.00649045593846,0.694735480173,0.719234418986
1385570985795011478,816483,1385570985795011478,/world,vicon/Archie/Archie,0.0917440385579,0.213035959777,0.114420483684,-0.00139525599961,-0.00664777622388,0.694708270362,0.719259535511
1385570985804996814,816484,1385570985804996814,/world,vicon/Archie/Archie,0.09167370273,0.212965225794,0.114485939961,-0.00114515117586,-0.00683298327118,0.69484340847,0.719127691495
1385570985815060714,816485,1385570985815060714,/world,vicon/Archie/Archie,0.0917361583882,0.213024961407,0.114383916478,-0.00154064428336,-0.00649263890593,0.69472248617,0.719246925099
1385570985825138401,816486,1385570985825138401,/world,vicon/Archie/Archie,0.0916689625524,0.212962979729,0.114491395971,-0.00117038386296,-0.00681274103655,0.694842899214,0.719128334982
1385570985835409293,816487,1385570985835409293,/world,vicon/Archie/Archie,0.0916642431796,0.212968198268,0.114487515433,-0.00114116630631,-0.00682798090025,0.694842724087,0.719128406615
1385570985845408727,816488,1385570985845408727,/world,vicon/Archie/Archie,0.0917452702823,0.213017991377,0.114386052471,-0.00153338584705,-0.00649041551241,0.694718611779,0.719250702942
1385570985855378440,816489,1385570985855378440,/world,vicon/Archie/Archie,0.091741584617,0.213027687636,0.114394560899,-0.00154221836777,-0.00649395684279,0.694728968114,0.719240648845
1385570985865268386,816490,1385570985865268386,/world,vicon/Archie/Archie,0.0917435879232,0.21302813368,0.114398502358,-0.00162332094401,-0.00646705041494,0.694723903858,0.719245604433
1385570985875450013,816491,1385570985875450013,/world,vicon/Archie/Archie,0.0916901763614,0.212942964739,0.114507799752,-0.00115039470541,-0.0069559638147,0.694831328657,0.719138175788
1385570985885435107,816492,1385570985885435107,/world,vicon/Archie/Archie,0.0917352268813,0.213028957325,0.114385858419,-0.00153622027008,-0.00649630024417,0.694725360158,0.719244125498
1385570985895306434,816493,1385570985895306434,/world,vicon/Archie/Archie,0.0917394568957,0.213026410214,0.1143818027,-0.00154529151217,-0.00651119229384,0.694725016248,0.719244303591
1385570985905298882,816494,1385570985905298882,/world,vicon/Archie/Archie,0.0917453253113,0.213022165892,0.114384964181,-0.00152947130545,-0.00648802504081,0.694725158336,0.719244409518
1385570985915332359,816495,1385570985915332359,/world,vicon/Archie/Archie,0.0917426584107,0.213036325063,0.114426363971,-0.0013917941228,-0.00663151742765,0.694713899688,0.719254255091
1385570985925265119,816496,1385570985925265119,/world,vicon/Archie/Archie,0.0917372625106,0.21302490517,0.114389929421,-0.00156717328635,-0.0064749904386,0.694732889573,0.719236978062
1385570985935347000,816497,1385570985935347000,/world,vicon/Archie/Archie,0.0916703618973,0.212962375861,0.114489179067,-0.00112776959927,-0.00683737931211,0.694847148435,0.719124063491
1385570985945334152,816498,1385570985945334152,/world,vicon/Archie/Archie,0.091745206776,0.213055446137,0.114386521715,-0.00142671975916,-0.00661030773709,0.694715319867,0.719253010174
1385570985955369291,816499,1385570985955369291,/world,vicon/Archie/Archie,0.0916688557651,0.212957189679,0.114486741586,-0.00114298244059,-0.00684129978087,0.694847487092,0.719123674962
1385570985965323192,816500,1385570985965323192,/world,vicon/Archie/Archie,0.0917410289375,0.213023907792,0.114385717391,-0.00152152575628,-0.00648955651659,0.694726048806,0.719243552439
1385570985975343685,816501,1385570985975343685,/world,vicon/Archie/Archie,0.0917432511624,0.21304627175,0.11434240113,-0.00154762299076,-0.006497350642,0.694725514668,0.719243942322
1385570985985326272,816502,1385570985985326272,/world,vicon/Archie/Archie,0.0917419632935,0.213027918244,0.114389822506,-0.00155946437226,-0.00647708953089,0.694722297432,0.719247207039
1385570985995302137,816503,1385570985995302137,/world,vicon/Archie/Archie,0.091738147266,0.213026423227,0.114393968248,-0.00153166277298,-0.00650633689467,0.694732129198,0.719237506147
1385570986005297199,816504,1385570986005297199,/world,vicon/Archie/Archie,0.0917421084344,0.213027131323,0.114379157739,-0.00155853674907,-0.00651743483543,0.694719831909,0.71924922604
1385570986015275125,816505,1385570986015275125,/world,vicon/Archie/Archie,0.0917426504449,0.213028222275,0.114388635117,-0.00154320994124,-0.00649267852371,0.694717619952,0.719251619502
1385570986025294243,816506,1385570986025294243,/world,vicon/Archie/Archie,0.0917657533516,0.21304232899,0.114416337047,-0.00144144857776,-0.00676927894247,0.694681958445,0.719283724061
1385570986035318913,816507,1385570986035318913,/world,vicon/Archie/Archie,0.0917423321652,0.213022666249,0.114388719068,-0.00155486876936,-0.0064741910107,0.694715798222,0.719253520627
1385570986045238610,816508,1385570986045238610,/world,vicon/Archie/Archie,0.0916655448692,0.212959391222,0.114476593413,-0.0011340116459,-0.00681228111146,0.694837793714,0.719133330663
1385570986055284438,816509,1385570986055284438,/world,vicon/Archie/Archie,0.0917423654262,0.213021687477,0.114402482819,-0.00160410439964,-0.00649042583232,0.694721002172,0.719248239735
1385570986065358764,816510,1385570986065358764,/world,vicon/Archie/Archie,0.0917391949233,0.213027412344,0.114384987044,-0.00154459395989,-0.00648763265149,0.694725307613,0.719244236553
1385570986075292265,816511,1385570986075292265,/world,vicon/Archie/Archie,0.0917419675577,0.213019969488,0.114389946484,-0.00154992169215,-0.00648394836005,0.694733696169,0.719236155629
1385570986085245769,816512,1385570986085245769,/world,vicon/Archie/Archie,0.0917385190245,0.213027949534,0.114391711257,-0.00152680035108,-0.00652764077803,0.694733689637,0.719235816176
1385570986095292008,816513,1385570986095292008,/world,vicon/Archie/Archie,0.0917416353305,0.213024529613,0.114393865587,-0.00153629245778,-0.00652246564367,0.694728554414,0.719240803159
1385570986105136761,816514,1385570986105136761,/world,vicon/Archie/Archie,0.0916578900402,0.212965652596,0.114489814092,-0.00117190170751,-0.00682418902545,0.694845083815,0.719126113133
1385570986115164891,816515,1385570986115164891,/world,vicon/Archie/Archie,0.0917484517431,0.213043372315,0.114362371496,-0.00164048238158,-0.00646671527371,0.694713469925,0.719255646565
1385570986125066125,816516,1385570986125066125,/world,vicon/Archie/Archie,0.091671188159,0.212959963374,0.114482295836,-0.00113420450627,-0.00680782611249,0.694840041402,0.719131200789
1385570986135055899,816517,1385570986135055899,/world,vicon/Archie/Archie,0.0916724567592,0.212984704327,0.114449189406,-0.00118164689989,-0.00681491264569,0.694827701554,0.719142980102
1385570986145158784,816518,1385570986145158784,/world,vicon/Archie/Archie,0.0917463443735,0.213040627139,0.114349818722,-0.00158847543031,-0.00648772843976,0.694726529074,0.71924296029
1385570986155762263,816519,1385570986155762263,/world,vicon/Archie/Archie,0.0917635881782,0.213009268233,0.114434174418,-0.00162822540669,-0.00662146823476,0.694699775628,0.719267493206
1385570986166019090,816520,1385570986166019090,/world,vicon/Archie/Archie,0.0917579750913,0.213048839196,0.114357860421,-0.00157661240465,-0.006491722912,0.69470716141,0.719261657335
1385570986175827063,816521,1385570986175827063,/world,vicon/Archie/Archie,0.0917543381333,0.213022990388,0.114451695914,-0.00140126175854,-0.00678112836764,0.694695170635,0.719270931332
1385570986185855769,816522,1385570986185855769,/world,vicon/Archie/Archie,0.0917413103198,0.213048133127,0.114360688312,-0.00164028908052,-0.00645501504422,0.694708420055,0.719260629631
1385570986196684147,816523,1385570986196684147,/world,vicon/Archie/Archie,0.0917429432994,0.213023282235,0.114384596752,-0.00153359022469,-0.00647950862197,0.694727806738,0.719241919394
1385570986205813275,816524,1385570986205813275,/world,vicon/Archie/Archie,0.0917150924507,0.213027019177,0.11441847733,-0.00156794599263,-0.00660739167006,0.694739687006,0.719229206317
1385570986215666618,816525,1385570986215666618,/world,vicon/Archie/Archie,0.091735785483,0.213024974665,0.114384803868,-0.00154395559334,-0.00649000457323,0.694730114118,0.719239573841
1385570986225984850,816526,1385570986225984850,/world,vicon/Archie/Archie,0.0917380579577,0.213019427665,0.11439328351,-0.00155637445393,-0.00649199227694,0.694724696717,0.71924476189
1385570986236014610,816527,1385570986236014610,/world,vicon/Archie/Archie,0.0917194783359,0.213045355884,0.114376751634,-0.00158895909585,-0.0065989885702,0.694738300261,0.719230576874
1385570986245467725,816528,1385570986245467725,/world,vicon/Archie/Archie,0.0917299328539,0.213028604793,0.114391845185,-0.0015537959115,-0.00648898479255,0.694727282553,0.719242296915
1385570986255497022,816529,1385570986255497022,/world,vicon/Archie/Archie,0.0917383253198,0.213021903755,0.114384945001,-0.00157439906017,-0.00648665010746,0.694725967745,0.719243543161
1385570986265418560,816530,1385570986265418560,/world,vicon/Archie/Archie,0.0917402525273,0.213023079939,0.11439658475,-0.00158223915312,-0.00651193084119,0.694723091186,0.719246076005
1385570986275322055,816531,1385570986275322055,/world,vicon/Archie/Archie,0.0917449651582,0.213023047313,0.114385320273,-0.00155702233723,-0.00646926464175,0.694726135462,0.719243575573
1385570986285232261,816532,1385570986285232261,/world,vicon/Archie/Archie,0.0917356000246,0.213041191381,0.114440105804,-0.0013919829588,-0.00663090073101,0.694719431198,0.71924891759
1385570986295336301,816533,1385570986295336301,/world,vicon/Archie/Archie,0.0917434538445,0.213027786572,0.114386695616,-0.00154699396192,-0.00648760292871,0.694731764215,0.719237995109
1385570986305308727,816534,1385570986305308727,/world,vicon/Archie/Archie,0.0917424521253,0.213050886682,0.114348779347,-0.00157444924937,-0.00648032333548,0.694715384222,0.719253822683
1385570986315219156,816535,1385570986315219156,/world,vicon/Archie/Archie,0.0916620933428,0.21296152819,0.114482170978,-0.00114705575802,-0.0068020076609,0.694845505869,0.719125955538
1385570986325345502,816536,1385570986325345502,/world,vicon/Archie/Archie,0.0917390293159,0.213018503652,0.11438808005,-0.00156125788583,-0.00647565755079,0.694729739233,0.719240027918
1385570986335303502,816537,1385570986335303502,/world,vicon/Archie/Archie,0.0917630245848,0.213033339095,0.114383471132,-0.0016230143214,-0.00661916132647,0.694692552336,0.719274502716
1385570986345292040,816538,1385570986345292040,/world,vicon/Archie/Archie,0.0917292294199,0.213023704898,0.114391686427,-0.00154344701317,-0.00649147176815,0.69472546882,0.719244048664
1385570986355298063,816539,1385570986355298063,/world,vicon/Archie/Archie,0.0917306561112,0.213024069771,0.114394339043,-0.00156510278786,-0.00648037409671,0.694726863295,0.719242755001
1385570986365332618,816540,1385570986365332618,/world,vicon/Archie/Archie,0.0917405286977,0.213039338755,0.114400855582,-0.00159332414061,-0.00674096312244,0.694719807188,0.71924711347
1385570986375259852,816541,1385570986375259852,/world,vicon/Archie/Archie,0.0916602084355,0.212960172828,0.114495583051,-0.00120060978186,-0.00681632038435,0.694839980627,0.719131071249
1385570986385260316,816542,1385570986385260316,/world,vicon/Archie/Archie,0.0917327904257,0.213026176083,0.114379997261,-0.00156247169768,-0.00645962272448,0.694723031968,0.719246648105
1385570986395250832,816543,1385570986395250832,/world,vicon/Archie/Archie,0.0917247914851,0.213052731127,0.114381165576,-0.00159106978855,-0.00662736496111,0.694724717571,0.719243431201
1385570986405304693,816544,1385570986405304693,/world,vicon/Archie/Archie,0.091731724935,0.213025249199,0.114384697871,-0.00152353318573,-0.00651054843533,0.694724637481,0.719244721693
1385570986415302763,816545,1385570986415302763,/world,vicon/Archie/Archie,0.0917357465058,0.213047544119,0.114350418412,-0.00157558009264,-0.00647651075044,0.694720595466,0.719248821056
1385570986425323988,816546,1385570986425323988,/world,vicon/Archie/Archie,0.0917383745678,0.21303427317,0.114376321302,-0.00155344693696,-0.00649837998449,0.694724832611,0.719244579273
1385570986435318508,816547,1385570986435318508,/world,vicon/Archie/Archie,0.0916707645589,0.212961733073,0.114487547827,-0.0011737647938,-0.00682289080543,0.694837886818,0.719133076335
1385570986445293014,816548,1385570986445293014,/world,vicon/Archie/Archie,0.0917453255095,0.213035204155,0.114425864983,-0.00137314289483,-0.00661215469892,0.694714137025,0.719254239964
1385570986455264986,816549,1385570986455264986,/world,vicon/Archie/Archie,0.0916724589545,0.21296113973,0.1144963653,-0.00119443928766,-0.00682166519638,0.694828575666,0.719142050388
1385570986465244520,816550,1385570986465244520,/world,vicon/Archie/Archie,0.0917377966282,0.213039519136,0.114428277117,-0.00139048812763,-0.00662182152196,0.69471811019,0.719250280081
1385570986475312201,816551,1385570986475312201,/world,vicon/Archie/Archie,0.0916696226783,0.212957801867,0.114493044178,-0.00119550742527,-0.00681363353155,0.694833500651,0.719137366247
1385570986485233717,816552,1385570986485233717,/world,vicon/Archie/Archie,0.0917591975397,0.213016332227,0.11441519798,-0.00157494196801,-0.00663166929351,0.694703227816,0.719264183581
1385570986495221702,816553,1385570986495221702,/world,vicon/Archie/Archie,0.0917356737467,0.213027285272,0.11439464316,-0.0016075503266,-0.00647247437666,0.694721644411,0.719247773472
1385570986505132895,816554,1385570986505132895,/world,vicon/Archie/Archie,0.0917481463748,0.213049657263,0.114346871087,-0.00156518119777,-0.00646910822367,0.694719692601,0.719249782453
1385570986515183742,816555,1385570986515183742,/world,vicon/Archie/Archie,0.0916707788655,0.212962669831,0.114497556958,-0.00121644276909,-0.00681211173428,0.694837523077,0.71913345905
1385570986525085923,816556,1385570986525085923,/world,vicon/Archie/Archie,0.0916683963457,0.2129545607,0.114485420169,-0.00114336363488,-0.00683199157385,0.694848275091,0.71912300145
1385570986535075653,816557,1385570986535075653,/world,vicon/Archie/Archie,0.0917340925681,0.213022958163,0.114386176354,-0.00154325799977,-0.00648240720851,0.694721711182,0.719247760347
1385570986545612513,816558,1385570986545612513,/world,vicon/Archie/Archie,0.0917436931325,0.213017541315,0.114401133776,-0.00160742876837,-0.0064992342144,0.694712693755,0.719256177771
1385570986555708445,816559,1385570986555708445,/world,vicon/Archie/Archie,0.0916483930443,0.212979223264,0.114539832546,-0.000957506276712,-0.0069931408893,0.69485000977,0.719120047756
1385570986565752830,816560,1385570986565752830,/world,vicon/Archie/Archie,0.0917435218012,0.213016963027,0.114396898837,-0.00160781438944,-0.00647924180665,0.694716645973,0.71925253991
1385570986575683770,816561,1385570986575683770,/world,vicon/Archie/Archie,0.0917453882675,0.213028093812,0.114394309386,-0.00150613777571,-0.00651605891661,0.694712558228,0.719256375686
1385570986585707290,816562,1385570986585707290,/world,vicon/Archie/Archie,0.091680684554,0.212968473547,0.114484167813,-0.00123565659991,-0.00692259389435,0.694812932258,0.719156130484
1385570986595980795,816563,1385570986595980795,/world,vicon/Archie/Archie,0.0916537484771,0.212964194986,0.114493487946,-0.00110990518688,-0.00683065165573,0.694852007302,0.719119460352
1385570986605774389,816564,1385570986605774389,/world,vicon/Archie/Archie,0.0917384695955,0.213029311824,0.114383506201,-0.00155048777543,-0.00647337652542,0.694728124125,0.719241631813
1385570986615646935,816565,1385570986615646935,/world,vicon/Archie/Archie,0.0917365985474,0.213032535412,0.114385399943,-0.00156670312011,-0.00650007429497,0.694726921303,0.719242517717
1385570986625683348,816566,1385570986625683348,/world,vicon/Archie/Archie,0.0917439603059,0.213020689871,0.114387160473,-0.00157827484689,-0.00647341508643,0.694719288651,0.719250105263
1385570986635487866,816567,1385570986635487866,/world,vicon/Archie/Archie,0.0916556309607,0.212966227604,0.114479754482,-0.00114524997895,-0.00681821789743,0.694847886419,0.719123504724
1385570986645560366,816568,1385570986645560366,/world,vicon/Archie/Archie,0.0917628789024,0.213020702086,0.114454855058,-0.00142849283774,-0.00674623929301,0.694696308123,0.719270107223
1385570986655490812,816569,1385570986655490812,/world,vicon/Archie/Archie,0.0917084433003,0.213027472841,0.114420279073,-0.00160932450594,-0.0065842312007,0.694730077663,0.719238609339
1385570986665237815,816570,1385570986665237815,/world,vicon/Archie/Archie,0.0917439510209,0.213034107968,0.114438694086,-0.00144587413568,-0.00660544416651,0.694711916501,0.71925630385
1385570986675363063,816571,1385570986675363063,/world,vicon/Archie/Archie,0.0916644724196,0.212959822496,0.114489293075,-0.00115507941644,-0.00682985565022,0.69484340801,0.719127705772
1385570986685370429,816572,1385570986685370429,/world,vicon/Archie/Archie,0.0917477596569,0.213015296368,0.114390487147,-0.00158301214605,-0.00647303671493,0.69471451722,0.719254706924
1385570986695343723,816573,1385570986695343723,/world,vicon/Archie/Archie,0.0917449974096,0.213027254664,0.114385792883,-0.00155115824709,-0.00646657843467,0.694718320699,0.719251160692
1385570986705273964,816574,1385570986705273964,/world,vicon/Archie/Archie,0.0916608804062,0.212969011012,0.114541642492,-0.000993274899735,-0.00698242393996,0.694838408567,0.719131312864
1385570986715291279,816575,1385570986715291279,/world,vicon/Archie/Archie,0.0917410149532,0.213066448619,0.11437909925,-0.00142702072355,-0.00661806858566,0.694709621858,0.719258441784
1385570986725431557,816576,1385570986725431557,/world,vicon/Archie/Archie,0.0916760692868,0.212957214558,0.114508106909,-0.00114710806868,-0.00686424612705,0.69482516177,0.719145020729
1385570986735315289,816577,1385570986735315289,/world,vicon/Archie/Archie,0.0917471596131,0.213025985923,0.11439290545,-0.00153342065755,-0.00651471379788,0.694726584832,0.719242781996
1385570986745244916,816578,1385570986745244916,/world,vicon/Archie/Archie,0.091737066846,0.213021431386,0.11438836557,-0.00150857082477,-0.00651619064471,0.69472718696,0.719242239563
1385570986755246815,816579,1385570986755246815,/world,vicon/Archie/Archie,0.0917401499735,0.21301678564,0.114404923331,-0.00160108125707,-0.00647938202855,0.694719566966,0.719249732306
1385570986765274198,816580,1385570986765274198,/world,vicon/Archie/Archie,0.0917383066461,0.213037960557,0.114356599259,-0.00162916419388,-0.00645130832015,0.694718575318,0.719250879425
1385570986775260123,816581,1385570986775260123,/world,vicon/Archie/Archie,0.0916607699209,0.212987031356,0.114447565238,-0.00117934181096,-0.00680203816063,0.694841784508,0.719129498721
1385570986785411172,816582,1385570986785411172,/world,vicon/Archie/Archie,0.091761288637,0.213028889974,0.114458124797,-0.00140342780077,-0.00676268795163,0.694691811102,0.719274345456
1385570986795403329,816583,1385570986795403329,/world,vicon/Archie/Archie,0.091762655962,0.213004406998,0.114436569135,-0.00161845311308,-0.00662173356094,0.69470074798,0.719266573678
1385570986805357190,816584,1385570986805357190,/world,vicon/Archie/Archie,0.0917450108654,0.213019808785,0.11439061329,-0.00158948744382,-0.00646324071835,0.694714923778,0.71925438805
1385570986815355739,816585,1385570986815355739,/world,vicon/Archie/Archie,0.091739269029,0.213029575662,0.114381960113,-0.00151101360746,-0.00648743093961,0.694722001001,0.719247503578
1385570986825388406,816586,1385570986825388406,/world,vicon/Archie/Archie,0.0917588049343,0.213002185992,0.114411138417,-0.00155819269461,-0.00662153416759,0.69471294331,0.719254929575
1385570986835311089,816587,1385570986835311089,/world,vicon/Archie/Archie,0.09173646701,0.213032062989,0.114438275922,-0.0014427483981,-0.00661067179415,0.694711469722,0.719256693631
1385570986845348580,816588,1385570986845348580,/world,vicon/Archie/Archie,0.0917542602632,0.213028368709,0.114393285896,-0.00152721424159,-0.00650394958561,0.694710275929,0.719258645255
1385570986855279335,816589,1385570986855279335,/world,vicon/Archie/Archie,0.091746678966,0.213034440414,0.114443607655,-0.00145702160596,-0.00661086356926,0.694703482058,0.719264378089
1385570986865299151,816590,1385570986865299151,/world,vicon/Archie/Archie,0.0917608839328,0.213009724037,0.114424288765,-0.00162719968213,-0.00661860242792,0.694694669767,0.71927245333
1385570986875326942,816591,1385570986875326942,/world,vicon/Archie/Archie,0.0917412529017,0.213031423444,0.114380901131,-0.00155392991383,-0.00646577094742,0.69471910964,0.719250399937
1385570986885247796,816592,1385570986885247796,/world,vicon/Archie/Archie,0.0917426121322,0.213027303751,0.1144011696,-0.00161098480596,-0.00646509434122,0.69471015319,0.719258931357
1385570986895394044,816593,1385570986895394044,/world,vicon/Archie/Archie,0.0917659265569,0.213013156737,0.114428240628,-0.00157190391137,-0.00663358028306,0.694711232574,0.719256441102
1385570986905180653,816594,1385570986905180653,/world,vicon/Archie/Archie,0.0917506448161,0.213036090507,0.11442558901,-0.00137559442017,-0.00663026157642,0.694711825282,0.719256301456
1385570986915052752,816595,1385570986915052752,/world,vicon/Archie/Archie,0.0917458755115,0.213016910126,0.114401376812,-0.00159445667905,-0.00649602231621,0.694720978617,0.719248233416
1385570986924995262,816596,1385570986924995262,/world,vicon/Archie/Archie,0.0917374839753,0.213025909766,0.114401923172,-0.00159763353554,-0.00649400463206,0.694736543763,0.719233209905
1385570986935357606,816597,1385570986935357606,/world,vicon/Archie/Archie,0.0917523781275,0.213042433445,0.114337693857,-0.00157996443108,-0.00645995744369,0.694712797664,0.719256492097
1385570986945353229,816598,1385570986945353229,/world,vicon/Archie/Archie,0.0917468344485,0.213022356318,0.114397897901,-0.00152877500426,-0.00652714403852,0.694714729264,0.719254130459
1385570986955425228,816599,1385570986955425228,/world,vicon/Archie/Archie,0.0917352937882,0.213030043232,0.114385073586,-0.00155110824802,-0.00649305211152,0.694725360276,0.719244122761
1385570986965227583,816600,1385570986965227583,/world,vicon/Archie/Archie,0.0916722959228,0.212958400881,0.114482838798,-0.00119075430006,-0.00683581228961,0.694838596797,0.7191322397
1385570986975332186,816601,1385570986975332186,/world,vicon/Archie/Archie,0.0917695724033,0.213032924749,0.114375310417,-0.00158570848839,-0.00661264109981,0.694693631841,0.719273603287
1385570986985333456,816602,1385570986985333456,/world,vicon/Archie/Archie,0.0917356086949,0.213038600477,0.114431991038,-0.00139013701818,-0.0066545333605,0.694719109783,0.719249013351
1385570986995290592,816603,1385570986995290592,/world,vicon/Archie/Archie,0.0916722588602,0.212954177557,0.114497348067,-0.00122111771387,-0.00682195872909,0.69483638919,0.719134453359
1385570987005377936,816604,1385570987005377936,/world,vicon/Archie/Archie,0.0917700232992,0.213012564616,0.11446266043,-0.0014646256006,-0.00676167847279,0.694690588762,0.719275413497
1385570987015377218,816605,1385570987015377218,/world,vicon/Archie/Archie,0.0917368530918,0.213043424011,0.114424911026,-0.00137600107146,-0.0066316445693,0.69471717384,0.719251121851
1385570987025392602,816606,1385570987025392602,/world,vicon/Archie/Archie,0.0917398890621,0.213022576531,0.1143850501,-0.00153683754014,-0.00649245051975,0.694724266067,0.719245215732
1385570987035328124,816607,1385570987035328124,/world,vicon/Archie/Archie,0.0917395973608,0.213038904566,0.114423253482,-0.00135985409113,-0.00662675115552,0.694713383167,0.719254859013
1385570987045327137,816608,1385570987045327137,/world,vicon/Archie/Archie,0.0917436774465,0.21304692971,0.114347234585,-0.00158072672411,-0.0064958120313,0.694723518839,0.719245812015
1385570987055312478,816609,1385570987055312478,/world,vicon/Archie/Archie,0.0916793066088,0.212957564701,0.114501412154,-0.00105957160039,-0.00688858441397,0.694843097325,0.71912759286
1385570987065310723,816610,1385570987065310723,/world,vicon/Archie/Archie,0.0917693131734,0.213023977675,0.114446275702,-0.00140926446293,-0.00675580966634,0.694686462416,0.719279564527
1385570987075276877,816611,1385570987075276877,/world,vicon/Archie/Archie,0.0917318018169,0.213020278499,0.114446093699,-0.00156137701961,-0.00673454367345,0.694731620041,0.719235833464
1385570987085303228,816612,1385570987085303228,/world,vicon/Archie/Archie,0.0916781663538,0.212959849826,0.114487888719,-0.00112963889222,-0.00684150544602,0.694842545504,0.719128468827
1385570987095325852,816613,1385570987095325852,/world,vicon/Archie/Archie,0.0917420344789,0.213028983373,0.114391945403,-0.00152432184891,-0.00648814106286,0.694724179399,0.719245364967
1385570987105298121,816614,1385570987105298121,/world,vicon/Archie/Archie,0.0916716611256,0.212984804869,0.114445124647,-0.00117019511436,-0.00682588882417,0.694839471343,0.719131522706
1385570987115361595,816615,1385570987115361595,/world,vicon/Archie/Archie,0.0917422314763,0.213019831549,0.114438265488,-0.00156646990695,-0.00674367683036,0.694718898726,0.719248024501
1385570987125312139,816616,1385570987125312139,/world,vicon/Archie/Archie,0.0917681700812,0.213010256959,0.114420279247,-0.00154735779505,-0.00663657930274,0.694714366725,0.719253439452
1385570987135254675,816617,1385570987135254675,/world,vicon/Archie/Archie,0.0917436761351,0.213036821523,0.114388473784,-0.00155366512718,-0.00648267958831,0.694723606573,0.719245904723
1385570987145336452,816618,1385570987145336452,/world,vicon/Archie/Archie,0.0917663110588,0.213015637982,0.114412786324,-0.00156793857499,-0.00661982951147,0.694705540499,0.71926207423
1385570987155269930,816619,1385570987155269930,/world,vicon/Archie/Archie,0.0917456692146,0.213046060512,0.11434591826,-0.00158360846105,-0.00647357235793,0.69471771875,0.71925160848
1385570987165315651,816620,1385570987165315651,/world,vicon/Archie/Archie,0.0917436058093,0.21303778673,0.1144290412,-0.00136610568962,-0.00663231033652,0.694721436404,0.719247017384
1385570987175873329,816621,1385570987175873329,/world,vicon/Archie/Archie,0.0917469014249,0.213038697128,0.114344312107,-0.00154197117508,-0.00647078407081,0.694716866877,0.719252546853
1385570987185361900,816622,1385570987185361900,/world,vicon/Archie/Archie,0.0917431705889,0.213017078793,0.11438502092,-0.00152596518339,-0.00649443543011,0.694735887882,0.719233995184
1385570987195337444,816623,1385570987195337444,/world,vicon/Archie/Archie,0.0917378325667,0.213035569358,0.114422598908,-0.00138352698416,-0.00663472258631,0.694720040037,0.719248310585
1385570987205129746,816624,1385570987205129746,/world,vicon/Archie/Archie,0.0916650681524,0.212964311939,0.114478100248,-0.00115117088741,-0.00686505914218,0.694848287458,0.719122662127
1385570987215168424,816625,1385570987215168424,/world,vicon/Archie/Archie,0.0917610097918,0.213004430519,0.114416650841,-0.00157365827005,-0.00662565519682,0.694712788267,0.719255007707
1385570987225168229,816626,1385570987225168229,/world,vicon/Archie/Archie,0.0917688469824,0.213018974269,0.114415214141,-0.00158361714149,-0.00662449914727,0.694702927914,0.719264520267
1385570987235911369,816627,1385570987235911369,/world,vicon/Archie/Archie,0.0917387170431,0.213040775926,0.114424984277,-0.00137950859032,-0.00663280598647,0.69471383736,0.719254327078
1385570987245854199,816628,1385570987245854199,/world,vicon/Archie/Archie,0.0917343738613,0.213019863695,0.114396196745,-0.00153228852769,-0.00651297842069,0.69472863711,0.719240817796
1385570987255765744,816629,1385570987255765744,/world,vicon/Archie/Archie,0.0917396647368,0.213025897159,0.114382509677,-0.00152679207377,-0.00647396773322,0.694722449124,0.719247158723
1385570987265715451,816630,1385570987265715451,/world,vicon/Archie/Archie,0.0917187162164,0.213046309964,0.114380652348,-0.00166650421961,-0.00657242019825,0.694729806356,0.719238849213
1385570987275838643,816631,1385570987275838643,/world,vicon/Archie/Archie,0.0917481580146,0.21302008837,0.114400291721,-0.00160973203687,-0.00648760340335,0.694713421826,0.719255574396
1385570987285909089,816632,1385570987285909089,/world,vicon/Archie/Archie,0.0917313726307,0.213024252835,0.114385673668,-0.00153306358862,-0.00650296139669,0.69472892947,0.719240624386
1385570987295787077,816633,1385570987295787077,/world,vicon/Archie/Archie,0.0917174533403,0.213028828319,0.114405145583,-0.00154593905504,-0.0065888836405,0.694735688544,0.71923328604
1385570987305791602,816634,1385570987305791602,/world,vicon/Archie/Archie,0.0917440265854,0.213017484763,0.114392255425,-0.00158772767983,-0.00647187521846,0.694711338772,0.719257776971
1385570987315859305,816635,1385570987315859305,/world,vicon/Archie/Archie,0.0916930618665,0.212956397671,0.114500398571,-0.00116098611544,-0.00698477477692,0.694820588864,0.71914825615
1385570987325674108,816636,1385570987325674108,/world,vicon/Archie/Archie,0.0916377989972,0.212980789646,0.1145605995,-0.000998317400077,-0.00708653281636,0.694849299375,0.719119764416
1385570987335534023,816637,1385570987335534023,/world,vicon/Archie/Archie,0.091741558313,0.213048746715,0.11434926687,-0.00157623216003,-0.00649022532286,0.69472983655,0.719239769948
1385570987345585550,816638,1385570987345585550,/world,vicon/Archie/Archie,0.0917066203374,0.213035961023,0.114417080544,-0.00154304115144,-0.0066035301272,0.694746117931,0.719223083636
1385570987355509298,816639,1385570987355509298,/world,vicon/Archie/Archie,0.0917338012951,0.21302711375,0.114388406072,-0.001552439917,-0.00647875188356,0.694726042566,0.719243589812
1385570987365483820,816640,1385570987365483820,/world,vicon/Archie/Archie,0.0916779461172,0.212957653126,0.114506534916,-0.00108066131611,-0.00688029294684,0.694833662007,0.719136757427
1385570987375589603,816641,1385570987375589603,/world,vicon/Archie/Archie,0.0917373318613,0.213037501268,0.114424610895,-0.0013888726124,-0.00661701332129,0.694716042927,0.719252324201
1385570987385574276,816642,1385570987385574276,/world,vicon/Archie/Archie,0.0917390188413,0.213019906484,0.114385064403,-0.0015410162047,-0.0064895292098,0.694721473726,0.719247930288
1385570987395519822,816643,1385570987395519822,/world,vicon/Archie/Archie,0.0916461950952,0.21297553344,0.114537953932,-0.000929456707344,-0.00699062695209,0.694842200914,0.719127654227
1385570987405618283,816644,1385570987405618283,/world,vicon/Archie/Archie,0.0917404496927,0.213048931816,0.11434867184,-0.00159969247151,-0.00646606718298,0.694716164377,0.719253141747
1385570987415448006,816645,1385570987415448006,/world,vicon/Archie/Archie,0.0917397547137,0.213050851633,0.11435637753,-0.00164677610065,-0.0064741883715,0.694718694367,0.719250518742
1385570987425538979,816646,1385570987425538979,/world,vicon/Archie/Archie,0.0917357534189,0.213038438012,0.114432405356,-0.00138652497482,-0.00662478711417,0.694722979214,0.71924555744
1385570987435531907,816647,1385570987435531907,/world,vicon/Archie/Archie,0.0917388737138,0.213018267085,0.114388059714,-0.00153348811969,-0.00650467232206,0.694737191091,0.719232627852
1385570987445544762,816648,1385570987445544762,/world,vicon/Archie/Archie,0.0917371162905,0.213046062632,0.114355030321,-0.00158776701934,-0.00648043223876,0.694719806063,0.719249521417
1385570987455581937,816649,1385570987455581937,/world,vicon/Archie/Archie,0.0917406499753,0.213016157677,0.11439224131,-0.00159627172185,-0.00646740518384,0.694712800625,0.7192563863
1385570987465519344,816650,1385570987465519344,/world,vicon/Archie/Archie,0.0917363490765,0.213039789786,0.114415246111,-0.00137845020117,-0.00660165462085,0.694717800719,0.719250787553
1385570987475559564,816651,1385570987475559564,/world,vicon/Archie/Archie,0.0917428431332,0.213024978952,0.114381740881,-0.00154136607097,-0.00647861343234,0.69473022551,0.719239574496
1385570987485529888,816652,1385570987485529888,/world,vicon/Archie/Archie,0.0916712934786,0.21296363507,0.11448766157,-0.00114076969816,-0.00684546212109,0.694840904294,0.719129999383
1385570987495529593,816653,1385570987495529593,/world,vicon/Archie/Archie,0.0917333165141,0.213022642044,0.114378867494,-0.00155070964435,-0.00648974234331,0.694723180776,0.719246258688
1385570987505918210,816654,1385570987505918210,/world,vicon/Archie/Archie,0.091734643565,0.21302192112,0.11438821826,-0.00156030025585,-0.00648797000697,0.694729706475,0.719239950676
1385570987515521682,816655,1385570987515521682,/world,vicon/Archie/Archie,0.0917381111028,0.213050268261,0.114361143603,-0.00163234724292,-0.00647696597522,0.694719846995,0.719249413309
1385570987525528706,816656,1385570987525528706,/world,vicon/Archie/Archie,0.0917328186126,0.213022593475,0.114384003254,-0.00155324914249,-0.00649329088474,0.694729549905,0.719240069156
1385570987535750001,816657,1385570987535750001,/world,vicon/Archie/Archie,0.0917312268215,0.213043989465,0.114352119054,-0.00159938244966,-0.00649466708362,0.694725787728,0.719243589572
1385570987545563024,816658,1385570987545563024,/world,vicon/Archie/Archie,0.0917368840479,0.213037688337,0.114440153127,-0.00145403102712,-0.00662089671421,0.694712030717,0.719256035009
1385570987555553067,816659,1385570987555553067,/world,vicon/Archie/Archie,0.0917482405385,0.213035711816,0.114357268632,-0.00163932463718,-0.00647271192475,0.694711874233,0.719257136506
1385570987565611668,816660,1385570987565611668,/world,vicon/Archie/Archie,0.0917440537171,0.213032930084,0.114425817435,-0.00139557153039,-0.00662715999665,0.694716920402,0.719251370272
1385570987575376070,816661,1385570987575376070,/world,vicon/Archie/Archie,0.091733232872,0.213020335643,0.11439077589,-0.00157219532978,-0.00647228240636,0.694730855666,0.719238956084
1385570987585248795,816662,1385570987585248795,/world,vicon/Archie/Archie,0.0917328470287,0.213028646026,0.11439289103,-0.00154350182017,-0.00649208067991,0.69472292367,0.719246501429
1385570987595305531,816663,1385570987595305531,/world,vicon/Archie/Archie,0.0917329678795,0.21303049588,0.114425430576,-0.00142692963488,-0.00662864122886,0.694714978731,0.719253170528
1385570987605417219,816664,1385570987605417219,/world,vicon/Archie/Archie,0.0917318739795,0.213033108073,0.114391826191,-0.00155955841227,-0.00649052724963,0.694726810181,0.719242726796
1385570987615306345,816665,1385570987615306345,/world,vicon/Archie/Archie,0.0917317510425,0.21302725556,0.114387838836,-0.0015283402451,-0.00647323715459,0.694725144666,0.71924455837
1385570987625324267,816666,1385570987625324267,/world,vicon/Archie/Archie,0.0917392310666,0.213032279694,0.114429292025,-0.00136710724784,-0.00664445520916,0.69471789143,0.719250327466
1385570987635284250,816667,1385570987635284250,/world,vicon/Archie/Archie,0.0916369075039,0.212974800039,0.114512409988,-0.00111677853864,-0.00694818665858,0.694861930663,0.719108735048
1385570987645274479,816668,1385570987645274479,/world,vicon/Archie/Archie,0.0917341955975,0.21303790061,0.114432269345,-0.00138620630997,-0.00665504805807,0.694722237145,0.719245995459
1385570987655423161,816669,1385570987655423161,/world,vicon/Archie/Archie,0.0917419599967,0.213034286607,0.114437651301,-0.00146839424877,-0.00660394286392,0.694708146607,0.71925991324
1385570987665543473,816670,1385570987665543473,/world,vicon/Archie/Archie,0.0917355994336,0.213030349658,0.114390720055,-0.00156135052902,-0.00647449222637,0.694721828848,0.719247678938
1385570987675605044,816671,1385570987675605044,/world,vicon/Archie/Archie,0.0917463444968,0.213039539952,0.114426188982,-0.00139280930634,-0.00661247734654,0.694704445541,0.71926355988
1385570987685333449,816672,1385570987685333449,/world,vicon/Archie/Archie,0.0916667536869,0.212961426651,0.114489638933,-0.00115846380545,-0.00682681964121,0.694848164777,0.71912313299
1385570987695297962,816673,1385570987695297962,/world,vicon/Archie/Archie,0.0917340403774,0.213062816337,0.114391249195,-0.001419906052,-0.00661909373105,0.694708021999,0.719259991683
1385570987705359615,816674,1385570987705359615,/world,vicon/Archie/Archie,0.0917398115594,0.213025488446,0.114388262861,-0.00158134206053,-0.00649046811807,0.694723337302,0.719246034254
1385570987715282004,816675,1385570987715282004,/world,vicon/Archie/Archie,0.0917353315486,0.213022586075,0.114390769704,-0.00152609426507,-0.00648040929291,0.694722622881,0.719246934362
1385570987725268875,816676,1385570987725268875,/world,vicon/Archie/Archie,0.0917396661899,0.213027274387,0.114389714801,-0.00154367168272,-0.00649471290331,0.694725192421,0.719244285899
1385570987735308398,816677,1385570987735308398,/world,vicon/Archie/Archie,0.0917365685107,0.213021468334,0.114384553378,-0.00154547109223,-0.00650196909314,0.694722295321,0.719247014802
1385570987745260790,816678,1385570987745260790,/world,vicon/Archie/Archie,0.0916547407619,0.212958575587,0.114484339918,-0.00112005733116,-0.00684055438256,0.694850628502,0.719120682749
1385570987755318852,816679,1385570987755318852,/world,vicon/Archie/Archie,0.0917340739405,0.213027068484,0.114433587808,-0.00139316104473,-0.00663521848608,0.694726580627,0.719241969818
1385570987765746756,816680,1385570987765746756,/world,vicon/Archie/Archie,0.0917300406653,0.213028992807,0.114391132619,-0.00154019689274,-0.00649884831811,0.694722282193,0.719247067001
1385570987775361911,816681,1385570987775361911,/world,vicon/Archie/Archie,0.0917472712641,0.213022387855,0.114394608552,-0.00159707738392,-0.00645884199008,0.694710859748,0.719258336102
1385570987785383313,816682,1385570987785383313,/world,vicon/Archie/Archie,0.0916623207215,0.212963868661,0.114484977551,-0.0011518581275,-0.00682166738764,0.694841143669,0.719129976529
1385570987795378036,816683,1385570987795378036,/world,vicon/Archie/Archie,0.0917593123069,0.213029021879,0.114400323652,-0.00153609072937,-0.00653029216284,0.694706377781,0.719262152751
1385570987805243971,816684,1385570987805243971,/world,vicon/Archie/Archie,0.0917450994733,0.213030984458,0.114400314174,-0.00152865323877,-0.00651156949384,0.694712052499,0.719256857315
1385570987815303246,816685,1385570987815303246,/world,vicon/Archie/Archie,0.091731241062,0.213022033869,0.114393991846,-0.00155421526022,-0.00651285772461,0.694726808864,0.719242537775
1385570987825279239,816686,1385570987825279239,/world,vicon/Archie/Archie,0.0917154059916,0.213027637001,0.114424976961,-0.00162790614297,-0.0066050315085,0.694731899247,0.719236617289
1385570987835275446,816687,1385570987835275446,/world,vicon/Archie/Archie,0.0917423694096,0.213034721953,0.114436891841,-0.0014474343357,-0.0066263691323,0.694704726524,0.719263052792
1385570987845320593,816688,1385570987845320593,/world,vicon/Archie/Archie,0.0917689916627,0.213007355435,0.114430536716,-0.00164641892678,-0.00661388983471,0.694687819567,0.719279069006
1385570987855322789,816689,1385570987855322789,/world,vicon/Archie/Archie,0.0917406241087,0.213039495213,0.114424842596,-0.00135273018377,-0.00665224887473,0.694720919696,0.719247357619
1385570987865303296,816690,1385570987865303296,/world,vicon/Archie/Archie,0.0917440555858,0.21302302223,0.114402509293,-0.00160539904169,-0.00649541114448,0.694716693252,0.719252353799
1385570987875326768,816691,1385570987875326768,/world,vicon/Archie/Archie,0.0917198763574,0.213055450442,0.114383748964,-0.0016372168987,-0.00658147702889,0.694732697569,0.719236040955
1385570987885330001,816692,1385570987885330001,/world,vicon/Archie/Archie,0.0917451683967,0.213015387487,0.114397245399,-0.00157690189493,-0.00648301092143,0.694714618014,0.719254533158
1385570987895291257,816693,1385570987895291257,/world,vicon/Archie/Archie,0.091744994802,0.213022272435,0.114396436304,-0.00160628477028,-0.0064594439912,0.69471390853,0.719255365449
1385570987905392172,816694,1385570987905392172,/world,vicon/Archie/Archie,0.0917403582247,0.213031174276,0.114440218688,-0.00144623463275,-0.00659487686431,0.694704518972,0.71926354511
1385570987915358990,816695,1385570987915358990,/world,vicon/Archie/Archie,0.0917344990532,0.213025154032,0.114390064315,-0.00151901250543,-0.0064905213556,0.694728502581,0.719241178906
1385570987925248298,816696,1385570987925248298,/world,vicon/Archie/Archie,0.0916717889139,0.212960636091,0.114482648557,-0.00112450113428,-0.00683290525852,0.69483530069,0.719135558722
1385570987935206483,816697,1385570987935206483,/world,vicon/Archie/Archie,0.0917328728118,0.213033800704,0.114433644046,-0.0014107099982,-0.00662682132449,0.694725298195,0.719243251747
1385570987945165341,816698,1385570987945165341,/world,vicon/Archie/Archie,0.0917634021292,0.213048486669,0.114414545513,-0.00146021460269,-0.00675512210449,0.694678387632,0.719287267964
1385570987955116184,816699,1385570987955116184,/world,vicon/Archie/Archie,0.0917390156343,0.213025894972,0.11439383145,-0.00154540105253,-0.0064921919228,0.69472383723,0.719245613935
1385570987965177245,816700,1385570987965177245,/world,vicon/Archie/Archie,0.0917800994578,0.213016216435,0.114432906478,-0.00161790952241,-0.00666512603263,0.694677386443,0.719288737037
1385570987975171231,816701,1385570987975171231,/world,vicon/Archie/Archie,0.0917431840725,0.213025529232,0.114382307515,-0.0015418670859,-0.00649089155233,0.69472787226,0.719241735773
1385570987985829492,816702,1385570987985829492,/world,vicon/Archie/Archie,0.091748858583,0.213014252635,0.114391579973,-0.00161369923211,-0.00644807403937,0.694710273251,0.719258962096
1385570987995960116,816703,1385570987995960116,/world,vicon/Archie/Archie,0.0916578224619,0.21297229345,0.114534101178,-0.000962296526925,-0.00696378056411,0.694845812723,0.719124381653
1385570988005847609,816704,1385570988005847609,/world,vicon/Archie/Archie,0.0917426843029,0.213019181262,0.114400142857,-0.00162557011787,-0.0064693543595,0.69471262441,0.719256473353
1385570988015909217,816705,1385570988015909217,/world,vicon/Archie/Archie,0.0917150091533,0.213039147346,0.114417705689,-0.00153405897795,-0.00662181127159,0.694735932921,0.71923277302
1385570988025851312,816706,1385570988025851312,/world,vicon/Archie/Archie,0.0917405730724,0.213022386394,0.11439153184,-0.00154590804185,-0.00649292351639,0.694719905583,0.719249403822
1385570988035698210,816707,1385570988035698210,/world,vicon/Archie/Archie,0.0916619321081,0.212962778247,0.114485591871,-0.00115363567363,-0.00683356649274,0.694845704214,0.719125454166
1385570988045744664,816708,1385570988045744664,/world,vicon/Archie/Archie,0.0917356304453,0.213032562994,0.114387309865,-0.00152821523849,-0.00651708659761,0.694724660079,0.719244630719
1385570988055852312,816709,1385570988055852312,/world,vicon/Archie/Archie,0.0917353802359,0.213043806854,0.114426334513,-0.00137483932382,-0.00662860797133,0.694715986233,0.719252299159
1385570988066062942,816710,1385570988066062942,/world,vicon/Archie/Archie,0.0917362791599,0.213030084799,0.114393116645,-0.00154056853289,-0.00649459157935,0.694721206641,0.71924814353
1385570988076157912,816711,1385570988076157912,/world,vicon/Archie/Archie,0.0917505029522,0.2130592188,0.114388721478,-0.00140495396189,-0.00661199324342,0.694710742545,0.719257458663
1385570988085940020,816712,1385570988085940020,/world,vicon/Archie/Archie,0.0917354345224,0.213023887497,0.114392779995,-0.00154742013921,-0.00648881305903,0.694727409617,0.719242189476
1385570988095814659,816713,1385570988095814659,/world,vicon/Archie/Archie,0.0917470186467,0.213060589227,0.114380179907,-0.00143966838229,-0.00659171771513,0.694704527915,0.719263578605
1385570988105394660,816714,1385570988105394660,/world,vicon/Archie/Archie,0.0917369920685,0.213031917284,0.114398654415,-0.0015511390792,-0.00650364978277,0.694725880876,0.719243524092
1385570988115328097,816715,1385570988115328097,/world,vicon/Archie/Archie,0.0917498829885,0.213014107491,0.114391419096,-0.0015955556329,-0.0064742699955,0.69471084911,0.719258211048
1385570988125422555,816716,1385570988125422555,/world,vicon/Archie/Archie,0.091745061789,0.213021121636,0.11439762863,-0.00156442925912,-0.00648803676468,0.69471926781,0.719250023896
1385570988135284581,816717,1385570988135284581,/world,vicon/Archie/Archie,0.0917427609075,0.21304596838,0.114353968795,-0.00165875459284,-0.00645927103445,0.694713809901,0.719255343173
1385570988145419110,816718,1385570988145419110,/world,vicon/Archie/Archie,0.0917396342793,0.213026089837,0.114386975725,-0.00154679441682,-0.00648439080486,0.694722293397,0.719247172508
1385570988155736306,816719,1385570988155736306,/world,vicon/Archie/Archie,0.0917375050889,0.213034368069,0.114428050534,-0.00137928386715,-0.00665928009703,0.694710883194,0.719256936245
1385570988165359445,816720,1385570988165359445,/world,vicon/Archie/Archie,0.0917369346894,0.213025758114,0.114393634239,-0.00155233725279,-0.0064916267914,0.694724528929,0.719244935982
1385570988175336887,816721,1385570988175336887,/world,vicon/Archie/Archie,0.0917492277046,0.213026489692,0.114398315762,-0.00162038901318,-0.00647663807973,0.694710409712,0.719258558612
1385570988185344371,816722,1385570988185344371,/world,vicon/Archie/Archie,0.0917416680468,0.213020333822,0.114390740635,-0.00158590282362,-0.0064896635674,0.694718753736,0.719250458733
1385570988195484282,816723,1385570988195484282,/world,vicon/Archie/Archie,0.0917317734587,0.213019796855,0.114385786729,-0.00151050661583,-0.00650551742302,0.694726861501,0.719242646485
1385570988205281382,816724,1385570988205281382,/world,vicon/Archie/Archie,0.0916354629942,0.212972723285,0.114509076631,-0.00116572172311,-0.00695575771041,0.694859040065,0.719111377304
1385570988215297260,816725,1385570988215297260,/world,vicon/Archie/Archie,0.0917372075711,0.213038524335,0.114441406987,-0.00142312450339,-0.0066530949326,0.69470738998,0.719260282062
1385570988225350139,816726,1385570988225350139,/world,vicon/Archie/Archie,0.091733856212,0.213028767447,0.11438284678,-0.0015426336866,-0.00649461038007,0.6947326155,0.719237118952
1385570988235289449,816727,1385570988235289449,/world,vicon/Archie/Archie,0.0917541309666,0.213054604041,0.114357082501,-0.00157555755032,-0.00649855915767,0.694708014535,0.719260773912
1385570988245384360,816728,1385570988245384360,/world,vicon/Archie/Archie,0.0916783446027,0.212964770739,0.114569150781,-0.000959238330366,-0.00715099527008,0.694822010307,0.719145546549
1385570988255426211,816729,1385570988255426211,/world,vicon/Archie/Archie,0.0917384061576,0.213026476407,0.114384407543,-0.00155895076452,-0.00648252957236,0.694716702007,0.719252563733
1385570988265393061,816730,1385570988265393061,/world,vicon/Archie/Archie,0.0917372653619,0.213025765465,0.114381713202,-0.00152874565725,-0.00647787492203,0.694720562145,0.719248942027
1385570988275351361,816731,1385570988275351361,/world,vicon/Archie/Archie,0.0916744797493,0.212982082772,0.114439451348,-0.00118666398542,-0.00681482330619,0.694829901804,0.719140846824
1385570988285344607,816732,1385570988285344607,/world,vicon/Archie/Archie,0.0917363794486,0.213031899526,0.114395739804,-0.00156382169137,-0.00649291113002,0.694727544258,0.719241986966
1385570988295411229,816733,1385570988295411229,/world,vicon/Archie/Archie,0.0917289787114,0.213017733764,0.114385538744,-0.00154099661908,-0.0064735399529,0.694745078075,0.719225274236
1385570988305342756,816734,1385570988305342756,/world,vicon/Archie/Archie,0.0917440857472,0.213033863668,0.114429202935,-0.00139168981943,-0.00662566762137,0.694715134326,0.719253116689
1385570988315361749,816735,1385570988315361749,/world,vicon/Archie/Archie,0.0917207814291,0.213042632178,0.114453903375,-0.00140767906918,-0.00674405882392,0.694728140786,0.719239422244
