%time,field.linear.x,field.linear.y,field.linear.z,field.angular.x,field.angular.y,field.angular.z
1385570988843632508,0.0,0.0,0.0,0.0,0.0,0.0
1385570988843670023,0.0917296619265,-0.213031643079,-0.114386176802,-0.0112479714258,0.00715972882328,-1.53618143832
1385570988853493972,0.0917416487785,-0.213044314912,-0.114366436497,-0.0113627919668,0.00705716121971,-1.53613065559
1385570988863474814,0.091751144393,-0.213013020945,-0.114402054351,-0.0113036788245,0.0071709503813,-1.53612225369
1385570988873443314,0.0916678900148,-0.212964924629,-0.114495517587,-0.011202714729,0.00810677614151,-1.53647724624
1385570988883415084,0.0916573984745,-0.21299281453,-0.114500259232,-0.0111727088979,0.00871185091824,-1.53649696413
1385570988893421808,0.091741081419,-0.213035853978,-0.114444222082,-0.0112882514485,0.00753253717739,-1.53612733857
1385570988903505128,0.0916719722396,-0.212957005044,-0.11449950232,-0.0112078918573,0.00811975444923,-1.53647069181
1385570988913569505,0.0917297787908,-0.213035323739,-0.114386166899,-0.0112485725657,0.00713784161086,-1.53614985956
1385570988923472425,0.0917498584843,-0.213022126332,-0.114413130465,-0.0112963217242,0.00714030226443,-1.53609786989
1385570988933445176,0.091746621031,-0.213055223297,-0.114401406679,-0.0113156477559,0.00742428306419,-1.53607537166
1385570988943509336,0.0916636085247,-0.212958425831,-0.114492950339,-0.0111441253161,0.00819079926032,-1.53650411441
1385570988953457755,0.0917326855689,-0.213032361503,-0.1143889652,-0.0112519387944,0.00716977654881,-1.53616057588
1385570988963417413,0.0916780377277,-0.21295948967,-0.114499143866,-0.0112087717762,0.00812315623604,-1.53646769112
1385570988973420119,0.0917429265817,-0.213020643803,-0.114406812453,-0.0113467931552,0.00715965973441,-1.53613636155
1385570988984578054,0.0916615546167,-0.212964669594,-0.114487636513,-0.0111347085954,0.0082348088349,-1.53648628849
1385570988993445494,0.0917579238293,-0.213011015914,-0.114414516127,-0.011458196386,0.0073412567558,-1.53609972943
1385570989003475018,0.0917640974403,-0.213013190165,-0.114418657037,-0.0114233473166,0.00740494261811,-1.53608485829
1385570989013511741,0.0917296590406,-0.213020986201,-0.114388387679,-0.0111969383229,0.00721400792342,-1.53617571455
1385570989023602985,0.0917393279366,-0.213019003455,-0.114394945909,-0.0112889075017,0.00707374754997,-1.53612020008
1385570989033487657,0.0917706538451,-0.213019976958,-0.114460463132,-0.0114646039064,0.00774519587706,-1.53606896468
1385570989043684594,0.0917443046086,-0.213022802765,-0.114391495019,-0.011237128171,0.00717913226244,-1.53616600375
1385570989053474126,0.0917460495925,-0.213018259435,-0.114401445873,-0.0113252344246,0.00705941253356,-1.53611408102
1385570989063438015,0.0916704052729,-0.21296239997,-0.114485004791,-0.0111574329868,0.00827413374358,-1.53649915863
1385570989073508904,0.0917443813532,-0.213043469848,-0.1144060853,-0.0116751053761,0.00739504806648,-1.53611446935
1385570989083514168,0.0916692476781,-0.212981632681,-0.114454947029,-0.011168027938,0.00821624585494,-1.53647957919
1385570989093480388,0.091748870217,-0.213039258798,-0.114437786932,-0.0112772617867,0.00749683093423,-1.53608650597
1385570989104025283,0.0916794930251,-0.212959133424,-0.114494029423,-0.0111505960798,0.00835458388294,-1.53645539691
1385570989113574868,0.0917340658791,-0.21302863766,-0.114387421949,-0.0112572479459,0.00724807629015,-1.53617754161
1385570989123560643,0.0917654945868,-0.213031731269,-0.114443421864,-0.0112337521581,0.00773487083519,-1.53608248806
1385570989133621963,0.0917457886,-0.213024277195,-0.114384649669,-0.0112048217224,0.00721002257479,-1.53614188082
1385570989143672713,0.0917326700985,-0.213026914517,-0.114394362219,-0.0112757024311,0.00723291392887,-1.53618293347
1385570989153461955,0.091738581462,-0.21302326283,-0.114386466737,-0.0112121711291,0.00717305950926,-1.53615851476
1385570989163550936,0.0916631058194,-0.212955359897,-0.114480675011,-0.0111361802459,0.00820311165649,-1.53648947743
1385570989173580571,0.0917419572799,-0.213019973893,-0.11437664607,-0.0111964053133,0.0071969245644,-1.53615031204
1385570989183466834,0.0917340287256,-0.213030443412,-0.114418478696,-0.0111580291315,0.00764033571841,-1.53612859184
1385570989193550374,0.0917403664235,-0.213021499963,-0.114383689274,-0.011209667595,0.00721774070539,-1.53616433234
1385570989203507416,0.0917416578645,-0.21301841628,-0.114394599429,-0.0112924211235,0.00711442699151,-1.53613667693
1385570989213512435,0.0917567603929,-0.21302779214,-0.114399421991,-0.0112941207106,0.00715152364183,-1.53609374474
1385570989223474467,0.0917345619612,-0.213025469495,-0.114379306849,-0.0112060218769,0.00720553201645,-1.53614560263
1385570989233671668,0.0917315450163,-0.213028139117,-0.114384723849,-0.0112413156154,0.00722303655015,-1.53616507517
1385570989243620825,0.0917611845248,-0.213018848325,-0.114414086938,-0.0114672628082,0.00740495279809,-1.53610932781
1385570989253679393,0.0917343489934,-0.213028906743,-0.114381202239,-0.011210569864,0.00726500610915,-1.5361657121
1385570989263451283,0.091729871337,-0.213025579795,-0.114371700427,-0.0112806913816,0.00726988514933,-1.53617882823
1385570989273470541,0.091744573682,-0.213037487804,-0.114424212633,-0.0112504400852,0.0075766961827,-1.53614041838
1385570989283453725,0.0917388089683,-0.213031678233,-0.11438485284,-0.0112460205201,0.00719948238224,-1.536162334
1385570989293506238,0.0917411552944,-0.2130302132,-0.11438141661,-0.0112405500866,0.00721596687405,-1.53617839368
1385570989303463760,0.0917356973695,-0.2130275385,-0.114387668485,-0.0112570277763,0.00721873590591,-1.53614238656
1385570989313459964,0.0917415963879,-0.213049885123,-0.114340268049,-0.0112709210246,0.00716800659958,-1.53613676095
1385570989323427472,0.091742733833,-0.213027148292,-0.114384976403,-0.0112429371853,0.00724247324261,-1.53615712002
1385570989333524478,0.0917376921475,-0.213026933426,-0.114380446931,-0.0112143954672,0.00716935864772,-1.53613555151
1385570989343442532,0.0917407709459,-0.213040893574,-0.114433070059,-0.0112261973857,0.00759103711985,-1.53614464966
1385570989353442782,0.0917383528289,-0.213051105615,-0.114344612778,-0.0112780199974,0.00716769571583,-1.53614183329
1385570989363462284,0.0917442918623,-0.21302311184,-0.114397737582,-0.0113307994806,0.0070974286658,-1.53615030298
1385570989373430850,0.0917521007812,-0.213011146279,-0.114414309565,-0.0115211738972,0.00739819905088,-1.53609717824
1385570989383697100,0.091733150133,-0.213035226275,-0.114434018035,-0.0112251900388,0.00754023131556,-1.53611832442
1385570989393697736,0.0917376771518,-0.213021898583,-0.114386381595,-0.0112342437251,0.00721635731013,-1.5361805208
1385570989403482282,0.0916754153553,-0.212955890904,-0.114491750822,-0.0112167841798,0.00817654572648,-1.53647042424
1385570989413691215,0.0917335992909,-0.213037189617,-0.114424368585,-0.0111545663717,0.00767386820354,-1.53623931537
1385570989423482971,0.0917064881877,-0.213063018538,-0.114355845567,-0.0110643437573,0.00730714503933,-1.53598785386
1385570989433668914,0.0917469608725,-0.213026716232,-0.114376095536,-0.011353895778,0.00718710806986,-1.53579279401
1385570989443590940,0.0916558203139,-0.212953392012,-0.11447620788,-0.011265181731,0.00849194630061,-1.53686054603
1385570989453515048,0.0917199813563,-0.213035249327,-0.114371333653,-0.0114483166739,0.00742542313179,-1.53633615935
1385570989463470299,0.091769239284,-0.213018963089,-0.114411226994,-0.0115132621553,0.00723125393835,-1.53567014241
1385570989473436030,0.0917623738021,-0.213011176429,-0.114367169004,-0.011331537044,0.00712337039717,-1.53593681786
1385570989483446836,0.0916396004675,-0.21286485013,-0.114493852049,-0.0109831117194,0.00756921705228,-1.53707955363
1385570989493435117,0.0916725641321,-0.213055511907,-0.114428755774,-0.0109648350107,0.00747162312548,-1.53634605026
1385570989503462125,0.0917131351546,-0.213030764712,-0.114530915414,-0.0111034028399,0.00735241277319,-1.53613188753
1385570989513432794,0.0917125702536,-0.213042449925,-0.114462943263,-0.0109791731619,0.00721031392518,-1.53643520857
1385570989523506853,0.0918323856504,-0.212983245248,-0.114295134377,-0.0110797541578,0.00728662137889,-1.53703928076
1385570989533466197,0.0917563540181,-0.213033702141,-0.114422495367,-0.0113153726084,0.00768768926301,-1.53693690628
1385570989543430898,0.0916898099117,-0.213075544045,-0.114439919872,-0.0113840608525,0.00784759761207,-1.5361785916
1385570989553426125,0.0917751465067,-0.213054710877,-0.114449687072,-0.0110471458029,0.00769966987281,-1.53619577012
1385570989563425421,0.091754658405,-0.213019863519,-0.114375847197,-0.0108117882694,0.0074348685273,-1.53669562668
1385570989573464699,0.0916763082492,-0.2129670993,-0.11450406985,-0.0106286636352,0.00845032301195,-1.53691334265
1385570989583479348,0.0916559720722,-0.213007766865,-0.114496176865,-0.0105487972733,0.00812375950951,-1.53675740213
1385570989593425422,0.0917526559076,-0.213046841941,-0.114418956316,-0.0108438886336,0.00728787834233,-1.53675255624
1385570989603447244,0.0917261553961,-0.213050283771,-0.114375393842,-0.0105544644478,0.00723314119575,-1.53664308916
1385570989613440560,0.0916863556958,-0.213102093791,-0.114379306303,-0.0102202481391,0.00731874942993,-1.53651403161
1385570989623419415,0.0917519718641,-0.213049595132,-0.114411896874,-0.0109036282638,0.00723621908825,-1.53672256873
1385570989633445580,0.0917822837782,-0.213045439674,-0.114411741228,-0.010824721809,0.00732490868907,-1.53677116806
1385570989643549751,0.0917259807614,-0.213064412703,-0.114381859313,-0.0106043196877,0.0072486974974,-1.53641145221
1385570989653567369,0.0916852098463,-0.21300581728,-0.114462139949,-0.0107218214567,0.00831839631415,-1.53687398483
1385570989663663064,0.091760468542,-0.213040291501,-0.114419000214,-0.0108118302002,0.00727799607569,-1.53682560746
1385570989673537541,0.091725817853,-0.213054157835,-0.114391790492,-0.0105607013535,0.00712742265652,-1.53657212038
1385570989683566622,0.0916699940693,-0.213102038705,-0.11440125247,-0.0102554534968,0.0072264015938,-1.53630244052
1385570989693565460,0.0917513265352,-0.213050175326,-0.114401033046,-0.0108310648125,0.00733441586686,-1.53685979898
1385570989703489492,0.0917511219019,-0.213048257558,-0.114410701721,-0.0107986347558,0.00727742808382,-1.53665967127
1385570989713701416,0.091759583008,-0.213060843151,-0.114471260914,-0.0108973263446,0.00763907917235,-1.53620865992
1385570989723539163,0.0917293883835,-0.213056137306,-0.114388845179,-0.0105138052321,0.0071523926641,-1.53669958936
1385570989733702192,0.0917056402678,-0.213068047828,-0.114470261308,-0.0103906985093,0.0073925602778,-1.536843462
1385570989743500045,0.0917561339396,-0.213051271891,-0.114462257884,-0.0108900667241,0.00777041800044,-1.53633345061
1385570989753436518,0.0917591872387,-0.213068129356,-0.114393763834,-0.0109437523845,0.00706757313021,-1.53646679843
1385570989763504051,0.091758725271,-0.213035883392,-0.114410707633,-0.0107769518013,0.0073133230211,-1.53670588629
1385570989773412689,0.0917351852633,-0.213056539456,-0.114382233575,-0.0105384021708,0.00717058282464,-1.53674369537
1385570989783510664,0.0917413605371,-0.21305417411,-0.114390631757,-0.0106201097768,0.00711008014632,-1.53641346192
1385570989793418477,0.0916830410816,-0.212987342493,-0.114516303698,-0.0106992023514,0.00830471222105,-1.53692459878
1385570989803505941,0.0917538356326,-0.213049385819,-0.114426096274,-0.0108558833446,0.00718104737547,-1.53670687201
1385570989813433586,0.0917305962711,-0.213060744029,-0.114377640737,-0.0105852965501,0.0071741898122,-1.53648373458
1385570989823449151,0.0917388550143,-0.21306705506,-0.114397095238,-0.0107167554327,0.00696813436869,-1.53658641179
1385570989833728583,0.0917363870369,-0.21305494264,-0.114389498332,-0.0106141730996,0.0071552914253,-1.5366099978
1385570989843637743,0.0917374656103,-0.213061875892,-0.114387884025,-0.0106914741083,0.00708198266171,-1.53656347217
1385570989853691252,0.091759650016,-0.213025725328,-0.11440126798,-0.0109394392726,0.00723065855742,-1.53663797684
1385570989863523342,0.091716898493,-0.213055869021,-0.114364855196,-0.010639028573,0.00718295767764,-1.53664379466
1385570989873645018,0.0917317618127,-0.213047686703,-0.114415451034,-0.0108515432234,0.00722599154944,-1.53642866891
1385570989883408931,0.0917427622023,-0.213054922497,-0.114370485337,-0.0106088169583,0.00715777910087,-1.53658831565
1385570989893523302,0.0917596421225,-0.213031594499,-0.114383502104,-0.0108399136782,0.00734729637987,-1.53684478148
1385570989903603922,0.0917798087909,-0.213047676748,-0.114411594648,-0.010881597563,0.00740472456438,-1.5364789039
1385570989913626153,0.0917299965408,-0.213066918427,-0.114398740701,-0.0106324190203,0.0070736024186,-1.53636699563
1385570989923540001,0.0917105500548,-0.213075072634,-0.114479261357,-0.0104013521383,0.00738806257219,-1.53684071912
1385570989933506450,0.0917004163833,-0.213069909818,-0.11434246201,-0.0104100740663,0.00707821068333,-1.53693694347
1385570989943518374,0.0917311583166,-0.213088899203,-0.114327434693,-0.0107118752799,0.00720791993686,-1.53627465471
1385570989953584995,0.0917257553254,-0.213055272863,-0.114391300499,-0.0106417732986,0.00707005805831,-1.53639692462
1385570989963490752,0.0917051601887,-0.213091147826,-0.11437869072,-0.0106002211252,0.00719795523879,-1.53690191359
1385570989973617934,0.0917630837061,-0.213032508014,-0.114367552735,-0.010580282072,0.00715315136563,-1.53680009766
1385570989983518960,0.0917635166056,-0.213043862384,-0.114466326474,-0.0105908650547,0.00721542146139,-1.53648977121
1385570989993604422,0.0917484727545,-0.213058989573,-0.114483631973,-0.0105001088635,0.00703511432236,-1.53655130111
1385570990003491728,0.0916989872757,-0.213045987738,-0.114411632825,-0.0103977164698,0.00745445859751,-1.53644833678
1385570990013528430,0.091749004231,-0.213057755794,-0.114473531183,-0.0110777436456,0.00741628920498,-1.53679799105
1385570990023541062,0.091694530728,-0.213081098569,-0.114408651932,-0.0110632660286,0.00723645071424,-1.53699232082
1385570990033494320,0.0916105163635,-0.213069002112,-0.114393389455,-0.0104582174035,0.00771010008918,-1.53618793564
1385570990043592984,0.0917498665933,-0.213007825248,-0.114426202919,-0.0107513869883,0.00743623068948,-1.53670482457
1385570990053526181,0.0917750746415,-0.21311633195,-0.11452962449,-0.0104139881173,0.00763512942721,-1.53741383553
1385570990064023215,0.0917166891649,-0.213031529865,-0.114501215405,-0.00958879930988,0.00667735341988,-1.53649855024
1385570990073668213,0.0916981483883,-0.213067398184,-0.114420975914,-0.0100082353782,0.00754770362273,-1.53685221553
1385570990083551664,0.0916584893498,-0.213093215433,-0.114448919453,-0.00989080479709,0.00730422785092,-1.53696215228
1385570990093502236,0.0916792250663,-0.21300064211,-0.114445738791,-0.0103857637011,0.00679387841114,-1.53653448537
1385570990103528184,0.0917023902162,-0.213057771591,-0.114495192677,-0.0107298102796,0.00700286410169,-1.53680870186
1385570990113588484,0.0916226078732,-0.212966411141,-0.114566942478,-0.010102055768,0.00814412192016,-1.53718091422
1385570990123588533,0.0915998012966,-0.212936432819,-0.114662905145,-0.00974691499651,0.00853049230314,-1.53727574543
1385570990133539484,0.091783181153,-0.213100033175,-0.114477888417,-0.0100582806537,0.00749843078074,-1.53735377966
1385570990143620221,0.0917098564026,-0.212962099896,-0.114489706726,-0.00955508524385,0.00660455197352,-1.53649747943
1385570990153680378,0.091703755987,-0.213023983202,-0.114496266494,-0.0100237002105,0.00702714235733,-1.53718548232
1385570990163651021,0.0916328946292,-0.212968780894,-0.114602197503,-0.0106990527795,0.00865761541202,-1.53766451666
1385570990173585719,0.0916797925203,-0.212932440821,-0.114438769654,-0.010540787981,0.0069140631968,-1.53678301392
1385570990183532087,0.0917115810025,-0.212967708715,-0.114434518813,-0.0108496974187,0.00718773536408,-1.53721623747
1385570990193626806,0.0916636533696,-0.212972006603,-0.114513695495,-0.00986390373242,0.00723824637947,-1.53697676417
1385570990203655203,0.0916238888708,-0.212926734989,-0.114455401339,-0.0107129833088,0.00712081108411,-1.53702690546
1385570990213495649,0.0916352685003,-0.212986590586,-0.114449906916,-0.0101983745198,0.00732765324401,-1.53739755432
1385570990223615067,0.0917152917156,-0.212928241482,-0.114461071325,-0.00990081414528,0.00708421571548,-1.53693772808
1385570990233556632,0.0916748727791,-0.212889440437,-0.114461538018,-0.0105710815468,0.00736726531814,-1.53705306386
1385570990243635908,0.0916687134288,-0.212968502809,-0.114385397122,-0.0103989755747,0.00698334275964,-1.5374116431
1385570990253539072,0.0916021865647,-0.212881011317,-0.114419579769,-0.0104335759652,0.00658288149432,-1.53715081215
1385570990263564612,0.0916797681268,-0.21286495354,-0.114383073996,-0.0111851379556,0.00690611377459,-1.53727092416
1385570990273560452,0.0917028459852,-0.212882150627,-0.114456283087,-0.0105149649949,0.00750901874684,-1.53723210723
1385570990283503917,0.0916837531698,-0.212838389336,-0.114388470975,-0.0103662749803,0.00674738207842,-1.53703441937
1385570990293520715,0.0916652571508,-0.21287436557,-0.114469229831,-0.0104695558618,0.00694338523344,-1.53727188978
1385570990303484153,0.0915805257662,-0.21289226885,-0.114466237648,-0.010117029377,0.0070581978229,-1.53747468671
1385570990313515087,0.0915823041722,-0.212832401316,-0.114464527065,-0.010376225139,0.0069160067262,-1.53723197123
1385570990323560783,0.0915347254087,-0.212957383135,-0.114456738185,-0.0112565383777,0.0060476163562,-1.53739991867
1385570990333527177,0.0914797562945,-0.212888710374,-0.114375826078,-0.011455246203,0.00597352891676,-1.53696285092
1385570990343510495,0.0915226189098,-0.212833410775,-0.114540851876,-0.011553620448,0.00595993703299,-1.53686830156
1385570990353557658,0.0915016719519,-0.21290347067,-0.114606148579,-0.0118956840587,0.00584636396455,-1.53705020146
1385570990363575959,0.0915291381521,-0.212884839416,-0.114502977067,-0.0114064767373,0.0059759504513,-1.53691481299
1385570990373539897,0.0915987060718,-0.212841202004,-0.114494879402,-0.0110481040629,0.00624886668442,-1.53706899055
1385570990383485442,0.0915446339465,-0.212933973772,-0.114483319612,-0.0111385120451,0.00619934729027,-1.53738844501
1385570990393428561,0.0914480930804,-0.212846017974,-0.114522342357,-0.0111606904935,0.00560071930521,-1.53706430252
1385570990403601050,0.0915446388177,-0.212834363464,-0.114569261064,-0.0111329039448,0.00577047236031,-1.53691684017
1385570990413484512,0.0915773676823,-0.212931077387,-0.114550402079,-0.0110204872076,0.0066831332046,-1.53711054887
1385570990423554213,0.0915371993943,-0.212812893177,-0.114478068299,-0.011055399075,0.00573658531956,-1.53665511735
1385570990433506913,0.0915644442629,-0.212845503307,-0.114594527939,-0.0113827607663,0.00608481000143,-1.53681555654
1385570990443578616,0.0915714946867,-0.212885198622,-0.114580887101,-0.0112882451529,0.00618329403129,-1.53724622921
1385570990453659101,0.0915179333579,-0.21281240039,-0.11451510904,-0.0107100377493,0.00591646615247,-1.53674168773
1385570990463631341,0.0915300895757,-0.212865599883,-0.114471157359,-0.011060683271,0.00588553862432,-1.53665709052
1385570990473490287,0.0915337386275,-0.212840876622,-0.114526428055,-0.0111332553167,0.00568062573242,-1.53689642987
1385570990483497700,0.0914128633067,-0.212819560754,-0.114477067282,-0.0118590296894,0.00581527264817,-1.53697980623
1385570990493448674,0.0915205695743,-0.212854361944,-0.114434960052,-0.0113156962057,0.00630180555811,-1.53675364785
1385570990503729265,0.0914598070688,-0.212796647368,-0.114427567531,-0.0112037396706,0.00672044701665,-1.53660950867
1385570990513496187,0.0915188811366,-0.212823953217,-0.114568092538,-0.0109658006521,0.0057671846367,-1.53677656551
1385570990523449204,0.0913976733811,-0.212905963321,-0.114550989956,-0.0110944501442,0.00572477890581,-1.53697699033
1385570990533447718,0.0915027337888,-0.212766659639,-0.114501075916,-0.0109337255174,0.00611323144506,-1.5368110857
1385570990543456153,0.0915098385244,-0.212835440623,-0.114414194041,-0.0111368666143,0.00611278589603,-1.53675587448
1385570990553487263,0.0914681517855,-0.212827123122,-0.114550010085,-0.0114344630703,0.00599339456758,-1.53675983308
1385570990563450243,0.0914924669696,-0.212811465499,-0.114573099875,-0.0112474560935,0.00591049757707,-1.53649996059
1385570990573452318,0.0914742549862,-0.21280816202,-0.11453987276,-0.0111402419692,0.00616443711728,-1.53667454917
1385570990583437577,0.0915215898276,-0.212775191135,-0.114526018938,-0.0107819887057,0.00600560430399,-1.53661110433
1385570990593462863,0.0915914434084,-0.212830328281,-0.114562030014,-0.0110986303857,0.00610076693996,-1.53678896108
1385570990603429085,0.0914734864526,-0.212801774564,-0.114588339377,-0.0115748128858,0.0062292869084,-1.53671306651
1385570990613483677,0.0914869617108,-0.212716884561,-0.114564099403,-0.0121187220823,0.0061108985742,-1.53662740748
1385570990623447341,0.0914812338262,-0.212735604576,-0.114526361024,-0.0117081463471,0.00601531562567,-1.53651909457
1385570990633436715,0.0914803390619,-0.212779725664,-0.114519364626,-0.0112616130525,0.00611199128194,-1.5364659737
1385570990643482925,0.0914762211553,-0.212728854786,-0.114540028389,-0.0107774638125,0.00596438727194,-1.53660485861
1385570990653443769,0.0913758657866,-0.212761591617,-0.114447432562,-0.0109862342448,0.00582632900049,-1.53659203843
1385570990663432788,0.0913433478305,-0.212794670568,-0.114424487687,-0.0114036727915,0.00575180628193,-1.53652800028
1385570990673428215,0.0914834768261,-0.212695211445,-0.114582266925,-0.0110677312643,0.00578561352816,-1.53645614835
1385570990683427702,0.0914622777125,-0.212781983777,-0.114513548371,-0.0112586847964,0.00633598407487,-1.53605838454
1385570990693489371,0.0915174507177,-0.212662914852,-0.114364518618,-0.0104738113222,0.00707670662154,-1.5369232102
1385570990703735179,0.09157359232,-0.212637120896,-0.114441190305,-0.0104278767966,0.0070741840743,-1.53648309677
1385570990713633120,0.0914934680123,-0.212717247188,-0.114455316852,-0.0106537260443,0.0068899557668,-1.53632716155
1385570990723576178,0.0915100017128,-0.212618589511,-0.114448513126,-0.0103590650735,0.00679340486565,-1.5367904491
1385570990733543994,0.091554145563,-0.212678194572,-0.114400832084,-0.00932636722677,0.00705455963327,-1.53645131832
1385570990743590916,0.0915301169577,-0.212696316422,-0.114338859844,-0.0103897936879,0.00723767449674,-1.53694414818
1385570990753622261,0.0915288785113,-0.212591957577,-0.11450324667,-0.0106541700291,0.00715633643074,-1.53649733544
1385570990763696789,0.0915083856577,-0.21266270073,-0.114543630507,-0.0114345566572,0.00712256847679,-1.53620610217
1385570990773552751,0.091555126072,-0.212567625548,-0.114401357011,-0.0112836895768,0.00709169761597,-1.53693236306
1385570990783638880,0.0915138440197,-0.21259627227,-0.114379620715,-0.0103561692855,0.0074293298642,-1.53640474954
1385570990793613451,0.0914211984637,-0.212610840968,-0.114417457872,-0.0100506810812,0.00690526549217,-1.53667861043
1385570990803724010,0.0914553900376,-0.212526505861,-0.114511020748,-0.0100065141851,0.00677881935042,-1.53681891673
1385570990813592001,0.0915262953496,-0.212597351901,-0.114521890565,-0.0101810528862,0.00708015978988,-1.53618999803
1385570990823498703,0.0915125393699,-0.212514693496,-0.114394823532,-0.0105689110272,0.00712548476448,-1.53695590912
1385570990833871137,0.0914418368891,-0.212546383685,-0.114466756425,-0.0104135560316,0.00740574314846,-1.53641755896
1385570990843633121,0.0913939472872,-0.212535830615,-0.114407022997,-0.0112444165815,0.00706030893949,-1.53686573424
1385570990853584553,0.0913854342635,-0.21244946228,-0.114446312387,-0.0108421070588,0.00663268133631,-1.53715126699
1385570990863547492,0.09149807811,-0.212538116801,-0.114462106405,-0.00991478390134,0.00701957202498,-1.53634663322
1385570990873697488,0.0914404935013,-0.212457000742,-0.114385802274,-0.0103724382084,0.00729238429891,-1.53777882295
1385570990883554272,0.0914675666906,-0.212502185132,-0.114485596858,-0.00977537739776,0.00712703838859,-1.53657543727
1385570990893655419,0.0913156324431,-0.212428216409,-0.114501450998,-0.0102749405189,0.0068227002233,-1.53732178223
1385570990903633549,0.0914112283393,-0.212338560263,-0.114435437821,-0.0103050657819,0.00697813470839,-1.53762392937
1385570990913586290,0.0913654849329,-0.212217000966,-0.114550970867,-0.0102344573047,0.0089053299563,-1.53736141469
1385570990923637727,0.0912893035638,-0.212167274595,-0.114384142968,-0.0108240182712,0.00802267646335,-1.53822091307
1385570990933564467,0.0914009925566,-0.212220022735,-0.114578526234,-0.0104468874098,0.00750068347482,-1.53718226704
1385570990943646330,0.0913116839457,-0.212076313286,-0.114376509808,-0.0112195711729,0.00726901911836,-1.53868308143
1385570990953573990,0.0913317511835,-0.212044837466,-0.114373068594,-0.0108410692471,0.00778892808116,-1.53815820986
1385570990963584117,0.0912122264635,-0.212011503478,-0.114338771507,-0.0116946367189,0.00740256840443,-1.53852964124
1385570990973579578,0.0912809230282,-0.211982537119,-0.114533758388,-0.0114232507489,0.0079091230049,-1.53886628754
1385570990983468877,0.0912647818169,-0.211922412745,-0.114501615143,-0.0104665288552,0.00685024809191,-1.53764465215
1385570990993636584,0.0914381108306,-0.211863135811,-0.114505745051,-0.0100159922234,0.00714325706343,-1.53953195621
1385570991003584710,0.0913504951286,-0.211785101676,-0.114337781612,-0.0106522497523,0.00758391150473,-1.5381741816
1385570991013896623,0.0913402341765,-0.211765760091,-0.114383703866,-0.0106680698622,0.00715004796862,-1.53936567969
1385570991023571725,0.0914256220129,-0.211725234329,-0.114415163133,-0.0114672296121,0.00696615908513,-1.53866999169
1385570991033641746,0.0915711875647,-0.211579939896,-0.114532388493,-0.0107571159286,0.00677247486273,-1.53867569104
1385570991043614780,0.0914843731865,-0.211727219635,-0.114363195519,-0.0104549292313,0.00663441892591,-1.53893267787
1385570991053496592,0.0914944100646,-0.211504093858,-0.114439215601,-0.0095631313201,0.00723431826152,-1.5378785989
1385570991063570898,0.0915046469247,-0.211565481026,-0.114422084941,-0.00995650037566,0.00687661213613,-1.53906242763
1385570991073582860,0.0916273368028,-0.211446153484,-0.114467073327,-0.0100392167564,0.00700714061008,-1.5379966507
1385570991083621648,0.0915445001455,-0.211493494895,-0.114384560431,-0.0105298604377,0.00671510842167,-1.53936954409
1385570991093574168,0.091594612282,-0.211419041262,-0.114373187781,-0.0107332113044,0.00750730811692,-1.53824980423
1385570991103549616,0.0915270421425,-0.211308931468,-0.114462126323,-0.0102409106764,0.00786058772238,-1.53964002383
1385570991113570715,0.0916722875221,-0.211351517529,-0.114390564887,-0.0103140437015,0.00671628798876,-1.53852666981
1385570991123511889,0.0915223819799,-0.211198722081,-0.114490368129,-0.0102422097067,0.00809672390644,-1.53966151185
1385570991133570265,0.0916124055912,-0.211303642715,-0.114502027276,-0.0103117560512,0.00798695215284,-1.54042366937
1385570991143521047,0.0915267059022,-0.211080161118,-0.114478724721,-0.00981086693831,0.00810153246137,-1.54031720386
1385570991153430933,0.0915579166524,-0.211237609994,-0.1143418878,-0.0103899194669,0.00715938698007,-1.54156710221
1385570991163474165,0.0914007800655,-0.21104544699,-0.114480366225,-0.0103324346241,0.00727296926515,-1.54149983893
1385570991173659845,0.0912318486028,-0.211038099837,-0.114576102859,-0.0101822851794,0.00771242030925,-1.5424263022
1385570991183490811,0.0911255056437,-0.210874191604,-0.114517623386,-0.0104095399801,0.0077392278935,-1.54293206855
1385570991193564944,0.0912131524975,-0.210771243555,-0.114445203492,-0.010434170135,0.0070313360783,-1.54334315661
1385570991204196458,0.0910221457922,-0.210493435699,-0.114520374749,-0.0102583768839,0.00829581751311,-1.54393356418
1385570991213534242,0.0909252770977,-0.210451046997,-0.114488584253,-0.0108832345997,0.00767730552227,-1.54389741713
1385570991223570309,0.0908419269186,-0.210331835547,-0.114544114702,-0.0109729004883,0.00733401434541,-1.54461168032
1385570991233488803,0.0907218599809,-0.210376042066,-0.114401863484,-0.00980142638555,0.0062135007363,-1.54500891673
1385570991243644211,0.0907300439676,-0.210201818543,-0.114429785396,-0.0104718858477,0.00679270628211,-1.54547439522
1385570991253635445,0.0904296899682,-0.20987893389,-0.114547212463,-0.0100859856783,0.0072124316887,-1.54587077603
1385570991263691004,0.090299691849,-0.209795008076,-0.114590119355,-0.010268238899,0.0070997829721,-1.54627921971
1385570991273620354,0.0902651532818,-0.209567706136,-0.114586895138,-0.0102660661826,0.00630767403207,-1.54600316393
1385570991283837611,0.0900366868837,-0.209507065623,-0.114628072327,-0.010541991644,0.00559753440393,-1.5463115147
1385570991293614574,0.0900089902179,-0.209161558153,-0.114736278605,-0.00972443755177,0.00635243441753,-1.54607254177
1385570991303574149,0.0897823481165,-0.209081479436,-0.114790764784,-0.00944865726506,0.00532869125635,-1.54692485799
1385570991313740106,0.0896040269419,-0.208834330257,-0.114638904939,-0.00914812450436,0.00577466671173,-1.54683907653
1385570991323779807,0.0894795361309,-0.208610668504,-0.11451677812,-0.00904249172009,0.00730246341921,-1.54837006436
1385570991333972005,0.0894759944666,-0.208514827545,-0.114508409188,-0.0101716822518,0.00755562248238,-1.54742387354
1385570991343744664,0.089225667352,-0.208332793423,-0.114732527319,-0.0100028144314,0.00704920827123,-1.54871032333
1385570991353529478,0.0890884190497,-0.208018680909,-0.114554353395,-0.00943027427501,0.00655825483832,-1.54874652053
1385570991363554287,0.0887669219948,-0.207882546516,-0.114388779694,-0.0100800611825,0.00703488134558,-1.55022080168
1385570991373558061,0.0881819221255,-0.207693097305,-0.11460975505,-0.0105060314973,0.00804574654692,-1.55204519394
1385570991383496190,0.0880273071269,-0.207619725923,-0.114601679356,-0.0105743552442,0.00648503474684,-1.55291596478
1385570991393570277,0.0878387737247,-0.207498361348,-0.11468036373,-0.00994438631647,0.00743266280666,-1.55419097619
1385570991403453363,0.0873823336702,-0.207289382394,-0.114818176456,-0.00938422468915,0.00582264781615,-1.55464098447
1385570991413608560,0.086963444005,-0.20718033564,-0.114887737688,-0.00958165455955,0.00501507615167,-1.5556662578
1385570991423475323,0.0868422977022,-0.206848489455,-0.11470757634,-0.0102598361442,0.00762241245544,-1.55694193199
1385570991433520659,0.0863266008244,-0.206616845449,-0.114545846435,-0.0106020317194,0.00736900982103,-1.55803648885
1385570991443482935,0.0860455305775,-0.206453734425,-0.114427831938,-0.0112372870522,0.00699499032862,-1.55928055942
1385570991453563864,0.0856715812949,-0.206153900214,-0.114449341111,-0.0112321446165,0.00685583802788,-1.55954972517
1385570991463488452,0.0853482786611,-0.205912579137,-0.114565277855,-0.0107377998296,0.00777900604698,-1.56035050285
1385570991473595524,0.0849165006182,-0.205672062184,-0.114680771703,-0.0107510674367,0.00819177616726,-1.56045055003
1385570991483481098,0.0847443170449,-0.205418472702,-0.114768867515,-0.0109409092365,0.00890052348785,-1.56131353648
1385570991493555113,0.0842491256335,-0.205107958564,-0.114602382799,-0.012168924843,0.00665805771272,-1.56161899568
1385570991503476824,0.0839779695247,-0.204932622423,-0.114394357337,-0.0127610340195,0.00580745759066,-1.5628685996
1385570991513514398,0.0836630829854,-0.204491277598,-0.114632452362,-0.0125029346023,0.0062671684124,-1.56329910403
1385570991523597037,0.0835375773589,-0.204099963778,-0.114989734882,-0.0108912650111,0.00836700505681,-1.56400211935
1385570991533484883,0.0835536492258,-0.203878518708,-0.114884181413,-0.0088317765543,0.00679268028333,-1.56401693421
1385570991543572946,0.0832454847443,-0.20368522205,-0.114819311488,-0.00793902059155,0.00562612677851,-1.56540946796
1385570991553493244,0.0829416478001,-0.203270473918,-0.1148240119,-0.00841472237249,0.0067052771132,-1.56687803979
1385570991563519989,0.0825683970835,-0.202889675497,-0.114878222542,-0.00860354110477,0.00479076039119,-1.56768921911
1385570991573601700,0.0823282979526,-0.202609603399,-0.114855095331,-0.00907631097764,0.00523763773865,-1.56879457947
1385570991583632857,0.0818761225977,-0.202309226688,-0.115021916693,-0.00968104495957,0.00492225580516,-1.56984676008
1385570991593572652,0.0815752729601,-0.201934421696,-0.114999242851,-0.00905481030216,0.00508558305962,-1.57119523188
1385570991603464905,0.0812475901235,-0.201503206391,-0.114937491534,-0.00897536289693,0.00498637369544,-1.57193481055
1385570991613697973,0.0808208099901,-0.201228384571,-0.115126282728,-0.00908122180938,0.00450772791632,-1.57321786189
1385570991623521960,0.0804474600715,-0.200807880943,-0.115342582488,-0.00790204053823,0.00359883486241,-1.57440698442
1385570991633529289,0.0803683015315,-0.200365839978,-0.115420969931,-0.00620469969194,0.00483469541589,-1.57583150161
1385570991643593081,0.0798784157281,-0.200028013791,-0.115612951583,-0.00722994710497,0.00436393883705,-1.57782841054
1385570991653523661,0.0794954014088,-0.199628685171,-0.115893159891,-0.00657183624527,0.0028612648958,-1.57905890965
1385570991663450072,0.0792066361004,-0.199172070544,-0.116280365953,-0.00488275650958,0.00118307462624,-1.58059527059
1385570991673458467,0.0789514505898,-0.198835760558,-0.116427274798,-0.00403091166811,0.000790793774292,-1.58223585751
1385570991683500515,0.0786046308714,-0.198262530026,-0.116779498167,-0.00392473834602,0.000341678357382,-1.583739021
1385570991693448995,0.0781317141498,-0.197910403962,-0.117137020164,-0.00482180240736,-0.00292169562103,-1.58554337524
1385570991703446028,0.0778760982786,-0.197627186337,-0.117533888852,-0.00551535914051,-0.00562929659442,-1.58561217939
1385570991713439896,0.0775910865027,-0.197273639887,-0.117751980532,-0.00538580952646,-0.00848362168263,-1.58626463064
1385570991723663539,0.0772406415901,-0.196878315148,-0.118110602117,-0.00582512882297,-0.0109325582042,-1.58657785659
1385570991733463231,0.0769353341376,-0.196540017791,-0.118692895351,-0.00728751822158,-0.0126597764078,-1.58731407068
1385570991743674456,0.07680186506,-0.196184032574,-0.119349060736,-0.00685558527808,-0.0146494616948,-1.58806087167
1385570991753448019,0.0766891176837,-0.19580377065,-0.119980537455,-0.00659287543421,-0.0166524762297,-1.58775383303
1385570991763431418,0.076562970959,-0.195398063119,-0.120608362301,-0.00762889069878,-0.0186667603292,-1.58863305495
1385570991773599462,0.0762182494973,-0.195182722662,-0.121372368691,-0.00660366604189,-0.0194091960824,-1.58838371912
1385570991783507381,0.0762923402284,-0.194687554054,-0.122310314962,-0.00555097174742,-0.0215313941363,-1.5888253109
1385570991793428400,0.0760306426212,-0.194234552216,-0.123138160161,-0.00484281691487,-0.0217225103008,-1.5888068607
1385570991803501769,0.0760163515806,-0.19379430405,-0.124339007722,-0.00381171905024,-0.0235657276388,-1.58859004556
1385570991813490438,0.0759374382774,-0.19337862511,-0.125384361953,-0.0040299046614,-0.024761339621,-1.58856973416
1385570991823434411,0.0759116464666,-0.192934740043,-0.126824528338,-0.00244837630109,-0.0254286798055,-1.58808029484
1385570991833515888,0.0760448208843,-0.192382696309,-0.12799377666,-0.00192451709159,-0.0276142792213,-1.58773300417
1385570991843612812,0.0758232768022,-0.191879442323,-0.129505613349,-0.000219856410867,-0.027806262184,-1.58671484989
1385570991853510479,0.0760460923607,-0.191349069666,-0.131372071862,0.00124946624008,-0.0277847710407,-1.58638320493
1385570991863451402,0.0757897909343,-0.191059520491,-0.133191307491,0.00140705837787,-0.031121629042,-1.58585757655
1385570991873585444,0.0758704343317,-0.190520170529,-0.134942119107,0.00325882453938,-0.0329047609914,-1.58437676205
1385570991883571522,0.076079957785,-0.190040405544,-0.136951442346,0.00498397340413,-0.0335553843201,-1.58401880493
1385570991893530365,0.0760797372545,-0.189559828243,-0.139120799372,0.00716675144215,-0.0357712620846,-1.58332161966
1385570991903513243,0.0761814451492,-0.18909170974,-0.141420572019,0.00952810757158,-0.0377920626004,-1.58305125305
1385570991913531271,0.0763281778251,-0.188686529833,-0.143759903186,0.0123630438394,-0.0385824044317,-1.58299976124
1385570991923509349,0.0763464065937,-0.188397268447,-0.146233650571,0.0145261540897,-0.0417730432145,-1.58296132485
1385570991933469601,0.076467492188,-0.188156602098,-0.148797547273,0.0170112187826,-0.0436089302831,-1.5831994073
1385570991943539329,0.0766680792213,-0.187803370155,-0.151725190575,0.0190666284168,-0.0454010687157,-1.58285170892
1385570991953572844,0.0767134569104,-0.187600555121,-0.15475618699,0.0206064262214,-0.0486144214393,-1.5833481031
1385570991963519956,0.0767908947119,-0.187351583608,-0.15772666358,0.0206440283424,-0.0500923738741,-1.58424688195
1385570991973597634,0.07698240724,-0.187092507291,-0.160979748916,0.0215631355505,-0.0501012648986,-1.58513377572
1385570991983552051,0.0771040526413,-0.187093485502,-0.164231595235,0.0224173554682,-0.0521041171041,-1.58561963533
1385570991993579607,0.0772012616338,-0.1871603874,-0.167646851578,0.0228698570617,-0.0531821429456,-1.58540847687
1385570992003603716,0.0772735706828,-0.187075710405,-0.171121242799,0.023605224175,-0.0546565250592,-1.58497456677
1385570992013551441,0.0774561963943,-0.187079458274,-0.174598677818,0.0244848810405,-0.0549572630844,-1.58466472611
1385570992023513965,0.077740569314,-0.187269608754,-0.178221788656,0.0252676058587,-0.0557229390318,-1.58325992223
1385570992033486251,0.0778344321299,-0.187560798275,-0.182135622271,0.0262609964411,-0.0572052068684,-1.58268310352
1385570992043605633,0.0782687268776,-0.187912183689,-0.185960000928,0.0266239965269,-0.0568613523956,-1.58218929098
1385570992053470601,0.07848793608,-0.188098005011,-0.189740496433,0.0270988200345,-0.0576568494629,-1.58174363126
1385570992063625437,0.0789135653573,-0.188361755368,-0.193619719109,0.0258772248327,-0.0572746129584,-1.58186424341
1385570992073464223,0.0793410244427,-0.188773437674,-0.197724774727,0.0253870969656,-0.0584374775371,-1.58188406117
1385570992083568380,0.0796900980237,-0.189185629428,-0.201894113561,0.024444283776,-0.0567515925282,-1.58193214707
1385570992093524614,0.0801804968293,-0.1898034235,-0.205891152321,0.0247388336673,-0.0567604323831,-1.58150149276
1385570992103614370,0.0805256165311,-0.190288263272,-0.210130150899,0.0239418598041,-0.056292832961,-1.5818495935
1385570992113457743,0.0809688110205,-0.190902662573,-0.2144200516,0.0226500441347,-0.0544590367365,-1.58214239179
1385570992123488564,0.0815394992839,-0.191620753646,-0.218784630791,0.0233112101115,-0.0541151707403,-1.58143379584
1385570992133483656,0.0818725290852,-0.192206822437,-0.222807893448,0.0228215442239,-0.0517659847791,-1.58144888359
1385570992143590959,0.0824935567383,-0.193112856882,-0.227185060728,0.0223091524974,-0.0498852413753,-1.58127438338
1385570992153749043,0.0829873021394,-0.194050051923,-0.231650127201,0.0219619369193,-0.0478534612846,-1.58139424012
1385570992163641227,0.0833112915873,-0.1948368869,-0.236172693068,0.021360879298,-0.0438325970148,-1.58144973338
1385570992173628853,0.0841023012266,-0.195681099331,-0.240455346393,0.0192344673587,-0.0419006244162,-1.58113840688
1385570992183548689,0.0845300575984,-0.196688722603,-0.24485651639,0.0186574491121,-0.0406489583009,-1.58110436786
1385570992193492047,0.0852133159479,-0.197737407372,-0.249659700187,0.0165354911772,-0.0380620521087,-1.58101786461
1385570992203449473,0.0856288236362,-0.198829195901,-0.254115397099,0.0159823563897,-0.0355106337041,-1.58068218061
1385570992213566130,0.0862557494743,-0.199930626522,-0.258686064203,0.0149629713669,-0.0325526629519,-1.58095210034
1385570992223628338,0.087085120356,-0.201084457679,-0.263424429108,0.0148925855668,-0.0303165916295,-1.58054534413
1385570992233729508,0.0877006195314,-0.202337421954,-0.268137882935,0.0143257012297,-0.0293828664411,-1.58056335844
1385570992243507851,0.0883857095064,-0.203604251994,-0.273119046571,0.0144988956943,-0.0271135633602,-1.58007189698
1385570992253472766,0.0890810767337,-0.204787799924,-0.277704135089,0.0137893998785,-0.0257714551635,-1.57976635385
1385570992263554266,0.0897177346226,-0.20617461416,-0.28252425628,0.0121324587909,-0.0244813104647,-1.57977753604
1385570992274490042,0.0904486280686,-0.207467762039,-0.287539322498,0.0115662954438,-0.0234294901796,-1.57952090122
1385570992283488009,0.0911918516358,-0.208894200188,-0.292402163607,0.0107644523277,-0.0211103024277,-1.57972975376
1385570992293617488,0.0919146646127,-0.210217759329,-0.297325699954,0.0105181261496,-0.0203202327434,-1.57945559366
1385570992303427902,0.0927069522874,-0.211623515652,-0.302373671639,0.009555277709,-0.018077877296,-1.57951876191
1385570992313497592,0.0934103443232,-0.213109994084,-0.307302891986,0.00918703247484,-0.0171140913635,-1.57946750396
1385570992323441805,0.0940401618792,-0.214402006867,-0.312560466838,0.00940893027143,-0.0137902301428,-1.57965217806
1385570992333611870,0.0949932716351,-0.216005053621,-0.317481382081,0.00891586373578,-0.0137440164346,-1.57897079371
1385570992343525393,0.0956549847446,-0.217347174541,-0.322971967721,0.00904704053555,-0.0102343203516,-1.57911015216
1385570992353515172,0.096663798628,-0.218972994246,-0.32819359777,0.00903392869737,-0.0111069658946,-1.5790004899
1385570992363665875,0.0971531084734,-0.22049839313,-0.333255937562,0.00840960922054,-0.00980990474544,-1.57872454843
1385570992373537362,0.0979682273819,-0.221924521875,-0.338553744129,0.00702362348477,-0.00894249642631,-1.57917979798
1385570992383391518,0.0987914777413,-0.223564571564,-0.343897605144,0.00593424245408,-0.00771767445963,-1.57889631419
1385570992393569286,0.0993706768188,-0.225275668127,-0.349276192599,0.00476111391625,-0.0060290228852,-1.57933989261
1385570992403516341,0.100251135668,-0.226658068409,-0.35467643691,0.00432622879988,-0.00605915861654,-1.5789339072
1385570992413619950,0.101007839446,-0.228250658069,-0.360165870765,0.00445665687307,-0.00321768766081,-1.57880101134
1385570992423481026,0.101711797275,-0.229762767926,-0.365626186933,0.00414196399646,-0.0022222855676,-1.57871405804
1385570992433685251,0.102416871313,-0.231473254226,-0.371243162464,0.00446215837776,-0.00195142606007,-1.57878473194
1385570992443688420,0.103136245608,-0.233065814198,-0.376653594967,0.00389472480675,5.67874374307e-05,-1.57872651805
1385570992453537063,0.103970976697,-0.234658998874,-0.382167920366,0.00293032284466,0.000665145808992,-1.57906062607
1385570992463650127,0.104864734971,-0.236353468091,-0.38790088091,0.00304724315056,0.00162654868259,-1.57911329599
1385570992473512448,0.105485611071,-0.237921635938,-0.393541926275,0.0025181547173,0.00131352039662,-1.57888645242
1385570992483488703,0.106047564982,-0.239541255689,-0.399472405468,0.00105131838958,0.00121905410522,-1.5790319551
1385570992493522336,0.106821166693,-0.241270776355,-0.405343269771,0.000229125687966,0.00240166694182,-1.57901978706
1385570992503486765,0.107604083635,-0.242828286491,-0.41132600864,0.000336079419221,0.00168465340111,-1.57942335359
1385570992513466907,0.108206822055,-0.244514611549,-0.417187004873,0.000532684102042,0.00273282067183,-1.57900992359
1385570992523540515,0.109052031939,-0.246196319446,-0.422641906038,-6.69447581628e-05,0.00151981612495,-1.57929754601
1385570992533524754,0.109857851247,-0.247790945743,-0.428076725633,-0.000266742478955,0.00275342725457,-1.57935768658
1385570992543444974,0.110489030314,-0.249474079007,-0.433482841484,-0.00106402104852,0.00214594486092,-1.57969574218
1385570992553449723,0.11119188352,-0.251141320355,-0.438664365459,-0.00168278126295,0.00273445294004,-1.57963977515
1385570992563490821,0.111898321038,-0.252745762464,-0.443735429698,-0.0021103287519,0.00316663692072,-1.5798888093
1385570992573470517,0.11259416358,-0.254409414265,-0.448676804728,-0.00160385143582,0.00427749048455,-1.57996478549
1385570992583461593,0.113327888943,-0.256005017467,-0.453433072095,-0.00192139271106,0.00433499083453,-1.58004247784
1385570992593449855,0.114026060642,-0.257729864301,-0.458185298084,-0.00225374953702,0.00466277505537,-1.58005384423
1385570992603488072,0.11469086343,-0.259293194696,-0.462609113765,-0.00249714174053,0.00494879814524,-1.57979698591
1385570992613473889,0.115339780959,-0.261011694419,-0.466891255174,-0.0027152330142,0.00595551698395,-1.57990154566
1385570992623456562,0.115931806338,-0.262647824044,-0.47112036727,-0.00276778528548,0.00681325973322,-1.57948227808
1385570992633474574,0.116469793427,-0.264208635776,-0.475170029672,-0.00364702144793,0.00700405107906,-1.58048461544
1385570992643666663,0.11709669466,-0.265888400573,-0.47901790015,-0.00365419826472,0.00808514990065,-1.57993995133
1385570992653903565,0.117749101378,-0.267517086469,-0.482565542755,-0.00424383729731,0.00886272909199,-1.58003756271
1385570992663507056,0.118346593785,-0.269160336057,-0.486192042464,-0.00420267812768,0.00910998712889,-1.57978130316
1385570992673458904,0.119043843379,-0.270718162273,-0.489672553944,-0.00487623087032,0.0105945534614,-1.58028940719
1385570992683450981,0.119573723906,-0.272448062417,-0.492889206841,-0.00509298968496,0.0104313659873,-1.5803578101
1385570992693443323,0.120123696336,-0.274097316932,-0.495835188299,-0.00547175266589,0.0112713112027,-1.58012876988
1385570992703709614,0.120543511987,-0.275629889418,-0.498728511259,-0.00540920012263,0.012894982119,-1.58016816298
1385570992713461616,0.121241317621,-0.277171826456,-0.501722254192,-0.00544698774214,0.0132262830786,-1.58022099151
1385570992723459259,0.121728082487,-0.278719378687,-0.504242581678,-0.00615875028709,0.01414055158,-1.58082172228
1385570992733447045,0.122239389059,-0.280409635473,-0.50652311268,-0.00595787985361,0.0141277828438,-1.58075017284
1385570992743445860,0.122691798054,-0.281856835379,-0.508859159892,-0.00630387237965,0.0154582001548,-1.58127308621
1385570992753444948,0.12332930856,-0.283568580032,-0.511167229506,-0.00667061716489,0.0158102386587,-1.58157695115
1385570992764406911,0.123642200643,-0.285095287589,-0.512896493574,-0.00642673302848,0.0152027421281,-1.5808738238
1385570992773485986,0.124133268871,-0.286753184436,-0.514747194516,-0.00711359377939,0.0159581720234,-1.58053997225
1385570992783448258,0.124674202136,-0.288321034186,-0.516458375399,-0.00735673978239,0.0169678020716,-1.58090810767
1385570992793870204,0.124958289932,-0.289797022993,-0.518040307453,-0.00781993194609,0.0161570029228,-1.58167749662
1385570992803481167,0.125564930534,-0.291382652761,-0.519471534803,-0.00751798093967,0.0159267029781,-1.5814526207
1385570992813513881,0.125736680989,-0.292801214637,-0.520753433946,-0.00711020624086,0.0155506683237,-1.58181411957
1385570992823675300,0.126186004318,-0.294389675908,-0.521842054488,-0.00737554476196,0.0144307774033,-1.58194052052
1385570992833483826,0.126596822293,-0.295857848379,-0.522886060551,-0.00858776704142,0.0142711482534,-1.58178966029
1385570992843562799,0.126914728105,-0.297360386443,-0.523782072739,-0.00908848099101,0.0139471077826,-1.58236882833
1385570992853573407,0.127327641108,-0.298932519575,-0.524477339199,-0.00937171265529,0.013757466827,-1.58197686878
1385570992863563454,0.127682657666,-0.300482607282,-0.525083706496,-0.00981928480918,0.0135807301226,-1.58233978829
1385570992873555610,0.128163866971,-0.301989913459,-0.525701544319,-0.0102432189973,0.0125752559573,-1.58235848347
1385570992883503125,0.128458082194,-0.303447926472,-0.526016384747,-0.0106472592123,0.0118331807885,-1.58243263734
1385570992893518501,0.128669546122,-0.304974288028,-0.526341519065,-0.010538516726,0.0119441806928,-1.58305234622
1385570992903578678,0.129101619048,-0.306338508557,-0.526426987688,-0.0106635341978,0.0106668374026,-1.58256709653
1385570992913488431,0.12935004165,-0.30779269358,-0.526526419221,-0.0107797437444,0.0111643652933,-1.58295555087
1385570992923463110,0.129556964643,-0.309284034381,-0.526355934073,-0.0110415108922,0.0106851156389,-1.58307151656
1385570992933463737,0.129775093653,-0.310783345183,-0.526135611812,-0.0106177542806,0.00943021086152,-1.58309843817
1385570992943533789,0.130073394032,-0.312240281756,-0.525947138104,-0.0109002262274,0.00872514942197,-1.58315761983
1385570992953656003,0.130495494296,-0.313710092781,-0.525555527312,-0.0118129002172,0.00926004350942,-1.58331388743
1385570992963583314,0.130631252109,-0.315139714396,-0.525031526339,-0.011759322336,0.0082022899311,-1.58320274057
1385570992973568795,0.130843834613,-0.316567109948,-0.524556930566,-0.0120027190009,0.00817678822664,-1.58317026872
1385570992983566979,0.130986382146,-0.318126042857,-0.523793146708,-0.012589950415,0.00718160773005,-1.58357430121
1385570992993786588,0.131353787858,-0.319348682408,-0.523200082709,-0.0125021029961,0.00745476450887,-1.58365701693
1385570993003437439,0.131482566966,-0.321030067331,-0.522399556757,-0.0126179475456,0.00623233850649,-1.58368845859
1385570993013382005,0.131685619863,-0.322459368776,-0.521393701999,-0.012544558619,0.00486738578744,-1.58360839707
1385570993023377585,0.131992040112,-0.323931602983,-0.520468177848,-0.0126992839561,0.00498560164036,-1.58378784571
1385570993033558635,0.132041305017,-0.325308287182,-0.519447224774,-0.0112978793733,0.0043517659854,-1.58391885162
1385570993043512978,0.132256128578,-0.326666436495,-0.518267062089,-0.0115524529602,0.00506751839765,-1.58412036999
1385570993053585653,0.132474041926,-0.3282040757,-0.517182542465,-0.0105292993075,0.00423163817016,-1.58420121192
1385570993063672728,0.132679543827,-0.329694452292,-0.515783679445,-0.0099972105038,0.00380328761864,-1.58415111374
1385570993073817319,0.132898568138,-0.331131030585,-0.514687159721,-0.0101158483829,0.00412978416072,-1.58426611637
1385570993083475372,0.132996811929,-0.332544266541,-0.513269262952,-0.00923023171385,0.00386077063258,-1.58463137629
1385570993093449113,0.133175568599,-0.333971369516,-0.511862150035,-0.00902672301067,0.00339336283302,-1.58425638039
1385570993103489454,0.133256733789,-0.335426131165,-0.510428719709,-0.0089343310541,0.00257951011673,-1.58443748091
1385570993113450266,0.133495746169,-0.336942284548,-0.509029532302,-0.00923221745523,0.00350654517122,-1.58446143974
1385570993123446990,0.133594773728,-0.338326744753,-0.507384180853,-0.00876222684776,0.00228507515173,-1.58447117808
1385570993133396657,0.133670136354,-0.339825893461,-0.505868460161,-0.00867091172457,0.00229122193263,-1.58474347384
1385570993143499733,0.133888179138,-0.341127374626,-0.504321003812,-0.00864116997908,0.00299844003927,-1.58467957713
1385570993153796723,0.133892421146,-0.342764400307,-0.502631656988,-0.00759964016018,0.00078401086842,-1.5846641796
1385570993163559947,0.134130017107,-0.344175610802,-0.501108071366,-0.007575049118,0.00194231058304,-1.58510685532
1385570993173662580,0.134224490319,-0.345762811699,-0.499404735602,-0.0067657043573,0.00104678814325,-1.58447645951
1385570993183587911,0.134227549973,-0.347307908348,-0.497619627401,-0.00669257343727,0.00085636097354,-1.58467839131
1385570993193555058,0.134343035116,-0.348673047687,-0.49579327227,-0.00675502311112,-0.000386256872813,-1.58460766578
1385570993203700383,0.134365934387,-0.350186930024,-0.494153117213,-0.0059436954556,-0.00091551802132,-1.58468988445
1385570993213594683,0.134565057097,-0.351750821408,-0.492519797091,-0.00516620541602,-0.00121634443663,-1.58482187726
1385570993223510523,0.134676592197,-0.353179270944,-0.490734218391,-0.00430037155164,-0.00166180444844,-1.5844934027
1385570993233518758,0.134627326029,-0.354646301908,-0.489005822431,-0.00343005627701,-0.00166634694956,-1.58464633819
1385570993243483176,0.134797137112,-0.356229906094,-0.487300124507,-0.00423281195902,-0.00197410419014,-1.58480706917
1385570993253470398,0.134946158888,-0.357549137285,-0.485496210632,-0.0029908216419,-0.00218367173334,-1.58462086308
1385570993263561239,0.135020625288,-0.359181231554,-0.483679049382,-0.00231253010524,-0.00239315417996,-1.584453829
1385570993273485156,0.135208902434,-0.3606108866,-0.481929027154,-0.0015109887648,-0.00318066324115,-1.58441842615
1385570993283481524,0.135134084663,-0.36226119398,-0.480179975581,-0.00110592946457,-0.00101618249101,-1.58475711629
1385570993293567550,0.135378965844,-0.363682612898,-0.478472759615,-0.000427481826872,-0.00253314272504,-1.58458007411
1385570993303456522,0.135344566337,-0.365291667143,-0.476688000115,-0.000495270118815,-0.00263474664861,-1.58485971353
1385570993313503641,0.135442022796,-0.366834313863,-0.475019868483,-0.000702466892569,-0.00228737761772,-1.58505384019
1385570993323584753,0.135502817487,-0.368366914015,-0.47316896573,0.000512916632978,-0.00247414535631,-1.58476645409
1385570993333581018,0.135426796418,-0.369949037802,-0.471330074283,0.000209829558242,-0.00313137932131,-1.5852053689
1385570993343765962,0.135563647557,-0.371507669443,-0.469724848679,-0.000220740207405,-0.00267598090584,-1.58542829095
1385570993353614804,0.135512453454,-0.373069089993,-0.468547633551,-0.00379114761605,-0.0102817336951,-1.58459489929
1385570993363457725,0.135476894678,-0.374692842376,-0.466901819073,-0.00428295592772,-0.0103056000218,-1.58489149512
1385570993373564177,0.135530115634,-0.376216478098,-0.464986668931,-0.00173219658058,-0.00527389472339,-1.58491565624
1385570993383703702,0.135541866543,-0.377894435044,-0.463321610171,-0.00381624337486,-0.00580856611943,-1.58524806281
1385570993393662558,0.135655609106,-0.379508527148,-0.461867303139,-0.00442824359221,-0.00616721001,-1.58509372355
1385570993403481723,0.135755830151,-0.381023420688,-0.460030497386,-0.00446309806061,-0.00591505110196,-1.58515589654
1385570993413506312,0.135669866409,-0.382702476805,-0.458505992096,-0.00560548858577,-0.00400733484316,-1.58531899619
1385570993423449393,0.135811272337,-0.384533170773,-0.45706904176,-0.00624423346444,-0.00339775064297,-1.58514717124
1385570993433497095,0.135817302929,-0.385980763717,-0.45556252512,-0.00705438467342,-0.0050074517368,-1.58531852587
1385570993443512276,0.135830962521,-0.387540662391,-0.45419564272,-0.00811673013285,-0.00522284140094,-1.58515630851
1385570993453481009,0.135902378718,-0.389194792459,-0.452828473805,-0.008162127806,-0.00383621429033,-1.58537917914
1385570993463524632,0.135852208492,-0.390781996211,-0.451522033014,-0.00827326799715,-0.00355417016382,-1.58534029182
1385570993473919521,0.135884383108,-0.392430447073,-0.450303619358,-0.00788474463662,-0.00466270294603,-1.58543977085
1385570993483476967,0.135802997268,-0.394155821243,-0.448928422717,-0.00997215054792,-0.00293127969618,-1.58591913652
1385570993493492897,0.135726275281,-0.395676274357,-0.447780453373,-0.00939364324297,-0.00362140418202,-1.58487703653
1385570993503473736,0.135821901111,-0.397489125745,-0.44659637495,-0.0101340861768,-0.00154799608593,-1.58552758553
1385570993513484488,0.135684267394,-0.399107319987,-0.445413419773,-0.010114372901,-0.00116142502565,-1.5855680953
1385570993523500487,0.135766980859,-0.400609431195,-0.444028094162,-0.00994716053954,-0.000717090907736,-1.58592413337
1385570993533502924,0.135782405514,-0.402371499128,-0.4430818471,-0.00996049749869,3.73465289662e-05,-1.58675488758
1385570993543556909,0.135592989395,-0.404026941128,-0.441875991047,-0.00980659966488,-0.000836219387388,-1.58643912664
1385570993553561993,0.135706191744,-0.405702033012,-0.440767890955,-0.0105023032801,-0.00129131760615,-1.5864468604
1385570993563506423,0.135591418119,-0.407453960253,-0.439688309771,-0.010136873404,-0.000550433579846,-1.58653348787
1385570993573549728,0.135539217889,-0.409071441828,-0.438759972967,-0.0101582922711,-0.00175961460536,-1.58633511773
1385570993583525489,0.135483558112,-0.410767400962,-0.437598046665,-0.0102056017755,-0.00199574457335,-1.5863728601
1385570993593518385,0.135364364264,-0.412413994877,-0.436665494709,-0.0101584776148,-0.00128986775107,-1.58641564642
1385570993603461132,0.13536937224,-0.414067866927,-0.435683426765,-0.00932283492996,-0.00146687505931,-1.58673920887
1385570993613406569,0.135237078805,-0.415866101612,-0.434664756345,-0.00934412488646,-0.000462380831989,-1.58678257141
1385570993623417272,0.135061424348,-0.417497869778,-0.433856473818,-0.00760064952913,0.000302223978137,-1.58676558819
1385570993633410865,0.135211164643,-0.419337457049,-0.432707548006,-0.00765328547854,-0.00106553724614,-1.58633347794
1385570993643561528,0.134946738393,-0.420922039064,-0.43186263229,-0.00708782170638,0.000532351402431,-1.58680218097
1385570993653743785,0.134740821016,-0.422621041211,-0.430720955031,-0.00660587869058,0.000469074603779,-1.58696419798
1385570993663878674,0.134921217785,-0.424380971035,-0.429930070608,-0.00639841352995,0.00166301647596,-1.5869518279
1385570993673648734,0.134594498369,-0.42598524939,-0.428955654905,-0.00680943714679,0.00125961054842,-1.58700785905
1385570993683516356,0.134566818953,-0.427813282425,-0.428101366107,-0.00691471223175,0.00147081051349,-1.58698495052
1385570993693487000,0.13422261032,-0.429399470747,-0.427357351387,-0.00687664620456,0.0027539917993,-1.58700197429
1385570993703481685,0.134077103456,-0.431037041229,-0.426512528202,-0.00822826080233,0.00288099383863,-1.58709163496
1385570993713520052,0.133999592444,-0.432965266529,-0.425631800972,-0.00845322488345,0.00148143972957,-1.58662641773
1385570993723454654,0.133674160696,-0.434667697235,-0.424919043776,-0.00869457758754,0.00120215165366,-1.58707910417
1385570993733498207,0.133556613616,-0.436278790937,-0.424249862469,-0.00935921760729,0.00184706251033,-1.58716716006
1385570993743486394,0.133373675867,-0.43816247459,-0.423561693422,-0.0107087700453,0.00227688372148,-1.58735127748
1385570993753458990,0.133086715233,-0.439719192688,-0.423053203688,-0.0102113334832,0.00128737972164,-1.58709084574
1385570993763520622,0.132968243365,-0.441734066232,-0.422569144657,-0.0108269258887,0.000330848660976,-1.58655382132
1385570993773463893,0.13270869172,-0.44324053715,-0.422230523459,-0.0110187624046,0.0010160361769,-1.58659957607
1385570993783458013,0.132447520862,-0.445100562212,-0.421697110013,-0.011239813443,-0.000431077898696,-1.58706082166
1385570993793451300,0.132289978457,-0.446791060966,-0.42135900074,-0.0116063345785,-2.51484972972e-05,-1.58746135679
1385570993803458238,0.131905077331,-0.44855957962,-0.420907893874,-0.0119256333582,-0.00192194341093,-1.58726246662
1385570993813421156,0.131711317745,-0.450236785708,-0.420648885026,-0.0117578232009,-0.00215544417498,-1.58751052623
1385570993823398177,0.131427243255,-0.452006262958,-0.420408585254,-0.0119843214833,-0.00214724106816,-1.58757451966
1385570993833439004,0.131219197839,-0.453716674116,-0.4201696683,-0.0111997803579,-0.00389439468432,-1.58731542202
1385570993843666789,0.130898712353,-0.455353536983,-0.420036906545,-0.0107657368542,-0.00236659663216,-1.58721105651
1385570993853441930,0.13061519475,-0.457209771298,-0.419988929551,-0.010618425237,-0.00339007692435,-1.58746377569
1385570993863433738,0.130052029463,-0.458873630248,-0.419871534317,-0.0110229321103,-0.00674055426952,-1.58729322988
1385570993873481005,0.129794029326,-0.460516827429,-0.419800749468,-0.0103979162511,-0.00635751732946,-1.58700399706
1385570993883448899,0.129567558183,-0.462337707071,-0.419757992019,-0.0096516996153,-0.00498546038225,-1.58766044819
1385570993893426450,0.129176771365,-0.46397956167,-0.41973722393,-0.00987149292532,-0.00514214798397,-1.58754955031
1385570993903485346,0.128670012193,-0.465640229432,-0.419648784325,-0.00947339690518,-0.00445295668362,-1.58764904397
1385570993913431876,0.128510592579,-0.467448490177,-0.419645360745,-0.009069340429,-0.00355386130523,-1.58797697122
1385570993923429144,0.12815081946,-0.469226021995,-0.419826703019,-0.00851126123178,-0.00211204381974,-1.58792347185
1385570993933533050,0.127721506684,-0.470884814851,-0.419995682851,-0.00878487539654,-0.00174136448098,-1.58823301494
1385570993943456693,0.127314638294,-0.472547603218,-0.419971108449,-0.00914020174542,-0.00200521161672,-1.58822626281
1385570993953478261,0.126858656989,-0.474320497625,-0.420054889845,-0.0102626031314,-0.00165070655384,-1.58810235845
1385570993963672462,0.126622995344,-0.475936033395,-0.42018458564,-0.00983012225461,-0.00187521157292,-1.58796661241
1385570993973466954,0.126153265707,-0.477723807115,-0.42043295175,-0.00987060258829,-0.0011376005593,-1.58829667043
