%time,field.linear.x,field.linear.y,field.linear.z,field.angular.x,field.angular.y,field.angular.z
1385570568407981844,-0.0,0.0,0.0,1.0,0.0,0.0
1385570568597911176,-0.0,0.0,7.79446600081e-08,1.0,0.0,0.153491786214
1385570568797810770,-0.066777183103,0.0140319435611,-0.0111547625367,1.0,0.0,0.1013736724
1385570568997782211,-0.0701099325255,0.0146836949334,-0.00746146601089,1.0,0.0,0.0722290244564
1385570569198711394,-0.0590702547446,0.0122616502632,-0.00249362962236,1.0,0.0,0.0522601206966
1385570569397779635,-0.0392998393326,0.00813171072236,0.00432572884961,1.0,0.0,0.0404133672471
1385570569597741554,-0.0198364908892,0.00400150828418,0.012332107673,1.0,0.0,0.0334955714796
1385570569797723302,-0.00586300406037,0.0010662428872,0.0212286530359,1.0,0.0,0.0294107879305
1385570569997695147,0.00104640790668,-0.000388894538203,0.0308134489058,1.0,0.0,0.0271106347812
1385570570197810040,0.00166984810326,-0.000559684002686,0.0408624784722,1.0,0.0,0.0257832969689
1385570570398923291,-0.00149700329046,0.000388639949917,0.0513179238075,1.0,0.0,0.0249063174533
1385570570598762607,-0.00610964852752,0.001801955099,0.061972921878,1.0,0.0,0.0241667967207
1385570570797789205,-0.0100388548849,0.00285865751152,0.072822279845,1.0,0.0,0.0232649062896
1385570570998839169,-0.0111201644155,0.00392535722522,0.0839737693674,1.0,0.0,0.0204664599294
1385570571197738166,-0.010589914492,0.00438362379972,0.0950106150427,1.0,0.0,0.0148010592827
1385570571397744911,-0.00740465323009,0.0074679391285,0.10600006296,1.0,0.0,0.00881366308577
1385570571598751056,-0.00959583726379,0.01690974667,0.111634038929,1.0,0.0,0.00477404087554
1385570571797761123,-0.00910217229866,0.0241685223054,0.110643873524,1.0,0.0,0.00175255803272
1385570571998940829,-0.00969006879338,0.0294092699482,0.106298736698,1.0,0.0,-0.000371386826495
1385570572198795550,-0.0149809230645,0.0348531147634,0.0973719644403,1.0,0.0,-0.00221838450677
1385570572397884861,-0.0243520417799,0.040436668621,0.0898905774595,1.0,0.0,-0.00402672553646
1385570572598829176,-0.0330626375681,0.045230955761,0.0900533101702,1.0,0.0,-0.00547431074972
1385570572797880573,-0.0412302848813,0.0482238541741,0.0955317856481,1.0,0.0,-0.00646628987328
1385570572997806440,-0.047960889493,0.0520098415739,0.104512687562,1.0,0.0,-0.00677607572139
1385570573198867013,-0.0542352763888,0.0541375495088,0.115386762411,1.0,0.0,-0.00667727710361
1385570573397719611,-0.0583080477073,0.0585218826383,0.125764048938,1.0,0.0,-0.00608585587879
1385570573598759995,-0.062730753226,0.0567908307304,0.137108759478,1.0,0.0,-0.00511406797792
1385570573797938112,-0.0621894993895,0.0559279625818,0.141935196594,1.0,0.0,-0.00395605933319
1385570573997738552,-0.0632373947893,0.0544019578202,0.144610919391,1.0,0.0,-0.00263608642755
1385570574197809474,-0.0596231728867,0.0498359734088,0.146903215334,1.0,0.0,-0.000936611882564
1385570574397835175,-0.0571403456335,0.0454765930355,0.146302525179,1.0,0.0,0.00106662752197
1385570574597928025,-0.0526252660975,0.0394694005745,0.145646701454,1.0,0.0,0.00331625722105
1385570574798983255,-0.045364594814,0.0349967045501,0.14454070197,1.0,0.0,0.00546709037971
1385570574998790147,-0.0388973511863,0.0308831493318,0.142272702853,1.0,0.0,0.0075912650276
1385570575198849325,-0.0320302935059,0.0264268518899,0.139615480638,1.0,0.0,0.00969538716856
1385570575397788170,-0.0259418132132,0.0245980548033,0.134780310773,1.0,0.0,0.0117689348918
1385570575597733730,-0.0215261335105,0.023634993249,0.128818240737,1.0,0.0,0.013932777966
1385570575797819604,-0.0177523456101,0.0229691403014,0.122375539084,1.0,0.0,0.0161228166811
1385570575997817524,-0.0155685530652,0.0234960546889,0.114746273552,1.0,0.0,0.0184553989006
1385570576197718389,-0.0145234977876,0.0248731534061,0.106451179749,1.0,0.0,0.0208213481709
1385570576398796299,-0.0154025381982,0.026583202711,0.0972958960498,1.0,0.0,0.0235754846489
1385570576597857940,-0.0179379313912,0.0285608382527,0.0889431743025,1.0,0.0,0.0264919886961
1385570576798893210,-0.0219124466899,0.0305347374315,0.0806443653469,1.0,0.0,0.0298703302245
1385570576997950847,-0.0266691643444,0.0322703109135,0.0732265980543,1.0,0.0,0.033604522085
1385570577197792627,-0.0320539224112,0.0336357510656,0.066393096216,1.0,0.0,0.0375986534426
1385570577397749709,-0.0372646320245,0.0343897242302,0.0601907247241,1.0,0.0,0.0417473117887
1385570577597867372,-0.0422295809225,0.034446565773,0.0541688122775,1.0,0.0,0.0460253361152
1385570577797806180,-0.046097678154,0.0331821096284,0.0491819226959,1.0,0.0,0.0502986579994
1385570577998864179,-0.0489680006629,0.031353796312,0.0449342920841,1.0,0.0,0.0545170837681
1385570578197862577,-0.0508973106233,0.0294795045213,0.0409679896791,1.0,0.0,0.0586191928758
1385570578397746336,-0.0519648644428,0.0279444750262,0.0379283948407,1.0,0.0,0.0625532411248
1385570578598798500,-0.0521409210998,0.0270074202486,0.0356786453745,1.0,0.0,0.0662510684135
1385570578797710658,-0.0509709474068,0.0265704611649,0.0333222898749,1.0,0.0,0.069695868262
1385570578997829642,-0.0477469320031,0.0268178400584,0.0308097601126,1.0,0.0,0.0724731337602
1385570579197982023,-0.0439396235159,0.0269420387029,0.0289345474037,1.0,0.0,0.0748850514002
1385570579397934239,-0.0402054627094,0.0270100972713,0.0271301890668,1.0,0.0,0.0770367682489
1385570579598782049,-0.0370878719467,0.0268747103404,0.0255415200197,1.0,0.0,0.0791119255095
1385570579797789637,-0.0344627892104,0.0273190312692,0.0234622205155,1.0,0.0,0.0808996035263
1385570579997772546,-0.0316577296409,0.02809430246,0.0219450553078,1.0,0.0,0.0825228034742
1385570580198795521,-0.0285932320567,0.0291529661454,0.0199885806719,1.0,0.0,0.0839212979802
1385570580397711017,-0.02533367248,0.029704308434,0.0179416278762,1.0,0.0,0.0851803466089
1385570580597743875,-0.021861656051,0.0294132767958,0.016350018941,1.0,0.0,0.0863550984284
1385570580797800594,-0.0186106387297,0.0275188539688,0.0143332174191,1.0,0.0,0.0875395566372
1385570580997716737,-0.0157617249468,0.0239176442601,0.0115870697975,1.0,0.0,0.08871681074
1385570581197822527,-0.0132696549206,0.0190788736192,0.00921408329403,1.0,0.0,0.0897558546058
1385570581398812558,-0.0110310709606,0.0132874558367,0.0070659619282,1.0,0.0,0.0905513729591
1385570581597857928,-0.00929463966079,0.00644787982978,0.00417943470517,1.0,0.0,0.0911871504591
1385570581797731495,-0.00821072833891,-0.000888051238575,0.00151825476987,1.0,0.0,0.0914556217026
1385570581997860152,-0.00823547042431,-0.00813385187108,-0.000604439978063,1.0,0.0,0.0914205094382
1385570582197828989,-0.00919076747779,-0.0146650544961,-0.00248054312269,1.0,0.0,0.0910089521373
1385570582397739206,-0.0107792724997,-0.0197252983409,-0.00428063343005,1.0,0.0,0.0901479999415
1385570582598769393,-0.0131392924803,-0.0230251960042,-0.0052705564564,1.0,0.0,0.0889393880497
1385570582797942784,-0.0164124704747,-0.0249388773442,-0.00567251916747,1.0,0.0,0.0874814721874
1385570582997740515,-0.0204246397024,-0.0250174918957,-0.0056483670293,1.0,0.0,0.0855705428867
1385570583197834223,-0.0252771142256,-0.0237251003779,-0.00524777824215,1.0,0.0,0.0833775756364
1385570583397880039,-0.0306279945344,-0.020054274384,-0.00403878084971,1.0,0.0,0.0807290340734
1385570583597712760,-0.0359425697745,-0.0142231243976,-0.00150921938244,1.0,0.0,0.0778228912297
1385570583798932307,-0.0399343019738,-0.00677479969062,0.00176095193588,1.0,0.0,0.0750979627556
1385570583997747864,-0.041602807228,0.00178617538239,0.0056648146713,1.0,0.0,0.0726965639134
1385570584198816607,-0.0404695281982,0.0116653530381,0.00952548338617,1.0,0.0,0.0705956459305
1385570584398198341,-0.0368770282392,0.0211924446235,0.0129599877938,1.0,0.0,0.069081662317
1385570584597960671,-0.0311539942355,0.0303509430023,0.0154368702163,1.0,0.0,0.0677851660327
1385570584797764152,-0.023927107544,0.0370702071987,0.0172775902946,1.0,0.0,0.067273099431
1385570584997735830,-0.0158741672839,0.041505945325,0.017487306877,1.0,0.0,0.0674447750801
1385570585198800150,-0.00685545190938,0.0430932073833,0.0163034968459,1.0,0.0,0.0682909546699
1385570585397790378,0.00282923243155,0.0412812972917,0.0139375143968,1.0,0.0,0.069617111734
1385570585597722355,0.0127102169275,0.0353825324011,0.0110785912505,1.0,0.0,0.0716506658116
1385570585798807286,0.0225744630339,0.0254356253896,0.00745133048772,1.0,0.0,0.0740191810673
1385570585999087583,0.0314388093766,0.0114991816578,0.00401798176834,1.0,0.0,0.0765251139705
1385570586198931825,0.0380373670578,-0.0055000327498,0.000693137060845,1.0,0.0,0.0790783832109
1385570586398986383,0.0415568640381,-0.0246308825493,-0.00305717164649,1.0,0.0,0.081297229027
1385570586597946258,0.0410255376765,-0.0452706264925,-0.00669202756742,1.0,0.0,0.0828948408133
1385570586797935416,0.035671052111,-0.0661988107457,-0.0102929968764,1.0,0.0,0.083671791101
1385570586997800507,0.0248775037118,-0.0851017959239,-0.0121803550633,1.0,0.0,0.0833299038242
1385570587197718946,0.0100033556103,-0.0991395857186,-0.0124615227791,1.0,0.0,0.0819356650025
1385570587397720040,-0.0081209692058,-0.106221331741,-0.0116546466241,1.0,0.0,0.0795205097256
1385570587598825666,-0.0284506768151,-0.104842216082,-0.0096297474913,1.0,0.0,0.0762992530326
1385570587797708825,-0.0488589630496,-0.0946066947823,-0.00631373974409,1.0,0.0,0.0727196495857
1385570587997772523,-0.0670035898536,-0.0770844823273,-0.00226429336126,1.0,0.0,0.0690749747513
1385570588198804219,-0.0823068878582,-0.0540974040059,0.00324530978424,1.0,0.0,0.0652922609419
1385570588397785848,-0.0887461082057,-0.0268795129348,0.00994932699913,1.0,0.0,0.0616246140583
1385570588597811676,-0.0877232513628,0.00346567321964,0.0169121189219,1.0,0.0,0.0580623266559
1385570588798872121,-0.0769859955943,0.0336171881632,0.0230022049764,1.0,0.0,0.0551132476658
1385570588997816495,-0.0576461010144,0.0605872311026,0.0276829221484,1.0,0.0,0.0533485722204
1385570589197776116,-0.0331546461278,0.0777504901671,0.0297441572592,1.0,0.0,0.0528581684505
1385570589397787569,-0.00777966220996,0.0880670110285,0.0280866606631,1.0,0.0,0.0536778050879
1385570589597812049,0.0150819260578,0.090978880005,0.0240032008809,1.0,0.0,0.0552912564977
1385570589797808183,0.0338107681313,0.0872354193511,0.0194282671407,1.0,0.0,0.0572620297716
1385570589997737349,0.0486302811289,0.0762285534914,0.0150218070037,1.0,0.0,0.0592428106259
1385570590197787245,0.0605859726314,0.0574620232177,0.0113603296181,1.0,0.0,0.0612959125688
1385570590397740749,0.0690433000116,0.0313940936187,0.00862453360418,1.0,0.0,0.0634684559568
1385570590597744217,0.0729956356618,0.000738606875483,0.00595886906785,1.0,0.0,0.06543854825
1385570590798801372,0.0720152736468,-0.0313929819591,0.0026924833633,1.0,0.0,0.0670585417616
1385570590997857879,0.0666649418438,-0.0620299093541,-0.00128598980491,1.0,0.0,0.0676560936452
1385570591198789329,0.0578722341189,-0.0893234337437,-0.00565178072308,1.0,0.0,0.0667687254149
1385570591398799536,0.0462675668784,-0.111260038432,-0.00984607177757,1.0,0.0,0.064349614495
1385570591597767577,0.032464266081,-0.126679688086,-0.0130297216489,1.0,0.0,0.0606282095165
1385570591797796450,0.0154867465007,-0.135286493381,-0.0146145953961,1.0,0.0,0.055828963263
1385570591997810045,-0.00562448738955,-0.136501961527,-0.0139993486601,1.0,0.0,0.0503276363351
1385570592198005235,-0.02967620804,-0.129352502375,-0.012377681266,1.0,0.0,0.0444972610724
1385570592398929192,-0.053952739211,-0.114303749023,-0.00978521278,1.0,0.0,0.0385313368639
1385570592597906126,-0.0748382432289,-0.0924404712569,-0.00710471742729,1.0,0.0,0.0326456084582
1385570592797808499,-0.0903213527113,-0.0656486795738,-0.00421219795352,1.0,0.0,0.0270591858335
1385570592998807398,-0.0990453339619,-0.0358532051786,-0.000588506273955,1.0,0.0,0.0221189473657
1385570593197784632,-0.0998219149597,-0.00476556195967,0.00398797458899,1.0,0.0,0.0181592935889
1385570593397780522,-0.0915884500702,0.0259201954155,0.00936435877849,1.0,0.0,0.0154676028629
1385570593597745544,-0.0733379401206,0.0527907620916,0.0145547023836,1.0,0.0,0.014892021378
1385570593797935087,-0.0490896220212,0.0738080222275,0.0180169943455,1.0,0.0,0.016486969865
1385570593997828528,-0.0234421546414,0.0889764436647,0.0187998804141,1.0,0.0,0.0198376540834
1385570594197779069,-4.5563408877e-05,0.0991556297944,0.0175739093505,1.0,0.0,0.0240449477273
1385570594398712482,0.020685804484,0.103760870112,0.0158833011978,1.0,0.0,0.0284022780189
1385570594597782773,0.0401701971298,0.101812637046,0.0135116795055,1.0,0.0,0.0324000280897
1385570594797804221,0.0597387176464,0.0919129871454,0.0110193410119,1.0,0.0,0.0361803881039
1385570594997865440,0.0784246911361,0.0744455102588,0.00910372687816,1.0,0.0,0.0394832284377
1385570595197814470,0.0931524507127,0.0501450211242,0.00780526449575,1.0,0.0,0.0425064091774
1385570595397799033,0.101359074028,0.0215928643627,0.006420545609,1.0,0.0,0.0453116271453
1385570595597795496,0.102607051847,-0.00825053164686,0.00460487349851,1.0,0.0,0.0476519382561
1385570595797825821,0.0971483322676,-0.0370396657317,0.00241467449869,1.0,0.0,0.0496312442215
1385570595997806845,0.0860457618716,-0.0631114209292,-0.000626312897303,1.0,0.0,0.0507639296792
1385570596197778414,0.0704633525376,-0.0849212003932,-0.00319950130925,1.0,0.0,0.0511679455845
1385570596397818051,0.0513820218324,-0.101513341323,-0.005324055709,1.0,0.0,0.0507791991147
1385570596597977285,0.0291631414416,-0.112460485163,-0.0062607926309,1.0,0.0,0.0496090545025
1385570596797794106,0.00394804607413,-0.116290437631,-0.00655188633267,1.0,0.0,0.047787938257
1385570596997804700,-0.0229199494379,-0.112555241389,-0.0069169380185,1.0,0.0,0.0454055434467
1385570597198035524,-0.0487308762276,-0.101592297533,-0.00640124457919,1.0,0.0,0.0427832610608
1385570597397877061,-0.0708285846761,-0.0843536432026,-0.00505367254142,1.0,0.0,0.0401959557898
1385570597597702939,-0.0879076657075,-0.0622027343345,-0.0030797609751,1.0,0.0,0.037741380225
1385570597798773561,-0.0991126098659,-0.0361957002729,0.00016901954299,1.0,0.0,0.0355326176317
1385570597997995548,-0.102857168881,-0.00685005833214,0.00426117092805,1.0,0.0,0.0338436498205
1385570598197745885,-0.09786893795,0.0249872475089,0.00871373354637,1.0,0.0,0.0330211993615
1385570598397790335,-0.0840584458061,0.0573449699814,0.0121814285071,1.0,0.0,0.0331890178273
1385570598597943936,-0.0629133989632,0.086617438831,0.0140018714342,1.0,0.0,0.0345214906253
1385570598797947867,-0.0379704006536,0.110123364694,0.0141465586542,1.0,0.0,0.0366369786262
1385570598998783745,-0.0117539856858,0.125775906931,0.0124128577356,1.0,0.0,0.0391892663788
1385570599197837961,0.0141094219409,0.132280424815,0.00925013863463,1.0,0.0,0.0417333750529
1385570599397749277,0.039674904145,0.129536072896,0.00534531617416,1.0,0.0,0.0438058912993
1385570599597723322,0.0651532486756,0.117415250323,0.00191978167827,1.0,0.0,0.0453565270689
1385570599797759265,0.0894860615082,0.0966561379605,0.000229111867894,1.0,0.0,0.0464979872961
1385570599997718880,0.108831042714,0.0682679289875,0.00103374791747,1.0,0.0,0.0474818127824
1385570600198811699,0.119124582535,0.0335602214519,0.00252454036954,1.0,0.0,0.0483204069865
1385570600398818401,0.118683352885,-0.00515367435078,0.00311083858479,1.0,0.0,0.0488263141996
1385570600597817235,0.108330398273,-0.0444230480687,0.00213217696629,1.0,0.0,0.0490268081384
1385570600797969802,0.090975133516,-0.0804029481437,0.000315384394763,1.0,0.0,0.0489565108692
1385570600997798859,0.069373845637,-0.109420077357,-0.00146748940114,1.0,0.0,0.048660566668
1385570601198056316,0.0455614781712,-0.129905244867,-0.00237736996463,1.0,0.0,0.0479904354023
1385570601397796388,0.0196058086147,-0.141410623554,-0.00267104390256,1.0,0.0,0.0466720446535
1385570601597803474,-0.00910935456327,-0.143399898454,-0.00211101707448,1.0,0.0,0.044809010242
1385570601798835875,-0.0396767017349,-0.13463801252,-0.0011189782025,1.0,0.0,0.0428202866205
1385570601997822753,-0.0693410633756,-0.115401208013,-0.000137958559751,1.0,0.0,0.0409817728337
1385570602197803001,-0.095204731372,-0.0874212581977,0.00116017058671,1.0,0.0,0.0392793486863
1385570602397841949,-0.114837747883,-0.0527953292729,0.00264965234158,1.0,0.0,0.0375175721265
1385570602598788153,-0.126213438534,-0.0135793050869,0.00423384986165,1.0,0.0,0.0357861532843
1385570602797793826,-0.128245484996,0.0277065199828,0.00534639528999,1.0,0.0,0.0342381128908
1385570602997847809,-0.120811670661,0.0682409672624,0.00548697854756,1.0,0.0,0.0329618888398
1385570603198798429,-0.105157936224,0.104792496871,0.00532916862975,1.0,0.0,0.0317989477016
1385570603397795604,-0.0824374171733,0.133956042329,0.00526617502649,1.0,0.0,0.0307502952472
1385570603598810528,-0.0543831195725,0.154100476722,0.00478438623258,1.0,0.0,0.0296750906825
1385570603797960085,-0.0229276604607,0.164331546648,0.00386608093838,1.0,0.0,0.0286337075589
1385570603997832190,0.00957077806358,0.164658361676,0.002684516585,1.0,0.0,0.0277341526484
1385570604197789587,0.0403694616358,0.154615517345,0.00215346980603,1.0,0.0,0.0274025715694
1385570604397840385,0.0678015576358,0.134325768235,0.00194774978173,1.0,0.0,0.027673264187
1385570604598841769,0.0909383437481,0.104711216339,0.00170980455263,1.0,0.0,0.0283648195094
1385570604798805588,0.108743469809,0.0670537179971,0.00158906812368,1.0,0.0,0.0289698530494
1385570604998816432,0.118234116518,0.0235659617754,0.0012837756755,1.0,0.0,0.0296795974035
1385570605198789820,0.11746359556,-0.0215943335531,0.000564128891327,1.0,0.0,0.0304818055254
1385570605397776986,0.106583950902,-0.0642396275384,-0.000835510371549,1.0,0.0,0.0313837904451
1385570605597940818,0.0889694661576,-0.100829222992,-0.00331089894561,1.0,0.0,0.0321329186065
1385570605797703588,0.0676357428962,-0.129522223108,-0.00498876668474,1.0,0.0,0.0325182684416
1385570605997788271,0.0431254343602,-0.148959917378,-0.00585291837336,1.0,0.0,0.0323275231357
1385570606197974724,0.0153345183932,-0.157774660887,-0.00578631960741,1.0,0.0,0.0315757210497
1385570606397805851,-0.0144413699925,-0.155555973802,-0.00500005983995,1.0,0.0,0.030675925004
1385570606597950503,-0.0437082494402,-0.142785180991,-0.00347225916707,1.0,0.0,0.029906659945
1385570606797891582,-0.069599847511,-0.121038184919,-0.00113231975356,1.0,0.0,0.0292840442932
1385570606997877434,-0.0900819924621,-0.0926453630041,0.0011784283645,1.0,0.0,0.0287265134825
1385570607197794920,-0.103850549096,-0.0595045341962,0.00400734332472,1.0,0.0,0.0281777231118
1385570607398938156,-0.110905541746,-0.0228988240768,0.0055932637992,1.0,0.0,0.0274245374835
1385570607597938594,-0.110746830901,0.0152086892826,0.00594650025881,1.0,0.0,0.0267856560437
1385570607798795751,-0.104484155057,0.0525860227207,0.00533365955354,1.0,0.0,0.0260707132416
1385570607997914080,-0.0926995454129,0.0869708065961,0.00458830829807,1.0,0.0,0.0251929884014
1385570608197835221,-0.0754064626195,0.115927310089,0.00428297552843,1.0,0.0,0.0244426669194
1385570608397962412,-0.0526201321938,0.138422832599,0.00426472408687,1.0,0.0,0.0237799641004
1385570608597988015,-0.0252298392595,0.152182220034,0.00396980889887,1.0,0.0,0.023644530493
1385570608798720322,0.0043427286486,0.15707632382,0.00260809645701,1.0,0.0,0.0241085580398
1385570608998930710,0.0315579032023,0.153180844676,0.00102836975419,1.0,0.0,0.0255379277499
1385570609197806596,0.0535792216139,0.141471625431,0.000377533606864,1.0,0.0,0.0277886928367
1385570609398781318,0.0702650456842,0.122086530668,0.000732730291132,1.0,0.0,0.0306571286374
1385570609597801551,0.082232718455,0.0946052970457,0.00147884541975,1.0,0.0,0.0340508761247
1385570609797771420,0.0879701161697,0.0593852299245,0.00346874931833,1.0,0.0,0.038028134425
1385570609997722478,0.0870867604276,0.0187787173625,0.00413073587449,1.0,0.0,0.0421996986805
1385570610197943522,0.0804251164657,-0.0230481934865,0.00253636922404,1.0,0.0,0.0462382827117
1385570610398084282,0.0706491729464,-0.0623130144656,-0.000778623948381,1.0,0.0,0.0496434159881
1385570610597966848,0.0603628110296,-0.0970480311034,-0.00534279755253,1.0,0.0,0.0520065958561
1385570610798713187,0.0484963299221,-0.125392021935,-0.00956196578355,1.0,0.0,0.0527468090791
1385570610997999387,0.0307889337175,-0.14315865883,-0.0115370072663,1.0,0.0,0.0523101193838
1385570611197781635,0.00644879158181,-0.14777343689,-0.0117551780688,1.0,0.0,0.051070538097
1385570611398713592,-0.0215470663519,-0.139138915202,-0.0102438567983,1.0,0.0,0.0492918033987
1385570611598961327,-0.048342756023,-0.119611232448,-0.00805973180511,1.0,0.0,0.0470547097892
1385570611797901374,-0.0697943966402,-0.0923986178814,-0.0057422121818,1.0,0.0,0.0445761733214
1385570611997940400,-0.0840197924142,-0.0611341566402,-0.00346713814531,1.0,0.0,0.0418056813165
1385570612198187125,-0.0911860810462,-0.0277374369626,-0.00203861784698,1.0,0.0,0.0386766513165
1385570612397942565,-0.0921842326591,0.00637588113452,-0.00188452819634,1.0,0.0,0.0354861082622
1385570612597868542,-0.0882359783918,0.0400809719834,-0.00258291007502,1.0,0.0,0.0325859805464
1385570612797811150,-0.080046886371,0.0724587198361,-0.00339927107342,1.0,0.0,0.0297448275981
1385570612998937762,-0.0664250190663,0.100992405331,-0.00413124475959,1.0,0.0,0.0270680198636
1385570613197991513,-0.0468220223867,0.12275303773,-0.00414313377659,1.0,0.0,0.0249630887091
1385570613398887337,-0.0225384552046,0.135418747528,-0.00355022602777,1.0,0.0,0.0236965202358
1385570613598805915,0.00476864189654,0.139323292399,-0.00213991820329,1.0,0.0,0.0228701313309
1385570613797819826,0.0330986875211,0.134584729939,0.000257467744241,1.0,0.0,0.0224336884627
1385570613998885894,0.0586003353826,0.122433742326,0.00180559130917,1.0,0.0,0.0228772537958
1385570614197799125,0.0768748883551,0.104431407063,0.00347804868137,1.0,0.0,0.0246792926777
1385570614398453786,0.0862958548847,0.081853723996,0.00498444402617,1.0,0.0,0.027524368017
1385570614598550308,0.0884421100752,0.0551011322703,0.00463804239687,1.0,0.0,0.0311742038841
1385570614797676570,0.0862552673307,0.0245713185033,0.0028773820801,1.0,0.0,0.0353027528192
1385570614998755447,0.0820909726393,-0.00854295561606,-0.000364703838295,1.0,0.0,0.0393281691539
1385570615197614961,0.0777261022976,-0.0430886551059,-0.00431807799563,1.0,0.0,0.0427461230052
1385570615398598751,0.0734010416963,-0.077860563008,-0.00782602523497,1.0,0.0,0.0451613776215
1385570615597810486,0.0637703780555,-0.106803809623,-0.0102145901014,1.0,0.0,0.0464843772849
1385570615797885752,0.0455254501387,-0.124698497803,-0.010532121946,1.0,0.0,0.046707023024
1385570615997550019,0.0192067046868,-0.128951203856,-0.00993342612738,1.0,0.0,0.0462146861588
1385570616197675598,-0.0109007175926,-0.121126681233,-0.00891394159995,1.0,0.0,0.0454431300907
1385570616397831843,-0.0396741586042,-0.105453434428,-0.00709448335636,1.0,0.0,0.044392537777
1385570616597503200,-0.0632937633141,-0.0847482104464,-0.00484515737342,1.0,0.0,0.043191787125
1385570616798725259,-0.0810572178521,-0.0604745638234,-0.00311891495505,1.0,0.0,0.0416990600104
1385570616997638075,-0.0923534519413,-0.0322807589272,-0.00172346136455,1.0,0.0,0.0402076376796
1385570617197800528,-0.0976675366222,0.000103585531201,-0.000890359336642,1.0,0.0,0.0388957735161
1385570617398553149,-0.0974873640899,0.0356742588384,-0.000775462938319,1.0,0.0,0.0376840260673
1385570617598493176,-0.0918384520667,0.0715851267813,-0.000513954970264,1.0,0.0,0.0365107210653
1385570617797823591,-0.0807283731361,0.104981360808,-0.000544907523624,1.0,0.0,0.0348638364887
1385570617998467331,-0.0639163103859,0.131758549731,-0.000252287304125,1.0,0.0,0.0328973054711
1385570618197508819,-0.0416196966304,0.148257433423,0.000231438477684,1.0,0.0,0.0308270289829
1385570618397668181,-0.0154057385318,0.152813130732,0.000674972788567,1.0,0.0,0.0288122400841
1385570618597819388,0.0123517194812,0.146110000923,0.00103887270868,1.0,0.0,0.0269186386474
1385570618797859406,0.0400510554078,0.130400463137,0.00175468541932,1.0,0.0,0.0248092471198
1385570618997525054,0.0642039560611,0.107936619004,0.00127299301469,1.0,0.0,0.0231892327576
1385570619197771674,0.0801789807272,0.081372027997,0.000788063316825,1.0,0.0,0.0227413079085
1385570619398617113,0.0847189205059,0.0528702015587,0.00111147402147,1.0,0.0,0.0239244200686
1385570619598462637,0.0802160198032,0.0227273338618,0.00139982483911,1.0,0.0,0.0267088273678
1385570619797721961,0.0714479497085,-0.00928705420973,-0.000596539815127,1.0,0.0,0.0305420942638
1385570619998592029,0.0623827170132,-0.0429942377136,-0.00303172872349,1.0,0.0,0.0344665162983
1385570620197480888,0.0544699499493,-0.0781714725546,-0.00577924238006,1.0,0.0,0.0377563454048
1385570620397513711,0.0452473363292,-0.112520679364,-0.00882635103615,1.0,0.0,0.0403195100823
1385570620598511515,0.0301903227348,-0.138992917921,-0.0100234137011,1.0,0.0,0.0422112210296
1385570620797676248,0.00797076867955,-0.152321312016,-0.00892623955598,1.0,0.0,0.0432484259411
1385570620998635747,-0.0187485243403,-0.15057080538,-0.00608750037343,1.0,0.0,0.0438942382143
1385570621198779945,-0.0443122286743,-0.135131776611,-0.00215833888286,1.0,0.0,0.0447085047196
1385570621397570757,-0.0644242441182,-0.109944924155,0.00197757836045,1.0,0.0,0.0455195072329
1385570621597547225,-0.0780667656604,-0.078663572827,0.00590017141541,1.0,0.0,0.0461207427957
1385570621797538591,-0.0853738947881,-0.0438252526162,0.00886650940554,1.0,0.0,0.0466601034934
1385570621997672473,-0.0874450752752,-0.00733750598408,0.0105103668332,1.0,0.0,0.0470084003242
1385570622197590979,-0.0854405378057,0.0297843652068,0.0107531717861,1.0,0.0,0.046954062946
1385570622397599588,-0.0804394215334,0.066447366933,0.00930936370187,1.0,0.0,0.0463123100284
1385570622597515879,-0.0720318908069,0.100745734971,0.00799159309695,1.0,0.0,0.0452538106119
1385570622797607176,-0.0586819509013,0.129623305653,0.00651948894822,1.0,0.0,0.0437726305298
1385570622997586836,-0.0386432279002,0.149603419303,0.00632427905054,1.0,0.0,0.041938120324
1385570623197619411,-0.0116246526155,0.158621382295,0.00616711113799,1.0,0.0,0.0398032490688
1385570623397446026,0.018606352236,0.156064368632,0.00491962732558,1.0,0.0,0.0378607287441
1385570623597538839,0.0454698172464,0.14346709297,0.00312203266667,1.0,0.0,0.0368601147148
1385570623797497989,0.0651316798092,0.123482680896,0.0027637332748,1.0,0.0,0.0367818457206
1385570623997533952,0.0787015707624,0.0977217867528,0.00179654569574,1.0,0.0,0.0373988367323
1385570624197532445,0.0878064689466,0.0656098849828,0.00298636102002,1.0,0.0,0.0389139069662
1385570624397547224,0.0919931500718,0.0265463309393,0.00390451856538,1.0,0.0,0.0411398331775
1385570624597725878,0.0909466579479,-0.0177082923098,0.00271436761027,1.0,0.0,0.0434782997359
1385570624798483161,0.0854871859822,-0.0628274752655,0.000381984857374,1.0,0.0,0.0452819924933
1385570624997461390,0.0770514624743,-0.104630793163,-0.002824050716,1.0,0.0,0.0462593813978
1385570625197696010,0.065510380395,-0.140102707865,-0.00495080075734,1.0,0.0,0.0462385354201
1385570625397779018,0.0474984409286,-0.164870745549,-0.00520943535216,1.0,0.0,0.0447480699867
1385570625598460544,0.0219310040885,-0.175487395119,-0.0034981744211,1.0,0.0,0.0422299874997
1385570625798561634,-0.00743170941857,-0.171907958481,-0.000749625415512,1.0,0.0,0.0395214256023
1385570625997715565,-0.0358731024267,-0.156993387228,0.00251931567281,1.0,0.0,0.0369734637339
1385570626197537781,-0.0601673536729,-0.133621881561,0.0068027877799,1.0,0.0,0.0344288246034
1385570626397552224,-0.0782311295716,-0.103126991536,0.0104929908117,1.0,0.0,0.0318620579367
1385570626597619300,-0.0888078735271,-0.0670981076105,0.0129954289949,1.0,0.0,0.0295591297717
1385570626797637900,-0.0931252283522,-0.0277122963905,0.0134518439716,1.0,0.0,0.027483017009
1385570626997552818,-0.0931069805423,0.0121296430046,0.0119584991419,1.0,0.0,0.0255529281738
1385570627197593496,-0.0902757265985,0.0496828020358,0.0100765673755,1.0,0.0,0.0237280710181
1385570627397476660,-0.0844453156663,0.0829584238044,0.00756251385634,1.0,0.0,0.0219751421757
1385570627597451729,-0.0747688660962,0.111372627618,0.0048081202834,1.0,0.0,0.0200774682531
1385570627797534972,-0.0602008250219,0.133658325287,0.00226457137593,1.0,0.0,0.0182826559868
1385570627997598493,-0.0409240797336,0.148423122333,0.0014493159924,1.0,0.0,0.0168580756231
1385570628197458904,-0.0187112592827,0.153812380811,0.00138848053925,1.0,0.0,0.0165049599936
1385570628397482007,0.00306961535068,0.149447105349,0.00224966996214,1.0,0.0,0.0179109915474
1385570628597592333,0.0211490729179,0.136688413381,0.00251245223039,1.0,0.0,0.0207975188647
1385570628797532345,0.0335625920692,0.116015728451,0.00308859551289,1.0,0.0,0.0250236871369
1385570628997472930,0.0411561810984,0.0882275194047,0.00298359687644,1.0,0.0,0.0303660471126
1385570629198454719,0.0461059089851,0.0545802020995,0.00184171498385,1.0,0.0,0.0364008974503
1385570629398529414,0.0498655239225,0.0174391366163,-0.000614869811027,1.0,0.0,0.0424196445615
1385570629598665588,0.0529003430001,-0.0208303028623,-0.00267528455629,1.0,0.0,0.0479687152715
1385570629798708364,0.0560753939424,-0.0581050281949,-0.00649866557081,1.0,0.0,0.0523976912725
1385570629998498636,0.0567901373892,-0.0932077306785,-0.0112226137733,1.0,0.0,0.0554562671704
1385570630197738612,0.0507634797225,-0.122670826445,-0.0145083926525,1.0,0.0,0.0565453106785
1385570630397548987,0.0353296350899,-0.142118710495,-0.0157734037758,1.0,0.0,0.0562934669196
1385570630597441639,0.0135343291282,-0.148780549758,-0.0146349445583,1.0,0.0,0.0557211093937
1385570630797520526,-0.0102094746255,-0.1427787216,-0.0121050909062,1.0,0.0,0.0551226996778
1385570630997604055,-0.0318068455648,-0.125910083284,-0.00920056461058,1.0,0.0,0.0542982012285
1385570631197481927,-0.0489209993707,-0.101625169719,-0.00645522284265,1.0,0.0,0.0531616089676
1385570631398450805,-0.0620045334057,-0.0727389028087,-0.00364734344435,1.0,0.0,0.0515860728216
1385570631597517529,-0.0712982642449,-0.0413534598644,-0.0011639415589,1.0,0.0,0.0498849214506
1385570631797473973,-0.0772185270995,-0.00893244597726,0.000463139508514,1.0,0.0,0.04817983263
1385570631997550236,-0.0794656875094,0.0234376469205,0.00153356931126,1.0,0.0,0.0467199386842
1385570632197562688,-0.0781130804174,0.0550214912685,0.00144098654279,1.0,0.0,0.0452914416352
1385570632397447503,-0.0729570038799,0.0845496014281,0.000455786149048,1.0,0.0,0.0436142773695
1385570632597492938,-0.0636008062264,0.110902446123,-0.000382825573381,1.0,0.0,0.0415756716786
1385570632797503004,-0.0497087912646,0.132150642838,-0.000394851644777,1.0,0.0,0.0394575792038
1385570632997527454,-0.0306783773573,0.146329047593,0.000703009018577,1.0,0.0,0.0378156675217
1385570633197716142,-0.00808985974636,0.151310904284,0.00244887256572,1.0,0.0,0.0375214000965
1385570633397522133,0.0146861334757,0.145778381384,0.00550670726074,1.0,0.0,0.0389636507618
1385570633597557294,0.0339728555656,0.128492274139,0.00742930043176,1.0,0.0,0.0420466849877
1385570633797491475,0.0485904130299,0.10008086791,0.00824211410519,1.0,0.0,0.0461805418363
1385570633997479879,0.0591766675046,0.0625039189112,0.00806334927878,1.0,0.0,0.0504226260019
1385570634197596805,0.066046618301,0.0190616706447,0.00590622513276,1.0,0.0,0.0539790540296
1385570634398468593,0.0700645979942,-0.0264825310936,0.00270787116647,1.0,0.0,0.0563391883568
1385570634598564605,0.0709353107722,-0.0707984626545,-0.00232121753891,1.0,0.0,0.0575061573609
1385570634797486075,0.0663564444655,-0.109041721203,-0.00629290898006,1.0,0.0,0.0574463254874
1385570634997455224,0.0529870364663,-0.137233828709,-0.00760653487752,1.0,0.0,0.056137532692
1385570635197489581,0.0302400340494,-0.152206957261,-0.00706615965628,1.0,0.0,0.0543054951076
1385570635398568026,0.0024778752107,-0.154039336751,-0.00546408007677,1.0,0.0,0.0524946376539
1385570635598544867,-0.0246076917475,-0.144715248793,-0.00256607780962,1.0,0.0,0.0509874558921
1385570635797528210,-0.0479949007464,-0.125922703019,0.000673340734662,1.0,0.0,0.0495167307414
1385570635997750935,-0.067082831001,-0.0990774206472,0.00311644050133,1.0,0.0,0.0479473329896
1385570636197516227,-0.0817431190887,-0.0658781398679,0.00493360728855,1.0,0.0,0.0463596507409
1385570636397536240,-0.0921851778443,-0.0283899953091,0.00562124629165,1.0,0.0,0.0447320431617
1385570636597546751,-0.0986082514309,0.010745786486,0.00499208857686,1.0,0.0,0.0430901360405
1385570636797601676,-0.101122753081,0.0493402567005,0.00422184962229,1.0,0.0,0.0412477247033
1385570636997511194,-0.0978182685013,0.0850449215031,0.00312837142292,1.0,0.0,0.0391797154633
1385570637198512148,-0.0876392205199,0.11466881252,0.00125047389163,1.0,0.0,0.0369273066138
1385570637397479440,-0.0717655707902,0.136098313691,-0.000400494305264,1.0,0.0,0.0345693902798
1385570637597514419,-0.0521810128408,0.148276487545,-0.000489310715124,1.0,0.0,0.0321981140754
1385570637797513594,-0.0298494606077,0.151045933655,0.00083184317659,1.0,0.0,0.0303629986492
1385570637997515924,-0.00735161777709,0.144652298221,0.00249742768839,1.0,0.0,0.0300067511496
1385570638197529161,0.0115029396006,0.129189625729,0.00449210640752,1.0,0.0,0.0318214264938
1385570638397538912,0.0253190574583,0.105948566455,0.0055875320293,1.0,0.0,0.0354621950461
1385570638597521931,0.0341491311263,0.0762118363693,0.00491703419052,1.0,0.0,0.0402419802446
1385570638798529124,0.0403570556193,0.0414130251931,0.0035791913325,1.0,0.0,0.0451275109049
1385570638997478654,0.0461552059985,0.00313648027502,0.000570215379244,1.0,0.0,0.0491164118517
1385570639198555908,0.0526017870637,-0.0372352897603,-0.00527118940471,1.0,0.0,0.0517459386991
1385570639398473186,0.0564790967023,-0.0769413639764,-0.0115524062773,1.0,0.0,0.052972791518
1385570639598447695,0.0520645819776,-0.110301241683,-0.0150451583676,1.0,0.0,0.0527965166014
1385570639798476177,0.0364682936053,-0.132415619318,-0.0152731753037,1.0,0.0,0.051710490325
1385570639997706711,0.0127269832091,-0.140955691657,-0.0133128619383,1.0,0.0,0.0500045753799
1385570640197564170,-0.0130702782271,-0.13683442805,-0.0106038109886,1.0,0.0,0.0483686690009
1385570640397562151,-0.0366927633585,-0.122801397192,-0.00750977052348,1.0,0.0,0.046609884399
1385570640598551138,-0.0554171920132,-0.10176095656,-0.00396504420089,1.0,0.0,0.044896973087
1385570640797483594,-0.0693177025558,-0.0748545286653,-0.000994458728965,1.0,0.0,0.0429420085737
1385570640997505703,-0.0793363080455,-0.0434754144969,0.000811237888207,1.0,0.0,0.040755193476
1385570641197547473,-0.0859281984989,-0.00938442442072,0.00179561370789,1.0,0.0,0.0384302364802
1385570641397551756,-0.0892188213025,0.0254930781563,0.00251798041927,1.0,0.0,0.035943696218
1385570641597603172,-0.0877825595742,0.0583728095883,0.00235817856582,1.0,0.0,0.0334326912979
1385570641798592171,-0.0807694541302,0.0867113762952,0.00234193727289,1.0,0.0,0.0308211527901
1385570641997581012,-0.0677629559329,0.10796860291,0.00223729697393,1.0,0.0,0.0283349952953
1385570642197487933,-0.0493965850107,0.121533522519,0.00198361303506,1.0,0.0,0.0259062299481
1385570642397734605,-0.0273640616518,0.126834521968,0.00227684635023,1.0,0.0,0.0235244810395
1385570642597669662,-0.00414809651485,0.124018829251,0.00323738724946,1.0,0.0,0.0217809950284
1385570642797484024,0.0180817356867,0.114787919776,0.00423121180835,1.0,0.0,0.0213495748482
1385570642998499503,0.0371621143271,0.100940302134,0.00631586110182,1.0,0.0,0.0226851050538
1385570643197553602,0.0510759343558,0.0821565667627,0.00931313763352,1.0,0.0,0.0259511618708
1385570643397599710,0.0601305913273,0.0575608209836,0.00998866739123,1.0,0.0,0.0306270466242
1385570643598612268,0.0667717997514,0.0261117548795,0.00766003762168,1.0,0.0,0.0354979494019
1385570643797765997,0.0728794930113,-0.011947195302,0.00174870076809,1.0,0.0,0.0396580419603
1385570643997672150,0.0778418807936,-0.0535669775793,-0.00575544541386,1.0,0.0,0.0424340735126
1385570644197720686,0.0767389378163,-0.0913175855306,-0.0102806277267,1.0,0.0,0.0436648512966
1385570644398590714,0.0654898728037,-0.118587050332,-0.0112331919172,1.0,0.0,0.0437892328983
1385570644597528205,0.044477060096,-0.131933683364,-0.0107932722781,1.0,0.0,0.0431467694218
1385570644797511718,0.0180381578006,-0.132040946832,-0.00988545031797,1.0,0.0,0.0422027238747
1385570644997704351,-0.00872961985517,-0.122063143449,-0.00789252899005,1.0,0.0,0.0411698811671
1385570645197432591,-0.0325270258647,-0.105201464141,-0.00520913826407,1.0,0.0,0.040180094915
1385570645397559598,-0.0516652298278,-0.0834974135729,-0.00233115574316,1.0,0.0,0.0394997437575
1385570645597539929,-0.0660128118974,-0.0576781924324,-0.000176606707677,1.0,0.0,0.0390533071971
1385570645797473402,-0.0759720915702,-0.0278785763542,0.000269617502428,1.0,0.0,0.0386964746576
1385570645997543865,-0.0819819867532,0.00505608557701,-0.000183192209917,1.0,0.0,0.0384727468923
1385570646198444869,-0.0841757197871,0.0397651347298,-0.000951360484872,1.0,0.0,0.0379331630389
1385570646397446454,-0.081350515848,0.07382242089,-0.00163315020785,1.0,0.0,0.036888382426
1385570646598573030,-0.0723978206473,0.104157956976,-0.00188710748722,1.0,0.0,0.0352944457433
1385570646797537736,-0.057220834664,0.128056118676,-0.00196862410968,1.0,0.0,0.0331761357656
1385570646997424925,-0.0374182502413,0.144090502129,-8.61501298596e-05,1.0,0.0,0.0311815303673
1385570647197637304,-0.0146826216553,0.151135024106,0.0035130201004,1.0,0.0,0.0303309824438
1385570647397533084,0.00778047093773,0.147809955082,0.00698614826974,1.0,0.0,0.0314035385425
1385570647598519543,0.027147453903,0.134339297127,0.00849584070523,1.0,0.0,0.0343413125233
1385570647797619815,0.0422895289327,0.112207649857,0.00887305343031,1.0,0.0,0.0384324111281
1385570647998614404,0.0528842140794,0.082917346312,0.00887220349954,1.0,0.0,0.0430481540371
1385570648197556838,0.058930724674,0.047722913694,0.00731721484682,1.0,0.0,0.0478496650922
1385570648397717776,0.0623810073487,0.00879433582231,0.00490372653646,1.0,0.0,0.0520668970885
1385570648598126015,0.0644941545896,-0.0316513183364,0.00112584330227,1.0,0.0,0.0554286345462
1385570648797696778,0.0662541608372,-0.0716088766463,-0.004731742016,1.0,0.0,0.0575661060133
1385570648998697189,0.0643424262199,-0.107242857589,-0.00991481837013,1.0,0.0,0.0585351661314
1385570649197615324,0.0546076720204,-0.133096097552,-0.0123502767388,1.0,0.0,0.0581778871925
1385570649398429749,0.0358834575313,-0.14524650034,-0.0118074270721,1.0,0.0,0.0569265357886
1385570649597558841,0.011166288327,-0.143534912913,-0.00929916252797,1.0,0.0,0.0553663518264
1385570649797548398,-0.0156171756613,-0.130046659527,-0.00556918089302,1.0,0.0,0.0537468706471
1385570649997565792,-0.0410422501582,-0.108232640271,-0.00119918228447,1.0,0.0,0.0521280444334
1385570650197560423,-0.0618144902638,-0.0809967234096,0.00270508339009,1.0,0.0,0.0509583784063
1385570650397519897,-0.0767966747762,-0.0497937871834,0.00581667521873,1.0,0.0,0.0500916861719
1385570650598876479,-0.0862284830378,-0.0157290671005,0.00673586091543,1.0,0.0,0.0493253922069
1385570650797535046,-0.0912101872975,0.0203795576488,0.00578168366235,1.0,0.0,0.0483303447942
1385570650998615491,-0.0918725467473,0.0566812476498,0.00399538229809,1.0,0.0,0.0470137503751
1385570651197590874,-0.087220885865,0.0912672454687,0.00232487183639,1.0,0.0,0.0450730195539
1385570651397693238,-0.0756901224545,0.121533505255,0.00139225243405,1.0,0.0,0.04249924174
1385570651597440994,-0.0563026870552,0.144038326903,0.00198662356286,1.0,0.0,0.039874679067
1385570651797655802,-0.0305802788948,0.15676078697,0.00231390172516,1.0,0.0,0.0375778845722
1385570651997514928,-0.00220124708884,0.15840076339,0.00252306559683,1.0,0.0,0.036142869304
1385570652198607061,0.0249650548049,0.149950198677,0.00119979685604,1.0,0.0,0.0353330256167
1385570652397534837,0.0480887672007,0.132759773632,0.000770343666738,1.0,0.0,0.035114544779
1385570652597508320,0.0676967654426,0.108265446682,0.00123478352562,1.0,0.0,0.035279569843
1385570652797553019,0.0844064040251,0.0768425252178,0.00118544660931,1.0,0.0,0.0359632671677
1385570652997425700,0.0973554787496,0.0395596832205,0.00289882853873,1.0,0.0,0.0371949673654
1385570653197514638,0.103392021711,-0.00233224832357,0.00451326319248,1.0,0.0,0.0388583276486
1385570653398442219,0.100700716486,-0.045610053404,0.00489715977697,1.0,0.0,0.0404047004167
1385570653597732932,0.0902969218546,-0.0852732893868,0.0036821825785,1.0,0.0,0.0414999004718
1385570653797527022,0.0747999591129,-0.117964155029,0.000923522478769,1.0,0.0,0.0418482881787
1385570653997503135,0.0567521761452,-0.142242861373,-0.00184087171706,1.0,0.0,0.041324090427
1385570654198461430,0.0360097098475,-0.157143878944,-0.00297710829933,1.0,0.0,0.0399252491986
1385570654398487736,0.0117257342473,-0.160778506587,-0.00215373880652,1.0,0.0,0.0378658000514
1385570654597691632,-0.0148443559943,-0.151539807645,-0.000733443352467,1.0,0.0,0.0358126828349
1385570654797657163,-0.0410621617376,-0.13144891445,0.00114040350061,1.0,0.0,0.0339514253114
1385570654997526118,-0.0640343590496,-0.103308968896,0.00338701675248,1.0,0.0,0.0323762892839
1385570655197739314,-0.0818387951278,-0.0696308170891,0.00475816250532,1.0,0.0,0.0312806146882
1385570655397607560,-0.094038733282,-0.0328196877353,0.0051596005391,1.0,0.0,0.0307052892958
1385570655597570621,-0.100912661123,0.00570936788688,0.0041224027198,1.0,0.0,0.0304789606903
1385570655797615683,-0.102402066031,0.0452621958275,0.00253207435574,1.0,0.0,0.030223757421
1385570655997534295,-0.0976111261798,0.0845275453048,-3.86796051455e-05,1.0,0.0,0.0298156671784
1385570656198399183,-0.0855189297586,0.12038905355,-0.0018144702436,1.0,0.0,0.0294073609903
1385570656397581705,-0.0652315159433,0.14971149414,-0.00289038836507,1.0,0.0,0.0287330231209
1385570656597498939,-0.0381543598814,0.169354140176,-0.00302264089198,1.0,0.0,0.0277914544446
1385570656797492467,-0.00699599301076,0.177451514056,-0.00125791181626,1.0,0.0,0.0267777322921
1385570656997611063,0.0246177489875,0.172011620861,0.00081880479604,1.0,0.0,0.0260101531644
1385570657197546975,0.0540553938851,0.15313700176,0.00241141006536,1.0,0.0,0.0253317341032
1385570657398704050,0.0792350047344,0.123345281996,0.00340624756536,1.0,0.0,0.0244295317535
1385570657598712221,0.0989387929303,0.0863123963437,0.00441470705126,1.0,0.0,0.0231076100444
1385570657797520304,0.112204808597,0.045480307533,0.00444299192647,1.0,0.0,0.0215648978313
1385570657998629153,0.119038649422,0.00319591324299,0.00552576332925,1.0,0.0,0.0199297633311
1385570658197482954,0.117718423909,-0.0388577773626,0.00632035803544,1.0,0.0,0.0185545427536
1385570658398428716,0.107950005968,-0.0783076156711,0.00601065265441,1.0,0.0,0.0171829108982
1385570658597439534,0.0901165830126,-0.111413643487,0.0043835069725,1.0,0.0,0.0157920106467
1385570658797599108,0.0668117205664,-0.135366351091,0.00276553852759,1.0,0.0,0.0143582042875
1385570658997574256,0.0405773919034,-0.149199725293,0.00193224940146,1.0,0.0,0.0129954564218
1385570659197546273,0.012710230037,-0.153692026373,0.00114074369443,1.0,0.0,0.0112197544499
1385570659397430013,-0.0164851263677,-0.149504448314,0.000514605482753,1.0,0.0,0.00910725608446
1385570659598599303,-0.0448446755239,-0.13735484776,0.000148456765885,1.0,0.0,0.00767673622643
1385570659798600509,-0.0703967367656,-0.118822873528,0.000534255302284,1.0,0.0,0.00725031706717
1385570659997546420,-0.0913629832589,-0.093848700043,0.00222930172308,1.0,0.0,0.00798993853797
1385570660197533259,-0.106564665401,-0.0617892960415,0.00456242045811,1.0,0.0,0.00981091185565
1385570660397431683,-0.115119594879,-0.0228660771575,0.00602936372073,1.0,0.0,0.012232426156
1385570660597494389,-0.116528523048,0.0209531943699,0.0061637720576,1.0,0.0,0.0148784501831
1385570660798061549,-0.110915670343,0.0657476792561,0.004452751898,1.0,0.0,0.0175946830476
1385570660997893199,-0.0988648955191,0.106581961889,0.0025381437608,1.0,0.0,0.020090639589
1385570661197920666,-0.0810538413981,0.13905520589,0.000655756118703,1.0,0.0,0.0221072648399
1385570661397925164,-0.058637744952,0.160661801872,-0.000640439816863,1.0,0.0,0.0234020942259
1385570661598122765,-0.0332819273065,0.170054370022,-0.00132333577987,1.0,0.0,0.0241623292412
1385570661797884635,-0.00600812334641,0.168438627548,-0.00197106313932,1.0,0.0,0.0244303178535
1385570661997893176,0.0205536504723,0.15745783608,-0.0031657531045,1.0,0.0,0.0243117447797
1385570662197813740,0.042385901331,0.138761986751,-0.00262717431683,1.0,0.0,0.0241423434948
1385570662398960206,0.0580972134903,0.113132651802,-0.000196511025288,1.0,0.0,0.0243973928748
1385570662596987167,0.069478642397,0.0806509500908,0.00104389829147,1.0,0.0,0.0251950613039
1385570662797831272,0.0780768584389,0.0416852670213,0.00154329112587,1.0,0.0,0.0265236656015
1385570662997811731,0.082897635487,-0.00159882196263,0.000590800795889,1.0,0.0,0.0278462624234
1385570663198188759,0.0823805153005,-0.0455802670144,-0.00117796360349,1.0,0.0,0.0289790339578
1385570663397893095,0.0765052794506,-0.0856359202023,-0.0035101179109,1.0,0.0,0.0297712171991
1385570663597941424,0.0658224014493,-0.118521742487,-0.00610279770729,1.0,0.0,0.0301407580254
1385570663798879557,0.0503675015035,-0.141774597886,-0.00742393290714,1.0,0.0,0.0300444880235
1385570663998004040,0.0297931966347,-0.153376480525,-0.00713349616076,1.0,0.0,0.029813863259
1385570664197899659,0.00574645828438,-0.153452147539,-0.00605309579261,1.0,0.0,0.0295546308974
1385570664398921476,-0.018875176816,-0.143626704252,-0.00342634666802,1.0,0.0,0.0295661132877
1385570664597919274,-0.042123919672,-0.12520678817,-4.068380739e-05,1.0,0.0,0.0297636021303
1385570664798851597,-0.0624589528183,-0.0995422516446,0.00250741097828,1.0,0.0,0.0300082894068
1385570664997815590,-0.0785878918834,-0.0685031731285,0.00416226314897,1.0,0.0,0.0304635937863
1385570665196977407,-0.089675294794,-0.034193582279,0.00526651005734,1.0,0.0,0.031182619157
1385570665397858945,-0.0954336394626,0.00124115500223,0.00564419468254,1.0,0.0,0.0322568686794
1385570665597877786,-0.0965014165413,0.0363604529325,0.0054000991277,1.0,0.0,0.03349327309
1385570665799106103,-0.0923505685157,0.0693656093126,0.0043204980325,1.0,0.0,0.0347204319347
1385570665997883674,-0.0820319204061,0.0976214968268,0.0028112016216,1.0,0.0,0.03563636828
1385570666198948811,-0.0650115949154,0.118732407117,0.00197946548574,1.0,0.0,0.0364176405508
1385570666397046174,-0.0419537833483,0.130915514894,0.00136682139537,1.0,0.0,0.0374441809191
1385570666597836231,-0.0158963383325,0.133100117068,0.0011808685373,1.0,0.0,0.0392195942013
1385570666796888329,0.0092936358695,0.125003982156,0.001147310903,1.0,0.0,0.0416017831557
1385570666997119500,0.0305386706592,0.107150731266,0.000281098835094,1.0,0.0,0.0444617937067
1385570667197920034,0.0472068140082,0.0820854770522,-0.000391190580224,1.0,0.0,0.0472166711609
1385570667398870295,0.0592255933833,0.0515076144352,-0.00162534590966,1.0,0.0,0.0498852409114
1385570667597924572,0.0679091209178,0.0169218091474,-0.00446791812964,1.0,0.0,0.0522613517866
1385570667797872245,0.0737030806914,-0.0193846810733,-0.00813921658685,1.0,0.0,0.0539841759634
1385570667997882928,0.0757493168109,-0.0550859685991,-0.011881120851,1.0,0.0,0.0552088726754
1385570668198895227,0.0725949969949,-0.0866100767021,-0.0141301609687,1.0,0.0,0.0555099092807
1385570668397836851,0.0622558118404,-0.111284305318,-0.0147700183792,1.0,0.0,0.0548921127971
1385570668596913142,0.0442654609016,-0.126095236572,-0.0139673791666,1.0,0.0,0.0535656652641
1385570668798942643,0.0205028720796,-0.129260555644,-0.0116677137244,1.0,0.0,0.05198097882
1385570668997888079,-0.00604538660874,-0.120705068852,-0.00883315521104,1.0,0.0,0.0503241418864
1385570669198938605,-0.0318832425325,-0.102746594184,-0.00571742468177,1.0,0.0,0.0486501944051
1385570669397903632,-0.0540871228262,-0.0782231195919,-0.00214783682704,1.0,0.0,0.0468984616447
1385570669598876195,-0.071232125689,-0.0488328164969,0.000693160826137,1.0,0.0,0.0450633741026
1385570669797889952,-0.0829906470771,-0.016447334016,0.00243979291955,1.0,0.0,0.0433773399113
1385570669999024636,-0.0894738115181,0.0166986326845,0.00324559583784,1.0,0.0,0.0419175261894
1385570670197867521,-0.0904599599172,0.048105132119,0.00316434419928,1.0,0.0,0.0407832710058
1385570670397983991,-0.0859516069922,0.0758990297236,0.00268204451399,1.0,0.0,0.0398403260967
1385570670597890050,-0.0756662411936,0.0974533277059,0.00272255187359,1.0,0.0,0.0390622172983
1385570670798083757,-0.0594764200378,0.111525746473,0.00304401039389,1.0,0.0,0.0383308980373
1385570670997874550,-0.0379271838388,0.117638234977,0.00353631678673,1.0,0.0,0.037781707895
1385570671197938715,-0.0127767665314,0.115556630791,0.00394671749182,1.0,0.0,0.0378431574925
1385570671398927544,0.0128292587064,0.105636094409,0.00436524268476,1.0,0.0,0.0389127520488
1385570671598909493,0.0358752429664,0.0878483866846,0.00497281469813,1.0,0.0,0.0409405376944
1385570671798849082,0.0545949375373,0.0621674307189,0.0041994097984,1.0,0.0,0.043402046912
1385570671997892387,0.0689723413184,0.0297577542933,0.00124301539651,1.0,0.0,0.0458653889452
1385570672197307904,0.0799499494386,-0.00667933166179,-0.00339891512811,1.0,0.0,0.0477845337931
1385570672396978142,0.0866347190098,-0.0433407906826,-0.00802943189893,1.0,0.0,0.0489211399809
1385570672597810798,0.0868453049534,-0.0757723259735,-0.010733025617,1.0,0.0,0.0492332651762
1385570672798072862,0.0787086810427,-0.101186759455,-0.0118926009961,1.0,0.0,0.0489941368216
1385570672998013201,0.0622483377003,-0.118124894603,-0.0118724863437,1.0,0.0,0.0483558167565
1385570673197942197,0.0396760603736,-0.126258305854,-0.0111414410063,1.0,0.0,0.0476662151906
1385570673398948479,0.0145607333124,-0.12655253084,-0.0102531567015,1.0,0.0,0.0469614478204
1385570673597899317,-0.0095796560129,-0.120176316658,-0.00820484841037,1.0,0.0,0.0462878401875
1385570673798252071,-0.0311463098418,-0.107751106473,-0.00545851656205,1.0,0.0,0.0456636895036
1385570673997916681,-0.0504066447641,-0.0891942004152,-0.00305648196656,1.0,0.0,0.0451597749863
1385570674197169568,-0.0667983019768,-0.0639239312852,-0.00101657091481,1.0,0.0,0.0449474919742
1385570674397873261,-0.0794114200263,-0.0320884628235,0.000671840126752,1.0,0.0,0.0449269564292
1385570674597028151,-0.0855902081731,0.00435115555663,0.00204832212189,1.0,0.0,0.0454534887182
1385570674798065350,-0.0841584117871,0.0408477979598,0.00240377072234,1.0,0.0,0.0464302498145
1385570674997861370,-0.0759233042362,0.0728114398938,0.00259384965387,1.0,0.0,0.0476873219918
1385570675198843509,-0.0628543812641,0.0986032200567,0.00212788561929,1.0,0.0,0.0483938630227
1385570675397047063,-0.0463957749513,0.117896710391,0.00122398631917,1.0,0.0,0.0484251975189
1385570675598879687,-0.0279896243762,0.13064154972,0.000437347237765,1.0,0.0,0.0479939053752
1385570675798909153,-0.00805198405394,0.135275413412,0.00215002023359,1.0,0.0,0.0473604938021
1385570675998048527,0.0139793633476,0.128369976582,0.00331876767403,1.0,0.0,0.0466308510359
1385570676197876841,0.0383569706749,0.109471267653,0.0021781163816,1.0,0.0,0.0457357423285
1385570676398504601,0.0624926773116,0.0798756830238,0.00056834624011,1.0,0.0,0.0446437679983
1385570676598923086,0.0827833778228,0.0430942336428,-0.00182906380808,1.0,0.0,0.0430677734204
1385570676797853627,0.0953693331638,0.00355470998916,-0.00345947604589,1.0,0.0,0.0409436474013
1385570676998024568,0.0971544900046,-0.0346494342438,-0.00411812477508,1.0,0.0,0.0385133793909
1385570677199075399,0.0884443743037,-0.0686955494286,-0.00414721091671,1.0,0.0,0.0360260239051
1385570677397445132,0.0713580101439,-0.0971780167176,-0.00431266714018,1.0,0.0,0.0336575406511
1385570677598958359,0.0492521598273,-0.118808504659,-0.00391380479583,1.0,0.0,0.0314714447841
1385570677798880046,0.0252801513076,-0.132614853075,-0.00321732971838,1.0,0.0,0.0297451246564
1385570677996902355,0.00180114688559,-0.139538026824,-0.00179342177355,1.0,0.0,0.0282238292763
1385570678197375422,-0.020548016765,-0.139259741714,8.99444237046e-05,1.0,0.0,0.0268358576733
1385570678397208483,-0.0416874851747,-0.130927850091,0.00250180766744,1.0,0.0,0.0256730073127
1385570678597161316,-0.0606110253425,-0.11419064252,0.004428723693,1.0,0.0,0.0251278326525
1385570678796986846,-0.0765859934376,-0.0899486899284,0.00663118714435,1.0,0.0,0.0251557886528
1385570678996871703,-0.0874115937818,-0.0598369230384,0.00823206764894,1.0,0.0,0.0256938890777
1385570679197908276,-0.0923542905221,-0.0256577888478,0.00973652580167,1.0,0.0,0.026375097798
1385570679397895201,-0.0907642230321,0.0101187387511,0.00988459917005,1.0,0.0,0.0272126606797
1385570679598171728,-0.0833972959399,0.0451621870028,0.00947960738124,1.0,0.0,0.028231647558
1385570679798030635,-0.0709337076064,0.077544011021,0.00884471789665,1.0,0.0,0.0291582258835
1385570679999203320,-0.0530523622321,0.104164605806,0.00719482574795,1.0,0.0,0.0303235502569
1385570680197870769,-0.0308002099313,0.12214953867,0.00458572868457,1.0,0.0,0.0319379812214
1385570680398807016,-0.00688494838121,0.130355517325,0.00175785147457,1.0,0.0,0.033766763877
1385570680597936824,0.0158903994539,0.129347376735,-0.000880002986273,1.0,0.0,0.0355632117811
1385570680797851667,0.0358777813939,0.119740402921,-0.00244899845498,1.0,0.0,0.0373780456588
1385570680998892714,0.0524709058128,0.102198681016,-0.00278806303939,1.0,0.0,0.0390984004076
1385570681197076507,0.065257683503,0.077017234672,-0.00229881073939,1.0,0.0,0.0405058052097
1385570681397002680,0.0732793274276,0.0449867908243,-0.00178278062707,1.0,0.0,0.041799358231
1385570681598924054,0.076383813164,0.00814221618833,-0.00201935821326,1.0,0.0,0.0428524778512
1385570681797874574,0.0741062094827,-0.0311715674157,-0.00327568582378,1.0,0.0,0.0433836670125
1385570681997108002,0.0652909344333,-0.0690615706732,-0.00499317839699,1.0,0.0,0.0433966581012
1385570682197901903,0.0501617598456,-0.101790824909,-0.00626635687062,1.0,0.0,0.0429276011413
1385570682397959503,0.0298065662839,-0.126026959262,-0.00700629155119,1.0,0.0,0.0417970293445
1385570682598321163,0.00608665476735,-0.139673206421,-0.00643828885823,1.0,0.0,0.0401729868784
1385570682798042013,-0.0192454017943,-0.14179983334,-0.00478437772478,1.0,0.0,0.0381916049268
1385570682997967503,-0.043891841845,-0.132938396812,-0.00234535502929,1.0,0.0,0.0360636346717
1385570683198052450,-0.0656600662752,-0.11478162468,0.000261449895255,1.0,0.0,0.0338489307333
1385570683398849942,-0.0823469034124,-0.089805459273,0.00247953287003,1.0,0.0,0.0317697805259
1385570683597915710,-0.0928308419481,-0.0606273741922,0.00409198675806,1.0,0.0,0.0299706663573
1385570683797879553,-0.0974755556125,-0.0289298989877,0.00576349124908,1.0,0.0,0.0283964335088
1385570683997308728,-0.0968236520039,0.00487166240252,0.00633904913564,1.0,0.0,0.0267404525327
1385570684197878879,-0.0908359466467,0.0396894655697,0.0055344401739,1.0,0.0,0.0248974269796
1385570684398872891,-0.0792435644404,0.0735407049555,0.00426494425398,1.0,0.0,0.0229156186233
1385570684597034290,-0.0621283106267,0.102219458081,0.00330597729456,1.0,0.0,0.0214463365984
1385570684797896679,-0.0411792668522,0.122048626531,0.0027190796382,1.0,0.0,0.0211478825896
1385570684997917143,-0.0182236129464,0.130949279477,0.00208883710203,1.0,0.0,0.0220043352735
1385570685197866479,0.00526635790359,0.128927835335,0.00113003414501,1.0,0.0,0.0235575205935
1385570685397677583,0.0269970494949,0.117107191157,0.000213416059586,1.0,0.0,0.0257979789421
1385570685597845587,0.0443617999879,0.0979166559866,0.000877242842392,1.0,0.0,0.0285343101744
1385570685797909820,0.056752067595,0.0740648572945,0.00192767774357,1.0,0.0,0.0314341919543
1385570685998971415,0.0644717831754,0.0475021523745,0.00303422040017,1.0,0.0,0.0347686756335
1385570686197845928,0.0679070436959,0.0200211847768,0.00364489315358,1.0,0.0,0.0386541371866
1385570686399000511,0.0675397438225,-0.00790397267089,0.00296368090587,1.0,0.0,0.0428114419301
1385570686598208308,0.0642330383815,-0.0353355006578,0.000817335284178,1.0,0.0,0.0463649876971
1385570686797931404,0.057676329353,-0.0619775333874,-0.00243464213815,1.0,0.0,0.0488267975132
1385570686998046513,0.0471078063719,-0.0866766819695,-0.00577579682453,1.0,0.0,0.0498958225807
1385570687197973055,0.0307946628972,-0.106163641387,-0.00796388660263,1.0,0.0,0.0497786473912
1385570687397927001,0.00904169367598,-0.11636550113,-0.0084796860004,1.0,0.0,0.048865917651
1385570687598833296,-0.0160736345299,-0.115633516324,-0.00793053095654,1.0,0.0,0.0473804516836
1385570687797997920,-0.0406177365623,-0.104955263564,-0.00667939166041,1.0,0.0,0.0460398815266
1385570687999136941,-0.0611723109027,-0.0871002291386,-0.00512112004025,1.0,0.0,0.04486554562
1385570688199070709,-0.0750847149711,-0.0643196651528,-0.0035347048757,1.0,0.0,0.0438870559305
1385570688398839717,-0.0820842022924,-0.03801378366,-0.00252203069192,1.0,0.0,0.0428947640709
1385570688598913530,-0.0827669918374,-0.00951134140502,-0.00218840238311,1.0,0.0,0.0419497421907
1385570688798892291,-0.0785880122272,0.019942754546,-0.00221699145219,1.0,0.0,0.0410017810126
1385570688997053218,-0.0705549033276,0.0488888128187,-0.00263184021631,1.0,0.0,0.0401181112277
1385570689197947969,-0.0594211790844,0.0758545868886,-0.00301415957714,1.0,0.0,0.0391014568604
1385570689397908722,-0.0447911935546,0.0992442220902,-0.00245811586529,1.0,0.0,0.0384229590444
1385570689597896831,-0.0269536976126,0.117389535554,-0.00168172303417,1.0,0.0,0.0385087907269
1385570689797002029,-0.00756703650157,0.128556438422,-0.000641205137739,1.0,0.0,0.039560125501
1385570689999272548,0.0110473959171,0.131170494102,6.17062478152e-06,1.0,0.0,0.0417125098934
1385570690198890052,0.0271245759676,0.124887414427,0.00122430547336,1.0,0.0,0.0448441375119
1385570690398893703,0.039642878959,0.109601116079,0.00308840185376,1.0,0.0,0.0486455607172
1385570690598013738,0.048014119016,0.0853318140908,0.00462569177601,1.0,0.0,0.0526774667665
1385570690797885122,0.052457133665,0.0538167319593,0.00532609594867,1.0,0.0,0.0565183932908
1385570690997872053,0.0531969933414,0.0183140921226,0.00436769114153,1.0,0.0,0.0599502869181
1385570691197908708,0.0510336816647,-0.0174262050983,0.00282751313128,1.0,0.0,0.0625438585233
1385570691397871907,0.0457401034041,-0.0503658597113,0.000599518007093,1.0,0.0,0.0644414249071
1385570691597223678,0.0373910119641,-0.0783533693525,-0.00218002297039,1.0,0.0,0.0652528645553
1385570691797938696,0.0248972260991,-0.0998985360313,-0.00465874268004,1.0,0.0,0.0645629555084
1385570691997837843,0.00759167516209,-0.113445360279,-0.00640703324768,1.0,0.0,0.0629784363003
1385570692198898318,-0.0133710876599,-0.118180172088,-0.00680245315778,1.0,0.0,0.0606267023029
1385570692397925156,-0.0355101165703,-0.113010871861,-0.0064665916534,1.0,0.0,0.0579589926323
1385570692599100318,-0.0557014521848,-0.0989316219727,-0.00549187047418,1.0,0.0,0.0551446818723
1385570692797948246,-0.0718700934016,-0.0769606469969,-0.00410419264759,1.0,0.0,0.0521209725112
1385570692998912865,-0.0823378549655,-0.0488655732008,-0.00296615577524,1.0,0.0,0.0491416015522
1385570693198868857,-0.0867345974654,-0.0170902174757,-0.00250807326599,1.0,0.0,0.0463010261581
1385570693397955741,-0.0852607073764,0.0163279450681,-0.00227437566732,1.0,0.0,0.0436250888716
1385570693598898466,-0.0781442729119,0.0490666056474,-0.00238842714617,1.0,0.0,0.041066466182
1385570693797907758,-0.0658985210484,0.0789610732083,-0.00254594991707,1.0,0.0,0.038678226897
1385570693997348982,-0.0492572367,0.104186451711,-0.00238155258282,1.0,0.0,0.0367033222401
1385570694199044304,-0.0290371962686,0.123497859707,-0.0015394872288,1.0,0.0,0.0351672724541
1385570694398055831,-0.00678691030901,0.134754343551,-0.000189257321657,1.0,0.0,0.0344972885805
1385570694598021960,0.0153651649994,0.136794048011,0.00186849991322,1.0,0.0,0.0348813449641
1385570694797497413,0.0354427491107,0.129373335151,0.00435883492617,1.0,0.0,0.036486777023
1385570694999071368,0.0523168526155,0.112694729104,0.00667607762811,1.0,0.0,0.0392520129668
1385570695199062319,0.0649562114995,0.0872129979165,0.0089983732182,1.0,0.0,0.042909657271
1385570695397285720,0.0726590455215,0.0549393406607,0.0105271763661,1.0,0.0,0.0467173781209
1385570695597177340,0.0745933455163,0.0184578718342,0.0104903743964,1.0,0.0,0.0503689838758
1385570695797885012,0.0715941792416,-0.0188298903136,0.00864835518672,1.0,0.0,0.0533662051209
1385570695997838928,0.0636323290118,-0.0540018083487,0.00634177793764,1.0,0.0,0.0554527921565
1385570696198341335,0.050067835541,-0.0843603670006,0.00378980745361,1.0,0.0,0.0563298189516
1385570696397966380,0.030756722395,-0.107585909135,0.00196615344223,1.0,0.0,0.0560294883161
