%time,field.linear.x,field.linear.y,field.linear.z,field.angular.x,field.angular.y,field.angular.z
1385570567607136603,0.0,0.0,0.0,0.0,0.0,0.0
1385570567607169606,0.0580856251814,-0.185074891377,-0.114243576327,-0.00398880890953,0.00739091004156,-1.47353693213
1385570567617037254,0.0579722885493,-0.185143216165,-0.114332449721,-0.00471957963679,0.00605157964907,-1.47331007728
1385570567626847010,0.0579514925292,-0.185133895365,-0.114330514724,-0.00476402880602,0.00606610069385,-1.47333152919
1385570567637095539,0.0579516820662,-0.185193649316,-0.114324195354,-0.00475259372241,0.00594538328502,-1.47318963943
1385570567646757853,0.0579516820662,-0.185193649316,-0.114324195354,-0.00475259372241,0.00594538328502,-1.47318963943
1385570567656741063,0.0581009888093,-0.185111440296,-0.114214374603,-0.0040418403637,0.00717149163772,-1.47339796305
1385570567666801711,0.0579394932205,-0.185188580155,-0.11430435233,-0.0047393853211,0.00584661440642,-1.47323092294
1385570567676763091,0.0581076224501,-0.185063529129,-0.114234655614,-0.00400632851145,0.00741853069983,-1.47345968882
1385570567686750064,0.058105018329,-0.185119231573,-0.114214152008,-0.00404115493924,0.00722407833212,-1.47335366478
1385570567696680673,0.0581212768963,-0.185108801782,-0.114212365902,-0.00395055682273,0.00716753677266,-1.4734107635
1385570567706918622,0.0579460519488,-0.185117940227,-0.114351328066,-0.00489554326073,0.00568479378467,-1.47330265053
1385570567716900162,0.0579421425129,-0.185175526144,-0.114323300559,-0.0047765572903,0.00592558632734,-1.47322294467
1385570567726780910,0.0580065583059,-0.185149990616,-0.114276187176,-0.00445359328031,0.00636763452648,-1.47307448787
1385570567736713362,0.0579576560035,-0.185175592368,-0.114320942678,-0.00475025665568,0.00591579646911,-1.47317569769
1385570567747005378,0.0579576560035,-0.185175592368,-0.114320942678,-0.00475025665568,0.00591579646911,-1.47317569769
1385570567756801600,0.0579724455471,-0.18527496145,-0.114313328381,-0.00474763007124,0.00562154811146,-1.47311634324
1385570567766777649,0.0579686003922,-0.185158652686,-0.114318824092,-0.00473432786669,0.0059076048379,-1.47321259684
1385570567776805790,0.0579527106513,-0.185156204625,-0.114320499871,-0.00476688651219,0.00592577672337,-1.47322956733
1385570567786742902,0.0579842379307,-0.185168888397,-0.114317273666,-0.00473624089553,0.0058446577295,-1.47317771084
1385570567796832921,0.0579647844352,-0.185157735996,-0.114322580591,-0.00474054150305,0.00588964404131,-1.47320019206
1385570567806918774,0.0581119315786,-0.185026903534,-0.114240151733,-0.0040053824805,0.00743832283738,-1.4734684068
1385570567816940901,0.0579715235322,-0.18513372028,-0.114290139281,-0.00447287787011,0.00641795382353,-1.47311165908
1385570567826734899,0.0580021309431,-0.185124943551,-0.114298297133,-0.00440642839808,0.0063366813488,-1.47315215863
1385570567836780965,0.0579643596771,-0.185156080271,-0.114366061114,-0.00485393913583,0.00555155658494,-1.47316448352
1385570567847006222,0.0579998566386,-0.185160688772,-0.114357075846,-0.00488729467867,0.00561645148855,-1.47310453518
1385570567856739359,0.057966695619,-0.185137787178,-0.114279871759,-0.00448040489683,0.00641883841446,-1.47312985991
1385570567866985500,0.0579548729003,-0.185098846727,-0.11437130625,-0.00485247480255,0.00576423992589,-1.47325252184
1385570567876810409,0.0579521169427,-0.185155086959,-0.11437001654,-0.0048441189496,0.00560049768934,-1.47320775954
1385570567886782889,0.0579401907867,-0.185155948564,-0.114344283914,-0.00468536307695,0.00589989879307,-1.47327823358
1385570567896836432,0.0579401907867,-0.185155948564,-0.114344283914,-0.00468536307695,0.00589989879307,-1.47327823358
1385570567906759544,0.0581196304141,-0.185036972139,-0.114246067935,-0.00396159219792,0.00746033484358,-1.47344767772
1385570567916769118,0.0579603853694,-0.185161513739,-0.11437012173,-0.0049045122868,0.00561773076319,-1.47316068976
1385570567926803669,0.0579508908865,-0.185104077647,-0.114375832897,-0.00483050083931,0.00576368077218,-1.47332010355
1385570567936757725,0.0579920552026,-0.18517022842,-0.114332143502,-0.00468038553673,0.00582959127615,-1.47318980167
1385570567946993590,0.0579920552026,-0.18517022842,-0.114332143502,-0.00468038553673,0.00582959127615,-1.47318980167
1385570567956877746,0.0581308730825,-0.185087637153,-0.114215618361,-0.00394109557803,0.00712824963271,-1.47341095626
1385570567966835649,0.0581029127879,-0.185028203768,-0.114237749348,-0.00399192999079,0.00741905392004,-1.47353175048
1385570567976917258,0.0579981307028,-0.185109911545,-0.114357304408,-0.00486960982254,0.00571773532628,-1.47328240012
1385570567986743412,0.0579740126053,-0.185166313973,-0.114306656187,-0.00479001813236,0.00601671083812,-1.47321290916
1385570567996844616,0.0579673053441,-0.185165649838,-0.11435338493,-0.00490213812744,0.00557350551074,-1.47316615586
1385570568006889564,0.0579673053441,-0.185165649838,-0.11435338493,-0.00490213812744,0.00557350551074,-1.47316615586
1385570568016832950,0.0579024167786,-0.185209092976,-0.114280355568,-0.00479789883722,0.00579954378835,-1.47320825126
1385570568026811412,0.0579792117953,-0.185153575822,-0.114273012829,-0.00454598579803,0.00656740504282,-1.47309564008
1385570568037136956,0.0579529184131,-0.18517225128,-0.114334811166,-0.00475189634239,0.00587811170893,-1.47321493461
1385570568046824009,0.057983515642,-0.185170087852,-0.11433711053,-0.00475181039109,0.00592700062686,-1.47319949803
1385570568056952730,0.0579258991645,-0.185135287033,-0.114326296378,-0.00472283478217,0.00603446843784,-1.47332111438
1385570568066859341,0.0579488965836,-0.185173350332,-0.114358143205,-0.00491198876797,0.00570035470907,-1.47320599777
1385570568076750870,0.0579283900688,-0.185171551,-0.114342103991,-0.00470262401277,0.0058748821186,-1.47330149344
1385570568086845350,0.0579453391784,-0.185133483656,-0.114347599533,-0.00472217911085,0.00609763733366,-1.47329277741
1385570568097011571,0.0579223532469,-0.185227352377,-0.114288811317,-0.0047360829302,0.00578368971486,-1.47323023053
1385570568106803938,0.0578858204651,-0.185233271259,-0.114295791379,-0.00495422063968,0.00546652756125,-1.47318045032
1385570568116848759,0.0579665890111,-0.185173467674,-0.114366830831,-0.00487472507978,0.00558815673682,-1.47316525338
1385570568126850109,0.0579413245387,-0.185125370246,-0.114351348277,-0.004714516572,0.0060693507462,-1.47333897507
1385570568136754450,0.0579459783381,-0.185186990442,-0.11434694824,-0.00469723563875,0.00587747528487,-1.4732043849
1385570568146748228,0.0579078757628,-0.18514038737,-0.114257499738,-0.0044632071016,0.00635579144599,-1.47317468784
1385570568156816843,0.0579194678336,-0.18516074389,-0.114279905864,-0.0045896979467,0.00660167747254,-1.47288128214
1385570568166722230,0.058099455138,-0.185158327958,-0.114245919152,-0.0039907841644,0.00700067063067,-1.47357586917
1385570568176779103,0.0579883849619,-0.185174191018,-0.11430237268,-0.00428813809485,0.00631831454517,-1.47300856331
1385570568186851101,0.0579864561117,-0.185164090437,-0.114254382472,-0.00439147452971,0.00701558391165,-1.47278546225
1385570568196872668,0.0579228947323,-0.185208876449,-0.114314357404,-0.00477039059358,0.00615795450481,-1.472766385
1385570568206698921,0.0579228947323,-0.185208876449,-0.114314357404,-0.00477039059358,0.00615795450481,-1.472766385
1385570568216794901,0.0579582073366,-0.18521352429,-0.114362213802,-0.00473815627594,0.00565356813632,-1.4731735481
1385570568226698369,0.057963782931,-0.185163148886,-0.11427380749,-0.00435602999805,0.00664432506873,-1.47274671751
1385570568236832016,0.0579058464759,-0.185133363994,-0.114294134026,-0.0042630267627,0.00620265030886,-1.47209950461
1385570568246717167,0.0580945611135,-0.185177125943,-0.11422336894,-0.0041496728568,0.00701346859765,-1.47340621277
1385570568256771943,0.0579902564194,-0.185146795624,-0.114302508814,-0.00447501718095,0.00618144113934,-1.47362882387
1385570568266778290,0.0579205110053,-0.185111085209,-0.114256709702,-0.00412206361936,0.00635638708925,-1.47285081138
1385570568276816588,0.0579642767127,-0.185159552463,-0.114268998537,-0.00426007419729,0.00681366872513,-1.4726813393
1385570568286756229,0.0579043702903,-0.185110771769,-0.114289083758,-0.00396822842362,0.00629816641418,-1.4732364405
1385570568296714448,0.0579410619979,-0.185087617413,-0.114297924332,-0.00403393203182,0.00615171483073,-1.47340920454
1385570568306792171,0.0579556548782,-0.185177443197,-0.114283913859,-0.00415323436404,0.00634306935921,-1.47333094486
1385570568316792534,0.0579593573838,-0.185173141512,-0.114310448,-0.00436726664153,0.00652812998067,-1.47334982777
1385570568326806424,0.0579113654861,-0.185088771985,-0.114310796651,-0.00437732792194,0.00602489891949,-1.47344103227
1385570568336784696,0.0579639985245,-0.185190975998,-0.114297040477,-0.00461178037195,0.00607826335368,-1.47335071378
1385570568346780739,0.0578968948757,-0.185220681921,-0.114377428002,-0.00433752049351,0.00608590783845,-1.47320477959
1385570568356905600,0.0579218262915,-0.185189835289,-0.114331343588,-0.00462855766657,0.00645332319499,-1.47353700929
1385570568366932867,0.0579129255815,-0.185078817336,-0.114302936966,-0.0041870226417,0.00601896078001,-1.47346406854
1385570568376794953,0.0579309764423,-0.185126538681,-0.114302224367,-0.00419037489049,0.00595140099325,-1.47282035785
1385570568386735571,0.0579077925123,-0.185081152058,-0.114272968338,-0.00418087105224,0.00633908013165,-1.47351315483
1385570568397032220,0.0579077925123,-0.185081152058,-0.114272968338,-0.00418087105224,0.00633908013165,-1.47351315483
1385570568406804984,0.0579119035387,-0.185147113019,-0.114356368371,-0.00465414589931,0.00607440201476,-1.47340017832
1385570568416817497,0.0579119035387,-0.185147113019,-0.114356368371,-0.00465414589931,0.00607440201476,-1.47340017832
1385570568426859217,0.0578783178261,-0.185136484794,-0.114329557454,-0.00382368412487,0.0062220744709,-1.4731932931
1385570568436808472,0.0580958187681,-0.185213305146,-0.114206555308,-0.00366074730837,0.00732882464195,-1.47349227868
1385570568446789259,0.0580958187681,-0.185213305146,-0.114206555308,-0.00366074730837,0.00732882464195,-1.47349227868
1385570568456766950,0.0580263704021,-0.185090915164,-0.114247919037,-0.00365326444678,0.00694857039815,-1.47338804141
1385570568466834548,0.0579229827676,-0.185123029377,-0.114288654219,-0.00404619859667,0.00620357021365,-1.47319209849
1385570568476702747,0.0579143362999,-0.185111849541,-0.114287995201,-0.00409607263319,0.00632543395027,-1.47305983704
1385570568486775033,0.0579143362999,-0.185111849541,-0.114287995201,-0.00409607263319,0.00632543395027,-1.47305983704
1385570568496795290,0.0579654538402,-0.185169394563,-0.114296709901,-0.00436209643519,0.0065897829884,-1.47333152571
1385570568506793183,0.0578990091676,-0.185112046852,-0.114279385287,-0.00409511564229,0.00621278170286,-1.47319720203
1385570568516831971,0.0579062769852,-0.185142987076,-0.114367681166,-0.00441412788413,0.00540534083259,-1.47304112769
1385570568526782471,0.0579062769852,-0.185142987076,-0.114367681166,-0.00441412788413,0.00540534083259,-1.47304112769
1385570568536726680,0.057938856692,-0.185058877789,-0.11429941523,-0.0040781947895,0.00623358975966,-1.47323032546
1385570568546871923,0.0580113241117,-0.185081090038,-0.114180278205,-0.00312647003237,0.00688817353838,-1.47343007446
1385570568556857096,0.0577989301455,-0.185145365639,-0.114188983345,-0.00396531540825,0.00650119529281,-1.47315238918
1385570568566798538,0.0577989301455,-0.185145365639,-0.114188983345,-0.00396531540825,0.00650119529281,-1.47315238918
1385570568576825754,0.0578380363528,-0.185182187186,-0.11426328069,-0.00382281075641,0.0053682469273,-1.4733708474
1385570568586775600,0.0579008315997,-0.185122058789,-0.114258163916,-0.00402400970745,0.00626248492102,-1.47320099274
1385570568596960221,0.0579160352101,-0.185106271385,-0.114282066148,-0.00392205071533,0.00615728855175,-1.4729531754
1385570568606784984,0.0579124982161,-0.185125368224,-0.11427997756,-0.00396226724674,0.00611294076437,-1.47310117825
1385570568616854021,0.0578993655552,-0.185110604846,-0.114276738915,-0.00391393504444,0.00613740653558,-1.47332931066
1385570568626804177,0.0579176975884,-0.185110636984,-0.114269901758,-0.00391114937185,0.00634071831375,-1.47322360543
1385570568636838289,0.057847275507,-0.185156430328,-0.114364374965,-0.00386476504196,0.0057684521864,-1.47304301626
1385570568646839215,0.0578803889307,-0.185142418265,-0.114346041798,-0.00435325908596,0.00566200272777,-1.473181342
1385570568656719505,0.0578803889307,-0.185142418265,-0.114346041798,-0.00435325908596,0.00566200272777,-1.473181342
1385570568666807077,0.0580663030532,-0.185000253694,-0.114220025864,-0.00330313721477,0.00749940844819,-1.47373011668
1385570568676780726,0.0580231455974,-0.185079870407,-0.114278516604,-0.00330744023106,0.0070196930821,-1.47347626655
1385570568686817418,0.0579430281093,-0.185119668178,-0.11429050591,-0.00416784366688,0.00646570297728,-1.47319258055
1385570568696839853,0.0579156178453,-0.185110258134,-0.114278035825,-0.0040564705667,0.00617509225486,-1.4731699366
1385570568706799081,0.0579537726829,-0.185110339658,-0.114316638395,-0.0042599594011,0.0059663147679,-1.4734051085
1385570568716771226,0.0579650129501,-0.185188437085,-0.114403345407,-0.00475764335944,0.00556952434224,-1.4733872339
1385570568726791689,0.0579634247375,-0.18514006431,-0.114409224073,-0.0045779521042,0.00606647470446,-1.47328854521
1385570568736779988,0.0579278875917,-0.185183407114,-0.114286597948,-0.0044027275522,0.00622483140549,-1.47341826334
1385570568746830692,0.0579152727216,-0.185115611384,-0.114331773852,-0.00404723136538,0.00610751581129,-1.47340502117
1385570568756870532,0.057973370062,-0.185118088207,-0.114381930484,-0.00439563955341,0.00614253865295,-1.47344874469
1385570568766814075,0.0580034707247,-0.185111530709,-0.114453767957,-0.00396951742138,0.00618523657658,-1.47302891236
1385570568776800887,0.0579278078534,-0.185083356456,-0.114307104887,-0.00398409097543,0.00619380431003,-1.47309953206
1385570568786882746,0.0578921660997,-0.185097014579,-0.1143500363,-0.00356456655894,0.00633784707872,-1.47373251301
1385570568796890422,0.0579237431627,-0.185160980263,-0.114382960211,-0.00456956335066,0.00599211585014,-1.47345154243
1385570568806801458,0.0579715523597,-0.18523295958,-0.114376230629,-0.00459327379607,0.00603173275842,-1.47289404216
1385570568816895532,0.0580069333097,-0.185116798489,-0.114369075711,-0.00470400135131,0.00617205223338,-1.47389560516
1385570568827037974,0.0579424377846,-0.185080540291,-0.114327714066,-0.00438378417471,0.00653666752849,-1.47374098561
1385570568836763120,0.0579522197318,-0.185055991788,-0.114356831672,-0.00478630606716,0.00633022328468,-1.47301427513
1385570568850680895,0.0579055105114,-0.185278629685,-0.114510056508,-0.00380615372549,0.00581635526238,-1.47352135925
1385570568856870859,0.0579055105114,-0.185278629685,-0.114510056508,-0.00380615372549,0.00581635526238,-1.47352135925
1385570568866924063,0.058192368413,-0.185061758572,-0.114371325905,-0.00334210673394,0.00738815068064,-1.47331222812
1385570568876912767,0.0579942772877,-0.185135494362,-0.114398920502,-0.003643597216,0.00567128767993,-1.47325385703
1385570568886820493,0.0580364692977,-0.185080641665,-0.114437112675,-0.00360827531876,0.00655723163947,-1.47314833701
1385570568896778275,0.058018124662,-0.185042488314,-0.114449583115,-0.00370591310142,0.00615520020522,-1.47340070582
1385570568906754357,0.058018124662,-0.185042488314,-0.114449583115,-0.00370591310142,0.00615520020522,-1.47340070582
1385570568916717140,0.058063033847,-0.185040972171,-0.114322977981,-0.00385045131223,0.00787622601795,-1.47348889051
1385570568926910858,0.0581300984245,-0.184975143023,-0.114324626749,-0.00345399716847,0.00726920142337,-1.47369660855
1385570568936729696,0.0579451909681,-0.185079402872,-0.114388238294,-0.00445357464658,0.00629016097392,-1.47295817072
1385570568946818701,0.0579995203984,-0.185111294445,-0.114381938341,-0.00454467291809,0.00645990945076,-1.47340493691
1385570568956850090,0.0579995203984,-0.185111294445,-0.114381938341,-0.00454467291809,0.00645990945076,-1.47340493691
1385570568966953866,0.0580275207744,-0.185015786559,-0.114413503075,-0.00317489441205,0.00624981857635,-1.47270888259
1385570568976788103,0.0581738260737,-0.184972072459,-0.114310138263,-0.00260935534695,0.00742706527191,-1.47355645521
1385570568986873523,0.0581738260737,-0.184972072459,-0.114310138263,-0.00260935534695,0.00742706527191,-1.47355645521
1385570568996932114,0.0579275337491,-0.185017487145,-0.114337621621,-0.00397575608873,0.0065031277425,-1.47263395013
1385570569006892672,0.0580060970348,-0.185176382112,-0.114448064795,-0.00422567615393,0.0062061235815,-1.47371699492
1385570569016816085,0.0579239141459,-0.185075459586,-0.114419375776,-0.0048321997792,0.00635642905741,-1.47325856351
1385570569026951043,0.0579730629407,-0.1850082421,-0.114380087426,-0.00507271358418,0.00723994623206,-1.47281907679
1385570569036817045,0.0579052838449,-0.185053927921,-0.114321100169,-0.00480944237112,0.00602558948761,-1.47333516634
1385570569046800356,0.0579052838449,-0.185053927921,-0.114321100169,-0.00480944237112,0.00602558948761,-1.47333516634
1385570569056775195,0.0579160395933,-0.185062366051,-0.1143081486,-0.00473481295421,0.00662737942657,-1.47298661956
1385570569066833332,0.0579512825062,-0.185029428182,-0.114362216824,-0.00471733247559,0.00668558702884,-1.4731829731
1385570569076816821,0.058026518262,-0.185056371944,-0.114475412585,-0.00382191094664,0.00642993254309,-1.4734977547
1385570569086821670,0.0580140501729,-0.184972212757,-0.11439714527,-0.00294707979881,0.0063416985593,-1.47248677508
1385570569096835231,0.0581697648012,-0.184959187062,-0.11426920302,-0.00218988378371,0.00759759826656,-1.47315609336
1385570569106807672,0.0580915472107,-0.184921556569,-0.114310730259,-0.00209530844067,0.00813473592463,-1.47365597635
1385570569116791081,0.0579121515259,-0.185003847378,-0.114315250997,-0.00388257119659,0.00634969135745,-1.47250460097
1385570569126759765,0.0579708427678,-0.185078961342,-0.114399168684,-0.00478133920039,0.00610606391298,-1.47343302092
1385570569136808805,0.0578822926643,-0.185062577474,-0.114353237654,-0.00524642735196,0.00668257919099,-1.47342900234
1385570569146973261,0.0579108511708,-0.185019765457,-0.114321981945,-0.00555591755392,0.00688523489573,-1.47251159715
1385570569156734016,0.0579149160157,-0.185070971003,-0.114363229017,-0.00552486359859,0.00627269135538,-1.47304958225
1385570569166798529,0.0578949977517,-0.185070080583,-0.114435710459,-0.00499859146451,0.00656916058797,-1.4728133374
1385570569176803417,0.0578953852459,-0.185034413962,-0.114333627562,-0.0047474747692,0.0060845420212,-1.47329873151
1385570569186784384,0.0578953852459,-0.185034413962,-0.114333627562,-0.0047474747692,0.0060845420212,-1.47329873151
1385570569197000252,0.0578933965149,-0.18498025226,-0.114295672792,-0.00431710686161,0.00605674206223,-1.47251125242
1385570569206954140,0.0580169330468,-0.185068808165,-0.114324392669,-0.00426545034681,0.00668282675082,-1.47293965108
1385570569216844360,0.0580152634671,-0.184957014839,-0.114226157697,-0.00285326710513,0.00772703949733,-1.47375239294
1385570569226815558,0.0579013172118,-0.18496887792,-0.114310555244,-0.00407865939421,0.00628097591215,-1.47230035289
1385570569236941716,0.0581139007692,-0.185073573193,-0.114228462866,-0.00421091520428,0.00749087289785,-1.47315451759
1385570569246753736,0.0578909747617,-0.185101808404,-0.114314456826,-0.00481333491263,0.00580810667067,-1.47269181339
1385570569256813356,0.0579055149598,-0.185055620372,-0.114394777283,-0.00410140875314,0.00646009187416,-1.47381618087
1385570569266786822,0.0579451776736,-0.185036213546,-0.114315741928,-0.00436330957639,0.00692306304794,-1.47320800793
1385570569276756976,0.0579776609834,-0.185027448626,-0.114272762413,-0.00432467072834,0.0068079442761,-1.47286361128
1385570569286792998,0.0578988777566,-0.185014526576,-0.114313928566,-0.00386935522887,0.00596766264137,-1.47370970368
1385570569296801296,0.0579595642942,-0.184968178278,-0.114398642969,-0.00318207813474,0.00631307018763,-1.4727243069
1385570569306829320,0.0579821292182,-0.184974996467,-0.114383735482,-0.00323636532062,0.00649889508325,-1.47297432767
1385570569316751924,0.0579426591829,-0.18498074202,-0.114380156543,-0.0027297023425,0.00683924150258,-1.47315485349
1385570569326731330,0.0580008257003,-0.184937645955,-0.114385702413,-0.00298894018958,0.00638751846182,-1.47254000402
1385570569336737465,0.0579780488225,-0.185063596655,-0.114521871638,-0.00383866030658,0.00617338384097,-1.47336141877
1385570569346840214,0.0579376750172,-0.184966485899,-0.114400246339,-0.0031670469456,0.00644532748031,-1.47288654721
1385570569356787447,0.0580295864627,-0.185026882304,-0.114137464899,-0.00255874966939,0.0073592664408,-1.47302899128
1385570569366781766,0.0581297397518,-0.184971057992,-0.11422954815,-0.00243625683074,0.00776306336501,-1.47317279485
1385570569376735198,0.057980817586,-0.184908163714,-0.114399812859,-0.00187034402556,0.00756150835379,-1.47361970043
1385570569386755478,0.0579680566766,-0.184932510526,-0.114292133198,-0.00231222111767,0.0074851693786,-1.47330068775
1385570569396887187,0.0579385597942,-0.184920127716,-0.114170522866,-0.00243014987797,0.00747160218216,-1.47359645589
1385570569406835587,0.0578131325909,-0.185000606547,-0.114253556825,-0.00293593818624,0.00645419892205,-1.47382367096
1385570569416857786,0.0578581216859,-0.184977010549,-0.114434764975,-0.00233679199958,0.00609944346546,-1.4734236789
1385570569426800091,0.0579208650274,-0.184949434398,-0.114419543951,-0.00176454127044,0.0072668263917,-1.47439174032
1385570569436969183,0.0577611162212,-0.185108350838,-0.114335280924,-0.00232796869575,0.00624021131848,-1.47367192783
1385570569446746633,0.0577096888759,-0.184896395778,-0.114371292622,-0.00189237426024,0.00613755839489,-1.47455787501
1385570569456737843,0.0576310574871,-0.185112528362,-0.114270894887,-0.00174425719734,0.00579446000837,-1.47460180361
1385570569467040990,0.0578910775538,-0.184710871429,-0.114552245119,-0.000882217353036,0.00876674270718,-1.47465617845
1385570569476750347,0.0579194980785,-0.185089226696,-0.114367468329,-0.00161272706628,0.00773005195319,-1.4753626559
1385570569486776216,0.0578704699599,-0.184817490043,-0.114179528264,-0.00171991321992,0.00799281649354,-1.47478386656
1385570569496751748,0.0578312255264,-0.184852721358,-0.114179703544,-0.0017245738013,0.00744198788475,-1.47535841741
1385570569506695294,0.0577817016462,-0.184942096596,-0.114264090494,-0.00122285678338,0.00689975349518,-1.47551379545
1385570569516776056,0.0578733856511,-0.184730308246,-0.11441496385,-0.00167392647616,0.00784232496722,-1.47515498311
1385570569526724921,0.0578594189955,-0.184817756095,-0.114331457167,-0.00165910787819,0.00766091490596,-1.47595820878
1385570569536741200,0.0578264457791,-0.184695333161,-0.114367934832,-0.00114172956539,0.00764519459888,-1.47549168521
1385570569546778860,0.0578882392548,-0.184763664045,-0.114294910619,-0.00154133270395,0.00759012813424,-1.47530161855
1385570569556718466,0.057769841454,-0.184650935701,-0.114336574552,-0.000966232651545,0.00833654800227,-1.47563606332
1385570569566727142,0.0578718131737,-0.184661936774,-0.114403220452,-0.00080090577282,0.00758064536703,-1.47550933959
1385570569576772608,0.0578738679228,-0.184658101265,-0.114359521088,-0.000381680527617,0.00789735199251,-1.47571388562
1385570569586768202,0.0578769446045,-0.184604026449,-0.114299742277,-0.000302384762551,0.00782402662024,-1.47592529877
1385570569596983990,0.0578769446045,-0.184604026449,-0.114299742277,-0.000302384762551,0.00782402662024,-1.47592529877
1385570569606799581,0.0579131220432,-0.18462199867,-0.114427167663,-0.000603722608539,0.00776732121055,-1.4760955876
1385570569616857243,0.0578635081155,-0.184585327495,-0.114438221971,-0.000954910632851,0.00729979976704,-1.47637047308
1385570569626755869,0.0577447141092,-0.184575322811,-0.114241961529,-0.00164542453784,0.00880156736847,-1.47654954117
1385570569636777316,0.0578054659517,-0.184523142253,-0.114395454976,-0.00142315669369,0.00740736603038,-1.47673722839
1385570569646762308,0.0577486821816,-0.184541121358,-0.114520486107,-0.000425482309491,0.00733227018528,-1.47696831366
1385570569656795063,0.0577285614008,-0.184450389629,-0.114472326091,0.000230880512014,0.00753993283343,-1.47706593294
1385570569666748584,0.0577285614008,-0.184450389629,-0.114472326091,0.000230880512014,0.00753993283343,-1.47706593294
1385570569676851870,0.0577541206336,-0.184343508948,-0.114393941456,-0.00134171311774,0.00749674194387,-1.47728880984
1385570569686737036,0.0577485524328,-0.184274489419,-0.114496300697,-0.00240572419537,0.00750048130583,-1.47663915783
1385570569696727225,0.0576884511229,-0.184215017621,-0.114486017701,-0.00213906479095,0.00780937341619,-1.47724873225
1385570569706959016,0.0576940442799,-0.184154335255,-0.114477484466,-0.00169696343113,0.00874176546519,-1.47690011874
1385570569716818754,0.0576366653222,-0.184132958483,-0.114450276322,-0.000877353356099,0.00806197795967,-1.47778605211
1385570569726903896,0.0576366653222,-0.184132958483,-0.114450276322,-0.000877353356099,0.00806197795967,-1.47778605211
1385570569736841999,0.0576770268817,-0.184034579802,-0.114379311759,-0.000315490774423,0.00730431640372,-1.47816301003
1385570569746823332,0.0576795601901,-0.183953033121,-0.114408372998,6.15748243216e-05,0.00764222859971,-1.47842536419
1385570569756797579,0.0576742080358,-0.183889293631,-0.114390396601,-0.000503121359723,0.00766505094629,-1.47876368007
1385570569766886553,0.0577108484029,-0.183770393964,-0.11440048612,-0.000750906217594,0.00681464711323,-1.47931401949
1385570569776781225,0.0577338063626,-0.183653471312,-0.114411328542,-0.00147871821374,0.00726226535464,-1.4800960291
1385570569786850583,0.0577338063626,-0.183653471312,-0.114411328542,-0.00147871821374,0.00726226535464,-1.4800960291
1385570569797195321,0.0576968098005,-0.183509772555,-0.114498366921,-0.00204267102601,0.0079671299515,-1.48068689922
1385570569806806509,0.0574869476678,-0.183413678017,-0.114432418016,-0.00211625619578,0.0078070207095,-1.48289944867
1385570569816817667,0.057424856272,-0.183397106822,-0.114390114401,-0.00201896363864,0.00732003311273,-1.48378100069
1385570569826802859,0.057424856272,-0.183397106822,-0.114390114401,-0.00201896363864,0.00732003311273,-1.48378100069
1385570569836869985,0.0571752579421,-0.183048136691,-0.114446568389,-0.00132416238697,0.00955336853879,-1.48482441408
1385570569846782944,0.0569988889259,-0.18290556019,-0.114414317062,-0.00106332487431,0.00946712012606,-1.48592065229
1385570569856775385,0.0571290040453,-0.183027955869,-0.114375285876,-0.000709308308707,0.00684566951481,-1.48667308288
1385570569866785223,0.0570074306337,-0.182836722517,-0.114577007483,-0.000334798210776,0.00772769440695,-1.48834662709
1385570569876767817,0.05691055112,-0.182678659609,-0.114522883731,-0.000829643659676,0.0092526054934,-1.48898470017
1385570569886765827,0.0567521130812,-0.182544304304,-0.11432986738,-0.00215193777282,0.00847211863714,-1.49063923952
1385570569896800194,0.0567784496796,-0.182421375827,-0.114234205898,-0.00245560688276,0.00825931455733,-1.49195399163
1385570569906753600,0.0566289343865,-0.18224956187,-0.114180286751,-0.00257218656354,0.0068718181127,-1.49314264391
1385570569916732079,0.0564749779644,-0.182105056336,-0.114341795426,-0.00361420066215,0.00781795644298,-1.49402050738
1385570569926741327,0.0562838493026,-0.18190644678,-0.114602779157,-0.00461493995895,0.00928104099774,-1.49508434282
1385570569936792473,0.056042895217,-0.181742942978,-0.11473711502,-0.00473356959755,0.00829027015451,-1.49644287114
1385570569946746923,0.0559273629692,-0.18169974546,-0.114485608114,-0.00563898114658,0.00788219098125,-1.4978292659
1385570569956767224,0.0557447185372,-0.181545426988,-0.114420497356,-0.00582285224735,0.00589850077617,-1.49990015187
1385570569966807707,0.0555353772615,-0.181189103162,-0.114498772122,-0.00490970493032,0.00612804505025,-1.50073754747
1385570569976730168,0.0554441135117,-0.180947507888,-0.114406894181,-0.00429037808109,0.00935031973416,-1.50299117542
1385570569986738128,0.0553316339554,-0.180678988828,-0.114205375024,-0.00374645162078,0.0118685671709,-1.50382002633
1385570569996857449,0.0553316339554,-0.180678988828,-0.114205375024,-0.00374645162078,0.0118685671709,-1.50382002633
1385570570006854558,0.0549604685144,-0.180326479865,-0.114540282502,-0.00477535028444,0.00851299030632,-1.5071936495
1385570570016837209,0.0547484873443,-0.180191143847,-0.11465246701,-0.00515451773137,0.00662081734079,-1.5096446522
1385570570026916992,0.0547484873443,-0.180191143847,-0.11465246701,-0.00515451773137,0.00662081734079,-1.5096446522
1385570570036851734,0.0543744235453,-0.179637021234,-0.114429765977,-0.00683029445299,0.00653829690313,-1.51256685919
1385570570046766049,0.0542660824574,-0.179140315137,-0.114443744466,-0.00730438829594,0.00891966471595,-1.51376092905
1385570570056756674,0.054097925908,-0.179067317163,-0.114376144163,-0.00774795210053,0.0122392683337,-1.5158313763
1385570570067016740,0.054097925908,-0.179067317163,-0.114376144163,-0.00774795210053,0.0122392683337,-1.5158313763
1385570570076825533,0.0536416519376,-0.178739186772,-0.114577654644,-0.0069002741949,0.00728266702316,-1.52012669584
1385570570086756956,0.053591762872,-0.17841778588,-0.114099317485,-0.00612343333521,0.00744621789486,-1.52177740423
1385570570096793841,0.053591762872,-0.17841778588,-0.114099317485,-0.00612343333521,0.00744621789486,-1.52177740423
1385570570106830470,0.053108652596,-0.177998615823,-0.114392272264,-0.00521047166313,0.00849003376242,-1.52559702561
1385570570116789931,0.0529792097213,-0.177721300744,-0.114760279081,-0.0065989826931,0.00978573153505,-1.52807627925
1385570570126817083,0.0527015124118,-0.177639725833,-0.114436928032,-0.00760051755845,0.00750223006353,-1.52976632028
1385570570136813240,0.0526780026986,-0.177430754361,-0.114074684865,-0.00856279899656,0.00623159568296,-1.53177434816
1385570570146770359,0.0524172117471,-0.177114059565,-0.114210688699,-0.00896869177947,0.00738768478927,-1.53397015978
1385570570156908444,0.0524172117471,-0.177114059565,-0.114210688699,-0.00896869177947,0.00738768478927,-1.53397015978
1385570570166835585,0.0518370795722,-0.176641578021,-0.114440511723,-0.00966094031733,0.0106640045112,-1.53853910055
1385570570176879487,0.0517466317705,-0.176383515098,-0.114237625727,-0.0097250530574,0.00901943629707,-1.54059677332
1385570570186752888,0.0515454769702,-0.176150778535,-0.114206398679,-0.00954173864965,0.00811887093936,-1.54230091438
1385570570197019416,0.0513543783825,-0.175946638579,-0.114381701741,-0.0100939270335,0.00782369185718,-1.54463837573
1385570570206770058,0.0511483770851,-0.175488873505,-0.114396681448,-0.0104550270708,0.00928472876408,-1.54654225424
1385570570217048623,0.0511483770851,-0.175488873505,-0.114396681448,-0.0104550270708,0.00928472876408,-1.54654225424
1385570570226903512,0.0510241370823,-0.175337451512,-0.11436959986,-0.00983902595599,0.00803159255636,-1.5488436911
1385570570236731259,0.0504494817072,-0.174899818224,-0.11452189817,-0.01013059806,0.00781115685698,-1.5536875158
1385570570246832384,0.0503666089484,-0.174554758044,-0.11452817803,-0.00979383154884,0.00778366757661,-1.55506303915
1385570570256881078,0.0503587423114,-0.174304642692,-0.114632035481,-0.00887463111468,0.00738977321958,-1.55782223061
1385570570266698902,0.0502895999011,-0.173977424922,-0.114676938415,-0.0080450493831,0.00642455858739,-1.55914929375
1385570570276771019,0.0502637549057,-0.173703794192,-0.114772932796,-0.00693917752041,0.00823599378699,-1.5609441919
1385570570286689611,0.0502880950694,-0.173375132852,-0.114569143383,-0.0072892289766,0.00905460482142,-1.56259233793
1385570570296738300,0.0501065596246,-0.173232494685,-0.114306794033,-0.00617030812784,0.00988157829554,-1.5635959907
1385570570306736973,0.0501742350925,-0.17283350855,-0.114248234355,-0.00676503696708,0.0104830037533,-1.56458163124
1385570570317005800,0.0501742350925,-0.17283350855,-0.114248234355,-0.00676503696708,0.0104830037533,-1.56458163124
1385570570327001892,0.0501098773922,-0.172559144463,-0.114527089567,-0.00747579364799,0.00928725273429,-1.56561146367
1385570570336731732,0.0499794778122,-0.172132694267,-0.11494656619,-0.00848811656898,0.00577633464904,-1.56610900486
1385570570346851465,0.0499794778122,-0.172132694267,-0.11494656619,-0.00848811656898,0.00577633464904,-1.56610900486
1385570570356821015,0.050108130055,-0.171522018382,-0.114872520058,-0.00852014160507,0.00824634587666,-1.56767868752
1385570570366811729,0.050428589205,-0.170981867777,-0.115423352221,-0.00618899353516,0.01217599627,-1.56881849916
1385570570376736520,0.0502924873642,-0.170657507994,-0.11547409156,-0.00335707508436,0.0122556240186,-1.56959271449
1385570570386779539,0.0507335412732,-0.170097446625,-0.115827338635,-0.000238002894126,0.0128114254577,-1.57066575017
1385570570396858890,0.0510040098563,-0.169738964298,-0.115976318526,0.00253638578618,0.0133931210809,-1.5709596528
1385570570407046857,0.0510040098563,-0.169738964298,-0.115976318526,0.00253638578618,0.0133931210809,-1.5709596528
1385570570417053745,0.0510815084022,-0.169185155677,-0.116321224822,0.00435935297792,0.0133288746594,-1.57174006768
1385570570426866273,0.0515657832981,-0.168670598297,-0.116911916827,0.00562088155708,0.0130323067172,-1.57262522087
1385570570436854132,0.0519049701898,-0.167700677105,-0.117934877364,0.00806475186161,0.00999271875201,-1.57429881209
1385570570446799461,0.0519049701898,-0.167700677105,-0.117934877364,0.00806475186161,0.00999271875201,-1.57429881209
1385570570456837691,0.0520015501738,-0.167124713072,-0.118638625836,0.0104857554728,0.0091807259631,-1.57482183573
1385570570466880750,0.0524418562625,-0.166639285583,-0.119421043148,0.0124162320285,0.00789417959949,-1.57583879722
1385570570476807727,0.0531244634216,-0.165334014459,-0.121216005591,0.0189123706191,0.00541038021452,-1.57656592077
1385570570486831581,0.0537397621576,-0.164627030519,-0.122373421004,0.0233963178829,0.00728967157941,-1.57743607856
1385570570496829582,0.0537397621576,-0.164627030519,-0.122373421004,0.0233963178829,0.00728967157941,-1.57743607856
1385570570506781419,0.0547775940103,-0.163274942258,-0.125013927303,0.0311697947863,0.000125233623768,-1.57669947366
1385570570516970242,0.0547775940103,-0.163274942258,-0.125013927303,0.0311697947863,0.000125233623768,-1.57669947366
1385570570526830526,0.0558859281184,-0.161990086995,-0.127897946022,0.0342939273568,-0.00467812016567,-1.57718968967
1385570570536768386,0.0565128831962,-0.16121660151,-0.129639824201,0.0342711054262,-0.00851384373195,-1.57581796771
1385570570546901437,0.0571256555936,-0.160599289897,-0.131664131038,0.03537121618,-0.0117493597629,-1.57562159227
1385570570556770445,0.057763340491,-0.159874652596,-0.133639406819,0.0362023179687,-0.0150819316133,-1.57507179789
1385570570566810904,0.0587572126913,-0.159111952855,-0.135814755165,0.0370400296805,-0.0192506936134,-1.57418132624
1385570570576735307,0.0593946946605,-0.15858497121,-0.138271956099,0.0382554242209,-0.0226354309594,-1.57496722531
1385570570586726116,0.0602463417072,-0.157887358579,-0.140952756547,0.0391083078974,-0.0264948779598,-1.57462192208
1385570570596936661,0.061190971907,-0.157187012282,-0.143661293142,0.0405638924091,-0.0287423534554,-1.57522569647
1385570570606789371,0.0619864995631,-0.15651094603,-0.146302537055,0.0416613403177,-0.0307826633652,-1.57560133559
1385570570616787489,0.0628798661224,-0.155923968574,-0.149126770514,0.0404972328952,-0.032324007604,-1.57556980734
1385570570626731722,0.0640458793263,-0.155417514861,-0.152442712237,0.0407399157766,-0.0343898953401,-1.57518454778
1385570570636763578,0.0640458793263,-0.155417514861,-0.152442712237,0.0407399157766,-0.0343898953401,-1.57518454778
1385570570646805451,0.0649851244631,-0.154827184566,-0.155461411369,0.040757106896,-0.0357618833291,-1.57461420892
1385570570656716851,0.0661675471657,-0.154141109756,-0.158577986246,0.0413617225346,-0.0360754436543,-1.57538345094
1385570570666780861,0.067103127042,-0.153703486919,-0.162020990913,0.0415478511012,-0.0368885149687,-1.57647470253
1385570570676794349,0.068305909008,-0.153142161492,-0.165497881587,0.0410921033166,-0.0377897845792,-1.57771606142
1385570570686713612,0.0695117131519,-0.152672238004,-0.168976155673,0.0422102745686,-0.0377595233568,-1.57831432025
1385570570696782005,0.0719150231224,-0.151912824281,-0.17631011517,0.0431869875524,-0.0370001319148,-1.57892376351
1385570570706823911,0.0731856633848,-0.151599298336,-0.180290352961,0.0448290920076,-0.0362598930723,-1.57908348287
1385570570717015857,0.0731856633848,-0.151599298336,-0.180290352961,0.0448290920076,-0.0362598930723,-1.57908348287
1385570570726803980,0.0745293393271,-0.151307242269,-0.184036672642,0.0452770225219,-0.0347891054788,-1.57901401972
1385570570736758960,0.077168732718,-0.150994653084,-0.19176508814,0.0441472682719,-0.0344605572977,-1.57967625543
1385570570746926609,0.0785610145207,-0.151017481064,-0.195824112836,0.0421528048268,-0.0361054930253,-1.5799123936
1385570570756828891,0.0800360937011,-0.150955222027,-0.199876646861,0.0407250598701,-0.0365321228623,-1.57988213939
1385570570766907500,0.0800360937011,-0.150955222027,-0.199876646861,0.0407250598701,-0.0365321228623,-1.57988213939
1385570570776913335,0.0812186495486,-0.150907920463,-0.203769709992,0.0398400318032,-0.0375332885924,-1.58048507594
1385570570786810591,0.0842128371975,-0.151326883094,-0.212417628465,0.0386856984143,-0.0382776276959,-1.58106576803
1385570570796878610,0.0856461009234,-0.1512985463,-0.216452732621,0.0368273299668,-0.0375556762933,-1.58132399766
1385570570807388373,0.0856461009234,-0.1512985463,-0.216452732621,0.0368273299668,-0.0375556762933,-1.58132399766
1385570570816820200,0.0874240077488,-0.151453162314,-0.22084836181,0.0371086070084,-0.0372901437023,-1.58098612556
1385570570826996974,0.0887259372012,-0.151881059865,-0.225060725904,0.0367226216419,-0.0365898253488,-1.58117644723
1385570570836873603,0.0902003222144,-0.152230811904,-0.229579749368,0.0361000112256,-0.0358714643814,-1.58131514453
1385570570846852192,0.0933276427591,-0.153042498301,-0.238285979846,0.0341801623942,-0.0347836706938,-1.58206225492
1385570570856869709,0.0933276427591,-0.153042498301,-0.238285979846,0.0341801623942,-0.0347836706938,-1.58206225492
1385570570866832631,0.096463611418,-0.153934985044,-0.247369123889,0.0322370949531,-0.0315519247393,-1.58278837423
1385570570876851377,0.098255232445,-0.154543966687,-0.252027103309,0.0299738433612,-0.0318758706038,-1.58236455761
1385570570886883966,0.0999040836592,-0.155175844802,-0.256644011868,0.0282536941587,-0.0300704774065,-1.58226862755
1385570570896775417,0.101449293199,-0.155808996744,-0.261176423231,0.0265262459605,-0.0284291223037,-1.58262267439
1385570570906825906,0.10310829255,-0.156438940968,-0.265933587037,0.0253741831293,-0.0266864397354,-1.58277603508
1385570570916839027,0.104753274037,-0.157037187659,-0.270566722252,0.025015957369,-0.0253446705928,-1.58326378857
1385570570926779216,0.106544540568,-0.157738007166,-0.275343587592,0.0237170850922,-0.0232900348861,-1.58347481417
1385570570936950772,0.108043379465,-0.158457503588,-0.280359902062,0.0237989047251,-0.0207289651866,-1.58429993397
1385570570946957070,0.109871901782,-0.159178373459,-0.284817778242,0.0225865892941,-0.0200316871743,-1.58419546144
1385570570956879808,0.111531927548,-0.15985710938,-0.289702946995,0.0213055570775,-0.0189723623036,-1.58382646105
1385570570966843344,0.112940376645,-0.160675659489,-0.294364995084,0.0197954434861,-0.0164406184393,-1.58407476404
1385570570976819174,0.114509789597,-0.161448138716,-0.29939019295,0.0185393670958,-0.014030695077,-1.5846021247
1385570570986733323,0.116538673721,-0.162197712632,-0.304146577993,0.0163648788522,-0.0142495006553,-1.58479106488
1385570570997058969,0.116538673721,-0.162197712632,-0.304146577993,0.0163648788522,-0.0142495006553,-1.58479106488
1385570571006755908,0.11959418252,-0.163792226445,-0.313744493275,0.0125855171433,-0.0121651494311,-1.58586304633
1385570571016798112,0.121344078932,-0.164684816409,-0.318659909585,0.011419980964,-0.012322334007,-1.58550711118
1385570571027215483,0.122994009034,-0.165608765712,-0.323613666642,0.010153493718,-0.0103111290843,-1.58609073903
1385570571036813431,0.124608113718,-0.166470745196,-0.328537542012,0.00904873642904,-0.00959975043313,-1.5862472598
1385570571046729249,0.126201324743,-0.167448799799,-0.33344383963,0.00859943055188,-0.00992778917761,-1.58590569474
1385570571056945629,0.126201324743,-0.167448799799,-0.33344383963,0.00859943055188,-0.00992778917761,-1.58590569474
1385570571066813712,0.129510838793,-0.169292992515,-0.343677249674,0.00879271425784,-0.00781157087554,-1.586175431
1385570571076705078,0.129510838793,-0.169292992515,-0.343677249674,0.00879271425784,-0.00781157087554,-1.586175431
1385570571086772675,0.132671340746,-0.171151285983,-0.353698359194,0.00890699045872,-0.0060114506464,-1.58760448045
1385570571096775325,0.134398422603,-0.172147072382,-0.358830498246,0.00932251723616,-0.00487946201686,-1.58754435591
1385570571106866096,0.136022431734,-0.173229374944,-0.363923820374,0.010037870678,-0.00427968764977,-1.58849853191
1385570571116795046,0.136022431734,-0.173229374944,-0.363923820374,0.010037870678,-0.00427968764977,-1.58849853191
1385570571126853247,0.13760278304,-0.174210228265,-0.369164202838,0.0109491039606,-0.00336023283369,-1.58862566286
1385570571136887062,0.139089522644,-0.175232068385,-0.374373080245,0.0102346817986,-0.00350875761292,-1.58896517563
1385570571146823043,0.140810862609,-0.176284941466,-0.379695298954,0.00968243346133,-0.00178480148252,-1.58877293185
1385570571156778242,0.142388218933,-0.177358947165,-0.385439886253,0.00919813836483,-0.00216041636607,-1.58947127711
1385570571166830082,0.143802109281,-0.178461756436,-0.390839867169,0.00820449742252,-0.00132013125586,-1.58981870367
1385570571176857142,0.147027037548,-0.180679215212,-0.401612834473,0.00771649666163,-0.000948719076435,-1.59009930282
1385570571186716506,0.148481602116,-0.181675098329,-0.406455353512,0.00789230210497,-0.00184830247312,-1.59081592164
1385570571196902198,0.148481602116,-0.181675098329,-0.406455353512,0.00789230210497,-0.00184830247312,-1.59081592164
1385570571206835100,0.151696420199,-0.183980541183,-0.41638627841,0.00904588356242,-0.00198293020163,-1.59168986201
1385570571216899954,0.151696420199,-0.183980541183,-0.41638627841,0.00904588356242,-0.00198293020163,-1.59168986201
1385570571226965460,0.153198827314,-0.185112278579,-0.421097462365,0.00966848624905,-0.00242394548347,-1.59187100808
1385570571236786492,0.15483158105,-0.186382513424,-0.425710015136,0.0100951535221,-0.00323629559495,-1.59225714674
1385570571246915209,0.157788697399,-0.188648766379,-0.434346644195,0.010424869307,-0.00530716717028,-1.59310477686
1385570571256927494,0.157788697399,-0.188648766379,-0.434346644195,0.010424869307,-0.00530716717028,-1.59310477686
1385570571266755981,0.15931857328,-0.189948438827,-0.438542018736,0.0103977298236,-0.00622395041895,-1.59345401598
1385570571276758502,0.162565174217,-0.192486466089,-0.446547450155,0.0114192524485,-0.00782227467065,-1.59406526501
1385570571286818109,0.163986055849,-0.193631429162,-0.450112385011,0.0115389026751,-0.00899318253613,-1.5940031074
1385570571296786131,0.165562944699,-0.194866814776,-0.453777001715,0.0118637043775,-0.00973829109326,-1.59461509713
1385570571306724370,0.165562944699,-0.194866814776,-0.453777001715,0.0118637043775,-0.00973829109326,-1.59461509713
1385570571316831020,0.16857005426,-0.197403250152,-0.460494195014,0.0131362663098,-0.0104350069626,-1.59528565324
1385570571326832896,0.16857005426,-0.197403250152,-0.460494195014,0.0131362663098,-0.0104350069626,-1.59528565324
1385570571336821096,0.171651999351,-0.199936219393,-0.466725352427,0.0150159135881,-0.0104561004941,-1.59589932908
1385570571346793458,0.173254569939,-0.201354733718,-0.469622100379,0.0157648135307,-0.0107983927638,-1.59629106051
1385570571356835673,0.173254569939,-0.201354733718,-0.469622100379,0.0157648135307,-0.0107983927638,-1.59629106051
1385570571366798236,0.174811248643,-0.202614794108,-0.472296411183,0.0156631499982,-0.00976160311524,-1.59687148619
1385570571376812667,0.177998795126,-0.205267414463,-0.477226379487,0.0160881241168,-0.00910399146803,-1.59730289012
1385570571386830496,0.177998795126,-0.205267414463,-0.477226379487,0.0160881241168,-0.00910399146803,-1.59730289012
1385570571396757546,0.179427240066,-0.206579449333,-0.479420613233,0.0161317988021,-0.00842050128224,-1.59812516759
1385570571406791416,0.180948034917,-0.207991314817,-0.481572920475,0.016041613405,-0.00705899804592,-1.59820755494
1385570571417278908,0.182486336942,-0.209181982832,-0.483497312227,0.0158876625801,-0.00456751078057,-1.59857716707
1385570571426847922,0.185686176079,-0.212053136375,-0.487138457524,0.0162338948962,-0.0032706418223,-1.59854069581
1385570571436835480,0.187149305662,-0.213368475531,-0.48865802393,0.0169223978909,-0.0025076719892,-1.59915121756
1385570571446780266,0.188876559848,-0.214843093678,-0.490202769554,0.0169954426144,-0.00103189170895,-1.59928613286
1385570571456729321,0.190413588266,-0.216192788548,-0.491533998591,0.0184317501123,-0.000961294338052,-1.5998194147
1385570571466923692,0.190413588266,-0.216192788548,-0.491533998591,0.0184317501123,-0.000961294338052,-1.5998194147
1385570571476832518,0.193729287505,-0.219181102997,-0.493936350612,0.0190027138177,8.71460645329e-05,-1.60064193312
1385570571486742079,0.195327457401,-0.220630450458,-0.495002915361,0.0193989249999,-0.000768455094607,-1.60050511568
1385570571496873643,0.196852166974,-0.222063870721,-0.495828128963,0.0191390956882,0.000837834614578,-1.60045895232
1385570571506659170,0.196852166974,-0.222063870721,-0.495828128963,0.0191390956882,0.000837834614578,-1.60045895232
1385570571516793000,0.200064165262,-0.224985061433,-0.497424558977,0.0195022329973,0.000715282945396,-1.60027420586
1385570571526840383,0.200064165262,-0.224985061433,-0.497424558977,0.0195022329973,0.000715282945396,-1.60027420586
1385570571536804660,0.203344001824,-0.228061940801,-0.498573289156,0.0183275746441,0.00111505074441,-1.60101019619
1385570571546924720,0.205046762639,-0.229474843862,-0.499038101759,0.0175603853011,0.00154267416262,-1.6011290701
1385570571557297745,0.205046762639,-0.229474843862,-0.499038101759,0.0175603853011,0.00154267416262,-1.6011290701
1385570571566929574,0.206497980899,-0.230918630769,-0.499251657325,0.018492586534,0.00172070905412,-1.60133270315
1385570571576808604,0.208314593616,-0.232452344787,-0.499454132774,0.0178804539149,0.00201802043552,-1.6013477421
1385570571586876259,0.209831088136,-0.233872622236,-0.499531400261,0.0181745304214,0.00230591257867,-1.6013358457
1385570571596910795,0.213202182673,-0.23691078983,-0.499660713844,0.0182877037814,0.0040551823915,-1.60189873297
1385570571606818480,0.214902757016,-0.238654163146,-0.499623526051,0.0185197197604,0.00332059681711,-1.60193472722
1385570571617039930,0.214902757016,-0.238654163146,-0.499623526051,0.0185197197604,0.00332059681711,-1.60193472722
1385570571627064438,0.218239314948,-0.241491048116,-0.499111328042,0.0180049852541,0.0033733296755,-1.6019008352
1385570571636869472,0.218239314948,-0.241491048116,-0.499111328042,0.0180049852541,0.0033733296755,-1.6019008352
1385570571646788652,0.219995440186,-0.243050459629,-0.498728476545,0.0172246235154,0.00361357545679,-1.60231510232
1385570571656727178,0.221678170891,-0.244594336492,-0.498384531716,0.0164183338249,0.00443583129414,-1.60277565851
1385570571667017760,0.223192664338,-0.246233033614,-0.49805900894,0.0157478620666,0.00457676265911,-1.60283792129
1385570571676786596,0.226805425694,-0.249379820218,-0.497065330799,0.0150405802032,0.0032336614633,-1.60313897028
1385570571686960631,0.226805425694,-0.249379820218,-0.497065330799,0.0150405802032,0.0032336614633,-1.60313897028
1385570571696856956,0.228677026477,-0.250797846454,-0.496575018054,0.0141459415674,0.00333994296492,-1.6030667694
1385570571706753580,0.232060619593,-0.25392874684,-0.495380256096,0.0143460253582,0.00357375294932,-1.60274701203
1385570571716837051,0.233710061364,-0.255569085023,-0.49475026782,0.0145602757514,0.00328741289732,-1.60261535166
1385570571726870123,0.233710061364,-0.255569085023,-0.49475026782,0.0145602757514,0.00328741289732,-1.60261535166
1385570571736830726,0.235394922047,-0.257104074065,-0.494019501905,0.0155600694344,0.00180522916301,-1.60263574647
1385570571746809595,0.237360322681,-0.258692043456,-0.493325963849,0.0149861195958,0.0023762627487,-1.60276946841
1385570571756907244,0.239042477137,-0.260139237537,-0.49271316762,0.0162277186128,0.00155442235104,-1.60303180097
1385570571766821088,0.24089866767,-0.261767282964,-0.491883864281,0.0161030423134,0.000235073307776,-1.60301180866
1385570571776797698,0.242735700495,-0.263483098385,-0.491136855556,0.016913694186,-0.000751916629077,-1.60268842747
1385570571786772284,0.244489895445,-0.265026750874,-0.490338967646,0.0170832692716,-0.000842487485182,-1.60266476558
1385570571796803968,0.246459185469,-0.266583287487,-0.489539539962,0.0169032733667,-0.000859398459032,-1.6031843662
1385570571806739189,0.250289148377,-0.269859623464,-0.487854685233,0.0180201794596,-0.00284035418205,-1.60279162593
1385570571816871332,0.250289148377,-0.269859623464,-0.487854685233,0.0180201794596,-0.00284035418205,-1.60279162593
1385570571826869067,0.253948935804,-0.272958591297,-0.485990959814,0.019418894318,-0.00204513281722,-1.60299580507
1385570571836791283,0.255785855384,-0.274652139473,-0.485043293571,0.0208817857282,-0.00146440421481,-1.60249464703
1385570571846870973,0.255785855384,-0.274652139473,-0.485043293571,0.0208817857282,-0.00146440421481,-1.60249464703
1385570571856810669,0.259833501195,-0.277811977119,-0.483118456365,0.0217746559185,-0.00106802600149,-1.60209667851
1385570571866858877,0.261705393052,-0.279378011475,-0.482087955451,0.0233301076903,-0.000961055154023,-1.60228140645
1385570571876690186,0.263569983623,-0.281042621144,-0.481131881195,0.023443650465,-0.00103611148523,-1.60209539205
1385570571886877728,0.265597679531,-0.282679035904,-0.479945236276,0.0223742837962,0.000773054116,-1.60195407027
1385570571896839197,0.265597679531,-0.282679035904,-0.479945236276,0.0223742837962,0.000773054116,-1.60195407027
1385570571906900242,0.267451010285,-0.284307598005,-0.478938608967,0.0231097855372,-4.18785364028e-05,-1.60135458874
1385570571916812355,0.269559032253,-0.285949431179,-0.478162023831,0.0225866295431,0.00146803147811,-1.60121001533
1385570571926775552,0.271639092375,-0.287549403191,-0.477064831967,0.0223996131473,0.000231835911528,-1.60120011488
1385570571936771070,0.273508682744,-0.289042703754,-0.476131896556,0.0223147296963,0.00226107642179,-1.60121565899
1385570571946984568,0.275546139874,-0.290892031947,-0.475054793843,0.0215799547141,0.000700049867522,-1.60082239183
1385570571956786461,0.277389547751,-0.292572004198,-0.474146318223,0.0214048098725,-5.86937137041e-05,-1.60035740753
1385570571966792649,0.279426903022,-0.294391655964,-0.473273196093,0.0196348177682,-0.00126263582227,-1.60063113031
1385570571976783384,0.281339438416,-0.296086657473,-0.472185430405,0.0189886498782,-0.000906680944493,-1.60074198061
1385570571986799112,0.283233917632,-0.297682444742,-0.471256434679,0.0182864241313,-0.00148960167187,-1.6002356981
1385570571996913091,0.285429183877,-0.29942491392,-0.470321928314,0.0172490909557,-0.00251588755804,-1.60032080474
1385570572006758608,0.287413104419,-0.301117128078,-0.46930551424,0.0156507725417,-0.00213999537259,-1.5997500454
1385570572016949083,0.289448703037,-0.303009731697,-0.468331058456,0.0145075203315,-0.00350627725713,-1.60015231844
1385570572026964121,0.291832595233,-0.304680643128,-0.467362846093,0.0135363895708,-0.000356271902803,-1.60063347537
1385570572036738762,0.293653768028,-0.306334524545,-0.466339091378,0.0129842335445,-0.00256955132937,-1.59992600315
1385570572046893050,0.295918282714,-0.308135309218,-0.465409861234,0.0121310317912,-0.00360969338802,-1.59986502036
1385570572056843565,0.297948210655,-0.309826621033,-0.464517534501,0.0118973036609,-0.00308912208424,-1.59966262386
1385570572066719762,0.300114323325,-0.311503559791,-0.463746150188,0.0117441388334,-0.0045983249158,-1.6000090235
1385570572076807089,0.304148217018,-0.315139224846,-0.462102589529,0.00999101543859,-0.00717941889906,-1.59898353321
1385570572086769028,0.306289671178,-0.316938882905,-0.46125089477,0.00977701007323,-0.00739241490882,-1.59893910993
1385570572096755161,0.308313736362,-0.318754751901,-0.460324846855,0.00871426156196,-0.00757834603226,-1.59815997234
1385570572106764432,0.308313736362,-0.318754751901,-0.460324846855,0.00871426156196,-0.00757834603226,-1.59815997234
1385570572116815956,0.310416819364,-0.320544284267,-0.459689789863,0.008611686219,-0.0101275389892,-1.59819402766
1385570572126867214,0.312673312712,-0.322304376127,-0.458890005974,0.0081030895435,-0.00874126226132,-1.59840561308
1385570572136851638,0.31456026488,-0.324230619518,-0.458245903864,0.00732730087751,-0.0106144485831,-1.59765346927
1385570572147290138,0.318864504384,-0.32795056975,-0.456918563948,0.00604926186371,-0.0110329380633,-1.59744989237
1385570572156787020,0.318864504384,-0.32795056975,-0.456918563948,0.00604926186371,-0.0110329380633,-1.59744989237
1385570572166764203,0.323021823521,-0.331565838785,-0.455692450284,0.00490753411745,-0.0112515125967,-1.59760060945
1385570572176757934,0.323021823521,-0.331565838785,-0.455692450284,0.00490753411745,-0.0112515125967,-1.59760060945
1385570572186922730,0.325269815323,-0.333454364006,-0.455019727029,0.0049300777848,-0.00905136358942,-1.59761159325
1385570572196979112,0.327406305309,-0.335373788483,-0.454389370502,0.00410716021405,-0.00906078506896,-1.59746935964
1385570572206950498,0.33147148048,-0.33922439453,-0.453662822374,0.00336070084311,-0.0129482342142,-1.59597084106
1385570572217420447,0.33147148048,-0.33922439453,-0.453662822374,0.00336070084311,-0.0129482342142,-1.59597084106
1385570572226820426,0.333412658833,-0.341277266571,-0.453005304409,0.00331616611666,-0.0120856320052,-1.59627489825
1385570572236881983,0.335715903545,-0.343248855126,-0.452692805343,0.00376630036306,-0.0119134147408,-1.59612689549
1385570572247056186,0.337895698767,-0.345176115789,-0.452301846543,0.00412862418745,-0.0115623878957,-1.59642055759
1385570572256969125,0.339952205345,-0.347128228397,-0.451656306863,0.00465800908877,-0.00825595782168,-1.59621915893
1385570572266797227,0.344210997368,-0.351049169635,-0.451057148488,0.0058103833148,-0.0075506996023,-1.59597073551
1385570572276988549,0.346303767357,-0.352872144302,-0.450758083674,0.0069797900091,-0.00837061423945,-1.59498226556
1385570572286754551,0.348365168805,-0.355031524991,-0.45044650886,0.00758189243658,-0.00864294722017,-1.59532254318
1385570572296756225,0.35035681175,-0.35699176425,-0.450225568349,0.00839860867959,-0.00709491674053,-1.59548877751
1385570572307214794,0.35035681175,-0.35699176425,-0.450225568349,0.00839860867959,-0.00709491674053,-1.59548877751
1385570572316792080,0.352347891587,-0.359055238001,-0.450274202614,0.00765066538611,-0.00970521656327,-1.5945581516
1385570572326721463,0.354446194065,-0.361049383163,-0.449996775558,0.00831695751514,-0.00895732099122,-1.5944228268
1385570572336746164,0.356451647399,-0.363075508397,-0.449923967898,0.00796279924625,-0.00844322392316,-1.59369779618
1385570572346719857,0.358399456286,-0.365071982416,-0.449608902833,0.00764484614974,-0.00741927961355,-1.59358029149
1385570572356705504,0.360415633146,-0.367173180408,-0.449500252198,0.00808059872565,-0.00649589147056,-1.59326065044
1385570572366731750,0.362581318533,-0.369115716257,-0.449517605226,0.0084855301932,-0.00529012829263,-1.59286701208
1385570572376683587,0.36463197869,-0.371243162473,-0.449368968819,0.0089777565903,-0.00524297560431,-1.59274629704
1385570572386891268,0.367061020585,-0.373218194455,-0.449217045564,0.0104097776135,-0.00215506466748,-1.59267722954
1385570572396861597,0.369104841228,-0.375427121115,-0.449174526712,0.0116349084983,-0.00251380182451,-1.5921119324
1385570572406774343,0.371020970645,-0.377496032994,-0.449127386023,0.012872863507,-0.0019020364531,-1.59199772049
1385570572416714765,0.373044872737,-0.379569448923,-0.449397609476,0.0115221798442,-0.00367601056829,-1.59118511081
1385570572426912990,0.37501812433,-0.381636809411,-0.449175010484,0.0117527007259,-0.00343596372174,-1.59039392604
1385570572436959840,0.377086140411,-0.383616335456,-0.449234780308,0.0111397782826,-0.00227083857475,-1.59041082937
1385570572446903355,0.379284538365,-0.385921132267,-0.449464714693,0.0104958385867,-0.00169334877738,-1.59070214925
1385570572456811000,0.383245454879,-0.390106693143,-0.449769996255,0.0095645880543,-0.00101437528145,-1.58968755861
1385570572466729347,0.383245454879,-0.390106693143,-0.449769996255,0.0095645880543,-0.00101437528145,-1.58968755861
1385570572476760791,0.385247536603,-0.392213499137,-0.449843606183,0.00784488885422,-0.000800955434718,-1.58884328932
1385570572486859236,0.389390703956,-0.396355276844,-0.450145096746,0.00623173229318,0.00103927552603,-1.5887943675
1385570572496840270,0.39108628377,-0.398605139799,-0.450420130784,0.00384910682679,-0.000315647898707,-1.58819869902
1385570572506877721,0.39108628377,-0.398605139799,-0.450420130784,0.00384910682679,-0.000315647898707,-1.58819869902
1385570572516752131,0.395129129939,-0.402665780261,-0.450775174823,-0.000168082658289,-0.00043915058839,-1.58751276885
1385570572526782094,0.397115439314,-0.405039374098,-0.451130572936,-0.00200252918117,0.000224471996639,-1.58787009933
1385570572536791089,0.397115439314,-0.405039374098,-0.451130572936,-0.00200252918117,0.000224471996639,-1.58787009933
1385570572546808255,0.399067720861,-0.407150644617,-0.451469008446,-0.00326991425839,-0.000202149516692,-1.58768345518
1385570572556826221,0.402928454838,-0.411135475317,-0.45208774433,-0.0065668941619,4.08798825673e-05,-1.58683486491
1385570572566880235,0.404814219199,-0.413286449422,-0.452386139456,-0.00736147230689,0.000933865501712,-1.58621502585
1385570572576762387,0.406794273803,-0.41545652243,-0.45293305522,-0.00855384056518,0.000740951582797,-1.58638967108
1385570572586754219,0.408510362749,-0.417651407632,-0.453393652226,-0.00962752825672,0.00182959365238,-1.58555415658
1385570572597031044,0.410242272989,-0.419748276713,-0.4538722753,-0.0114218363031,0.00209016482733,-1.58584582657
1385570572607157122,0.410242272989,-0.419748276713,-0.4538722753,-0.0114218363031,0.00209016482733,-1.58584582657
1385570572616906163,0.412190527992,-0.421505292997,-0.454255984066,-0.0132297911552,0.00307423323376,-1.58469735728
1385570572627097864,0.415801036458,-0.425785925843,-0.455069585033,-0.0160779845079,0.00383135423657,-1.58401365848
1385570572636783105,0.415801036458,-0.425785925843,-0.455069585033,-0.0160779845079,0.00383135423657,-1.58401365848
1385570572646769943,0.419144312824,-0.429748888901,-0.455845974955,-0.0182179607007,0.00696757055468,-1.58340075161
1385570572656693647,0.419144312824,-0.429748888901,-0.455845974955,-0.0182179607007,0.00696757055468,-1.58340075161
1385570572666955810,0.421171379226,-0.431923410613,-0.456408904706,-0.0201622813604,0.00675027165421,-1.58347254023
1385570572676770699,0.422911710453,-0.433880675583,-0.456840925221,-0.0196894636234,0.00747190627192,-1.58265955116
1385570572686697052,0.426323337193,-0.437841136726,-0.457824374016,-0.0203366519358,0.00842973506684,-1.58207320806
1385570572696773544,0.427931650102,-0.440033354856,-0.458143599611,-0.0199036598047,0.00945062111183,-1.58262678488
1385570572706731347,0.427931650102,-0.440033354856,-0.458143599611,-0.0199036598047,0.00945062111183,-1.58262678488
1385570572716877559,0.429784506642,-0.441762400926,-0.458740952734,-0.0187963489548,0.00931672938926,-1.58181696312
1385570572727245345,0.431448775497,-0.443808046997,-0.459208888516,-0.0180345593673,0.00945983634635,-1.5806183135
