%time,field.header.seq,field.header.stamp,field.header.frame_id,field.child_frame_id,field.transform.translation.x,field.transform.translation.y,field.transform.translation.z,field.transform.rotation.x,field.transform.rotation.y,field.transform.rotation.z,field.transform.rotation.w
1385570564716261074,775611,1385570564716261074,/world,vicon/Archie/Archie,0.0579283788838,0.185193289666,0.114371038226,7.90866323573e-05,-0.00371996489482,0.671766806863,0.740753341405
1385570564726156120,775612,1385570564726156120,/world,vicon/Archie/Archie,0.0579220616783,0.185202772989,0.114343740517,0.000245501841026,-0.00376469480151,0.671775319797,0.740745358753
1385570564736153914,775613,1385570564736153914,/world,vicon/Archie/Archie,0.0578661841955,0.185101145416,0.114308510643,0.000258081826031,-0.00367184062607,0.671713922374,0.74080149667
1385570564746165713,775614,1385570564746165713,/world,vicon/Archie/Archie,0.0580138986918,0.185018107851,0.114236322795,0.00100767767307,-0.00392428240581,0.671809140452,0.740713212653
1385570564756197311,775615,1385570564756197311,/world,vicon/Archie/Archie,0.0580666906694,0.185133800321,0.114238149827,0.000924005819865,-0.00400836740414,0.671834066889,0.740690263046
1385570564766269476,775616,1385570564766269476,/world,vicon/Archie/Archie,0.0579438370486,0.185108401243,0.114301803733,0.000550265235052,-0.00393141248767,0.671768702734,0.74075032989
1385570564776285592,775617,1385570564776285592,/world,vicon/Archie/Archie,0.0578930876498,0.185246546,0.114287108844,0.000192059072552,-0.00377389148364,0.671767694909,0.740752242611
1385570564786317615,775618,1385570564786317615,/world,vicon/Archie/Archie,0.0578967280043,0.18519525295,0.114256495703,0.00045722755134,-0.0038375306325,0.671747478822,0.74077013236
1385570564796279707,775619,1385570564796279707,/world,vicon/Archie/Archie,0.0579518942494,0.185142458551,0.114351890899,0.000276991218915,-0.0037904182615,0.67181491623,0.740709304881
1385570564806644813,775620,1385570564806644813,/world,vicon/Archie/Archie,0.0578494850367,0.185172368589,0.114283579347,0.000215492349859,-0.00381625587076,0.671821834419,0.740702917877
1385570564816089945,775621,1385570564816089945,/world,vicon/Archie/Archie,0.0578746501837,0.185174007006,0.114321242522,7.52357567213e-05,-0.00378335827141,0.671794265311,0.740728118567
1385570564826060525,775622,1385570564826060525,/world,vicon/Archie/Archie,0.0579533209533,0.185142269921,0.11436535964,0.000114050366987,-0.00375864255522,0.671795659764,0.740726974749
1385570564836578149,775623,1385570564836578149,/world,vicon/Archie/Archie,0.0579362873442,0.18513960973,0.114371597838,0.000134057197971,-0.00377720458037,0.671779434517,0.740741591997
1385570564846829895,775624,1385570564846829895,/world,vicon/Archie/Archie,0.0579681479871,0.185191835577,0.114358314638,5.66710224019e-05,-0.00371057558615,0.671756838046,0.740762430848
1385570564856889791,775625,1385570564856889791,/world,vicon/Archie/Archie,0.0579384294985,0.185186870426,0.114375139807,7.92965435479e-05,-0.00370796385722,0.671754567873,0.740764500539
1385570564867627778,775626,1385570564867627778,/world,vicon/Archie/Archie,0.0578737850972,0.185225932851,0.114316366893,1.91085357304e-05,-0.00369290086072,0.671783098948,0.740738705675
1385570564876838785,775627,1385570564876838785,/world,vicon/Archie/Archie,0.0579177516152,0.185191962608,0.114349367105,0.000233366994293,-0.00375183622874,0.671773428076,0.740747143494
1385570564886905904,775628,1385570564886905904,/world,vicon/Archie/Archie,0.0578764488118,0.185180095089,0.114301407333,0.000244499187287,-0.0038338519866,0.671806154672,0.740717039324
1385570564896901566,775629,1385570564896901566,/world,vicon/Archie/Archie,0.057934523824,0.185136819917,0.114385979623,0.000143533830504,-0.00376581357693,0.671789472164,0.740732544942
1385570564907013028,775630,1385570564907013028,/world,vicon/Archie/Archie,0.0579406167635,0.185192736288,0.114370767971,8.18042322108e-05,-0.0037300582412,0.671747092289,0.740771168429
1385570564916790870,775631,1385570564916790870,/world,vicon/Archie/Archie,0.0579436129873,0.185210278752,0.114329257192,0.000206007427676,-0.00374243042964,0.671754721259,0.740764163713
1385570564927126006,775632,1385570564927126006,/world,vicon/Archie/Archie,0.0579614468635,0.185161145765,0.114333383096,0.0003601763634,-0.00380753188767,0.671732032811,0.740784347209
1385570564936731927,775633,1385570564936731927,/world,vicon/Archie/Archie,0.057977875227,0.185201707838,0.114363135853,6.77000196301e-05,-0.00370297995237,0.67175810175,0.740761321945
1385570564946820371,775634,1385570564946820371,/world,vicon/Archie/Archie,0.057921437308,0.185152142481,0.114359877366,0.000297403035561,-0.00383374466775,0.671820994304,0.740703561194
1385570564957093242,775635,1385570564957093242,/world,vicon/Archie/Archie,0.0579602039715,0.185201323717,0.114346691537,0.000245321767936,-0.00373843062758,0.671776806164,0.740744143854
1385570564966602154,775636,1385570564966602154,/world,vicon/Archie/Archie,0.0579396957348,0.185195685398,0.114346925043,0.000241740083382,-0.00376624917906,0.671773289988,0.740747192899
1385570564976353733,775637,1385570564976353733,/world,vicon/Archie/Archie,0.0579625863515,0.185152314092,0.114354698485,0.00029710224711,-0.00379442648106,0.671793572068,0.740728634917
1385570564986476849,775638,1385570564986476849,/world,vicon/Archie/Archie,0.0579337977336,0.185150929197,0.114350408798,0.000291500962526,-0.00382318558558,0.671805202954,0.740717940625
1385570564996333641,775639,1385570564996333641,/world,vicon/Archie/Archie,0.0579340209282,0.185206838589,0.114342831237,0.000243443097044,-0.00379918699063,0.671776118757,0.740744458759
1385570565006588146,775640,1385570565006588146,/world,vicon/Archie/Archie,0.0580780730226,0.185133394779,0.11424057747,0.000928624077488,-0.00398297947567,0.671849574111,0.740676328297
1385570565016291282,775641,1385570565016291282,/world,vicon/Archie/Archie,0.0580852658516,0.185071445572,0.114263260441,0.00101911389877,-0.0040716090628,0.671881129065,0.740647103426
1385570565026303793,775642,1385570565026303793,/world,vicon/Archie/Archie,0.0579567765078,0.185160341192,0.114330821222,0.000375762663055,-0.00381264122278,0.671733136528,0.740783312352
1385570565036208833,775643,1385570565036208833,/world,vicon/Archie/Archie,0.0579297145989,0.185139361103,0.114377015483,0.000109934963307,-0.00374090322332,0.671821800893,0.740703355873
1385570565046283546,775644,1385570565046283546,/world,vicon/Archie/Archie,0.0579627787136,0.185207280037,0.11434043783,0.000237085277592,-0.0037885343448,0.671761280571,0.740757971759
1385570565056221186,775645,1385570565056221186,/world,vicon/Archie/Archie,0.057935811093,0.185144154325,0.114349571439,0.000300574422904,-0.0038478507605,0.671806052904,0.740717038403
1385570565066524185,775646,1385570565066524185,/world,vicon/Archie/Archie,0.0579562562336,0.185166561713,0.114331313352,0.000340233580218,-0.00379605743829,0.671731768373,0.740784655314
1385570565076273369,775647,1385570565076273369,/world,vicon/Archie/Archie,0.0579539884163,0.185199338295,0.114373475955,8.67682962671e-05,-0.00371369920379,0.671772829623,0.740747910081
1385570565086217208,775648,1385570565086217208,/world,vicon/Archie/Archie,0.0580837111485,0.185130342621,0.1142622925,0.000824494375773,-0.00397224476159,0.671846919326,0.74067891726
1385570565096211363,775649,1385570565096211363,/world,vicon/Archie/Archie,0.0579469535833,0.185211159171,0.114346472562,0.000220187759894,-0.00375509160235,0.671788669533,0.74073330848
1385570565106295568,775650,1385570565106295568,/world,vicon/Archie/Archie,0.0579719081304,0.185207914572,0.114365774089,8.64600215956e-05,-0.00374591973873,0.671757463602,0.7407616828
1385570565116232882,775651,1385570565116232882,/world,vicon/Archie/Archie,0.0579128152111,0.185149056855,0.114356552781,0.000287466322343,-0.00382375753372,0.671833424258,0.740692342536
1385570565126191012,775652,1385570565126191012,/world,vicon/Archie/Archie,0.0579171736838,0.185148441115,0.11435611662,0.000301887561801,-0.0038200208572,0.67183115231,0.740694416808
1385570565136286451,775653,1385570565136286451,/world,vicon/Archie/Archie,0.0579277614881,0.18521197909,0.114352517981,0.000233862180306,-0.00375377401998,0.671769454744,0.740750736862
1385570565146196217,775654,1385570565146196217,/world,vicon/Archie/Archie,0.0579391054276,0.185144737676,0.114357972545,0.000314648016256,-0.00382015492384,0.671801239429,0.740721541549
1385570565156292047,775655,1385570565156292047,/world,vicon/Archie/Archie,0.0579534771206,0.185210703119,0.114337023938,0.0002264406874,-0.00377107623226,0.671775918248,0.740744789634
1385570565166266108,775656,1385570565166266108,/world,vicon/Archie/Archie,0.0579461390519,0.185207364995,0.114370988959,6.85714543423e-05,-0.00372121269389,0.671770922502,0.740749603817
1385570565176208939,775657,1385570565176208939,/world,vicon/Archie/Archie,0.0579824623188,0.185118701601,0.114335925568,0.000413407530996,-0.00387100313939,0.671759130931,0.740759417381
1385570565186214557,775658,1385570565186214557,/world,vicon/Archie/Archie,0.0579699114579,0.185209223831,0.114374330404,7.0901044227e-05,-0.00370443151148,0.671756167147,0.740763068775
1385570565196238022,775659,1385570565196238022,/world,vicon/Archie/Archie,0.0579205228322,0.185137538066,0.114376306965,0.00012699711986,-0.00376637378819,0.671810972083,0.740713045712
1385570565206289410,775660,1385570565206289410,/world,vicon/Archie/Archie,0.0579746296557,0.185148876011,0.114377117669,0.000137704742962,-0.00376474486991,0.671793893417,0.740728541708
1385570565216235560,775661,1385570565216235560,/world,vicon/Archie/Archie,0.0579455916839,0.185156430506,0.114344764401,0.000282773536002,-0.00380192891951,0.671820218116,0.740704434917
1385570565226170249,775662,1385570565226170249,/world,vicon/Archie/Archie,0.0579297284738,0.185212446872,0.114349111281,0.000237586902898,-0.00377063076744,0.671782564867,0.740738760588
1385570565236045296,775663,1385570565236045296,/world,vicon/Archie/Archie,0.0579282400646,0.185210801824,0.114340854812,0.00023451628726,-0.00376512580175,0.671780597426,0.740740573853
1385570565246029247,775664,1385570565246029247,/world,vicon/Archie/Archie,0.0579619656034,0.185207576736,0.11436695136,7.16466871079e-05,-0.00371903405926,0.671763109786,0.740756699587
1385570565256042672,775665,1385570565256042672,/world,vicon/Archie/Archie,0.0580715037658,0.185139633567,0.114235778469,0.000928129497222,-0.00400549842464,0.671847678278,0.740677927139
1385570565266063101,775666,1385570565266063101,/world,vicon/Archie/Archie,0.0579480661794,0.185214803798,0.11434358826,0.000228017349791,-0.00375329521363,0.671788507299,0.740733462349
1385570565276040942,775667,1385570565276040942,/world,vicon/Archie/Archie,0.0579210803568,0.185212332914,0.114338691116,0.000218857062613,-0.00374114225603,0.671782839847,0.740738666497
1385570565285983035,775668,1385570565285983035,/world,vicon/Archie/Archie,0.057928289357,0.185162350388,0.114370288403,0.000107939946396,-0.00374262189638,0.671812139158,0.740712110614
1385570565296154861,775669,1385570565296154861,/world,vicon/Archie/Archie,0.0579379928178,0.185160983781,0.114347550041,0.000295441210685,-0.00383161268977,0.671797664131,0.740724732898
1385570565306098866,775670,1385570565306098866,/world,vicon/Archie/Archie,0.0579392616847,0.185221068843,0.114334229836,0.000223726325953,-0.00378846337403,0.671756399838,0.740762402372
1385570565316002232,775671,1385570565316002232,/world,vicon/Archie/Archie,0.0579609085988,0.185226938908,0.114332554653,0.000217387821133,-0.0037598848592,0.671757952317,0.740761142007
1385570565326110925,775672,1385570565326110925,/world,vicon/Archie/Archie,0.0579323596227,0.185170131264,0.114366306396,0.000119410723955,-0.00376866750002,0.671797344288,0.7407253952
1385570565336114008,775673,1385570565336114008,/world,vicon/Archie/Archie,0.0579368477978,0.185222880025,0.114337996109,0.000220538601569,-0.00376286994434,0.67176705901,0.740752867427
1385570565345927807,775674,1385570565345927807,/world,vicon/Archie/Archie,0.0579248907678,0.185223789884,0.114317522207,0.000236148842223,-0.00378654034181,0.671769363972,0.740750651687
1385570565356357573,775675,1385570565356357573,/world,vicon/Archie/Archie,0.0578989074843,0.18532045315,0.114307141146,0.000127470522072,-0.00368047718003,0.671765837729,0.740754410787
1385570565366176780,775676,1385570565366176780,/world,vicon/Archie/Archie,0.057994311409,0.18519165984,0.11430860047,0.000340305810912,-0.00379065007128,0.671716790271,0.740798264598
1385570565376094766,775677,1385570565376094766,/world,vicon/Archie/Archie,0.0579401340872,0.185214292511,0.114335698798,5.4257952709e-05,-0.00370951708303,0.671763583691,0.740756319018
1385570565386217774,775678,1385570565386217774,/world,vicon/Archie/Archie,0.0579153912894,0.185331566763,0.114299108085,0.000123781578662,-0.0037115914639,0.671737216588,0.740780210736
1385570565396404224,775679,1385570565396404224,/world,vicon/Archie/Archie,0.0579629037585,0.185216923228,0.11434835866,6.16438357917e-05,-0.00374706448786,0.67174897707,0.740769375388
1385570565406505366,775680,1385570565406505366,/world,vicon/Archie/Archie,0.057934409882,0.185322514117,0.114321401037,0.000123089832559,-0.00363419938026,0.671766739254,0.740753822451
1385570565416291324,775681,1385570565416291324,/world,vicon/Archie/Archie,0.0579453270511,0.185202827598,0.114349274846,5.6581012054e-05,-0.00371362132244,0.671771328731,0.740749274526
1385570565426282731,775682,1385570565426282731,/world,vicon/Archie/Archie,0.0579924414903,0.18522261582,0.114335775284,4.56088935796e-05,-0.00373030720006,0.671743642306,0.740774298791
1385570565436326750,775683,1385570565436326750,/world,vicon/Archie/Archie,0.0579546216145,0.185219903174,0.114350950227,5.38094018466e-05,-0.00372669224093,0.67174925442,0.74076922726
1385570565446180278,775684,1385570565446180278,/world,vicon/Archie/Archie,0.057870307531,0.185295185128,0.114301475793,-3.42065459444e-05,-0.00363224337723,0.671804555733,0.740719545128
1385570565456280821,775685,1385570565456280821,/world,vicon/Archie/Archie,0.0579490082901,0.185209432847,0.114355616041,5.57717155629e-05,-0.00370064303612,0.671756582594,0.740762712259
1385570565466310732,775686,1385570565466310732,/world,vicon/Archie/Archie,0.0579567808484,0.18521036493,0.114353163985,6.37291665535e-05,-0.00374463675558,0.671742771071,0.740775015202
1385570565476220157,775687,1385570565476220157,/world,vicon/Archie/Archie,0.0579403531097,0.185158897651,0.11435552926,0.000118612691311,-0.00377637262284,0.671782558984,0.740738765278
1385570565486321117,775688,1385570565486321117,/world,vicon/Archie/Archie,0.0579329121008,0.185213173432,0.114333426577,0.000230843993269,-0.00378222060265,0.671773251758,0.740747149668
1385570565496338656,775689,1385570565496338656,/world,vicon/Archie/Archie,0.0579551436697,0.185203108664,0.114348926034,7.27352908967e-05,-0.00373364973333,0.671764552721,0.740755317414
1385570565506236804,775690,1385570565506236804,/world,vicon/Archie/Archie,0.0579467670619,0.18521122336,0.11432205971,0.000212649195998,-0.00377367639861,0.671764144121,0.740755458178
1385570565516218542,775691,1385570565516218542,/world,vicon/Archie/Archie,0.0578765697326,0.185365961057,0.114272496434,9.79487755997e-05,-0.00367456095448,0.671751313611,0.740767615835
1385570565526283434,775692,1385570565526283434,/world,vicon/Archie/Archie,0.057941164137,0.185158787952,0.11435898085,9.80342195536e-05,-0.00375617458597,0.671790549725,0.740731624033
1385570565536265818,775693,1385570565536265818,/world,vicon/Archie/Archie,0.0579513000054,0.185320401055,0.114306350603,0.000130863134632,-0.00370185186981,0.671745066026,0.740773140332
1385570565546312371,775694,1385570565546312371,/world,vicon/Archie/Archie,0.0580862727598,0.185154212243,0.114222129005,0.000907978297392,-0.00399514461099,0.67185136192,0.740674666693
1385570565559416636,775695,1385570565559416636,/world,vicon/Archie/Archie,0.0579408570993,0.185213313509,0.114327668945,0.000218315444118,-0.00381040696864,0.67175667548,0.740762041472
1385570565566434812,775696,1385570565566434812,/world,vicon/Archie/Archie,0.0579690692263,0.185229791935,0.114327378234,0.000213296786202,-0.00374239966521,0.671756693723,0.740762373091
1385570565576351783,775697,1385570565576351783,/world,vicon/Archie/Archie,0.0579325130756,0.185224416653,0.114339281957,0.000212178567655,-0.00378329055377,0.671760139847,0.740759040583
1385570565586258228,775698,1385570565586258228,/world,vicon/Archie/Archie,0.0579690454716,0.185180992411,0.114309255864,0.000342968549478,-0.0038393168375,0.671709488656,0.740804633401
1385570565596378974,775699,1385570565596378974,/world,vicon/Archie/Archie,0.0579381392186,0.185225514638,0.114332443003,0.000219156861505,-0.00381191293542,0.671756647855,0.740762058526
1385570565606246186,775700,1385570565606246186,/world,vicon/Archie/Archie,0.0579477352797,0.185172559589,0.114361582704,0.000103031203282,-0.00379294237654,0.671790066525,0.740731874224
1385570565616281364,775701,1385570565616281364,/world,vicon/Archie/Archie,0.0579345210477,0.18522861962,0.114335963698,0.000227104530717,-0.00379114304212,0.671761258295,0.74075798174
1385570565626301433,775702,1385570565626301433,/world,vicon/Archie/Archie,0.0579635517541,0.185226957055,0.114356352524,6.08787402568e-05,-0.00373298256963,0.671750591453,0.740767982581
1385570565636281875,775703,1385570565636281875,/world,vicon/Archie/Archie,0.0580757261513,0.185150194308,0.114228246339,0.000914742650469,-0.00399800983252,0.671845755354,0.740679728477
1385570565646260800,775704,1385570565646260800,/world,vicon/Archie/Archie,0.0579199503466,0.185226951195,0.11430687078,0.000201052290757,-0.00377647584985,0.671764705749,0.740754937829
1385570565656466931,775705,1385570565656466931,/world,vicon/Archie/Archie,0.0579481921744,0.185165674518,0.114367822174,0.000110785247053,-0.00378159328319,0.671793870856,0.740728480862
1385570565666067201,775706,1385570565666067201,/world,vicon/Archie/Archie,0.0579393934331,0.18522433749,0.114327220309,0.0002091720496,-0.00380489119554,0.671754549174,0.740764000687
1385570565676071375,775707,1385570565676071375,/world,vicon/Archie/Archie,0.0579158890176,0.185261495478,0.114335244903,0.000175838635996,-0.00372804280698,0.671788269507,0.740733819756
1385570565686738570,775708,1385570565686738570,/world,vicon/Archie/Archie,0.0579167064725,0.185263960173,0.114275903966,0.000166890945424,-0.003741502506,0.671764588476,0.740755230138
1385570565696111678,775709,1385570565696111678,/world,vicon/Archie/Archie,0.0579583005162,0.185161552056,0.114357619462,0.000110504529665,-0.00378694483249,0.671779421428,0.740741558024
1385570565706083811,775710,1385570565706083811,/world,vicon/Archie/Archie,0.0579557059328,0.18521316802,0.114328675635,0.000224664494653,-0.0037641995935,0.671754221833,0.740764500888
1385570565716844649,775711,1385570565716844649,/world,vicon/Archie/Archie,0.0579494190037,0.185220627175,0.114326800654,0.000214138549688,-0.0037526759345,0.671747512463,0.740770646737
1385570565726751960,775712,1385570565726751960,/world,vicon/Archie/Archie,0.0580886919596,0.185100614,0.114235475513,0.00100160577692,-0.0040879162134,0.671856962049,0.740668959977
1385570565736861541,775713,1385570565736861541,/world,vicon/Archie/Archie,0.0580974997376,0.185096109408,0.114239438425,0.00100098349536,-0.00407637391941,0.671868292628,0.740658746366
1385570565746940777,775714,1385570565746940777,/world,vicon/Archie/Archie,0.0580926193935,0.185100516402,0.114239013626,0.00100761880324,-0.00411487480646,0.671863756353,0.740662639404
1385570565756948261,775715,1385570565756948261,/world,vicon/Archie/Archie,0.0580963976391,0.185088789155,0.114240491856,0.00100491667309,-0.00408876419232,0.671879333608,0.740648657071
1385570565766785213,775716,1385570565766785213,/world,vicon/Archie/Archie,0.0579614093176,0.185160338836,0.114354617879,0.000116973887359,-0.00378101296718,0.67178277262,0.740738548118
1385570565776820624,775717,1385570565776820624,/world,vicon/Archie/Archie,0.057985240141,0.185216950578,0.114345753205,6.37277185171e-05,-0.00370208395659,0.671753501113,0.740765498829
1385570565786724451,775718,1385570565786724451,/world,vicon/Archie/Archie,0.0579502202579,0.185158966902,0.11435667476,0.000115277984249,-0.0037943086855,0.671796597587,0.74072594217
1385570565797107670,775719,1385570565797107670,/world,vicon/Archie/Archie,0.0579391315494,0.185218066704,0.114321629526,0.000213900723527,-0.00377272661774,0.671767632428,0.740752299222
1385570565806895571,775720,1385570565806895571,/world,vicon/Archie/Archie,0.0579525997304,0.185148679275,0.114361405914,0.000116939805345,-0.00377055197398,0.671785438349,0.740736183864
1385570565816869206,775721,1385570565816869206,/world,vicon/Archie/Archie,0.0579263501168,0.185263304196,0.114323559555,0.000182176976856,-0.00373651202721,0.671778499611,0.740742635974
1385570565826827829,775722,1385570565826827829,/world,vicon/Archie/Archie,0.057956404258,0.185202231143,0.114353968899,5.49499276597e-05,-0.0037103446051,0.671757832098,0.740761530682
1385570565836841768,775723,1385570565836841768,/world,vicon/Archie/Archie,0.0579530919419,0.185208091639,0.114323677589,0.000216412372114,-0.00375366766485,0.671770850379,0.740749477034
1385570565846730056,775724,1385570565846730056,/world,vicon/Archie/Archie,0.0579737364483,0.185198001783,0.114341695146,4.19865714354e-05,-0.00371286557988,0.671739389561,0.740778243052
1385570565856954960,775725,1385570565856954960,/world,vicon/Archie/Archie,0.0579327286841,0.185306401767,0.114349306395,-2.16029524798e-05,-0.00361276142599,0.671753525786,0.740765919898
1385570565866378795,775726,1385570565866378795,/world,vicon/Archie/Archie,0.0579947996343,0.185113161485,0.114286687656,0.00056096461524,-0.00393407540668,0.671769841454,0.740749275047
1385570565876457614,775727,1385570565876457614,/world,vicon/Archie/Archie,0.057900843972,0.185238881102,0.114271709095,0.000182612583686,-0.00375696841211,0.671768045148,0.740752013402
1385570565886466409,775728,1385570565886466409,/world,vicon/Archie/Archie,0.057897028922,0.185238479235,0.114271545789,0.000157392867538,-0.0037425135231,0.671761366327,0.740758149149
1385570565896270996,775729,1385570565896270996,/world,vicon/Archie/Archie,0.0579810288666,0.185147507654,0.114354757327,0.000107903016237,-0.00374802779977,0.671784585742,0.740737072789
1385570565906250946,775730,1385570565906250946,/world,vicon/Archie/Archie,0.0579369616667,0.185192047685,0.114325181733,0.000217436582811,-0.00375120712151,0.671776630694,0.740744247106
1385570565916316032,775731,1385570565916316032,/world,vicon/Archie/Archie,0.0579457512316,0.185192970953,0.114328742281,0.00022309268343,-0.00378205768068,0.671754735714,0.740763944395
1385570565926193248,775732,1385570565926193248,/world,vicon/Archie/Archie,0.057984425531,0.185142852323,0.11435456843,9.19182363292e-05,-0.00377309567285,0.671773909672,0.740746629816
1385570565936315986,775733,1385570565936315986,/world,vicon/Archie/Archie,0.0579582816037,0.185189243317,0.11434694554,4.5451861219e-05,-0.00371684363723,0.671756693788,0.740762531017
1385570565946293980,775734,1385570565946293980,/world,vicon/Archie/Archie,0.0579402993181,0.185207412075,0.114300958706,0.000206727236074,-0.00376365529913,0.671752626735,0.740765955371
1385570565956249978,775735,1385570565956249978,/world,vicon/Archie/Archie,0.057965961672,0.185140829216,0.114346171119,0.000288737284496,-0.00381113869392,0.671793523967,0.740728596052
1385570565966293354,775736,1385570565966293354,/world,vicon/Archie/Archie,0.057946795738,0.185143811325,0.114335210439,0.000260783065701,-0.00377749651418,0.671788304359,0.740733512566
1385570565976348607,775737,1385570565976348607,/world,vicon/Archie/Archie,0.0579834475702,0.185202702443,0.114328696294,0.000219092177203,-0.00375678122604,0.671750986583,0.740767474055
1385570565986300122,775738,1385570565986300122,/world,vicon/Archie/Archie,0.0579434755904,0.185200423836,0.114327136178,0.000225185437484,-0.00376778900798,0.671769181367,0.740750916316
1385570565996243029,775739,1385570565996243029,/world,vicon/Archie/Archie,0.0579557660192,0.185183941728,0.114331057025,0.000223752562607,-0.00377877460759,0.671759451882,0.740759684111
1385570566006331477,775740,1385570566006331477,/world,vicon/Archie/Archie,0.0579463265755,0.185188894892,0.114333418405,0.000211685983774,-0.00374658229215,0.671774255879,0.740746425876
1385570566016232133,775741,1385570566016232133,/world,vicon/Archie/Archie,0.057956872073,0.185125917797,0.114359988858,9.67124994986e-05,-0.0037430495777,0.671790879922,0.740731391181
1385570566026268667,775742,1385570566026268667,/world,vicon/Archie/Archie,0.0579590593659,0.185184778866,0.114330599386,0.000209243105611,-0.00375004072115,0.671760834156,0.740758580852
1385570566036253531,775743,1385570566036253531,/world,vicon/Archie/Archie,0.0579482878533,0.185185416483,0.114330492006,0.000194459014222,-0.00373723906804,0.671773037087,0.740747583103
1385570566046271572,775744,1385570566046271572,/world,vicon/Archie/Archie,0.0581002093486,0.185110034797,0.114245909733,0.000799417396749,-0.00396277128876,0.671841453255,0.740683953562
1385570566056284036,775745,1385570566056284036,/world,vicon/Archie/Archie,0.0579612943471,0.185178546693,0.11435251644,5.23253051793e-05,-0.00373798434296,0.671765407033,0.74075452253
1385570566066233216,775746,1385570566066233216,/world,vicon/Archie/Archie,0.0579700772506,0.185193311454,0.114339423749,0.000231714158428,-0.00375930276543,0.671770512532,0.740749750215
1385570566076373842,775747,1385570566076373842,/world,vicon/Archie/Archie,0.0579407246254,0.185195431866,0.114338984503,0.000220747948581,-0.00375725505139,0.671773022057,0.74074748811
1385570566086188482,775748,1385570566086188482,/world,vicon/Archie/Archie,0.0579750302535,0.185197267725,0.114334691648,0.000234736857273,-0.00378009413831,0.671760793932,0.740758456936
1385570566096311392,775749,1385570566096311392,/world,vicon/Archie/Archie,0.0579452009705,0.185190084891,0.11434224543,0.000232023552319,-0.00377423393287,0.671765128144,0.740754557146
1385570566106234430,775750,1385570566106234430,/world,vicon/Archie/Archie,0.0579331024097,0.1851923977,0.114317464381,0.000229774321619,-0.00377095068182,0.671766957488,0.740752915595
1385570566116228461,775751,1385570566116228461,/world,vicon/Archie/Archie,0.0579839778867,0.185198806899,0.114348615299,8.64903458843e-05,-0.00373537157459,0.671732196384,0.740784648775
1385570566126167872,775752,1385570566126167872,/world,vicon/Archie/Archie,0.0579384184594,0.185184415396,0.114352077216,7.23272983328e-05,-0.00372782329858,0.671759501097,0.740759927904
1385570566136082911,775753,1385570566136082911,/world,vicon/Archie/Archie,0.0579395179207,0.185193786402,0.114338926961,0.000236385493328,-0.00378081757361,0.671761846206,0.740757498459
1385570566146024247,775754,1385570566146024247,/world,vicon/Archie/Archie,0.0579460874386,0.18518543779,0.114355175489,6.23447202578e-05,-0.00370419608266,0.67176331878,0.740756585247
1385570566155959336,775755,1385570566155959336,/world,vicon/Archie/Archie,0.0579342058882,0.185139030146,0.114334480422,0.000278048785666,-0.00379822898472,0.671814032438,0.740710066062
1385570566166790098,775756,1385570566166790098,/world,vicon/Archie/Archie,0.0579538408668,0.185197556007,0.114323917903,0.000218713120753,-0.0037785581784,0.671758028808,0.740760977235
1385570566176799845,775757,1385570566176799845,/world,vicon/Archie/Archie,0.0579565585124,0.185203245398,0.114330964791,0.000225474794558,-0.00375541449438,0.671760137445,0.740759180681
1385570566186741238,775758,1385570566186741238,/world,vicon/Archie/Archie,0.0579308399109,0.185251737514,0.114267118199,0.000184496668179,-0.00373876321354,0.671756396053,0.740762669127
1385570566196823881,775759,1385570566196823881,/world,vicon/Archie/Archie,0.0579606182593,0.185211227832,0.114281065813,0.000466485796192,-0.00378729383869,0.671744294128,0.740773273075
1385570566206844488,775760,1385570566206844488,/world,vicon/Archie/Archie,0.0579859050328,0.185198756067,0.114319028142,0.000206979938668,-0.00373133082678,0.67176879256,0.740751458772
1385570566216790323,775761,1385570566216790323,/world,vicon/Archie/Archie,0.0579779288175,0.185189163737,0.114347996266,8.4353574072e-05,-0.00373712790383,0.671751521155,0.740767116296
1385570566226825850,775762,1385570566226825850,/world,vicon/Archie/Archie,0.0579664510544,0.185207058832,0.114282918488,0.000188611892834,-0.00374948371166,0.671772856018,0.740747686945
1385570566236864990,775763,1385570566236864990,/world,vicon/Archie/Archie,0.0579993276267,0.185203411063,0.114311072064,0.000206328970103,-0.00375353141047,0.671747455133,0.740770696608
1385570566246780925,775764,1385570566246780925,/world,vicon/Archie/Archie,0.0579935675982,0.185198854679,0.114344636726,4.85833261807e-05,-0.00369348751075,0.671748414602,0.740770155493
1385570566256732936,775765,1385570566256732936,/world,vicon/Archie/Archie,0.0579709736989,0.185190659809,0.114347477111,7.5573093825e-05,-0.00371755557043,0.67175335887,0.740765549223
1385570566266930905,775766,1385570566266930905,/world,vicon/Archie/Archie,0.0579579977066,0.185130924334,0.114337420148,0.00026483649049,-0.0038011877577,0.671798437958,0.740724199409
1385570566276957600,775767,1385570566276957600,/world,vicon/Archie/Archie,0.0579768088885,0.185138022828,0.114330909368,0.000286459903012,-0.00383523694665,0.671795774357,0.740726431589
1385570566286733484,775768,1385570566286733484,/world,vicon/Archie/Archie,0.0579626215095,0.185125232276,0.114362413513,0.000103805299445,-0.0037488295272,0.671790833241,0.740731403327
1385570566296828994,775769,1385570566296828994,/world,vicon/Archie/Archie,0.0579530670149,0.185127224261,0.114367022288,0.000110366898192,-0.0037549521332,0.671809857733,0.740714117056
1385570566306899720,775770,1385570566306899720,/world,vicon/Archie/Archie,0.0579416497339,0.185201820566,0.114307230262,0.000220143402713,-0.00380890993562,0.671769833558,0.740750116073
1385570566316536094,775771,1385570566316536094,/world,vicon/Archie/Archie,0.057962381695,0.18519015581,0.11435386983,6.19771425225e-05,-0.00373328290018,0.671754505323,0.740764431743
1385570566326609378,775772,1385570566326609378,/world,vicon/Archie/Archie,0.0579469238447,0.185205078092,0.114337185237,0.000216779398421,-0.00375977172097,0.671757874474,0.740761213352
1385570566336613240,775773,1385570566336613240,/world,vicon/Archie/Archie,0.0580756428195,0.185131241409,0.114236178647,0.000805129431883,-0.00397828395211,0.671839235687,0.740685875669
1385570566346236936,775774,1385570566346236936,/world,vicon/Archie/Archie,0.0579556328437,0.185163892825,0.114323423454,0.000368978965407,-0.00381494070504,0.671720015933,0.740795201305
1385570566356272400,775775,1385570566356272400,/world,vicon/Archie/Archie,0.0580899245252,0.185133503162,0.114256871381,0.000831908625613,-0.00396113068221,0.671834347107,0.740690372166
1385570566366380486,775776,1385570566366380486,/world,vicon/Archie/Archie,0.0579308540828,0.185201875855,0.114339721027,0.000226708147911,-0.00379116808081,0.671775883175,0.740744718801
1385570566376291463,775777,1385570566376291463,/world,vicon/Archie/Archie,0.0580780896687,0.185168053867,0.114241502879,0.000938844963735,-0.0040143345787,0.671848812675,0.740676836815
1385570566386295795,775778,1385570566386295795,/world,vicon/Archie/Archie,0.0579239509516,0.185300053076,0.114365789047,-3.05707942919e-06,-0.0036379298283,0.6717667807,0.740753776774
1385570566396368097,775779,1385570566396368097,/world,vicon/Archie/Archie,0.0579331302278,0.185154361207,0.114342310594,0.000285020209848,-0.00384726802846,0.671796873677,0.740725372732
1385570566406253825,775780,1385570566406253825,/world,vicon/Archie/Archie,0.0579332480621,0.185204438254,0.114321341837,0.000234796463477,-0.00376881259244,0.671767663639,0.740752284513
1385570566416314521,775781,1385570566416314521,/world,vicon/Archie/Archie,0.0579621108251,0.185175652887,0.11429463239,0.000336227289831,-0.00381723933982,0.671716328436,0.740798548694
1385570566426239569,775782,1385570566426239569,/world,vicon/Archie/Archie,0.0579461056697,0.185202782295,0.114322579782,0.00019814008076,-0.00377286106062,0.671763252144,0.740756275254
1385570566436357124,775783,1385570566436357124,/world,vicon/Archie/Archie,0.0579464044828,0.185146052509,0.114337032032,0.000283702501897,-0.0038285233817,0.6717985383,0.740723960635
1385570566446273066,775784,1385570566446273066,/world,vicon/Archie/Archie,0.0579665625065,0.185191111665,0.11434672623,5.22552089922e-05,-0.00374566467467,0.671739552329,0.740777929681
1385570566456193091,775785,1385570566456193091,/world,vicon/Archie/Archie,0.0579604954327,0.185142372737,0.114361315575,0.000113366618377,-0.00376906038982,0.671776882641,0.740743951228
1385570566466566101,775786,1385570566466566101,/world,vicon/Archie/Archie,0.0579543063586,0.185194026193,0.114324236887,0.000202756856575,-0.0037747609782,0.671747848896,0.740770232645
1385570566476232447,775787,1385570566476232447,/world,vicon/Archie/Archie,0.057954161809,0.185161391288,0.114318790048,0.000278240486967,-0.00378988071173,0.671808139015,0.740715453963
1385570566486289779,775788,1385570566486289779,/world,vicon/Archie/Archie,0.0579572566693,0.18520159579,0.114336367706,0.00021756757857,-0.00376926017453,0.671766213288,0.740753602777
1385570566496248825,775789,1385570566496248825,/world,vicon/Archie/Archie,0.057946837626,0.185189471804,0.114361015125,6.00500866755e-05,-0.00370320319204,0.671757564727,0.740761808487
1385570566506258776,775790,1385570566506258776,/world,vicon/Archie/Archie,0.0579285746118,0.185192414566,0.11433180653,0.000213680870944,-0.00375279262711,0.671773952532,0.740746668968
1385570566516257968,775791,1385570566516257968,/world,vicon/Archie/Archie,0.0579415934472,0.185154768986,0.114341045388,0.00027867231411,-0.00381987220017,0.67180085791,0.740721903435
1385570566526321766,775792,1385570566526321766,/world,vicon/Archie/Archie,0.057957578711,0.185203207598,0.114334375618,0.000221444114708,-0.0037758470717,0.671761549677,0.740757797338
1385570566536204676,775793,1385570566536204676,/world,vicon/Archie/Archie,0.0579297303727,0.185134032575,0.114364913981,0.000110938870744,-0.00374445338176,0.671809220769,0.740714747829
1385570566546226414,775794,1385570566546226414,/world,vicon/Archie/Archie,0.0579776860772,0.185199300376,0.114360902536,6.64797484216e-05,-0.00369225234801,0.671745993393,0.740772355865
1385570566556044171,775795,1385570566556044171,/world,vicon/Archie/Archie,0.0579873498231,0.185197115621,0.114354015013,5.77314858608e-05,-0.00372473414225,0.671751168772,0.740767500823
1385570566566087640,775796,1385570566566087640,/world,vicon/Archie/Archie,0.0579467155411,0.185193950814,0.114340056889,0.000235373906635,-0.00377547420912,0.671767802853,0.740752124158
1385570566576036259,775797,1385570566576036259,/world,vicon/Archie/Archie,0.0579498619119,0.185134026612,0.114345689258,0.000291272118439,-0.00381705119877,0.67180560519,0.740717607537
1385570566586884667,775798,1385570566586884667,/world,vicon/Archie/Archie,0.0579511114012,0.185106479452,0.114271348124,0.000530873595244,-0.00394857167541,0.67176103215,0.740757208969
1385570566596878603,775799,1385570566596878603,/world,vicon/Archie/Archie,0.0579709729729,0.185194769182,0.114347580412,3.852157926e-05,-0.00368783831245,0.671762315039,0.740757578738
1385570566606861521,775800,1385570566606861521,/world,vicon/Archie/Archie,0.0579425302534,0.185133013369,0.114337086493,0.000276216716802,-0.00379515127402,0.671802563562,0.740720484476
1385570566616953477,775801,1385570566616953477,/world,vicon/Archie/Archie,0.0581001656172,0.185241231737,0.11420792112,0.000840179825163,-0.00388824276967,0.671824896816,0.740699320699
1385570566626838605,775802,1385570566626838605,/world,vicon/Archie/Archie,0.057955158635,0.185142438996,0.114364316453,0.000115377108427,-0.00375197162294,0.671781859176,0.740739524448
1385570566637296709,775803,1385570566637296709,/world,vicon/Archie/Archie,0.0579518604395,0.18520517192,0.114362678363,5.89359203773e-05,-0.00369657583265,0.67175416362,0.740764925947
1385570566646860882,775804,1385570566646860882,/world,vicon/Archie/Archie,0.0579364478004,0.185218554822,0.114350176878,3.65775567687e-05,-0.00370993631587,0.671766289518,0.740753864183
1385570566656849990,775805,1385570566656849990,/world,vicon/Archie/Archie,0.0578868468782,0.185202056556,0.114289840122,0.00022999707351,-0.0037712546319,0.671810056991,0.740713826026
1385570566666823445,775806,1385570566666823445,/world,vicon/Archie/Archie,0.0579465305783,0.185221451703,0.114361120112,8.61433173204e-05,-0.00372180324748,0.671744681347,0.740773395744
1385570566676688433,775807,1385570566676688433,/world,vicon/Archie/Archie,0.0579537244604,0.185184385398,0.114353373633,0.000300334948946,-0.0037975190241,0.671796018026,0.74072639943
1385570566686665974,775808,1385570566686665974,/world,vicon/Archie/Archie,0.0579617657887,0.185175720282,0.114376502192,0.000124596076332,-0.00374233407742,0.671790438714,0.740731790774
1385570566696666095,775809,1385570566696666095,/world,vicon/Archie/Archie,0.0579341424553,0.185241612892,0.114342333936,0.000226092735093,-0.00375201690692,0.671778433342,0.740742605598
1385570566706959035,775810,1385570566706959035,/world,vicon/Archie/Archie,0.0579627683246,0.185242314014,0.114331592615,0.000205464145287,-0.00376519040859,0.671754914947,0.740763872884
1385570566717082438,775811,1385570566717082438,/world,vicon/Archie/Archie,0.0579404517595,0.185229525748,0.114367030859,7.25324401075e-05,-0.00371369677852,0.671761603201,0.740758092538
1385570566727190645,775812,1385570566727190645,/world,vicon/Archie/Archie,0.0579314992234,0.185177001802,0.114370901612,0.000134373292352,-0.00378110337131,0.671790819125,0.740731247175
1385570566736359975,775813,1385570566736359975,/world,vicon/Archie/Archie,0.0579103154123,0.185170511568,0.114347088299,0.000275653018342,-0.00380470819919,0.671833285288,0.740692571173
1385570566746483699,775814,1385570566746483699,/world,vicon/Archie/Archie,0.0579248291754,0.1852309451,0.114336156148,0.000223698848511,-0.00380311823472,0.671771540524,0.740748596754
1385570566756341993,775815,1385570566756341993,/world,vicon/Archie/Archie,0.0579299517932,0.185171046464,0.114346489097,0.000278910254257,-0.00379883765238,0.671819869759,0.740704768203
1385570566766337987,775816,1385570566766337987,/world,vicon/Archie/Archie,0.0579753325731,0.185226017453,0.114329270695,0.000191959960549,-0.00376889149357,0.671756726349,0.740762215028
1385570566776362197,775817,1385570566776362197,/world,vicon/Archie/Archie,0.057926718769,0.185176572585,0.114352536793,0.000308577675904,-0.00385442877411,0.671804504026,0.740718405691
1385570566786249052,775818,1385570566786249052,/world,vicon/Archie/Archie,0.0579709344985,0.185172535062,0.114371142593,0.000133343856092,-0.00376634338784,0.671783331343,0.740738113375
1385570566796334736,775819,1385570566796334736,/world,vicon/Archie/Archie,0.0579421459788,0.185243289735,0.114317997427,0.000219751074677,-0.00375311479949,0.671769337989,0.740750850405
1385570566806370940,775820,1385570566806370940,/world,vicon/Archie/Archie,0.0579323030431,0.185228135255,0.114336199766,0.000225496884044,-0.00380865872798,0.671767318757,0.740752396365
1385570566816259723,775821,1385570566816259723,/world,vicon/Archie/Archie,0.057947056646,0.18523846691,0.114315882749,0.000211002053814,-0.00376598352851,0.671765075306,0.74075465334
1385570566826380463,775822,1385570566826380463,/world,vicon/Archie/Archie,0.057936397079,0.18522674596,0.114367890455,8.16207619259e-05,-0.0037239150256,0.67176454002,0.740755377009
1385570566836295304,775823,1385570566836295304,/world,vicon/Archie/Archie,0.0579282911775,0.185239584374,0.114315907461,0.000199085543243,-0.003742168733,0.671780857886,0.740740464343
1385570566846259595,775824,1385570566846259595,/world,vicon/Archie/Archie,0.057953197831,0.185180496589,0.114346412101,0.000282143232469,-0.00379877839782,0.671797742613,0.740724836021
1385570566856275848,775825,1385570566856275848,/world,vicon/Archie/Archie,0.0579532304354,0.18516892741,0.114379150013,0.000118022632091,-0.00376705974443,0.671794311798,0.740728153891
1385570566866401709,775826,1385570566866401709,/world,vicon/Archie/Archie,0.0579063087427,0.185224666413,0.114348378587,0.000232145067217,-0.00375984535546,0.671789758453,0.740732293146
1385570566876242497,775827,1385570566876242497,/world,vicon/Archie/Archie,0.0579113293437,0.185234157795,0.114331942052,0.000218618266588,-0.00377420274526,0.671772040635,0.740748292621
1385570566886340720,775828,1385570566886340720,/world,vicon/Archie/Archie,0.0579339933899,0.185224814131,0.114380665288,6.61679372878e-05,-0.00371969988551,0.671762885466,0.740756900181
1385570566896404052,775829,1385570566896404052,/world,vicon/Archie/Archie,0.0579097464305,0.185229605618,0.114331679272,0.000213227369398,-0.00376944617518,0.671770003652,0.740750165713
1385570566906174431,775830,1385570566906174431,/world,vicon/Archie/Archie,0.0579271053486,0.185221888045,0.114353715284,0.000240910423346,-0.00378597324626,0.671767429096,0.740752407741
1385570566916323004,775831,1385570566916323004,/world,vicon/Archie/Archie,0.0579265537749,0.185224069599,0.114354596796,0.000240673856982,-0.00376118707254,0.671767440427,0.740752523809
1385570566926256534,775832,1385570566926256534,/world,vicon/Archie/Archie,0.0579088299251,0.18522956576,0.114331113448,0.000216557477849,-0.00375416845932,0.671767444167,0.740752563465
1385570566936218165,775833,1385570566936218165,/world,vicon/Archie/Archie,0.0579156216104,0.185225241713,0.114357657536,0.000239384032821,-0.0037567142301,0.671773439854,0.74074710617
1385570566946317935,775834,1385570566946317935,/world,vicon/Archie/Archie,0.0579483662343,0.185230773555,0.114348207428,0.000243736753569,-0.0037651259218,0.671762426793,0.74075704949
1385570566956256652,775835,1385570566956256652,/world,vicon/Archie/Archie,0.0579078161509,0.185225359138,0.114354244711,0.000234696232874,-0.00376854266932,0.671772478391,0.740747919525
1385570566966214083,775836,1385570566966214083,/world,vicon/Archie/Archie,0.0579356483505,0.185162650054,0.114386054833,0.000100900415167,-0.00375283328342,0.671789142246,0.740732917063
1385570566976176412,775837,1385570566976176412,/world,vicon/Archie/Archie,0.0579482526742,0.185173895371,0.114354577089,0.000289298780348,-0.00379538044074,0.671795834929,0.740726580841
1385570566986068359,775838,1385570566986068359,/world,vicon/Archie/Archie,0.0579271084623,0.18516019752,0.114387262146,0.000140411876753,-0.00375973748046,0.671811325019,0.7407127569
1385570566996585953,775839,1385570566996585953,/world,vicon/Archie/Archie,0.0579196409021,0.185219890142,0.114350642408,0.000225716428611,-0.00379161994667,0.671758097932,0.740760845707
1385570567006033764,775840,1385570567006033764,/world,vicon/Archie/Archie,0.0579316876198,0.185216269587,0.114357950729,0.000247503561214,-0.00376070440256,0.671774791416,0.74074585754
1385570567015999037,775841,1385570567015999037,/world,vicon/Archie/Archie,0.0579002745268,0.185167973423,0.114335709987,0.000267000815835,-0.00381637690526,0.671810153106,0.740713495328
1385570567026471101,775842,1385570567026471101,/world,vicon/Archie/Archie,0.0579280502335,0.185206904129,0.114377194992,8.75019132746e-05,-0.00373098096733,0.671759652846,0.740759772755
1385570567036726721,775843,1385570567036726721,/world,vicon/Archie/Archie,0.0579622033285,0.185216391377,0.114377319098,7.08941352653e-05,-0.0037002593253,0.671749734165,0.740768923285
1385570567046869722,775844,1385570567046869722,/world,vicon/Archie/Archie,0.0580661758876,0.1851472067,0.114250738586,0.000929872897769,-0.00400384870509,0.671845273588,0.74068011509
1385570567057385472,775845,1385570567057385472,/world,vicon/Archie/Archie,0.0579036787934,0.185156307762,0.114338136667,0.000267125027629,-0.003825492806,0.671809634963,0.740713918203
1385570567066898331,775846,1385570567066898331,/world,vicon/Archie/Archie,0.0579364255899,0.185212987345,0.114382524395,8.91494787724e-05,-0.00370071654644,0.671762545005,0.740757301602
1385570567076798292,775847,1385570567076798292,/world,vicon/Archie/Archie,0.0579643802717,0.185220545124,0.114380152699,7.53580814932e-05,-0.00370774189875,0.671754108583,0.740764918562
1385570567086765290,775848,1385570567086765290,/world,vicon/Archie/Archie,0.0579337934313,0.185205241348,0.114378466181,6.55554421668e-05,-0.00373649735307,0.671754274481,0.740764624565
1385570567096740787,775849,1385570567096740787,/world,vicon/Archie/Archie,0.0579110035971,0.185217146287,0.114328614449,0.000221491710103,-0.0037708066044,0.671781037998,0.740740149408
1385570567106690356,775850,1385570567106690356,/world,vicon/Archie/Archie,0.0579218114013,0.18521819681,0.114339610128,0.000203364568017,-0.00375181740325,0.671771514621,0.740748887716
1385570567116955124,775851,1385570567116955124,/world,vicon/Archie/Archie,0.0579234838261,0.185206047994,0.114384602683,6.94525698372e-05,-0.00371088709294,0.671769373108,0.740751060646
1385570567126529956,775852,1385570567126529956,/world,vicon/Archie/Archie,0.0580544381308,0.185137863195,0.114247367273,0.000903606668277,-0.0039764476177,0.67185407844,0.740672308543
1385570567136503253,775853,1385570567136503253,/world,vicon/Archie/Archie,0.0578934791291,0.185222099247,0.114329527876,0.000201686924818,-0.00378922297319,0.671791103103,0.740730932865
1385570567146616232,775854,1385570567146616232,/world,vicon/Archie/Archie,0.0579261099798,0.185190948564,0.1142960477,0.000448146446197,-0.00384743781246,0.671743009144,0.740774139703
1385570567156275226,775855,1385570567156275226,/world,vicon/Archie/Archie,0.0579285844693,0.185213165638,0.114385900186,7.92291325279e-05,-0.00372023963599,0.671770258032,0.740750210235
1385570567166321210,775856,1385570567166321210,/world,vicon/Archie/Archie,0.0580580142791,0.185138279653,0.114250060874,0.000903423044798,-0.0039678332196,0.671853241778,0.740673113889
1385570567176273405,775857,1385570567176273405,/world,vicon/Archie/Archie,0.0579578655892,0.185173862687,0.114339751093,0.000324006388818,-0.0037903820145,0.671728582306,0.740787580712
1385570567186309958,775858,1385570567186309958,/world,vicon/Archie/Archie,0.0579450765391,0.185188411491,0.114310140609,0.000488520106935,-0.00388344426131,0.671735793129,0.7407804698
1385570567196332428,775859,1385570567196332428,/world,vicon/Archie/Archie,0.0579196483931,0.185214278345,0.114353775669,0.000226664597544,-0.00376761211223,0.671778075019,0.740742851228
1385570567206308848,775860,1385570567206308848,/world,vicon/Archie/Archie,0.0579791252637,0.185181630562,0.114298909101,0.000478402456492,-0.00385029312403,0.671711718622,0.74080247937
1385570567216332156,775861,1385570567216332156,/world,vicon/Archie/Archie,0.057913408574,0.185213124581,0.114320319429,0.000192003207931,-0.00378403968375,0.671781525988,0.740739647595
1385570567226362738,775862,1385570567226362738,/world,vicon/Archie/Archie,0.0579310917244,0.185185097917,0.114287363705,0.00047696812793,-0.0038801096669,0.671743077575,0.740773889241
1385570567236269188,775863,1385570567236269188,/world,vicon/Archie/Archie,0.0579131348354,0.185143413812,0.114359229057,0.000271013217238,-0.00378874014664,0.671831768164,0.740694030815
1385570567246306593,775864,1385570567246306593,/world,vicon/Archie/Archie,0.0579410442071,0.185207600097,0.114340799432,0.000214975306523,-0.00376626151277,0.671764346521,0.740755311694
1385570567256344730,775865,1385570567256344730,/world,vicon/Archie/Archie,0.0579387514727,0.18520666875,0.114386476476,6.21516096493e-05,-0.00368600098179,0.671763891647,0.740756156514
1385570567266191997,775866,1385570567266191997,/world,vicon/Archie/Archie,0.0579411502484,0.185197437265,0.114373582344,6.38301993454e-05,-0.00371145192258,0.671759041368,0.740760427797
1385570567276337436,775867,1385570567276337436,/world,vicon/Archie/Archie,0.0579159597147,0.185157241284,0.114355513972,0.000286626262016,-0.00383906406472,0.671837545461,0.74068852559
1385570567286291474,775868,1385570567286291474,/world,vicon/Archie/Archie,0.057969343888,0.185218446774,0.114336313275,0.000229384216416,-0.00377736227309,0.671763605147,0.740755923174
1385570567296326497,775869,1385570567296326497,/world,vicon/Archie/Archie,0.0580805160266,0.185085435406,0.11425238044,0.000992701652277,-0.00405577151813,0.671878638616,0.740649485406
1385570567306281248,775870,1385570567306281248,/world,vicon/Archie/Archie,0.0579429819577,0.185202680543,0.114369441311,6.43686136642e-05,-0.00372522992939,0.671764444008,0.740755459167
1385570567316356406,775871,1385570567316356406,/world,vicon/Archie/Archie,0.0579313038161,0.185216817109,0.11434695577,0.000261537674667,-0.00376952986154,0.671771613581,0.740748689793
1385570567326261842,775872,1385570567326261842,/world,vicon/Archie/Archie,0.0579670630943,0.185217011858,0.114366741056,7.42680726269e-05,-0.00371560036851,0.67174573652,0.74077247132
1385570567336238699,775873,1385570567336238699,/world,vicon/Archie/Archie,0.0579568993271,0.185184037886,0.1143227983,0.000353979366303,-0.00382552553092,0.671724502563,0.740791085738
1385570567346331241,775874,1385570567346331241,/world,vicon/Archie/Archie,0.0579511953065,0.185129205105,0.114316808573,0.000566788323426,-0.00389936786289,0.671774166707,0.740745531628
1385570567356299106,775875,1385570567356299106,/world,vicon/Archie/Archie,0.057969166897,0.185229301693,0.114333769455,0.000224180706048,-0.00375443840565,0.671744659146,0.740773222278
1385570567366263882,775876,1385570567366263882,/world,vicon/Archie/Archie,0.0579350928031,0.185225824393,0.114340205273,0.000233762940171,-0.0037872580398,0.671762549855,0.74075682828
1385570567376253396,775877,1385570567376253396,/world,vicon/Archie/Archie,0.0579647145553,0.185234254279,0.114339080329,0.000223092373078,-0.00375364495901,0.671747780949,0.740770395716
1385570567386301852,775878,1385570567386301852,/world,vicon/Archie/Archie,0.0579314922638,0.185224716798,0.114342687376,0.00023594207323,-0.00378707685537,0.671764388793,0.740755160853
1385570567396117397,775879,1385570567396117397,/world,vicon/Archie/Archie,0.057925852162,0.185230864384,0.11434821554,0.000236468570769,-0.00375099332128,0.671767177774,0.740752815045
1385570567405995371,775880,1385570567405995371,/world,vicon/Archie/Archie,0.0579428528445,0.185217751332,0.114368142829,6.69969221401e-05,-0.00371879008252,0.6717619068,0.740757792186
1385570567416300117,775881,1385570567416300117,/world,vicon/Archie/Archie,0.0579608650106,0.185223588154,0.114335620976,0.000232984066995,-0.00376735579142,0.671755525808,0.740763299776
1385570567426186358,775882,1385570567426186358,/world,vicon/Archie/Archie,0.057922590734,0.185169578856,0.114342259903,0.000277772298721,-0.00381820573602,0.671800957539,0.740721822007
1385570567436089147,775883,1385570567436089147,/world,vicon/Archie/Archie,0.0579414360041,0.18522143808,0.114342446026,0.000222359643457,-0.0037794520065,0.671755915351,0.74076288817
1385570567446127690,775884,1385570567446127690,/world,vicon/Archie/Archie,0.0580845297215,0.185100545571,0.114249611685,0.00103159113456,-0.00409853968808,0.671860684163,0.740665483783
1385570567456106736,775885,1385570567456106736,/world,vicon/Archie/Archie,0.057970199084,0.185214417606,0.114362157771,7.52844845799e-05,-0.00369878674921,0.671742596262,0.740775402991
1385570567466092291,775886,1385570567466092291,/world,vicon/Archie/Archie,0.0579351388481,0.185165511298,0.114370978012,0.000132586606858,-0.00376762210312,0.671780380499,0.74074078315
1385570567476199727,775887,1385570567476199727,/world,vicon/Archie/Archie,0.057929840541,0.18521720455,0.114343500441,0.000223889578549,-0.00376150901571,0.671768239623,0.740751802669
1385570567486363946,775888,1385570567486363946,/world,vicon/Archie/Archie,0.0579354280376,0.185214340275,0.114366901562,7.40979735429e-05,-0.00373515543054,0.67175119312,0.740767424814
1385570567496397526,775889,1385570567496397526,/world,vicon/Archie/Archie,0.0579481079637,0.185125523882,0.114306791603,0.000544087592699,-0.0039233693439,0.671768944115,0.740750158194
1385570567506340062,775890,1385570567506340062,/world,vicon/Archie/Archie,0.0579541583241,0.185165769865,0.114354490851,0.000297328125397,-0.00378053606773,0.671799065908,0.740723723252
1385570567516307370,775891,1385570567516307370,/world,vicon/Archie/Archie,0.0579433856911,0.185210801784,0.114338363304,0.000215959941719,-0.0037873743729,0.671762410168,0.740756959766
1385570567526250478,775892,1385570567526250478,/world,vicon/Archie/Archie,0.0579443527714,0.185209817189,0.114339016256,0.000243926541267,-0.00379198028993,0.671741442223,0.740775941959
1385570567536302884,775893,1385570567536302884,/world,vicon/Archie/Archie,0.0580589455331,0.18513933632,0.114215745489,0.000918617046293,-0.00399736497164,0.671855037712,0.74067130734
1385570567546306848,775894,1385570567546306848,/world,vicon/Archie/Archie,0.0580982956354,0.185145656739,0.114222191544,0.000892742982914,-0.00401315946212,0.671823258202,0.740700079182
1385570567556290744,775895,1385570567556290744,/world,vicon/Archie/Archie,0.0579460797653,0.185204800358,0.114329376234,0.000210611379003,-0.00377305081057,0.671765701846,0.740754049299
1385570567566272830,775896,1385570567566272830,/world,vicon/Archie/Archie,0.0579596151304,0.185111799294,0.114301278,0.000554585876525,-0.00395131116614,0.671766396425,0.740752312321
1385570567576330726,775897,1385570567576330726,/world,vicon/Archie/Archie,0.0580842662886,0.185139572053,0.114225124389,0.000934183249614,-0.00403733860828,0.671841128572,0.740683687655
1385570567586355785,775898,1385570567586355785,/world,vicon/Archie/Archie,0.0580987372181,0.185078626233,0.114237962255,0.00102531046039,-0.00411204039816,0.671865574312,0.740660981771
1385570567596341421,775899,1385570567596341421,/world,vicon/Archie/Archie,0.0580856251814,0.185074891377,0.114243576327,0.00100582628465,-0.00407703008886,0.671886626026,0.740642105141
1385570567606380701,775900,1385570567606380701,/world,vicon/Archie/Archie,0.0579644201359,0.185191572222,0.114351653351,7.16525847384e-05,-0.00374158552021,0.671752611712,0.740766106178
1385570567616342434,775901,1385570567616342434,/world,vicon/Archie/Archie,0.0579722885493,0.185143216165,0.114332449721,0.000284825557569,-0.00382658414371,0.671803760434,0.740719233985
1385570567626309810,775902,1385570567626309810,/world,vicon/Archie/Archie,0.0579514925292,0.185133895365,0.114330514724,0.000273282364942,-0.00384688970951,0.671811592521,0.740712029678
1385570567636346500,775903,1385570567636346500,/world,vicon/Archie/Archie,0.0579516820662,0.185193649316,0.114324195354,0.000236697619902,-0.00379835755981,0.671759291093,0.740759725744
1385570567646363579,775904,1385570567646363579,/world,vicon/Archie/Archie,0.0581013689966,0.185053712206,0.114237477689,0.00100601126904,-0.00406755088919,0.671889205358,0.740639817114
1385570567656288466,775905,1385570567656288466,/world,vicon/Archie/Archie,0.0581009888093,0.185111440296,0.114214374603,0.000912195382507,-0.00401365486237,0.671835485441,0.74068896237
1385570567666311742,775906,1385570567666311742,/world,vicon/Archie/Archie,0.0579394932205,0.185188580155,0.11430435233,0.000208492330949,-0.00375733528288,0.671774791088,0.740745886942
1385570567676250207,775907,1385570567676250207,/world,vicon/Archie/Archie,0.0581076224501,0.185063529129,0.114234655614,0.00100845944871,-0.00409318300684,0.671857930115,0.740668043461
1385570567686317318,775908,1385570567686317318,/world,vicon/Archie/Archie,0.058105018329,0.185119231573,0.114214152008,0.000930024985825,-0.00403292015105,0.67181897811,0.74070380805
1385570567696335243,775909,1385570567696335243,/world,vicon/Archie/Archie,0.0581212768963,0.185108801782,0.114212365902,0.000944698689367,-0.00398152040742,0.671840416151,0.740684622674
1385570567706291180,775910,1385570567706291180,/world,vicon/Archie/Archie,0.0579460519488,0.185117940227,0.114351328066,9.64357970979e-05,-0.00374985008321,0.671801364598,0.740721847827
1385570567716279320,775911,1385570567716279320,/world,vicon/Archie/Archie,0.0579421425129,0.185175526144,0.114323300559,0.000221235762594,-0.00379907045033,0.671771618276,0.740748547753
1385570567726323655,775912,1385570567726323655,/world,vicon/Archie/Archie,0.0580065583059,0.185149990616,0.114276187176,0.00048904722059,-0.00385434890533,0.671716415687,0.740798192306
1385570567736292653,775913,1385570567736292653,/world,vicon/Archie/Archie,0.0579576560035,0.185175592368,0.114320942678,0.00022759906228,-0.00378661595242,0.671754187271,0.740764417087
1385570567746361674,775914,1385570567746361674,/world,vicon/Archie/Archie,0.0580037531192,0.185175634924,0.114318431867,0.00021598890908,-0.0037594992553,0.671742787049,0.740774896687
1385570567756188236,775915,1385570567756188236,/world,vicon/Archie/Archie,0.0579724455471,0.18527496145,0.114313328381,0.000129629970121,-0.00367675458235,0.671732751887,0.740784432014
1385570567766055002,775916,1385570567766055002,/world,vicon/Archie/Archie,0.0579686003922,0.185158652686,0.114318824092,0.000230817085156,-0.00377822758316,0.671767899397,0.740752024
1385570567776086317,775917,1385570567776086317,/world,vicon/Archie/Archie,0.0579527106513,0.185156204625,0.114320499871,0.000224894091788,-0.00379589194537,0.67177408914,0.740746322155
1385570567786084017,775918,1385570567786084017,/world,vicon/Archie/Archie,0.0579842379307,0.185168888397,0.114317273666,0.000208899787413,-0.00375555997819,0.671755092073,0.740763760185
1385570567796044987,775919,1385570567796044987,/world,vicon/Archie/Archie,0.0579647844352,0.185157735996,0.114322580591,0.000222459461207,-0.00377366385982,0.671763326768,0.740756196588
1385570567806192333,775920,1385570567806192333,/world,vicon/Archie/Archie,0.0581119315786,0.185026903534,0.114240151733,0.00101547653,-0.00410019038414,0.671861121234,0.740665100447
1385570567816261322,775921,1385570567816261322,/world,vicon/Archie/Archie,0.0579715235322,0.18513372028,0.114290139281,0.000498876741276,-0.00387945450203,0.671730050852,0.740785690829
1385570567826199354,775922,1385570567826199354,/world,vicon/Archie/Archie,0.0580021309431,0.185124943551,0.114298297133,0.000496269633418,-0.00382702403804,0.671745333347,0.740772107149
1385570567836299680,775923,1385570567836299680,/world,vicon/Archie/Archie,0.0579643596771,0.185156080271,0.114366061114,6.68345081314e-05,-0.00368653461139,0.671750514673,0.740768284305
1385570567846229576,775924,1385570567846229576,/world,vicon/Archie/Archie,0.0579998566386,0.185160688772,0.114357075846,7.61655033899e-05,-0.00372177594267,0.671728129289,0.740788406297
1385570567856281637,775925,1385570567856281637,/world,vicon/Archie/Archie,0.057966695619,0.185137787178,0.114279871759,0.000496421222903,-0.00388230569142,0.671736775988,0.740779579263
1385570567866293755,775926,1385570567866293755,/world,vicon/Archie/Archie,0.0579548729003,0.185098846727,0.11437130625,0.000138978730567,-0.00376481021759,0.671782731504,0.740738664133
1385570567876221817,775927,1385570567876221817,/world,vicon/Archie/Archie,0.0579521169427,0.185155086959,0.11437001654,8.69901896792e-05,-0.00370136115916,0.671766471624,0.740753737729
1385570567886276484,775928,1385570567886276484,/world,vicon/Archie/Archie,0.0579401907867,0.185155948564,0.114344283914,0.000246487453732,-0.00375891890943,0.671792315935,0.740729973758
1385570567896548224,775929,1385570567896548224,/world,vicon/Archie/Archie,0.0579351708522,0.185101470608,0.114332260835,0.00029192667528,-0.00379704511089,0.67181572708,0.740708529771
1385570567906292049,775930,1385570567906292049,/world,vicon/Archie/Archie,0.0581196304141,0.185036972139,0.114246067935,0.00103904569475,-0.00409364231138,0.671853490472,0.74067202581
1385570567916282414,775931,1385570567916282414,/world,vicon/Archie/Archie,0.0579603853694,0.185161513739,0.11437012173,7.03225430463e-05,-0.00372803057538,0.671748893921,0.740769546053
1385570567926231818,775932,1385570567926231818,/world,vicon/Archie/Archie,0.0579508908865,0.185104077647,0.114375832897,0.000147056354514,-0.00375721729505,0.671807803677,0.740715962168
