%time,field.linear.x,field.linear.y,field.linear.z,field.angular.x,field.angular.y,field.angular.z
1385574302571907998,-0.0,0.0,0.0,1.0,0.0,0.0
1385574302661719363,-0.0,0.0,5.84373876094e-08,1.0,0.0,0.117939441499
1385574302761729845,0.104434955664,0.277188876121,-0.0134065264139,1.0,0.0,0.0767626270178
1385574302860646252,0.0911020601168,0.24163276066,-0.011686256137,1.0,0.0,0.0895740870625
1385574302959750636,0.104706697874,0.277701059428,-0.0109920251927,1.0,0.0,0.088970907833
1385574303059865396,0.0982843574039,0.260483759374,-0.00936465444997,1.0,0.0,0.0901337558506
1385574303159994477,0.0906605402472,0.240134618434,-0.0071539413835,1.0,0.0,0.0898920788459
1385574303259791506,0.0777131224725,0.205370643211,-0.00442418033752,1.0,0.0,0.0890906326277
1385574303359796323,0.0624853611802,0.165351124674,-0.00123013231579,1.0,0.0,0.087779046595
1385574303460676363,0.0460396026972,0.121114572161,0.0023556617104,1.0,0.0,0.0859646588494
1385574303561140721,0.0289641106284,0.0759684362611,0.00629427219505,1.0,0.0,0.0838160024906
1385574303661408178,0.0123331226803,0.0316382041564,0.0105006020701,1.0,0.0,0.0813740896818
1385574303760364278,-0.00356179960914,-0.0101993733677,0.0148958634849,1.0,0.0,0.0787473403667
1385574303860537720,-0.017786471613,-0.0486299114977,0.0196069068261,1.0,0.0,0.0762423625052
1385574303960663885,-0.0308489382505,-0.0822250429902,0.0244037416808,1.0,0.0,0.0745412276923
1385574304060012933,-0.0407094251801,-0.109015739153,0.0292326400557,1.0,0.0,0.0730686754414
1385574304159980003,-0.0476459445365,-0.126885533874,0.0341647519633,1.0,0.0,0.0720197720167
1385574304260091771,-0.0506258657713,-0.135140857876,0.0391087878045,1.0,0.0,0.0712682616793
1385574304361981698,-0.0498537775491,-0.133442524276,0.0441310304631,1.0,0.0,0.0707360634855
1385574304461485327,-0.0452510635559,-0.122098161843,0.0490569119979,1.0,0.0,0.0704023240799
1385574304560729955,-0.0380685488426,-0.102274902446,0.0539631203422,1.0,0.0,0.0702656470087
1385574304660704460,-0.0282757365171,-0.0760395473918,0.0590267573366,1.0,0.0,0.0703460514151
1385574304761575042,-0.0167877959192,-0.0447728736408,0.0639139765835,1.0,0.0,0.0705270593422
1385574304860470315,-0.00393029653695,-0.011097792493,0.0689162106514,1.0,0.0,0.0707174338553
1385574304960516213,0.00882393703864,0.023229267062,0.073887571552,1.0,0.0,0.0710190824771
1385574305060371308,0.0207590161228,0.0561878237459,0.0788608198409,1.0,0.0,0.0714762844313
1385574305161515223,0.0308890358063,0.0861266714282,0.0836654065653,1.0,0.0,0.072119095576
1385574305260541418,0.0398552172858,0.109804610362,0.0888151169912,1.0,0.0,0.0726466670704
1385574305361459573,0.0457460730792,0.127533084783,0.0939991277444,1.0,0.0,0.0734113514373
1385574305461479488,0.0487661880367,0.140186832091,0.0982743566843,1.0,0.0,0.074544899888
1385574305562527814,0.0485921042849,0.150176171202,0.100386936562,1.0,0.0,0.0758463440672
1385574305660493176,0.0451750497815,0.154770157089,0.10108712526,1.0,0.0,0.0772025430726
1385574305760468921,0.0424609660093,0.152279332372,0.10102917489,1.0,0.0,0.0791524508917
1385574305860497700,0.040729924204,0.14036502313,0.102101403173,1.0,0.0,0.0813046057554
1385574305960463571,0.0372211980732,0.119778735189,0.104765958946,1.0,0.0,0.082916285185
1385574306060637849,0.0323041957358,0.102190264182,0.104476417843,1.0,0.0,0.0844395111477
1385574306160462903,0.0269017061359,0.0798387729946,0.104292577212,1.0,0.0,0.0855408088343
1385574306260452918,0.0218317478742,0.0576912117782,0.102916545862,1.0,0.0,0.0862130048238
1385574306360434869,0.0210452134048,0.0336585393199,0.100592276303,1.0,0.0,0.0865745726331
1385574306460415053,0.020112115924,0.0103338687157,0.0973753343221,1.0,0.0,0.0866572573016
1385574306560508192,0.0181334916281,-0.0119319379088,0.0955576002629,1.0,0.0,0.0865545046838
1385574306660522956,0.0178629116905,-0.0330646300141,0.0951954853664,1.0,0.0,0.086151832326
1385574306760446228,0.0178598508804,-0.0512454812893,0.0956790278497,1.0,0.0,0.0855590619629
1385574306860628543,0.0188121084432,-0.0668957549042,0.0974731356108,1.0,0.0,0.0847791585426
1385574306960411784,0.0189482608495,-0.0778666954118,0.0999470360068,1.0,0.0,0.0838880037709
1385574307060617968,0.0187371853621,-0.0857525217549,0.103748144863,1.0,0.0,0.0829812175809
1385574307161406386,0.0187964618903,-0.0897608401353,0.108194644048,1.0,0.0,0.0820278677001
1385574307261463446,0.0187055412646,-0.0898188430321,0.112991625199,1.0,0.0,0.0810549986027
1385574307361452253,0.0189457824833,-0.0860819431179,0.117757477293,1.0,0.0,0.0800284469499
1385574307460448864,0.0195935422673,-0.078275629959,0.122331912319,1.0,0.0,0.0790277951194
1385574307560364957,0.0185519866436,-0.0652938349097,0.126688917452,1.0,0.0,0.0780354811989
1385574307660477844,0.0157693465069,-0.0494299946228,0.131302053157,1.0,0.0,0.0770558823719
1385574307760371770,0.0147707418311,-0.0342625604835,0.133651890365,1.0,0.0,0.0761670361121
1385574307860482348,0.0152329501751,-0.0145411634159,0.13454431497,1.0,0.0,0.0752973499331
1385574307960515009,0.0137188026,0.00497478504034,0.135399911016,1.0,0.0,0.0745448120479
1385574308061413593,0.0143149836042,0.023965065046,0.13568512891,1.0,0.0,0.0738476709825
1385574308160411298,0.0110422082871,0.0435607349431,0.136026495902,1.0,0.0,0.0732535978148
1385574308260648899,0.00924514426784,0.0611957212597,0.136077310075,1.0,0.0,0.0726592052378
1385574308360479412,0.00690902007983,0.0754731396961,0.13626368489,1.0,0.0,0.0721976242197
1385574308460436306,0.0043969386657,0.0892710473119,0.135875864547,1.0,0.0,0.0718480737959
1385574308561455529,0.00276479989283,0.100482161274,0.134900078173,1.0,0.0,0.0715501535352
1385574308660408210,0.00207139099691,0.107529470002,0.133565660602,1.0,0.0,0.0712529425713
1385574308761470067,-0.00117095430994,0.110860630871,0.132403232039,1.0,0.0,0.0710594889628
1385574308860445183,-0.00291028227705,0.109761365553,0.130897555611,1.0,0.0,0.0709104767477
1385574308960439597,-0.00542206091096,0.105857106139,0.129068555813,1.0,0.0,0.0708305406376
1385574309061424530,-0.00651190755827,0.0988276776282,0.126768984046,1.0,0.0,0.0706544668577
1385574309160560225,-0.00811772436571,0.0887506445816,0.124386891895,1.0,0.0,0.0704589008291
1385574309260364845,-0.00928992816444,0.0772687853369,0.121494924213,1.0,0.0,0.070193372229
1385574309360587969,-0.00899413925755,0.0632419396579,0.118434297967,1.0,0.0,0.0699070899349
1385574309461639032,-0.00777790697912,0.0478346223545,0.115350672066,1.0,0.0,0.0694748173783
1385574309560449662,-0.00660715632116,0.0316454176206,0.112386821083,1.0,0.0,0.0689988101091
1385574309660474640,-0.0048880691996,0.0156162445888,0.109452559885,1.0,0.0,0.0685095900798
1385574309760484003,-0.00343277451059,-0.000606204534666,0.106903761232,1.0,0.0,0.0679891981654
1385574309860376401,-0.00139082873902,-0.0152956809905,0.104354975049,1.0,0.0,0.0675039509307
1385574309960486716,0.00111978319333,-0.027719820293,0.101440563172,1.0,0.0,0.0670304342434
1385574310060545198,0.00383345831994,-0.0382949806499,0.0984923213729,1.0,0.0,0.066562987184
1385574310160471797,0.00638052229383,-0.0457451639754,0.0952417872625,1.0,0.0,0.0661984463615
1385574310260520478,0.00950991399122,-0.0514767436313,0.0920484577182,1.0,0.0,0.0658088268705
1385574310360634668,0.0114245906306,-0.0535623668066,0.0885030161575,1.0,0.0,0.0655932928345
1385574310460569356,0.0136304867241,-0.053642084165,0.0850313181256,1.0,0.0,0.0652815692103
1385574310560838485,0.0149417614582,-0.0502685191234,0.0813967303631,1.0,0.0,0.0650388482341
1385574310660754224,0.0153575326171,-0.0451547140476,0.0780527649259,1.0,0.0,0.0648603213955
1385574310760714843,0.0157443029261,-0.0377178277604,0.074805985699,1.0,0.0,0.0646261519928
1385574310860898750,0.014984677634,-0.0285178831507,0.071621052385,1.0,0.0,0.0644050204968
1385574310960765094,0.0133188846275,-0.0177554486693,0.068637722677,1.0,0.0,0.0641435074932
1385574311060754539,0.0112299784751,-0.00622958994085,0.0657611438273,1.0,0.0,0.0638409312432
1385574311160785527,0.00815399091508,0.00601123701951,0.0629996687844,1.0,0.0,0.0635635065713
1385574311260905979,0.0049765693014,0.0182055986902,0.0602236513067,1.0,0.0,0.0631716327363
1385574311360940135,0.00120867812066,0.029883732083,0.0576594335886,1.0,0.0,0.0627954915695
1385574311459802450,-0.00307042167472,0.0410173635208,0.0552445655012,1.0,0.0,0.0624507770038
1385574311560833353,-0.00726073359768,0.0506829210274,0.0530113789843,1.0,0.0,0.061973912563
1385574311660035019,-0.0112996888084,0.0590551483974,0.050809232812,1.0,0.0,0.0615720043884
1385574311760907162,-0.0150773206153,0.0653759305779,0.0488964769022,1.0,0.0,0.0611111689654
1385574311860806442,-0.0184669404041,0.0697698579211,0.0470761498889,1.0,0.0,0.0606709866727
1385574311960819745,-0.021173551626,0.0721514516444,0.0452039722782,1.0,0.0,0.0602635554228
1385574312059897284,-0.0233909712911,0.0721197340596,0.0436464273492,1.0,0.0,0.059932492958
1385574312159775055,-0.02480282314,0.0698129357106,0.0422957544644,1.0,0.0,0.0595933570339
1385574312260757844,-0.0251324505633,0.0655076201143,0.0410434944522,1.0,0.0,0.059238468696
1385574312359969697,-0.0251199118082,0.0592391301382,0.039984347222,1.0,0.0,0.0589387021005
1385574312460971048,-0.0244481401648,0.0513720033321,0.0388122371648,1.0,0.0,0.0588060524583
1385574312560800627,-0.0232510197596,0.0421078512708,0.0376446471377,1.0,0.0,0.0586955866964
1385574312660250021,-0.021184618347,0.0319295584725,0.0365905283092,1.0,0.0,0.0586038484399
1385574312761775557,-0.0186426592793,0.0210926094076,0.0355508081211,1.0,0.0,0.0585020273753
1385574312859907420,-0.0157325045995,0.0100366021937,0.0345525222226,1.0,0.0,0.0584384828349
1385574312959804222,-0.0125329616535,-0.000885665339981,0.033663805857,1.0,0.0,0.0584062416996
1385574313059882940,-0.00886628526077,-0.0112600569187,0.0326603008709,1.0,0.0,0.058326567699
1385574313160805404,-0.0051906853166,-0.020687722204,0.0317146327746,1.0,0.0,0.0582436400597
1385574313259776241,-0.00153354565731,-0.0289994445985,0.0307933097668,1.0,0.0,0.0581789158333
1385574313359811356,0.00172977818308,-0.0357080754999,0.0297293742149,1.0,0.0,0.0581741028201
1385574313459930986,0.00485765649547,-0.0408567475089,0.028682810891,1.0,0.0,0.058101025623
1385574313560799183,0.00775381772992,-0.0441661414003,0.0277787151663,1.0,0.0,0.0580531737517
1385574313660768945,0.00994558411615,-0.0457875201433,0.0268155968185,1.0,0.0,0.0579465570184
1385574313759807063,0.0114314067528,-0.0456557980125,0.0258943855565,1.0,0.0,0.0577767565173
1385574313859984374,0.0120692817671,-0.0437744806105,0.0250843856682,1.0,0.0,0.0575563870554
1385574313959795674,0.0117498179509,-0.0404318439555,0.024305680965,1.0,0.0,0.0573663331854
1385574314060832692,0.0107245972924,-0.0355992239905,0.0236043470477,1.0,0.0,0.0570368933892
1385574314160867753,0.00829789992949,-0.0296513537824,0.0228601702621,1.0,0.0,0.056735025808
1385574314259834945,0.00535832721827,-0.0226287265781,0.0223462907558,1.0,0.0,0.0563349622572
1385574314361761167,0.00156495177626,-0.0150968029022,0.0218972151838,1.0,0.0,0.0559470393914
1385574314460792948,-0.00311794615887,-0.00731078437015,0.0216740149502,1.0,0.0,0.0555474109272
1385574314560796712,-0.00792633262954,0.000654774641789,0.021336080891,1.0,0.0,0.0551033822032
1385574314659834419,-0.0132940454413,0.00839731363836,0.0209188958111,1.0,0.0,0.0546622861092
1385574314759813575,-0.0184509851079,0.01584571093,0.0205166774934,1.0,0.0,0.0540954352001
1385574314859925999,-0.0232726661429,0.0226140471686,0.0201922555516,1.0,0.0,0.0535250246575
1385574314959782776,-0.0280197555877,0.0288165196549,0.0198132348575,1.0,0.0,0.0529875400701
1385574315060879378,-0.0319790303501,0.0337398813796,0.0196369976261,1.0,0.0,0.052413125728
1385574315159818337,-0.0351827936776,0.0376850978238,0.0195376467628,1.0,0.0,0.0518558948186
1385574315259990964,-0.0375048080217,0.0402440213591,0.0194853021804,1.0,0.0,0.051336795403
1385574315359775796,-0.0386821495964,0.0416874903287,0.0195735523672,1.0,0.0,0.0508749088252
1385574315460739196,-0.0387426232435,0.0415399940095,0.0197511643069,1.0,0.0,0.0504129543353
1385574315560953521,-0.0375871384725,0.040278589035,0.0199548059833,1.0,0.0,0.0500018515428
1385574315659808959,-0.0353252794212,0.0376262151088,0.0201879385665,1.0,0.0,0.0496376452954
1385574315759796149,-0.0319502590304,0.0339865631034,0.0204691449565,1.0,0.0,0.0493086691726
1385574315860550239,-0.0270992917123,0.0297100077959,0.0208507313024,1.0,0.0,0.0488921002795
1385574315960681700,-0.02209407439,0.0242084586117,0.0211606360309,1.0,0.0,0.048680653081
1385574316060728060,-0.0158569756385,0.0185486511638,0.0214813693788,1.0,0.0,0.0483943422748
1385574316160759361,-0.00988262599689,0.0120571897573,0.0214691298856,1.0,0.0,0.048230621129
1385574316260724083,-0.0030522554596,0.00573438398467,0.021455815732,1.0,0.0,0.0480580881816
1385574316360552340,0.00320645605451,-0.00125472893541,0.0214264406003,1.0,0.0,0.0480202415526
1385574316460567994,0.00950426144923,-0.00806927894483,0.0213135234812,1.0,0.0,0.047991733218
1385574316560606175,0.0151756280526,-0.0144889300702,0.0208791942177,1.0,0.0,0.0479822716824
1385574316660776148,0.0205061890469,-0.0204317297649,0.0204020744413,1.0,0.0,0.0478996254198
1385574316761829963,0.0243401449479,-0.0260708955734,0.0197438872719,1.0,0.0,0.047949859853
1385574316860684225,0.0274311434586,-0.0308752213492,0.0190807088287,1.0,0.0,0.0479521863834
1385574316960845077,0.0294277723247,-0.0346986157444,0.0184257699199,1.0,0.0,0.0479558252009
1385574317060779498,0.030052234345,-0.0373477857928,0.0177554910749,1.0,0.0,0.0479371531533
1385574317159961766,0.0290307911247,-0.0383359684903,0.0170785975479,1.0,0.0,0.0478968649225
1385574317260663336,0.0276600231054,-0.0397535576153,0.0162502239259,1.0,0.0,0.0478706190614
1385574317360878009,0.0247712407818,-0.0390200957344,0.0154162113513,1.0,0.0,0.0478201591028
1385574317460733464,0.0208878195862,-0.0378594240873,0.0145335210442,1.0,0.0,0.0477246736049
1385574317560936189,0.0159692016809,-0.0358381307135,0.0135786252724,1.0,0.0,0.0476612182593
1385574317661745506,0.0104185951628,-0.0332719629926,0.0125771447321,1.0,0.0,0.0475267150312
1385574317760774658,0.004108126889,-0.0304332688315,0.0114478938638,1.0,0.0,0.047334524844
1385574317859921512,-0.00268176750222,-0.0273969753155,0.0103459837571,1.0,0.0,0.0471319493588
1385574317960710116,-0.00955111165017,-0.0242950373024,0.00937218263881,1.0,0.0,0.0467997218243
1385574318059820637,-0.0166345471587,-0.0214519523552,0.00841590578101,1.0,0.0,0.0464352438112
1385574318161901103,-0.0234225704981,-0.0186282631048,0.00762103268389,1.0,0.0,0.0460217688642
1385574318260674401,-0.0298549055315,-0.0160751720844,0.00686960478416,1.0,0.0,0.0454779885084
1385574318361744472,-0.0354105267544,-0.0134841497438,0.00625380403211,1.0,0.0,0.0448098453468
1385574318459946827,-0.0400860904277,-0.0111698240194,0.0055889628099,1.0,0.0,0.0441339766599
1385574318560706542,-0.0436204763243,-0.00900974138729,0.004944547711,1.0,0.0,0.0434044036501
1385574318660812172,-0.045932608487,-0.00699617295218,0.00425438897616,1.0,0.0,0.0426026339992
1385574318760698020,-0.0466155724135,-0.0051571599609,0.00374144874612,1.0,0.0,0.0418807248992
1385574318860831842,-0.0458772656839,-0.00351332247705,0.00319843705927,1.0,0.0,0.0411525015772
1385574318960747027,-0.0436939482554,-0.00206413457225,0.00275916549945,1.0,0.0,0.0403799535692
1385574319060751295,-0.0399772795227,-0.000974914356024,0.00237209098628,1.0,0.0,0.0396359278802
1385574319160019687,-0.0349209089301,-5.5708334803e-05,0.00216152025234,1.0,0.0,0.0388547594408
1385574319260752996,-0.0286897914138,0.000477634142688,0.00203462995922,1.0,0.0,0.038019691831
1385574319362238913,-0.0213470611269,0.000788949577438,0.00207559872038,1.0,0.0,0.0371651792076
1385574319461690992,-0.0131513654997,0.000640136753613,0.00204077178156,1.0,0.0,0.0363482967691
1385574319560947156,-0.00433746558864,0.000257655141308,0.0021321933264,1.0,0.0,0.0356195832573
1385574319659873316,0.00460919032705,-0.000594434875223,0.0022544036177,1.0,0.0,0.0348726954941
1385574319759916459,0.0134552232487,-0.00165446770834,0.00225404875958,1.0,0.0,0.0341653593652
1385574319860036567,0.0219545635252,-0.00302938140864,0.0023958920951,1.0,0.0,0.0334476363862
1385574319959712569,0.0296997645526,-0.00487945354363,0.00247786034388,1.0,0.0,0.032748327999
1385574320059920917,0.0365704923152,-0.0072095477193,0.00257010586626,1.0,0.0,0.0321641566527
1385574320160689645,0.0423404149154,-0.00992168061896,0.00271522588127,1.0,0.0,0.0315603616452
1385574320260794807,0.0467765391025,-0.0131169616857,0.00280962947924,1.0,0.0,0.0310215100855
1385574320360725412,0.0498122320955,-0.0166987777203,0.00289928897838,1.0,0.0,0.0305151160913
1385574320459816582,0.0512704882314,-0.0208470215197,0.00285998950652,1.0,0.0,0.0301352928628
1385574320560842514,0.0509654490864,-0.0253158081421,0.00277304038607,1.0,0.0,0.0297497420046
1385574320660722033,0.0489287241816,-0.0301670132425,0.00267330129327,1.0,0.0,0.0293825335664
1385574320759746995,0.0453426340171,-0.0352961344362,0.0025083882228,1.0,0.0,0.0291335888358
1385574320859824710,0.0400516795878,-0.0405617930801,0.00234047962672,1.0,0.0,0.0288485185243
1385574320959764892,0.0333780789129,-0.0460401894037,0.00224854342436,1.0,0.0,0.0285964969362
1385574321060725656,0.0253813802494,-0.0513167908104,0.00220812973033,1.0,0.0,0.0283264777132
1385574321160697203,0.0161784242782,-0.056339843575,0.00209487202056,1.0,0.0,0.027935421052
1385574321259748756,0.00658425918806,-0.0608455747049,0.00209517021008,1.0,0.0,0.0276322906431
1385574321361724837,-0.00363552923161,-0.0646207862698,0.0020736961281,1.0,0.0,0.0272312505432
1385574321460751527,-0.0136097590104,-0.0673503061357,0.00210961146665,1.0,0.0,0.0268170750397
1385574321559985042,-0.0232701238562,-0.06894041317,0.00202359180495,1.0,0.0,0.026344174156
1385574321660125750,-0.0316105155034,-0.0691748381098,0.00215914646183,1.0,0.0,0.0259430266258
1385574321760779134,-0.0391754418837,-0.068029797811,0.00224980001374,1.0,0.0,0.0254581344833
1385574321859846554,-0.0450386393349,-0.0656019245722,0.00262753193399,1.0,0.0,0.0249901756058
1385574321959743064,-0.0497936567078,-0.0620608808982,0.00276701245667,1.0,0.0,0.0243739895579
1385574322060859040,-0.0524239482738,-0.0574186298899,0.00323608578366,1.0,0.0,0.023765380689
1385574322160262003,-0.0533371087614,-0.0518093943789,0.00374836866276,1.0,0.0,0.0231487164536
1385574322261086094,-0.0524035760003,-0.0453432543702,0.0042777961884,1.0,0.0,0.022535211119
1385574322360476403,-0.0498763380697,-0.0383325915263,0.0047251092268,1.0,0.0,0.0218832747328
1385574322460369234,-0.045466002403,-0.0308728217685,0.00503842427527,1.0,0.0,0.0213051285494
1385574322560254900,-0.0398146565934,-0.0230316325865,0.00576115121547,1.0,0.0,0.0207052213524
1385574322660463116,-0.0326213381883,-0.0151617155285,0.00627333566069,1.0,0.0,0.0201782701879
1385574322760154884,-0.0248882530352,-0.00746600160632,0.00658325403205,1.0,0.0,0.0195321807267
1385574322861414005,-0.0158541021231,-0.000302045864188,0.00682136360901,1.0,0.0,0.0189645204184
1385574322960262912,-0.00653495779332,0.00622130416371,0.00710971295632,1.0,0.0,0.0183722353115
1385574323061054595,0.00297247209938,0.011704794576,0.00725498747212,1.0,0.0,0.0177573093806
1385574323160086283,0.0126403021897,0.015495797737,0.00741148792392,1.0,0.0,0.0172770670211
1385574323260070038,0.0218959553668,0.0189629531778,0.00745242425774,1.0,0.0,0.0167762278664
1385574323360748142,0.0304741500766,0.020476812651,0.00741676845352,1.0,0.0,0.0163755828511
1385574323460778757,0.03803848878,0.0206752870253,0.00721963355601,1.0,0.0,0.016054712022
1385574323560725415,0.0441780118668,0.0194944170736,0.00692233529056,1.0,0.0,0.0157599058025
1385574323660614573,0.0489837552584,0.0168498375364,0.00617859077064,1.0,0.0,0.0155368175786
1385574323760635144,0.0519466406052,0.0128752842971,0.00543242322855,1.0,0.0,0.0153185155972
1385574323862725821,0.053361071431,0.00750302301165,0.00465243930508,1.0,0.0,0.0152050832146
1385574323960615573,0.0527104580956,0.000875501136829,0.00379911566715,1.0,0.0,0.015020884494
1385574324060785652,0.0507887021155,-0.00689934566996,0.00299810604325,1.0,0.0,0.0149729839316
1385574324159840644,0.0472070284111,-0.0155021177139,0.00223173708804,1.0,0.0,0.0149847800415
1385574324261870216,0.0419404085083,-0.0247443971004,0.00142170591898,1.0,0.0,0.0149612205041
1385574324360675118,0.035538649048,-0.0342646189652,0.000772267646358,1.0,0.0,0.0149822819126
1385574324460073851,0.0278387434055,-0.0438073672911,4.06127433588e-05,1.0,0.0,0.0150190883562
1385574324560789292,0.0188910857475,-0.0530126997036,-0.000421282537704,1.0,0.0,0.014986781288
1385574324660672069,0.0093988258569,-0.0616801503137,-0.000564966719734,1.0,0.0,0.0149333970792
1385574324760638269,-0.00047511476344,-0.0693023470215,-0.000579462555267,1.0,0.0,0.0148210647994
1385574324860766067,-0.0102940807319,-0.0754323303987,-0.000312479104442,1.0,0.0,0.0146648962149
1385574324960713018,-0.0197749319354,-0.0797645616214,-6.62031311788e-05,1.0,0.0,0.0144255845363
1385574325060652274,-0.0287048468728,-0.0821181494381,0.000225845309361,1.0,0.0,0.0141076208524
1385574325160801793,-0.0366864585229,-0.0821112897129,0.000476232161945,1.0,0.0,0.0137257472145
1385574325261797864,-0.0434228012991,-0.0798915278988,0.000769740540311,1.0,0.0,0.0133200653249
1385574325361687032,-0.0488136793032,-0.0753411901483,0.00131370571607,1.0,0.0,0.012917514161
1385574325460683812,-0.0528284265595,-0.0688624455679,0.00193051982445,1.0,0.0,0.0124564604527
1385574325561788542,-0.054688036345,-0.060615946743,0.00262006859813,1.0,0.0,0.0121357230837
1385574325660866364,-0.055391165081,-0.0506726296009,0.00349662793549,1.0,0.0,0.0117402637271
1385574325760690132,-0.0542578032632,-0.0396218431297,0.00442104070275,1.0,0.0,0.0113542339385
1385574325860963099,-0.0512701677572,-0.027564403713,0.00566104828779,1.0,0.0,0.0110198921462
1385574325960717644,-0.0467150146664,-0.0150450666636,0.00697322029253,1.0,0.0,0.0107165888054
1385574326060910412,-0.0402857571237,-0.00224379538594,0.00824405608628,1.0,0.0,0.0104816283542
1385574326160718608,-0.0324082319456,0.0102340489208,0.00919089444035,1.0,0.0,0.0103428681654
1385574326261769601,-0.0232049262605,0.0221012231453,0.0102438675062,1.0,0.0,0.0102737790038
1385574326360679650,-0.0127830600975,0.0330073679009,0.0110850264266,1.0,0.0,0.010325675709
1385574326461739259,-0.00156971603403,0.0426082762411,0.0119233898629,1.0,0.0,0.010490139929
1385574326560659607,0.00996568705097,0.0505663624723,0.0122261970536,1.0,0.0,0.0107421022745
1385574326660690371,0.0218283905201,0.0568288613621,0.0125239749456,1.0,0.0,0.0111562686179
1385574326761701018,0.0335123284255,0.0609457079767,0.0124943832528,1.0,0.0,0.0117567890682
1385574326861859510,0.0442231725073,0.0628758443844,0.0121424522111,1.0,0.0,0.0124450938959
1385574326961796747,0.0540067838509,0.0623519349047,0.0113985478849,1.0,0.0,0.0133020126856
1385574327060748559,0.061947312043,0.0594398189707,0.0105120851228,1.0,0.0,0.0142073278313
1385574327161836118,0.0682843130538,0.0537933925742,0.00933808598214,1.0,0.0,0.0152618464133
1385574327260885067,0.0725534179296,0.045632804511,0.00802912282492,1.0,0.0,0.0164706335447
1385574327361562347,0.0746171911223,0.0350363569269,0.00655240823679,1.0,0.0,0.0177811918482
1385574327461743839,0.0741882893393,0.0222907204071,0.00507004517902,1.0,0.0,0.0191628865602
1385574327560393912,0.0716559292376,0.00756700782202,0.00352756262845,1.0,0.0,0.0205712525344
1385574327660396530,0.0670518565655,-0.00839116967458,0.00210982866735,1.0,0.0,0.0219701840022
1385574327760377552,0.0604082513826,-0.0251679159591,0.000601244348331,1.0,0.0,0.0233136529529
1385574327861336419,0.0521805883415,-0.0423314938392,-0.000728216165243,1.0,0.0,0.0245564693187
1385574327961461687,0.0426814096225,-0.0589438629279,-0.00178976847786,1.0,0.0,0.0257731740407
1385574328060389572,0.0316458441273,-0.0748275106759,-0.00263831037367,1.0,0.0,0.0267683207837
1385574328161426316,0.0198026746482,-0.0890312886746,-0.00339902073581,1.0,0.0,0.0277010028779
1385574328261537371,0.00671198922,-0.101460755457,-0.00399673560474,1.0,0.0,0.0283600919415
1385574328360393778,-0.00657284311325,-0.111317723273,-0.00410453671602,1.0,0.0,0.0289071570801
1385574328460329484,-0.0204404156819,-0.118174956927,-0.00394797048898,1.0,0.0,0.0291868138738
1385574328560344574,-0.0339901530448,-0.121350054082,-0.00372914830161,1.0,0.0,0.0293120759857
1385574328660442333,-0.0470119091457,-0.121079281056,-0.00272992740368,1.0,0.0,0.0292806942812
1385574328760578522,-0.0586018786211,-0.116704401898,-0.00140851740824,1.0,0.0,0.0291986584898
1385574328860320811,-0.0688745016247,-0.10847901387,0.000253989641187,1.0,0.0,0.0289746574632
1385574328960689889,-0.0768731375908,-0.0962433007711,0.00221495370648,1.0,0.0,0.0287541967281
1385574329060630451,-0.0826835100685,-0.0804789820201,0.00422841736099,1.0,0.0,0.0284490971518
1385574329160536910,-0.0854003431896,-0.0613341515237,0.00625032263584,1.0,0.0,0.0282180936865
1385574329260449505,-0.0855665840061,-0.0394707944659,0.00821317900164,1.0,0.0,0.0279525504262
1385574329360410326,-0.0826749453694,-0.0156931716064,0.0100397084103,1.0,0.0,0.0276986060401
1385574329460409017,-0.0769095456695,0.00957801589704,0.0119876704224,1.0,0.0,0.0274427377452
1385574329560726018,-0.0682364782009,0.0351314827686,0.0137572490094,1.0,0.0,0.0272432021093
1385574329660843759,-0.0570707013231,0.0603114678909,0.0154132365197,1.0,0.0,0.0270757728406
1385574329759891202,-0.0434532892602,0.0840413207954,0.0167859760983,1.0,0.0,0.0270071027073
1385574329860769445,-0.027931281474,0.105369516006,0.0178633846869,1.0,0.0,0.0270105504636
1385574329960809871,-0.0110304954395,0.123524014212,0.0187752267024,1.0,0.0,0.0270898435386
1385574330060835588,0.00663993882081,0.13774565492,0.0192200048665,1.0,0.0,0.0272432134911
1385574330160868412,0.0246502253673,0.147669056148,0.0193647086496,1.0,0.0,0.0275456615304
1385574330260805021,0.0421257434684,0.152748944565,0.0190146431148,1.0,0.0,0.0280136435563
1385574330360903519,0.0581420983853,0.15284099293,0.0181800503997,1.0,0.0,0.0286033252531
1385574330460083257,0.0723365541877,0.14769333105,0.0171088380636,1.0,0.0,0.0294552882223
1385574330560815095,0.0839259016217,0.137551126212,0.0158970437203,1.0,0.0,0.0305919657777
1385574330660814155,0.092396750782,0.12237688926,0.0146886838405,1.0,0.0,0.0320239554749
1385574330759802954,0.0974663002044,0.10288514855,0.0134770335338,1.0,0.0,0.033662383982
1385574330860773610,0.0989506964599,0.0793004399936,0.0122386540921,1.0,0.0,0.0355146881332
1385574330960877342,0.0970805307335,0.0526076555874,0.0110082991442,1.0,0.0,0.0375378781499
1385574331060956706,0.0920361918512,0.0234683801025,0.0096826299014,1.0,0.0,0.03951104331
1385574331160742453,0.0839416562356,-0.0071787247599,0.00829498744487,1.0,0.0,0.0415848070682
1385574331260848913,0.0735547902474,-0.0383145220029,0.00683832880214,1.0,0.0,0.0436631976156
1385574331359911452,0.0609724508163,-0.069089677619,0.00520993094861,1.0,0.0,0.0455720452511
1385574331460907162,0.0469583957693,-0.0983186105433,0.00339132802718,1.0,0.0,0.0473976793508
1385574331559846962,0.0315763483046,-0.12526218182,0.00162010095644,1.0,0.0,0.0490128615298
1385574331659894184,0.0153837375864,-0.148891709003,-8.48602596352e-05,1.0,0.0,0.0504528496417
1385574331760799940,-0.0014015531613,-0.168212207732,-0.00159507471912,1.0,0.0,0.0517745702763
1385574331859853749,-0.0186797806858,-0.182678337228,-0.00292891028109,1.0,0.0,0.0526918416568
1385574331959763451,-0.0361955277885,-0.191363347318,-0.00401781342014,1.0,0.0,0.0532450818499
1385574332059998936,-0.0538284965625,-0.193395003412,-0.00481820106679,1.0,0.0,0.0534272315325
1385574332160818556,-0.0707884188879,-0.188422249021,-0.0053591578304,1.0,0.0,0.0533769715557
1385574332259821021,-0.0866927436073,-0.176314873021,-0.00541867080647,1.0,0.0,0.0531744208347
1385574332360168816,-0.100796091256,-0.157620402548,-0.00480870348769,1.0,0.0,0.0527544245829
1385574332460752428,-0.112351384862,-0.132445321646,-0.00371046598997,1.0,0.0,0.0522289692822
1385574332560803233,-0.120760611408,-0.10176544063,-0.00185272909123,1.0,0.0,0.0515524253162
1385574332660849751,-0.125460961889,-0.0664976235108,0.00041482889867,1.0,0.0,0.0507186657371
1385574332760911042,-0.126071086274,-0.0278044765378,0.00257365989583,1.0,0.0,0.0497263829985
1385574332860819619,-0.122552249547,0.0128230328538,0.0046039157843,1.0,0.0,0.0485126053911
1385574332960248114,-0.114790874887,0.0543247532463,0.00674026376605,1.0,0.0,0.0471062425241
1385574333060976333,-0.10271147368,0.0947451449641,0.00843133481957,1.0,0.0,0.045597955368
1385574333160230499,-0.0869923087489,0.132966524181,0.00963565816726,1.0,0.0,0.043908215193
1385574333259817575,-0.0679021949616,0.167401966888,0.0103570531593,1.0,0.0,0.0421712066537
1385574333359949674,-0.0461560723095,0.196930578774,0.0105590701908,1.0,0.0,0.0404431386346
1385574333459851356,-0.0224245734766,0.220507901173,0.0104740755721,1.0,0.0,0.0387601528201
1385574333559813211,0.00245442770376,0.237605377114,0.010222724127,1.0,0.0,0.0372202562632
1385574333660159172,0.0276434375513,0.247559134074,0.00963958892129,1.0,0.0,0.0357729411225
1385574333759774685,0.0524210519161,0.249867015644,0.0090280083829,1.0,0.0,0.0345439637168
1385574333859763238,0.076032790295,0.244377186797,0.00860060386405,1.0,0.0,0.0336843887115
1385574333960878239,0.0974580166284,0.231259835354,0.00826665872825,1.0,0.0,0.0331698902044
1385574334060748688,0.116031590136,0.210585400479,0.00814185597957,1.0,0.0,0.0329969827509
1385574334160863979,0.130826221566,0.183237764421,0.00828865115771,1.0,0.0,0.0333124587083
1385574334259943151,0.141750534254,0.149480145197,0.0092397047984,1.0,0.0,0.0338502454066
1385574334360740821,0.148134787688,0.110047901425,0.0105081943888,1.0,0.0,0.034728375005
1385574334460815803,0.149963475366,0.0658908380479,0.0117379744552,1.0,0.0,0.0358550179421
1385574334560832394,0.147669977819,0.0184108417904,0.0127569583779,1.0,0.0,0.0371178065112
1385574334660793745,0.140733184637,-0.0317314041216,0.014124392047,1.0,0.0,0.0385549537147
1385574334760008058,0.129293888051,-0.0821647182718,0.015161357379,1.0,0.0,0.0402017201056
1385574334860055520,0.113326983844,-0.131501813299,0.0155866645742,1.0,0.0,0.0420421851784
1385574334961958490,0.0940305805236,-0.177573473842,0.0149990648985,1.0,0.0,0.0437867323189
1385574335059923022,0.0716697584186,-0.219114512967,0.013838585119,1.0,0.0,0.0453573403193
1385574335160155020,0.0469461703388,-0.25411429243,0.01194807177,1.0,0.0,0.0467616887124
1385574335261054798,0.0210549149089,-0.281603398113,0.00943413360821,1.0,0.0,0.0478340835078
1385574335360477112,-0.00547159438488,-0.300798376701,0.0072798492081,1.0,0.0,0.0486855337224
1385574335460456891,-0.0319860401046,-0.310666960664,0.00545450100485,1.0,0.0,0.0491488671453
1385574335561505537,-0.0581513372659,-0.310579730125,0.00431502690384,1.0,0.0,0.0493416504549
1385574335660503718,-0.0832612136313,-0.299761218813,0.00380029107076,1.0,0.0,0.0493477288027
1385574335761834009,-0.106371158657,-0.278262811583,0.00373772659981,1.0,0.0,0.049218209853
1385574335862315873,-0.126061314206,-0.246323456907,0.0042925892612,1.0,0.0,0.0491548903924
1385574335960612428,-0.141794647074,-0.205228317141,0.00550662643594,1.0,0.0,0.0489710082325
1385574336060618813,-0.152375939921,-0.156001529569,0.00748879466478,1.0,0.0,0.0487209550276
1385574336161454691,-0.15753898401,-0.100414570925,0.0101686231077,1.0,0.0,0.0483199396922
1385574336260431286,-0.15745437026,-0.0404529354509,0.0124443387975,1.0,0.0,0.0476312266166
1385574336360554488,-0.151061091302,0.0213429117539,0.0139300100236,1.0,0.0,0.0468448611062
1385574336461465583,-0.139298074546,0.0828364334243,0.0148100027694,1.0,0.0,0.0458669039677
1385574336562454323,-0.122455059445,0.141602046235,0.0151012969879,1.0,0.0,0.0446782947238
1385574336660425439,-0.101396137459,0.195512435119,0.0147405582246,1.0,0.0,0.0432216175474
1385574336760469938,-0.0764086596658,0.24232690866,0.0134549249862,1.0,0.0,0.0416533607832
1385574336860405054,-0.0489314063118,0.280801731623,0.0115496892545,1.0,0.0,0.0399371832958
1385574336960472447,-0.0198537286425,0.309785190857,0.00901701546143,1.0,0.0,0.0380024510305
1385574337061408081,0.0100250225231,0.328446913522,0.00626737733246,1.0,0.0,0.0359013689299
1385574337160462249,0.0398808705736,0.336403324505,0.00346765853039,1.0,0.0,0.03379984624
1385574337260385978,0.0684809798462,0.333580532807,0.00105046449578,1.0,0.0,0.031698156523
1385574337360469456,0.0952190987738,0.320099171354,-0.000768795707105,1.0,0.0,0.0299196141621
1385574337460507487,0.118661718753,0.296392106355,-0.00179625015834,1.0,0.0,0.0286878596865
1385574337560454551,0.137752553891,0.263517511583,-0.00178400266498,1.0,0.0,0.0281510798516
1385574337660773710,0.151648383025,0.222365815973,-0.000686369603947,1.0,0.0,0.0282626510437
1385574337760596706,0.159684462196,0.173781009629,0.00163441004653,1.0,0.0,0.0290386945
1385574337860661196,0.1626312518,0.119127872332,0.00455443772091,1.0,0.0,0.0302228653182
1385574337960445009,0.160276628281,0.0594823373808,0.0081729623834,1.0,0.0,0.0317758378656
1385574338060511055,0.152706235034,-0.00342483097836,0.0115661704284,1.0,0.0,0.0336997199236
1385574338160447574,0.140196211847,-0.0677782538852,0.014697921459,1.0,0.0,0.0359360937276
1385574338260462478,0.12300885603,-0.130800947178,0.0166322217441,1.0,0.0,0.0384219026381
1385574338360469721,0.10198192467,-0.190601508034,0.0172756102347,1.0,0.0,0.0409686283097
1385574338461633493,0.0781505627628,-0.24467036903,0.0160235004529,1.0,0.0,0.0433508452866
1385574338560648436,0.052530297035,-0.291450599811,0.0137660392656,1.0,0.0,0.0454343203662
1385574338660379620,0.025776967926,-0.32934444423,0.0104320643093,1.0,0.0,0.0472182731716
1385574338760478551,-0.000926163219565,-0.357230578652,0.00710954451877,1.0,0.0,0.0486017565624
1385574338860588996,-0.0274520762567,-0.373914739097,0.00375919029695,1.0,0.0,0.0495178741171
1385574338960473185,-0.0535465795525,-0.378520061421,0.00108107728223,1.0,0.0,0.0499820557187
1385574339060420396,-0.0785785395336,-0.370139790292,-0.0010385978101,1.0,0.0,0.0501097921843
1385574339160409304,-0.101799950988,-0.349029931027,-0.00204311831716,1.0,0.0,0.0499061234112
1385574339260473845,-0.122129297296,-0.315558146116,-0.00172281498108,1.0,0.0,0.0494115983384
1385574339360475626,-0.138193987453,-0.270375280735,-4.72262858928e-05,1.0,0.0,0.0487938677235
1385574339460463066,-0.149459961976,-0.214923931638,0.00267588262409,1.0,0.0,0.0480714529668
1385574339560421777,-0.155256003404,-0.151220641983,0.00623698746644,1.0,0.0,0.0473069928447
1385574339661461374,-0.155282003978,-0.081196067741,0.0100712666828,1.0,0.0,0.0465262158375
1385574339760609337,-0.149528168021,-0.00785321243304,0.0137666420463,1.0,0.0,0.0457382336583
1385574339861579095,-0.138586917136,0.06636309191,0.0163822506422,1.0,0.0,0.0448814643954
1385574339961588141,-0.122984247898,0.13806615685,0.017291851665,1.0,0.0,0.0439341376683
1385574340060607376,-0.103333787063,0.204990342393,0.0170548165763,1.0,0.0,0.0428651423787
1385574340160469613,-0.0803623528654,0.264370093082,0.0153606635185,1.0,0.0,0.0416784396262
1385574340260428226,-0.0553065495087,0.314689965964,0.0130252951183,1.0,0.0,0.040232025208
1385574340360407861,-0.0283181419914,0.353719973153,0.00975522258258,1.0,0.0,0.0386515878872
1385574340460429202,-0.000304771321386,0.380795142861,0.00602408658836,1.0,0.0,0.0370080074214
1385574340560436450,0.0278334181021,0.395339448589,0.00201713195858,1.0,0.0,0.0352163578503
1385574340660534353,0.0555259917459,0.397502782201,-0.00219387039563,1.0,0.0,0.033244078239
1385574340760415149,0.0817703656248,0.387373942405,-0.00570862145861,1.0,0.0,0.0312622651175
1385574340860490867,0.105502029911,0.365514062894,-0.0080619892846,1.0,0.0,0.0295050282013
1385574340960557833,0.125697376267,0.332629007275,-0.00882795905435,1.0,0.0,0.0282517703635
1385574341060583835,0.141155981189,0.289792059287,-0.00793514952998,1.0,0.0,0.0277416774999
1385574341161546413,0.150613308785,0.237769701426,-0.00518086979141,1.0,0.0,0.0280003310491
1385574341260790759,0.154011834779,0.177858167904,-0.000156778829398,1.0,0.0,0.0288716223302
1385574341360652750,0.152409690193,0.111010431304,0.00588922795463,1.0,0.0,0.0300381357001
1385574341460511943,0.145398681566,0.0390748149471,0.0116518146858,1.0,0.0,0.0315534833166
1385574341561095513,0.133167651089,-0.0356364979468,0.0167460356271,1.0,0.0,0.0334437173547
1385574341660449408,0.116274438044,-0.10978115384,0.0202379527567,1.0,0.0,0.0356413724278
1385574341760769702,0.0953605727089,-0.180413584879,0.0217659247159,1.0,0.0,0.0380199625104
1385574341860595185,0.0711759203588,-0.244648927072,0.0209793184311,1.0,0.0,0.0404126609544
1385574341960835128,0.0449947937563,-0.300508256934,0.0184562881549,1.0,0.0,0.0426806555204
1385574342060985816,0.0175956108459,-0.346083994798,0.01543722317,1.0,0.0,0.0447215186977
1385574342160844298,-0.00982743646924,-0.37977489825,0.0114507233697,1.0,0.0,0.0464292991635
1385574342260634363,-0.0364899395727,-0.400639317989,0.00705653459045,1.0,0.0,0.0476747760194
1385574342362596769,-0.0621681352386,-0.408208251412,0.00259429369061,1.0,0.0,0.0483825202134
1385574342460598255,-0.0856306957264,-0.396196026555,-0.00116273215558,1.0,0.0,0.0487219724677
1385574342560617075,-0.108965883203,-0.38190664813,-0.00431838134918,1.0,0.0,0.0485321722526
1385574342661603003,-0.127663683257,-0.346509938983,-0.00567960783971,1.0,0.0,0.0480959940987
1385574342760541518,-0.142275262095,-0.300996595731,-0.00518262100609,1.0,0.0,0.0474996575819
1385574342860724679,-0.151751098363,-0.243100212189,-0.0027601505814,1.0,0.0,0.0467070218774
1385574342961135643,-0.155746418492,-0.175712351341,0.000744363863075,1.0,0.0,0.0457828574437
1385574343060603238,-0.153895822784,-0.100514191888,0.00475881567828,1.0,0.0,0.0448783597703
1385574343160597799,-0.146612213148,-0.020671197689,0.00843255469535,1.0,0.0,0.0440001252745
1385574343261531552,-0.134091169788,0.0609358139256,0.0108122933544,1.0,0.0,0.0431127652654
1385574343361605188,-0.116645235495,0.140746010331,0.0118909506734,1.0,0.0,0.042275510852
1385574343461644466,-0.0956718741409,0.215634541581,0.0113012520078,1.0,0.0,0.0412566015981
1385574343560824357,-0.0710010707449,0.282682379316,0.00968538704896,1.0,0.0,0.04014736946
1385574343660648534,-0.0443565537327,0.339391823754,0.00704551829919,1.0,0.0,0.0388250911288
1385574343761628322,-0.0158464637866,0.383610398684,0.00399938262729,1.0,0.0,0.0374536741529
1385574343860628806,0.0128970553011,0.414352493224,0.000398876419603,1.0,0.0,0.0358231040609
1385574343960776943,0.0416533791815,0.430554643539,-0.00338513190146,1.0,0.0,0.0342175465176
1385574344061631399,0.0692855324342,0.4328027451,-0.00721557926432,1.0,0.0,0.0326273467441
1385574344160205906,0.0950947198195,0.421153740366,-0.0104553257264,1.0,0.0,0.0310809943645
1385574344260696173,0.116309466634,0.39049852658,-0.0126626626451,1.0,0.0,0.0297374007232
1385574344360786404,0.1361156661,0.359885133847,-0.0129230691984,1.0,0.0,0.0286458804632
1385574344460634833,0.148423304869,0.309901107918,-0.0112530025349,1.0,0.0,0.0281988814297
1385574344560574333,0.154990289522,0.252923400008,-0.00737971573815,1.0,0.0,0.028623748379
1385574344660568254,0.154628687298,0.186357381051,-0.00210531727183,1.0,0.0,0.0298552991368
1385574344760559634,0.148898650971,0.113590326374,0.00495828691615,1.0,0.0,0.0315550412913
1385574344860844434,0.137264620195,0.036092209108,0.012069618668,1.0,0.0,0.0337173491329
1385574344960634613,0.121385138293,-0.042470645479,0.0179214730934,1.0,0.0,0.0361587308006
1385574345060793652,0.100625293111,-0.118966653777,0.021424835904,1.0,0.0,0.0389063173057
1385574345160807061,0.0758142711628,-0.19047125356,0.0230977672478,1.0,0.0,0.0419123013502
1385574345260711475,0.0499707351403,-0.253994523528,0.0221401417925,1.0,0.0,0.044619578455
1385574345361626940,0.0220733515103,-0.307964969421,0.0200880137147,1.0,0.0,0.0471846395426
1385574345461636473,-0.00654047911154,-0.350079678243,0.0171832688049,1.0,0.0,0.0496316456533
1385574345560646425,-0.03396116353,-0.379325207735,0.0132479880223,1.0,0.0,0.051827643793
1385574345660709014,-0.0592013631504,-0.395281720006,0.00828139219917,1.0,0.0,0.0536633201432
1385574345760562179,-0.0821830420439,-0.398284547244,0.00302838441814,1.0,0.0,0.0550197556589
1385574345860628656,-0.102707260419,-0.387998678595,-0.00192132642314,1.0,0.0,0.0558194092341
1385574345960597395,-0.120812000465,-0.364588873177,-0.00600678146323,1.0,0.0,0.056035868429
1385574346061630660,-0.135456261147,-0.32866833423,-0.00873527943086,1.0,0.0,0.0559179884668
1385574346160588305,-0.146194830547,-0.280967577328,-0.00982784304584,1.0,0.0,0.0554302829998
1385574346260646757,-0.15217394876,-0.222563352853,-0.00931174649795,1.0,0.0,0.0547866125444
1385574346360670515,-0.152856857097,-0.155259436691,-0.00735531001657,1.0,0.0,0.0539696866694
1385574346460674016,-0.148110039586,-0.0809272163627,-0.00456305637358,1.0,0.0,0.0530556317917
1385574346560597001,-0.137888622793,-0.00218551741732,-0.0018657868556,1.0,0.0,0.0520881343397
1385574346660602910,-0.122517532756,0.0775526885971,0.000183838383019,1.0,0.0,0.0511414018473
1385574346761640569,-0.102908730287,0.155440610581,0.000789107711559,1.0,0.0,0.0499932659637
1385574346860983947,-0.0794064611752,0.228010775158,0.00012509964509,1.0,0.0,0.0486990414718
1385574346961602479,-0.0534080127195,0.29278273497,-0.0015227903701,1.0,0.0,0.0471102053569
1385574347060622812,-0.0254874164308,0.347185309919,-0.00415121772112,1.0,0.0,0.0452773444193
1385574347160602876,0.00326557037301,0.389384323456,-0.00711159772242,1.0,0.0,0.043261802164
1385574347260681019,0.0319133127669,0.417991638108,-0.0103220911168,1.0,0.0,0.0411199238949
1385574347360587156,0.0597286580793,0.43249302537,-0.0136246891145,1.0,0.0,0.0389722566546
1385574347461184623,0.086047210326,0.4332409432,-0.0166458459764,1.0,0.0,0.0367591255855
1385574347561280769,0.109677564966,0.420384170086,-0.0189098299174,1.0,0.0,0.0346830358933
1385574347660789781,0.129955480445,0.395257174182,-0.0194569695459,1.0,0.0,0.03283113677
1385574347761167520,0.14585326258,0.358160620263,-0.01809679199,1.0,0.0,0.0313288446048
1385574347860869490,0.156913098363,0.310367888376,-0.0150861024848,1.0,0.0,0.0302994171084
1385574347960975203,0.16210298088,0.252752535786,-0.00929151425858,1.0,0.0,0.029800566562
1385574348060951531,0.162063232057,0.186558658127,-0.00154464208098,1.0,0.0,0.0297559426691
1385574348161238279,0.157975327773,0.113038468206,0.00778684838913,1.0,0.0,0.0299647231776
1385574348260439157,0.148354411302,0.0351949909978,0.0158459929291,1.0,0.0,0.0305650714434
1385574348360419464,0.135123622346,-0.044451149754,0.0231403736133,1.0,0.0,0.03138782652
1385574348461328286,0.116579052092,-0.122325835268,0.0289253608514,1.0,0.0,0.0325644439398
1385574348561464771,0.0952096738344,-0.195621552094,0.0330341841726,1.0,0.0,0.0337641969132
1385574348660432777,0.0690085659135,-0.259830204228,0.0340013053476,1.0,0.0,0.0351796271022
1385574348760335008,0.0409372205363,-0.314262977788,0.0329965363876,1.0,0.0,0.0365567268534
1385574348860377376,0.0112189007341,-0.356485518653,0.0304816258519,1.0,0.0,0.0378969024595
1385574348962327326,-0.0184402638768,-0.386289170514,0.027149260064,1.0,0.0,0.0391426297564
1385574349062411278,-0.0470717857236,-0.402477601431,0.0231738321107,1.0,0.0,0.0403182129041
1385574349161320309,-0.0732351498019,-0.405294946351,0.0177846929069,1.0,0.0,0.041339880148
1385574349260344759,-0.0964307355513,-0.395230648735,0.01235969531,1.0,0.0,0.0421192103274
1385574349360323648,-0.11620219226,-0.372870342832,0.00759760053415,1.0,0.0,0.0426042975311
1385574349461511217,-0.132391591246,-0.337823181202,0.00389220096623,1.0,0.0,0.0428774652197
1385574349561435829,-0.14412678848,-0.29119272094,0.00153225587331,1.0,0.0,0.0430246743709
1385574349660569939,-0.150790142633,-0.233478374203,0.000659581028172,1.0,0.0,0.0431208181752
1385574349761371128,-0.151973153909,-0.166098541866,0.00103749548161,1.0,0.0,0.0430463264989
1385574349860357371,-0.147708261219,-0.0908893970744,0.00196544208924,1.0,0.0,0.0429229447241
1385574349960431924,-0.138042495024,-0.010585189888,0.00294201909495,1.0,0.0,0.0428332944955
1385574350060457954,-0.123451466403,0.0717833597941,0.00297569759361,1.0,0.0,0.0427898740787
1385574350160427575,-0.104636853609,0.152903290382,0.00188601813864,1.0,0.0,0.0425527415624
1385574350260418939,-0.081678972778,0.229111345616,-0.000141064844018,1.0,0.0,0.0423671642446
1385574350360366798,-0.0559534397365,0.297518247814,-0.00274939451505,1.0,0.0,0.0418260038312
1385574350460346407,-0.0278930865326,0.355209605744,-0.00591277100986,1.0,0.0,0.0410024042386
1385574350560558927,0.00137134682934,0.400229618195,-0.0094070840849,1.0,0.0,0.040013595795
1385574350660491516,0.030660233587,0.431469805955,-0.0130773406023,1.0,0.0,0.0387606614725
1385574350760560719,0.059107381911,0.448424443967,-0.0167560056293,1.0,0.0,0.0374301713641
1385574350861370719,0.0856688338406,0.451219486467,-0.0198769352853,1.0,0.0,0.036081127026
1385574350961393832,0.109176942852,0.439968615211,-0.0219875647218,1.0,0.0,0.0348773739584
1385574351061305334,0.128038966485,0.415127320072,-0.0221586252377,1.0,0.0,0.0342083685364
1385574351160362201,0.142835819147,0.377582470091,-0.0206356898739,1.0,0.0,0.0339429143854
1385574351260377256,0.152635541758,0.328251040468,-0.0165664520246,1.0,0.0,0.0340125548963
1385574351360685097,0.157946707408,0.267719423784,-0.00965304274177,1.0,0.0,0.0342736729297
1385574351461332940,0.159424520439,0.196836286035,-0.00088673940816,1.0,0.0,0.0346481815721
1385574351560379918,0.155930842573,0.118027698372,0.00795674853501,1.0,0.0,0.0352744742755
1385574351660532777,0.148479856779,0.0340914992938,0.0158185562749,1.0,0.0,0.0360004148692
1385574351760411374,0.137963826662,-0.051119627482,0.0214751053414,1.0,0.0,0.0366753247204
1385574351860394598,0.124230238177,-0.134485395902,0.0247440481761,1.0,0.0,0.0371245209785
1385574351960476995,0.104075308829,-0.212560478953,0.0279746115997,1.0,0.0,0.0379603853002
1385574352060576322,0.082197617933,-0.281942060687,0.0285243236238,1.0,0.0,0.0385604575032
1385574352161455796,0.0560139733364,-0.339315765977,0.0268092022403,1.0,0.0,0.0392222881156
1385574352260322438,0.028639664862,-0.384093945954,0.0241379076496,1.0,0.0,0.0396295427229
1385574352360340019,-0.00066389133451,-0.413921010294,0.0204413185424,1.0,0.0,0.0400037436034
1385574352460295536,-0.0292477668536,-0.429558101956,0.016438450098,1.0,0.0,0.0401341865766
1385574352560387531,-0.0567251530849,-0.430650222924,0.011876674514,1.0,0.0,0.040013496546
1385574352660546100,-0.0824617497909,-0.418236561473,0.00711267535132,1.0,0.0,0.0395157986888
1385574352760503348,-0.106564064478,-0.391973665039,0.00273172420275,1.0,0.0,0.0387778244324
1385574352860323950,-0.128078053667,-0.352354026149,-0.000630449274483,1.0,0.0,0.0379850974323
1385574352960618568,-0.145726221809,-0.300645575889,-0.00250004246418,1.0,0.0,0.0372927725167
1385574353061302299,-0.158445923964,-0.238067001708,-0.00244484866794,1.0,0.0,0.0366390778867
1385574353161511341,-0.165406109185,-0.165925091882,-0.000956014761885,1.0,0.0,0.0361671503785
1385574353260326742,-0.166591715899,-0.0861062137894,0.0014145140567,1.0,0.0,0.0357890649922
1385574353360425334,-0.161747389653,-0.00165480735597,0.00351825201016,1.0,0.0,0.0355785791665
1385574353460475375,-0.151134877725,0.0843914019426,0.00437959437275,1.0,0.0,0.0355388754277
1385574353560610320,-0.135356937751,0.16836623641,0.00358925209191,1.0,0.0,0.0354944318509
1385574353660544295,-0.11473453632,0.246908899964,0.00183102992379,1.0,0.0,0.0355140937285
1385574353760474852,-0.0905647416606,0.316907094223,-0.000846374811063,1.0,0.0,0.0353687165609
1385574353860442129,-0.0630396422834,0.375208104449,-0.00410638325697,1.0,0.0,0.0351457736162
1385574353960745927,-0.0335218356093,0.419818282765,-0.00766711471322,1.0,0.0,0.0347094192594
1385574354060668123,-0.00260687567942,0.449042663706,-0.0112594118237,1.0,0.0,0.0340671071361
1385574354160428735,0.0286475529431,0.462561592118,-0.0149441034759,1.0,0.0,0.0332441639172
1385574354260735606,0.0589597467202,0.461007236093,-0.0181979895884,1.0,0.0,0.0324235115371
1385574354360456039,0.0872501730462,0.445460377812,-0.0204270611998,1.0,0.0,0.0316681123309
1385574354460493876,0.111222472531,0.416405397186,-0.020786222317,1.0,0.0,0.0315255431027
1385574354560485885,0.131237112017,0.374982228408,-0.019386315511,1.0,0.0,0.0317650414407
1385574354660629988,0.144325726175,0.317125743884,-0.015506612059,1.0,0.0,0.0322535011532
1385574354760686096,0.156188060742,0.259178909702,-0.00811111241247,1.0,0.0,0.03286735307
1385574354860720170,0.16092780369,0.184430470136,0.000545700171397,1.0,0.0,0.0335348137908
1385574354960625121,0.161362848521,0.104717248112,0.00938856310193,1.0,0.0,0.0343159852454
1385574355060876452,0.156707519587,0.0196320633977,0.0172021188382,1.0,0.0,0.0351599466302
1385574355160925971,0.146217560816,-0.0654510884768,0.0229091824578,1.0,0.0,0.0362598040151
1385574355260980082,0.132198913804,-0.148217128635,0.0264930188084,1.0,0.0,0.0372648992831
1385574355360902299,0.112655463269,-0.224132949235,0.0274407028218,1.0,0.0,0.0383506190666
1385574355460823333,0.0903046886231,-0.291306448825,0.026502261184,1.0,0.0,0.0392286840313
1385574355560876324,0.0647712082909,-0.34669671315,0.0240857114053,1.0,0.0,0.0398738820246
1385574355660862038,0.036739971412,-0.388884353743,0.0209764491519,1.0,0.0,0.0403577512641
1385574355760868178,0.00756023840141,-0.416497400088,0.0170861387284,1.0,0.0,0.0406922878243
1385574355859968409,-0.0214600713037,-0.429217467478,0.0126111923391,1.0,0.0,0.0407313041355
1385574355960762318,-0.0505140165687,-0.427158668331,0.00787353025746,1.0,0.0,0.0404561428542
1385574356059898200,-0.0779883484837,-0.404558627269,0.00350498710428,1.0,0.0,0.0398402231337
1385574356159839798,-0.104913428592,-0.374460993752,-0.000752964090426,1.0,0.0,0.0388394591953
1385574356261879823,-0.131311506582,-0.334611737904,-0.0039841028336,1.0,0.0,0.0376504467995
1385574356360993444,-0.152124349059,-0.277841762737,-0.00595851178576,1.0,0.0,0.0364766680243
1385574356461967991,-0.16811579381,-0.212376067908,-0.00636708998545,1.0,0.0,0.0353360927024
1385574356559837649,-0.177925141309,-0.137912340979,-0.00551980231142,1.0,0.0,0.0342566753638
1385574356660879477,-0.181684584332,-0.0575220765939,-0.00421079384764,1.0,0.0,0.0332457026401
1385574356759863975,-0.179081878863,0.0264208346087,-0.00310878675953,1.0,0.0,0.0324108176177
1385574356860859608,-0.170219943385,0.110362316112,-0.00321829248348,1.0,0.0,0.0318351424223
1385574356959883712,-0.155891804264,0.191227769793,-0.00452279340308,1.0,0.0,0.0313624838301
1385574357060044566,-0.136561480992,0.265532667128,-0.00662940530542,1.0,0.0,0.0309116635901
1385574357159717434,-0.112946708208,0.329990948293,-0.00901783484959,1.0,0.0,0.0305304379625
1385574357259879907,-0.0857563940247,0.382153605152,-0.0117002341363,1.0,0.0,0.0301867110903
1385574357360867170,-0.0558450711331,0.420633145631,-0.0146796640154,1.0,0.0,0.0296171387733
1385574357461931377,-0.0244293436284,0.444027614576,-0.0172626745529,1.0,0.0,0.0289664863557
1385574357560813347,0.00775774328349,0.452762651467,-0.0197818617259,1.0,0.0,0.0282782468528
1385574357659882102,0.0397753552571,0.447422988802,-0.0217748809565,1.0,0.0,0.0274917058724
1385574357760907083,0.0706986342498,0.428613723506,-0.0229569465213,1.0,0.0,0.0266638278928
1385574357860737616,0.0981648281859,0.396567646107,-0.0221408279976,1.0,0.0,0.0261639252548
1385574357959999183,0.121820856011,0.352687751876,-0.018847049109,1.0,0.0,0.0261281254296
1385574358060785307,0.139955970716,0.297616291214,-0.0135459415371,1.0,0.0,0.0267198700389
1385574358161776096,0.152907153624,0.23260762455,-0.00592050364351,1.0,0.0,0.0277248250045
1385574358261012969,0.159862678705,0.158439191824,0.00479332010707,1.0,0.0,0.0290248651063
1385574358360003718,0.161467411838,0.0780942594227,0.0141020646806,1.0,0.0,0.0304377363293
1385574358460834468,0.158154979423,-0.00463600102346,0.0210936381405,1.0,0.0,0.0317560404614
1385574358560814233,0.148594724553,-0.0860797082787,0.0247299525757,1.0,0.0,0.033172163675
1385574358660815159,0.135120166107,-0.164155927777,0.0268269942633,1.0,0.0,0.0343365953406
1385574358759789911,0.116334428771,-0.23443399027,0.0263495195448,1.0,0.0,0.0354374972971
1385574358860836973,0.0934122213916,-0.294940995098,0.0240726603803,1.0,0.0,0.0364210718271
1385574358960753329,0.0664288323777,-0.342997822512,0.0211394144035,1.0,0.0,0.0374155538421
1385574359059928886,0.0378895802851,-0.376888986596,0.0177626155119,1.0,0.0,0.0382457033919
1385574359159858623,0.00842721626549,-0.396290594597,0.0140483134182,1.0,0.0,0.0389090175598
1385574359260842993,-0.0208233835412,-0.400963968976,0.00925609768636,1.0,0.0,0.0393120979441
1385574359359781844,-0.0495147892857,-0.391650836343,0.00406623365209,1.0,0.0,0.039331868861
1385574359460777556,-0.0774488928577,-0.36888968192,-0.000880917065155,1.0,0.0,0.0389890031439
1385574359560742919,-0.103901757624,-0.333597213215,-0.00536957940129,1.0,0.0,0.0383556856671
1385574359660881701,-0.126286737113,-0.282164542808,-0.00868095710563,1.0,0.0,0.0376134962552
1385574359760167779,-0.148167306816,-0.230617273512,-0.0107963514117,1.0,0.0,0.0368150060228
1385574359860386729,-0.16279539574,-0.164137813743,-0.0115286161166,1.0,0.0,0.0360107290778
1385574359960120971,-0.17243830411,-0.0926256011611,-0.0112194647296,1.0,0.0,0.0352439377018
1385574360060446349,-0.175793372885,-0.0151626794125,-0.0105716202804,1.0,0.0,0.0346149678512
1385574360160872415,-0.172920818298,0.0643115416631,-0.0102550687613,1.0,0.0,0.0341517201763
1385574360260705566,-0.16386235664,0.143608156254,-0.0108474391832,1.0,0.0,0.0338279559806
1385574360360122602,-0.149011107075,0.2190393805,-0.0123480646122,1.0,0.0,0.0335336016076
1385574360460954886,-0.129075514094,0.287645738877,-0.0145255860467,1.0,0.0,0.0331167212243
1385574360560267405,-0.104769140805,0.346083152451,-0.0171444115152,1.0,0.0,0.032633859954
1385574360660795978,-0.0772488856717,0.392646922288,-0.0200214949684,1.0,0.0,0.032045926309
1385574360760563534,-0.047387434422,0.425862584762,-0.0228763275369,1.0,0.0,0.0313443944064
1385574360860515615,-0.0165052826388,0.445019323254,-0.0252599659349,1.0,0.0,0.0305895296668
1385574360960462764,0.0143035832927,0.449832430538,-0.0271291373169,1.0,0.0,0.0298635302525
1385574361061493975,0.0443212800899,0.441039424971,-0.028042822492,1.0,0.0,0.0290735124828
1385574361160418999,0.0714592940377,0.418815635542,-0.0270828870125,1.0,0.0,0.0285479204124
1385574361261493585,0.0945303753609,0.383982124257,-0.0228420340198,1.0,0.0,0.0286222701748
1385574361360531967,0.111328807306,0.331364998174,-0.016112553781,1.0,0.0,0.0294073151258
1385574361460500036,0.125961678687,0.277841607527,-0.00633860787397,1.0,0.0,0.030802864167
1385574361560576782,0.135050534058,0.207068809493,0.00374636397645,1.0,0.0,0.032378588205
1385574361660552391,0.138989957667,0.129862607975,0.0149838214633,1.0,0.0,0.0342814959424
1385574361761504456,0.138260051923,0.0478728580185,0.0235124515826,1.0,0.0,0.036209954263
1385574361860667910,0.134263234175,-0.0353357579166,0.0302340831097,1.0,0.0,0.0379178843297
1385574361960647629,0.124012768728,-0.11582273914,0.0337722035877,1.0,0.0,0.0396014924069
1385574362060407762,0.111470923236,-0.190665518304,0.03506239992,1.0,0.0,0.0408885345978
1385574362160626908,0.0934426266222,-0.256964455753,0.0333913499086,1.0,0.0,0.042089114534
1385574362260504687,0.0731392224912,-0.312714447874,0.0313982397265,1.0,0.0,0.0429461103348
1385574362361401580,0.0495263635652,-0.35552254421,0.0285140899607,1.0,0.0,0.0436268660699
1385574362460630845,0.0244180697582,-0.379472582552,0.0247725470379,1.0,0.0,0.0439315143418
1385574362560504200,-0.00186880058064,-0.398606173062,0.0197431906636,1.0,0.0,0.0442436154652
1385574362660464380,-0.0289278305932,-0.39674770237,0.0138620534837,1.0,0.0,0.0441365551407
1385574362760739868,-0.0564223726724,-0.382964858413,0.00820298176119,1.0,0.0,0.0437053362374
1385574362860514880,-0.08331046266,-0.355050158775,0.0026780557429,1.0,0.0,0.0429363547617
1385574362960690884,-0.108779693666,-0.315542755726,-0.00232619913626,1.0,0.0,0.0420466996196
1385574363060562431,-0.131316189839,-0.265097309986,-0.00617996555122,1.0,0.0,0.0409411958259
1385574363160421536,-0.150352018716,-0.205438805487,-0.00876267370639,1.0,0.0,0.0398020971821
1385574363260516558,-0.164937280263,-0.13821942097,-0.0102350065749,1.0,0.0,0.0386631692725
1385574363361653917,-0.174469628548,-0.064998928951,-0.0110173925246,1.0,0.0,0.0375515967897
1385574363460489103,-0.178656086375,0.0118426863253,-0.0114596269312,1.0,0.0,0.0366028298416
1385574363561593641,-0.177380151824,0.0902872859842,-0.0121675548423,1.0,0.0,0.0356909911736
1385574363661496652,-0.170463742128,0.166888830878,-0.0132404626382,1.0,0.0,0.0349414653737
1385574363760430139,-0.15607773593,0.237104738112,-0.0148805459954,1.0,0.0,0.0341166501673
1385574363861396745,-0.141254254806,0.304181645953,-0.0171764112252,1.0,0.0,0.0333527389253
1385574363960554481,-0.117421757861,0.354603371194,-0.0191893383989,1.0,0.0,0.0326496429872
1385574364060671680,-0.0946278093478,0.402355429268,-0.0221187512914,1.0,0.0,0.0317152389792
1385574364160667118,-0.0662895724958,0.430943613552,-0.0243733837429,1.0,0.0,0.0308200939243
1385574364261657658,-0.0369780378085,0.447714192136,-0.0261855644481,1.0,0.0,0.0298217931896
1385574364360486791,-0.00658795076745,0.449781731613,-0.0263248562557,1.0,0.0,0.0288518455695
1385574364460687827,0.0229575960301,0.437693892197,-0.0247109207419,1.0,0.0,0.028046536579
1385574364560680139,0.052353505742,0.412601114687,-0.022054976207,1.0,0.0,0.0272219420676
1385574364660476902,0.0784976719106,0.373829718178,-0.0170177376839,1.0,0.0,0.0266862232445
1385574364760698175,0.100546049838,0.322388431376,-0.0087537923724,1.0,0.0,0.0266235958801
1385574364860447338,0.116501333864,0.259228204542,0.000553551444939,1.0,0.0,0.0272393410949
1385574364960642385,0.128655615011,0.187001978797,0.0103882616821,1.0,0.0,0.0282068071154
1385574365060445504,0.136983832319,0.107609169549,0.0220530106475,1.0,0.0,0.0293204015799
1385574365160493690,0.141621632918,0.0249183343325,0.0316947063961,1.0,0.0,0.0303766549549
1385574365261401937,0.138884772673,-0.0571468075761,0.0368548692897,1.0,0.0,0.0318195605411
1385574365361483590,0.133168452245,-0.135206015309,0.0391779494821,1.0,0.0,0.0331669429276
1385574365461412383,0.12128449629,-0.207013142626,0.0392026687205,1.0,0.0,0.0346043780557
1385574365561629776,0.106804727009,-0.269324665068,0.0369922878954,1.0,0.0,0.0358469922947
1385574365661397768,0.0873388135305,-0.320947477125,0.0348626103235,1.0,0.0,0.0370929510584
1385574365761629351,0.0651527567832,-0.359015883787,0.0317822099555,1.0,0.0,0.0382474875608
1385574365861495461,0.0407526959282,-0.383228912273,0.0276017401916,1.0,0.0,0.0393023291507
1385574365960491677,0.0148489798507,-0.392993251461,0.0218688031494,1.0,0.0,0.0401253131125
1385574366060463483,-0.0123410011933,-0.389049336743,0.0149615158711,1.0,0.0,0.0407224956671
1385574366160672505,-0.0399691346951,-0.372184113219,0.00770709962467,1.0,0.0,0.0410703463675
1385574366261734867,-0.0667029631191,-0.337416655877,0.00167731147125,1.0,0.0,0.0410757998344
1385574366360457227,-0.0923222789055,-0.297344033217,-0.0036440115424,1.0,0.0,0.0408271175921
1385574366460512556,-0.117042261173,-0.250319150572,-0.00784359032706,1.0,0.0,0.0403131572221
1385574366560700504,-0.137358558999,-0.18948935688,-0.010745089081,1.0,0.0,0.0395505134791
1385574366660633500,-0.15394462597,-0.122575511855,-0.0126856667471,1.0,0.0,0.0386370673182
1385574366760723959,-0.165757550408,-0.0493404188746,-0.0138064995911,1.0,0.0,0.0377475812689
1385574366860788404,-0.172278829591,0.0272493596529,-0.0145414799858,1.0,0.0,0.0369066188251
1385574366960728545,-0.172945598278,0.104566891769,-0.015452395718,1.0,0.0,0.0361566870892
1385574367060621816,-0.167802584543,0.179621583556,-0.0167458070142,1.0,0.0,0.03551677438
1385574367160918276,-0.154950645015,0.247429516691,-0.0183345295341,1.0,0.0,0.034834180837
