%time,field.header.seq,field.header.stamp,field.header.frame_id,field.child_frame_id,field.transform.translation.x,field.transform.translation.y,field.transform.translation.z,field.transform.rotation.x,field.transform.rotation.y,field.transform.rotation.z,field.transform.rotation.w
1385574298866778015,1138933,1385574298866778015,/world,vicon/Archie/Archie,0.479899919888,-0.431587235046,0.111478063711,0.00535577311463,-0.00169513516002,0.564356184089,0.825512289243
1385574298876706294,1138934,1385574298876706294,/world,vicon/Archie/Archie,0.479979732195,-0.431601148926,0.111522711023,0.00520335242773,-0.00146417558091,0.564443992957,0.82545366928
1385574298887457840,1138935,1385574298887457840,/world,vicon/Archie/Archie,0.479963011875,-0.431561406641,0.111502467076,0.00509502614853,-0.00133561646031,0.56444543328,0.825453578154
1385574298896788794,1138936,1385574298896788794,/world,vicon/Archie/Archie,0.479976376321,-0.43156223192,0.11150328184,0.00513111801208,-0.00132548662324,0.564457691227,0.825444988795
1385574298906631036,1138937,1385574298906631036,/world,vicon/Archie/Archie,0.479946816663,-0.431532738046,0.111455245793,0.00506465149727,-0.00129085484211,0.564455873401,0.825446697238
1385574298918352454,1138938,1385574298918352454,/world,vicon/Archie/Archie,0.479972615245,-0.431562553381,0.111504518446,0.00512713051914,-0.00131156909324,0.564446953549,0.825452378365
1385574298926698113,1138939,1385574298926698113,/world,vicon/Archie/Archie,0.479980315816,-0.431557439559,0.111503436894,0.00509556423841,-0.00130840486433,0.564454246248,0.825447592034
1385574298937012542,1138940,1385574298937012542,/world,vicon/Archie/Archie,0.479992899466,-0.431559506873,0.111495778409,0.00510542108992,-0.00131788079834,0.564452905519,0.825448432863
1385574298947133447,1138941,1385574298947133447,/world,vicon/Archie/Archie,0.479976823602,-0.431563419207,0.111501781284,0.0050984909328,-0.00132379303369,0.564443677764,0.825454776226
1385574298956745076,1138942,1385574298956745076,/world,vicon/Archie/Archie,0.47999182425,-0.431569034413,0.111503802111,0.00510142559937,-0.00133284122934,0.564430577973,0.825463700982
1385574298966752330,1138943,1385574298966752330,/world,vicon/Archie/Archie,0.479999259216,-0.431562960433,0.111502327632,0.00510246917771,-0.00131863054355,0.564455154677,0.825446911909
1385574298976675402,1138944,1385574298976675402,/world,vicon/Archie/Archie,0.480029393757,-0.431552712566,0.111515034691,0.00508648834347,-0.00128312330386,0.564448589796,0.82545155564
1385574298986824776,1138945,1385574298986824776,/world,vicon/Archie/Archie,0.480017472745,-0.431565891617,0.111501300759,0.00510062081263,-0.0013159677761,0.564450653695,0.825450005415
1385574298996573192,1138946,1385574298996573192,/world,vicon/Archie/Archie,0.480004012027,-0.431555075274,0.111484963588,0.00506268508284,-0.00131026377203,0.564449285507,0.825451183608
1385574299006696672,1138947,1385574299006696672,/world,vicon/Archie/Archie,0.479999295341,-0.431597560163,0.111506768355,0.00516234422622,-0.0014281688789,0.56444885217,0.825450667102
1385574299016790926,1138948,1385574299016790926,/world,vicon/Archie/Archie,0.480015691355,-0.431556961565,0.111479640044,0.00509212709736,-0.00131128796021,0.564450034421,0.825450488768
1385574299027417209,1138949,1385574299027417209,/world,vicon/Archie/Archie,0.47999710964,-0.43155618602,0.111488730881,0.00509137782535,-0.00132676141013,0.564454748718,0.825447244968
1385574299036831586,1138950,1385574299036831586,/world,vicon/Archie/Archie,0.480001492,-0.43156135378,0.111508654972,0.0050868031939,-0.00132934806944,0.564451120568,0.825449749989
1385574299046728694,1138951,1385574299046728694,/world,vicon/Archie/Archie,0.479994628277,-0.431565160274,0.111508727748,0.00509940276678,-0.00132269926192,0.564454903397,0.825447096178
1385574299056790653,1138952,1385574299056790653,/world,vicon/Archie/Archie,0.479992615312,-0.431568386147,0.111506386368,0.005084298968,-0.00132829379082,0.56445358655,0.825448080845
1385574299066812890,1138953,1385574299066812890,/world,vicon/Archie/Archie,0.479997671237,-0.431571077087,0.11150781585,0.00507525866724,-0.0013041128985,0.564443926367,0.825454780728
1385574299076656108,1138954,1385574299076656108,/world,vicon/Archie/Archie,0.479982022861,-0.431559735323,0.111509992041,0.00509646287435,-0.00129986054634,0.564454715964,0.825447278786
1385574299087327878,1138955,1385574299087327878,/world,vicon/Archie/Archie,0.479988764574,-0.431565754052,0.111507850337,0.00509557519613,-0.00129711076396,0.564457537189,0.825445359384
1385574299096643259,1138956,1385574299096643259,/world,vicon/Archie/Archie,0.479985249851,-0.431557417966,0.111506877614,0.00509879743518,-0.00131454539235,0.564436299248,0.825459834472
1385574299106757707,1138957,1385574299106757707,/world,vicon/Archie/Archie,0.479998573344,-0.431571714258,0.111522176868,0.00512194361839,-0.00130414791047,0.564450823472,0.825449776046
1385574299117220613,1138958,1385574299117220613,/world,vicon/Archie/Archie,0.479999505259,-0.431556867307,0.111507766333,0.00509487095774,-0.00132251198232,0.564433753379,0.82546158681
1385574299126626722,1138959,1385574299126626722,/world,vicon/Archie/Archie,0.479986802065,-0.431560758847,0.11150392887,0.00511714001077,-0.00130398741713,0.564447640961,0.825451982316
1385574299136716691,1138960,1385574299136716691,/world,vicon/Archie/Archie,0.479995721596,-0.431562427667,0.111509462056,0.00510739490896,-0.00131737415898,0.564435470943,0.825460343192
1385574299146652780,1138961,1385574299146652780,/world,vicon/Archie/Archie,0.479988366779,-0.431561261738,0.111511092108,0.00510592450947,-0.00130699849158,0.564443934294,0.825454581627
1385574299156772666,1138962,1385574299156772666,/world,vicon/Archie/Archie,0.479977688392,-0.431556151154,0.11150823714,0.00509405847326,-0.00131194977144,0.564448406236,0.825451589164
1385574299166767520,1138963,1385574299166767520,/world,vicon/Archie/Archie,0.480001660058,-0.431603112489,0.111530844595,0.0051854681818,-0.00141912404867,0.564434601638,0.825460282194
1385574299176740435,1138964,1385574299176740435,/world,vicon/Archie/Archie,0.479993498769,-0.43156495922,0.11151490948,0.00511770542129,-0.00133403426165,0.564438628863,0.825458093238
1385574299186724518,1138965,1385574299186724518,/world,vicon/Archie/Archie,0.479989480502,-0.43160464209,0.111531011438,0.00516927265472,-0.00142758149517,0.564439687128,0.825456891803
1385574299196653706,1138966,1385574299196653706,/world,vicon/Archie/Archie,0.479993408715,-0.431557893832,0.111503847369,0.00509794557971,-0.00131049880907,0.564437028567,0.82545934747
1385574299206719177,1138967,1385574299206719177,/world,vicon/Archie/Archie,0.479978631982,-0.431564001474,0.111507496213,0.00509855428832,-0.0013115630442,0.564446356669,0.825452963523
1385574299216788398,1138968,1385574299216788398,/world,vicon/Archie/Archie,0.479986242407,-0.431564607967,0.111503205691,0.00510301084094,-0.00132250767298,0.564447095602,0.825452413238
1385574299226661985,1138969,1385574299226661985,/world,vicon/Archie/Archie,0.479997377645,-0.431556702928,0.111506989284,0.0050998428705,-0.0013370823366,0.564442618842,0.825455470542
1385574299236703639,1138970,1385574299236703639,/world,vicon/Archie/Archie,0.479988550555,-0.431571970719,0.111522134704,0.00509736196853,-0.00133026009218,0.564452356716,0.825448838092
1385574299246687852,1138971,1385574299246687852,/world,vicon/Archie/Archie,0.479994502047,-0.431607427047,0.111527986141,0.0051999216564,-0.00143481188314,0.564440589227,0.825456069917
1385574299256773154,1138972,1385574299256773154,/world,vicon/Archie/Archie,0.479998812766,-0.431572782893,0.111522839072,0.00510890982948,-0.00133186891328,0.564460700503,0.825443058456
1385574299266699170,1138973,1385574299266699170,/world,vicon/Archie/Archie,0.480043350541,-0.431559068817,0.111528012634,0.00515152508919,-0.00133877382848,0.564396154824,0.825486916852
1385574299276625770,1138974,1385574299276625770,/world,vicon/Archie/Archie,0.480001273273,-0.431604649559,0.111526966003,0.00519477231488,-0.00142341176672,0.564454430136,0.825446657598
1385574299286781980,1138975,1385574299286781980,/world,vicon/Archie/Archie,0.479981965389,-0.431571766789,0.111505938048,0.00509707678316,-0.00131035563185,0.564447514777,0.825452182648
1385574299296624561,1138976,1385574299296624561,/world,vicon/Archie/Archie,0.479997894764,-0.431563953147,0.111503605451,0.00507994552833,-0.00132306900588,0.564444810603,0.825454117093
1385574299306687844,1138977,1385574299306687844,/world,vicon/Archie/Archie,0.479995210713,-0.431563002351,0.111519648214,0.00510482138783,-0.00131935988489,0.564452307615,0.825448843064
1385574299316771191,1138978,1385574299316771191,/world,vicon/Archie/Archie,0.479995724969,-0.43156424462,0.111510103984,0.00510013088325,-0.00132714260682,0.56445355103,0.825448009318
1385574299326615606,1138979,1385574299326615606,/world,vicon/Archie/Archie,0.479997375973,-0.431567664249,0.111506000305,0.00509477835525,-0.00135187706839,0.564448269887,0.825451613532
1385574299336682001,1138980,1385574299336682001,/world,vicon/Archie/Archie,0.479994358153,-0.431560397875,0.111510214788,0.00510759614183,-0.00130755955621,0.56444591055,0.825453219034
1385574299346580346,1138981,1385574299346580346,/world,vicon/Archie/Archie,0.479995824999,-0.431562225671,0.111505715491,0.00509277773348,-0.00131828193955,0.564434278448,0.825461247462
1385574299356749157,1138982,1385574299356749157,/world,vicon/Archie/Archie,0.48000179339,-0.431572677605,0.11150342825,0.00511012611603,-0.00133075071588,0.564442465655,0.825455521927
1385574299366796039,1138983,1385574299366796039,/world,vicon/Archie/Archie,0.480018130045,-0.431572837335,0.111523408576,0.00509431136705,-0.00133352798485,0.564460938924,0.825442982964
1385574299376653979,1138984,1385574299376653979,/world,vicon/Archie/Archie,0.48000628028,-0.431567926487,0.111506964705,0.00509039209714,-0.00130908449782,0.564450169025,0.825450410924
1385574299386790893,1138985,1385574299386790893,/world,vicon/Archie/Archie,0.480002124656,-0.431559112678,0.111512100458,0.00509791659704,-0.00131142656588,0.564437899052,0.825458750951
1385574299396619737,1138986,1385574299396619737,/world,vicon/Archie/Archie,0.480002292808,-0.431564301155,0.111510302597,0.00511244316616,-0.00131424517842,0.564444521361,0.825454128338
1385574299406691807,1138987,1385574299406691807,/world,vicon/Archie/Archie,0.479992258857,-0.431559212482,0.111506278291,0.00510112153104,-0.00131071519399,0.564442926822,0.825455294335
1385574299416890452,1138988,1385574299416890452,/world,vicon/Archie/Archie,0.479996459006,-0.431559620371,0.111513339573,0.00510267431566,-0.00130556796028,0.56442849606,0.825465160405
1385574299426611979,1138989,1385574299426611979,/world,vicon/Archie/Archie,0.479988619764,-0.431566032504,0.111512073477,0.00508705062444,-0.00129354278288,0.564435141497,0.825460731777
1385574299436686137,1138990,1385574299436686137,/world,vicon/Archie/Archie,0.480001021511,-0.431560678984,0.111510277339,0.00509520990373,-0.00133974168918,0.564445064907,0.825453822228
1385574299446702625,1138991,1385574299446702625,/world,vicon/Archie/Archie,0.479989360223,-0.431561480282,0.111504009277,0.00510019067707,-0.00131574682488,0.564448486215,0.825451490564
1385574299456787412,1138992,1385574299456787412,/world,vicon/Archie/Archie,0.479999888112,-0.43157706289,0.111522572164,0.00510027756962,-0.00132591610945,0.564437956736,0.825458673775
1385574299466727032,1138993,1385574299466727032,/world,vicon/Archie/Archie,0.479985010206,-0.431559365625,0.111513940758,0.00508063130623,-0.00130254496581,0.564452716316,0.825448739539
1385574299476876540,1138994,1385574299476876540,/world,vicon/Archie/Archie,0.48000253196,-0.431567725978,0.111528135972,0.00510399159702,-0.00132169614532,0.56443723248,0.825459152823
1385574299486728635,1138995,1385574299486728635,/world,vicon/Archie/Archie,0.47999882566,-0.431561334535,0.11151221015,0.00509288049724,-0.00131617748525,0.564435929168,0.825460121453
1385574299496660016,1138996,1385574299496660016,/world,vicon/Archie/Archie,0.480013833186,-0.431577007288,0.11152972229,0.00510923232193,-0.00133213853076,0.564436225923,0.825459791884
1385574299506658431,1138997,1385574299506658431,/world,vicon/Archie/Archie,0.480050960935,-0.43157570701,0.111549212624,0.00517265461472,-0.00134697102985,0.56440478846,0.825480868389
1385574299516845491,1138998,1385574299516845491,/world,vicon/Archie/Archie,0.479994579176,-0.431574224139,0.111521725778,0.00512749438523,-0.0013195802994,0.564450979284,0.825449610512
1385574299526533887,1138999,1385574299526533887,/world,vicon/Archie/Archie,0.479984009371,-0.43156484537,0.111507209715,0.00511593653277,-0.00133283795249,0.564440887379,0.825456561783
1385574299536660262,1139000,1385574299536660262,/world,vicon/Archie/Archie,0.480060367087,-0.431578528925,0.111573434947,0.00518160715224,-0.0013594693534,0.564394683126,0.825487700968
1385574299546655265,1139001,1385574299546655265,/world,vicon/Archie/Archie,0.479993959124,-0.431559158679,0.111502571252,0.00509928658355,-0.00132149190067,0.564431506927,0.825463097252
1385574299556627450,1139002,1385574299556627450,/world,vicon/Archie/Archie,0.480001236624,-0.431605708507,0.11152663325,0.00518888208424,-0.00143922104967,0.564434798105,0.825460091606
1385574299567019994,1139003,1385574299567019994,/world,vicon/Archie/Archie,0.479985896072,-0.43156308503,0.111502641707,0.00512600635502,-0.00133329269392,0.564438776227,0.825457942163
1385574299576706904,1139004,1385574299576706904,/world,vicon/Archie/Archie,0.479914896355,-0.4315859065,0.111468966106,0.00537089845646,-0.00172444703542,0.564364598435,0.825506377786
1385574299586729532,1139005,1385574299586729532,/world,vicon/Archie/Archie,0.479996177484,-0.431561973242,0.111496691051,0.00512795909963,-0.00132886719328,0.564446467108,0.825452678181
1385574299596730838,1139006,1385574299596730838,/world,vicon/Archie/Archie,0.480001498265,-0.431602929047,0.111524495272,0.0051952158991,-0.00146087693917,0.564431535711,0.825462244482
1385574299606876359,1139007,1385574299606876359,/world,vicon/Archie/Archie,0.479986466286,-0.431569663118,0.11149407715,0.00512380338124,-0.00135319581083,0.56443910179,0.825457700836
1385574299616804358,1139008,1385574299616804358,/world,vicon/Archie/Archie,0.479988414678,-0.431611607942,0.111520461054,0.00522738297687,-0.00145539833459,0.564441716025,0.825455089931
1385574299626795074,1139009,1385574299626795074,/world,vicon/Archie/Archie,0.479986490727,-0.431563568681,0.111492201167,0.00511445562279,-0.00134553855449,0.564447523062,0.825452012887
1385574299636784714,1139010,1385574299636784714,/world,vicon/Archie/Archie,0.47999586102,-0.431607537552,0.111518391032,0.00519878723329,-0.0014508476207,0.564434797824,0.825460009121
1385574299646780806,1139011,1385574299646780806,/world,vicon/Archie/Archie,0.479990066185,-0.431564035729,0.111496603583,0.00512709538039,-0.00134647540962,0.56444047207,0.825456754401
1385574299657324494,1139012,1385574299657324494,/world,vicon/Archie/Archie,0.479903676634,-0.431545938066,0.111451521616,0.0052628269245,-0.00157440278385,0.564375646165,0.825499820669
1385574299666802032,1139013,1385574299666802032,/world,vicon/Archie/Archie,0.479910481817,-0.431541073173,0.1114464294,0.00525744926869,-0.00158731150481,0.564360695949,0.825510051142
1385574299676703033,1139014,1385574299676703033,/world,vicon/Archie/Archie,0.480018386163,-0.431574081936,0.111477729274,0.00520426181724,-0.00148078211375,0.564458274722,0.825443867892
1385574299686812287,1139015,1385574299686812287,/world,vicon/Archie/Archie,0.479985463118,-0.431602660226,0.111518238612,0.00520912916429,-0.00144156299126,0.56444647735,0.825451973816
1385574299696631182,1139016,1385574299696631182,/world,vicon/Archie/Archie,0.479935835038,-0.431568329578,0.111434450218,0.00537334622441,-0.00177747533975,0.56437499545,0.825499141273
1385574299706883903,1139017,1385574299706883903,/world,vicon/Archie/Archie,0.479917988253,-0.431541841404,0.111446386096,0.00528020004075,-0.00157014372587,0.564372364918,0.825501961144
1385574299716797604,1139018,1385574299716797604,/world,vicon/Archie/Archie,0.479997007716,-0.431609313702,0.111513201504,0.00520072301117,-0.00143781790434,0.564449348901,0.825450069771
1385574299726706350,1139019,1385574299726706350,/world,vicon/Archie/Archie,0.479993167805,-0.43156331052,0.111496244568,0.0051265426346,-0.00133843213887,0.564449129237,0.82545085115
1385574299736691593,1139020,1385574299736691593,/world,vicon/Archie/Archie,0.479984337779,-0.431569182471,0.111493296582,0.00512061325724,-0.00134365262052,0.564446469763,0.825452698033
1385574299746654574,1139021,1385574299746654574,/world,vicon/Archie/Archie,0.479991112117,-0.431561244872,0.111497255819,0.00512498969682,-0.00134228106928,0.564438146779,0.825458364318
1385574299756746483,1139022,1385574299756746483,/world,vicon/Archie/Archie,0.479993113307,-0.431564080497,0.1114999759,0.00511695779912,-0.0013031874214,0.564441444109,0.825456222109
1385574299769889182,1139023,1385574299769889182,/world,vicon/Archie/Archie,0.479997419997,-0.431599991495,0.11152112265,0.00521037060573,-0.00143684430227,0.564439723171,0.825456592695
1385574299776715639,1139024,1385574299776715639,/world,vicon/Archie/Archie,0.480000926979,-0.431570371252,0.111514807986,0.00512735351061,-0.00135298697596,0.564434730962,0.825460667843
1385574299786732751,1139025,1385574299786732751,/world,vicon/Archie/Archie,0.479902751046,-0.43153960056,0.111444154634,0.00526902230953,-0.00157637866705,0.564365817658,0.825506496821
1385574299796640324,1139026,1385574299796640324,/world,vicon/Archie/Archie,0.480012880793,-0.431611093472,0.111525637098,0.0052100850607,-0.00142330576113,0.56444686419,0.825451734943
1385574299806711794,1139027,1385574299806711794,/world,vicon/Archie/Archie,0.479986395738,-0.431561150989,0.111499532396,0.00509483641129,-0.00132355218067,0.564451066408,0.825449746794
1385574299816808317,1139028,1385574299816808317,/world,vicon/Archie/Archie,0.48000347259,-0.43158274509,0.111473539798,0.00519135445693,-0.0014913244802,0.564463155648,0.825440592475
1385574299826644338,1139029,1385574299826644338,/world,vicon/Archie/Archie,0.480052206751,-0.431557263883,0.111491054204,0.00510120187212,-0.00131877373673,0.564430816325,0.825463561981
1385574299836688921,1139030,1385574299836688921,/world,vicon/Archie/Archie,0.480002632709,-0.431567785807,0.111500567694,0.00512825208787,-0.00130556332525,0.564429716779,0.825464167212
1385574299846699910,1139031,1385574299846699910,/world,vicon/Archie/Archie,0.480003216158,-0.431576669487,0.111517914244,0.00510577775945,-0.00133402418542,0.564443406887,0.82545489994
1385574299856778538,1139032,1385574299856778538,/world,vicon/Archie/Archie,0.479996570197,-0.431562402922,0.111506737274,0.00510078058696,-0.00132928085055,0.564428828796,0.825464906749
1385574299866859058,1139033,1385574299866859058,/world,vicon/Archie/Archie,0.48000985235,-0.431610514846,0.11152062871,0.00520444345817,-0.00145137155716,0.564438230471,0.825457625364
1385574299876809612,1139034,1385574299876809612,/world,vicon/Archie/Archie,0.479977491451,-0.431562774947,0.111496418334,0.00510335058593,-0.00132860939314,0.564454247513,0.825447510793
1385574299886724391,1139035,1385574299886724391,/world,vicon/Archie/Archie,0.479990218676,-0.431565846026,0.111495678778,0.00509910622109,-0.00132292623916,0.564433542547,0.825461704157
1385574299896582763,1139036,1385574299896582763,/world,vicon/Archie/Archie,0.480000988271,-0.431607513867,0.111515307895,0.00520613494732,-0.00144099026314,0.564443606411,0.825453956855
1385574299906666823,1139037,1385574299906666823,/world,vicon/Archie/Archie,0.479996425702,-0.431611734976,0.111522633955,0.00520063760181,-0.00145521894413,0.564440059413,0.825456391965
1385574299916962780,1139038,1385574299916962780,/world,vicon/Archie/Archie,0.479987150316,-0.431563079685,0.111501214073,0.00510852471123,-0.0013276679463,0.564433806122,0.825461458082
1385574299926621197,1139039,1385574299926621197,/world,vicon/Archie/Archie,0.480006535608,-0.431608710351,0.111518338525,0.00520106287589,-0.00146022033581,0.564438400678,0.82545751468
1385574299936838097,1139040,1385574299936838097,/world,vicon/Archie/Archie,0.480000984882,-0.43156436789,0.111500430911,0.00510935998835,-0.00133284837147,0.564447467012,0.825452103359
1385574299946619255,1139041,1385574299946619255,/world,vicon/Archie/Archie,0.47999447028,-0.431562619264,0.111494085671,0.00512088737398,-0.00132592607123,0.564439751278,0.825457319072
1385574299956767210,1139042,1385574299956767210,/world,vicon/Archie/Archie,0.48003468198,-0.431625330834,0.111489409329,0.00529614993259,-0.00164471826296,0.564454064311,0.82544585224
1385574299966787126,1139043,1385574299966787126,/world,vicon/Archie/Archie,0.480002216287,-0.431565098594,0.111516647221,0.0051128989446,-0.00133772848027,0.564433933175,0.825461327882
1385574299976696983,1139044,1385574299976696983,/world,vicon/Archie/Archie,0.479993194719,-0.431566273574,0.11149832527,0.00511775622925,-0.00133084764655,0.564430581889,0.825463600436
1385574299986643203,1139045,1385574299986643203,/world,vicon/Archie/Archie,0.480045257311,-0.431596013048,0.111528824772,0.00521659755999,-0.00143629764885,0.56442691176,0.825465314498
1385574299996589452,1139046,1385574299996589452,/world,vicon/Archie/Archie,0.480022502705,-0.431559928416,0.111507818803,0.00510549280075,-0.00131960975301,0.564436417734,0.825459703989
1385574300006787947,1139047,1385574300006787947,/world,vicon/Archie/Archie,0.479986907634,-0.431569377223,0.111499408315,0.00511800594169,-0.00134300040063,0.564436447868,0.82545956817
1385574300016748507,1139048,1385574300016748507,/world,vicon/Archie/Archie,0.479995631141,-0.431613273304,0.11151903703,0.00519910746532,-0.00144753506328,0.564451061201,0.825448892078
1385574300026686320,1139049,1385574300026686320,/world,vicon/Archie/Archie,0.479986063779,-0.431563809831,0.111493322229,0.00512989613886,-0.00134651779432,0.564441618515,0.825455953
1385574300036792150,1139050,1385574300036792150,/world,vicon/Archie/Archie,0.480005091851,-0.431607894697,0.111520769673,0.00522473796818,-0.00145242894174,0.564421447114,0.825468971313
1385574300046676185,1139051,1385574300046676185,/world,vicon/Archie/Archie,0.479986561604,-0.431566916311,0.111498861879,0.00511830196474,-0.00132704114045,0.564440669777,0.825456705254
1385574300056748155,1139052,1385574300056748155,/world,vicon/Archie/Archie,0.479990750756,-0.431564071971,0.111494020382,0.00511629398643,-0.00133253488357,0.564456878616,0.825445625144
1385574300066902318,1139053,1385574300066902318,/world,vicon/Archie/Archie,0.480001164815,-0.431608463518,0.111523432787,0.00521443860515,-0.00147423470159,0.564438353951,0.825457437335
1385574300076660159,1139054,1385574300076660159,/world,vicon/Archie/Archie,0.479912165201,-0.431553381007,0.111464718107,0.0052744350205,-0.00155632221296,0.564367880117,0.825505090286
1385574300086814284,1139055,1385574300086814284,/world,vicon/Archie/Archie,0.479989844545,-0.431563416813,0.111502290671,0.00513192937117,-0.00132016191764,0.564432390988,0.825462292583
1385574300096634196,1139056,1385574300096634196,/world,vicon/Archie/Archie,0.480019896943,-0.431562755642,0.111516045549,0.00518402942535,-0.00133339608465,0.564393419992,0.825488591904
1385574300106745800,1139057,1385574300106745800,/world,vicon/Archie/Archie,0.48000450994,-0.431618461357,0.111536543133,0.00522341454816,-0.00146293363585,0.564438178941,0.82545752036
1385574300116725768,1139058,1385574300116725768,/world,vicon/Archie/Archie,0.479983666156,-0.431563530477,0.111500267187,0.00510786694706,-0.00133726052256,0.564424453165,0.825467841953
1385574300126599876,1139059,1385574300126599876,/world,vicon/Archie/Archie,0.479981873497,-0.431563505306,0.111494027362,0.00512678518097,-0.00134217577118,0.564449227157,0.825450776606
1385574300136727344,1139060,1385574300136727344,/world,vicon/Archie/Archie,0.479989397408,-0.431573578283,0.111488025688,0.00513236793057,-0.00133624182604,0.564452681016,0.825448389756
1385574300146643452,1139061,1385574300146643452,/world,vicon/Archie/Archie,0.48000270768,-0.431606189847,0.111517887846,0.00520886577964,-0.00144895690805,0.564438953808,0.825457107102
1385574300156768968,1139062,1385574300156768968,/world,vicon/Archie/Archie,0.479989419561,-0.431557345693,0.111495668876,0.00511494791999,-0.00133444900722,0.564446840401,0.825452494645
1385574300166783297,1139063,1385574300166783297,/world,vicon/Archie/Archie,0.479998255656,-0.431571532322,0.111492864048,0.00512536465744,-0.00133268847537,0.56444601047,0.825453000384
1385574300176722637,1139064,1385574300176722637,/world,vicon/Archie/Archie,0.479993723333,-0.431565706911,0.111494556741,0.00512182629525,-0.00129548037745,0.564444043005,0.825454426932
1385574300186748606,1139065,1385574300186748606,/world,vicon/Archie/Archie,0.479912296482,-0.431539024698,0.111443111178,0.00526935343786,-0.00157648255823,0.56437548448,0.825499885606
1385574300196726609,1139066,1385574300196726609,/world,vicon/Archie/Archie,0.479984690379,-0.431564724162,0.111496165676,0.00512146218535,-0.00132078192957,0.56444077521,0.825456623597
1385574300206781050,1139067,1385574300206781050,/world,vicon/Archie/Archie,0.480011293572,-0.431604840757,0.111514554284,0.00520549053904,-0.0014400493496,0.564426458436,0.825465688047
1385574300216712688,1139068,1385574300216712688,/world,vicon/Archie/Archie,0.480001650943,-0.431604679699,0.111515622178,0.0052123271357,-0.00144267900822,0.564441316773,0.825455480473
1385574300226677288,1139069,1385574300226677288,/world,vicon/Archie/Archie,0.479996448761,-0.431608433714,0.111515545007,0.0052208230545,-0.00145593094223,0.564443813249,0.825453696434
1385574300236730466,1139070,1385574300236730466,/world,vicon/Archie/Archie,0.479981155535,-0.431567582994,0.111500011639,0.00511316498393,-0.00133231582984,0.564454334386,0.825447384677
1385574300246586616,1139071,1385574300246586616,/world,vicon/Archie/Archie,0.47989505027,-0.431545555097,0.111444158467,0.00527052255453,-0.00156461996632,0.564376112503,0.825499471346
1385574300256707271,1139072,1385574300256707271,/world,vicon/Archie/Archie,0.479909004036,-0.431544528281,0.111446320252,0.0052604714295,-0.00159480734725,0.564375457691,0.82549992537
1385574300266745125,1139073,1385574300266745125,/world,vicon/Archie/Archie,0.479914554148,-0.431539732775,0.111436865257,0.00528260465656,-0.00157249156532,0.564362153719,0.825508922306
1385574300276654725,1139074,1385574300276654725,/world,vicon/Archie/Archie,0.479992496732,-0.431557300748,0.111493428767,0.00511021391113,-0.00134577486071,0.564446952052,0.825452429231
1385574300286688365,1139075,1385574300286688365,/world,vicon/Archie/Archie,0.479981942423,-0.431575576948,0.111499443477,0.00512007344375,-0.00133153162572,0.564446999388,0.825452358863
1385574300296589211,1139076,1385574300296589211,/world,vicon/Archie/Archie,0.479994604456,-0.431559988403,0.111494825037,0.00512194621099,-0.0013487176114,0.564443476623,0.825454728211
1385574300306660596,1139077,1385574300306660596,/world,vicon/Archie/Archie,0.479987705655,-0.431610514387,0.11151730583,0.00521877338843,-0.00144160436233,0.564447801688,0.825451007238
1385574300316873571,1139078,1385574300316873571,/world,vicon/Archie/Archie,0.479948561237,-0.431537970982,0.111455589116,0.00526032573301,-0.00153425085635,0.564348272784,0.825518626109
1385574300326671113,1139079,1385574300326671113,/world,vicon/Archie/Archie,0.479981819171,-0.431570155438,0.111494206445,0.00512705346579,-0.00134808522725,0.564452043382,0.825448839548
1385574300336760867,1139080,1385574300336760867,/world,vicon/Archie/Archie,0.479894902698,-0.431543422694,0.111436381924,0.00527529655185,-0.00154719629217,0.564375247467,0.825500065098
1385574300346665451,1139081,1385574300346665451,/world,vicon/Archie/Archie,0.479910644962,-0.431543748732,0.111446753086,0.0052816037543,-0.00157803505326,0.564353459706,0.825514861759
1385574300356774989,1139082,1385574300356774989,/world,vicon/Archie/Archie,0.479988154005,-0.431570468906,0.111497955548,0.00512657055132,-0.00133811428596,0.564451765432,0.825449048836
1385574300366869761,1139083,1385574300366869761,/world,vicon/Archie/Archie,0.480015640616,-0.431576493348,0.111513602427,0.00514172061509,-0.00132641882582,0.564440548222,0.825456643831
1385574300376627369,1139084,1385574300376627369,/world,vicon/Archie/Archie,0.479989029726,-0.431560140196,0.11149515563,0.00511300891855,-0.00132548627408,0.564441509731,0.8254561662
1385574300386680944,1139085,1385574300386680944,/world,vicon/Archie/Archie,0.479974939603,-0.43156830241,0.111496544542,0.00513152107601,-0.00133004725654,0.564455996512,0.825446137836
1385574300396678152,1139086,1385574300396678152,/world,vicon/Archie/Archie,0.47998532902,-0.431609430209,0.111517297319,0.00521034260391,-0.00144051874419,0.564433138931,0.825461088672
1385574300406755934,1139087,1385574300406755934,/world,vicon/Archie/Archie,0.47990203038,-0.431541189806,0.111445326626,0.0052935077762,-0.00156746121912,0.564365155775,0.825506809656
1385574300416727278,1139088,1385574300416727278,/world,vicon/Archie/Archie,0.480046312602,-0.431558737935,0.111482491359,0.00511781711717,-0.00131481524027,0.564431780062,0.825462806469
1385574300426726209,1139089,1385574300426726209,/world,vicon/Archie/Archie,0.480005146369,-0.431607383186,0.11151926788,0.00519918306084,-0.00145755668038,0.564455658957,0.825445729952
1385574300436768395,1139090,1385574300436768395,/world,vicon/Archie/Archie,0.479988752753,-0.431571151401,0.111497094784,0.00512022478066,-0.00132723285888,0.564443779524,0.825454566592
1385574300446631873,1139091,1385574300446631873,/world,vicon/Archie/Archie,0.479986714616,-0.431564616216,0.111493982544,0.00513411539936,-0.00132635294501,0.56444889094,0.82545098653
1385574300456819602,1139092,1385574300456819602,/world,vicon/Archie/Archie,0.479987354244,-0.431569635636,0.111493858412,0.00514328025266,-0.00133263012185,0.564448106771,0.825451455585
1385574300466832861,1139093,1385574300466832861,/world,vicon/Archie/Archie,0.479904018586,-0.431541500577,0.111448253761,0.00527800781695,-0.00158400202987,0.564368627226,0.82550450403
1385574300476601591,1139094,1385574300476601591,/world,vicon/Archie/Archie,0.479914073405,-0.431550329109,0.111436942026,0.00528250005924,-0.001589819159,0.564374305322,0.825500582168
1385574300487159299,1139095,1385574300487159299,/world,vicon/Archie/Archie,0.480005286231,-0.431579730204,0.111468323913,0.00519385803282,-0.00149272164299,0.564471051566,0.82543517466
1385574300496700532,1139096,1385574300496700532,/world,vicon/Archie/Archie,0.48000484174,-0.431572345122,0.111513367324,0.00514054120646,-0.00135397251844,0.564447436035,0.825451896568
1385574300506659348,1139097,1385574300506659348,/world,vicon/Archie/Archie,0.479996245506,-0.431559031199,0.111499189301,0.00514145341045,-0.0013333922983,0.56443529218,0.825460228275
1385574300516719499,1139098,1385574300516719499,/world,vicon/Archie/Archie,0.479899510513,-0.431547719433,0.111438197092,0.00526837588433,-0.00158354438175,0.564369390439,0.825504044653
1385574300526662682,1139099,1385574300526662682,/world,vicon/Archie/Archie,0.47988920196,-0.431541450272,0.111445819666,0.00526752984312,-0.00159379507911,0.564376561995,0.825499127327
1385574300536801466,1139100,1385574300536801466,/world,vicon/Archie/Archie,0.479984214911,-0.431564426473,0.111499600088,0.00511492127941,-0.00131221564669,0.564448670284,0.825451279171
1385574300546683735,1139101,1385574300546683735,/world,vicon/Archie/Archie,0.479990314445,-0.43156176854,0.111501545007,0.00512141002453,-0.00133426927255,0.564456723794,0.825445696487
1385574300556711306,1139102,1385574300556711306,/world,vicon/Archie/Archie,0.479984435407,-0.431564565979,0.111496235748,0.00512115520589,-0.00132613004984,0.56443497836,0.825460580738
1385574300566787430,1139103,1385574300566787430,/world,vicon/Archie/Archie,0.479981086104,-0.431561920932,0.111493606419,0.00512181721571,-0.00133559708613,0.564431501902,0.825462938495
1385574300576610696,1139104,1385574300576610696,/world,vicon/Archie/Archie,0.479947413787,-0.431534944613,0.111436062515,0.0052642822961,-0.00156245374186,0.564345061267,0.825520743467
1385574300586732433,1139105,1385574300586732433,/world,vicon/Archie/Archie,0.47999461063,-0.43156006373,0.111499106576,0.00512566578694,-0.0013336013362,0.564443413287,0.825454772992
1385574300596622786,1139106,1385574300596622786,/world,vicon/Archie/Archie,0.47998450079,-0.431564003236,0.111495042592,0.00512372556836,-0.00134305522631,0.564439530676,0.825457424613
1385574300606714127,1139107,1385574300606714127,/world,vicon/Archie/Archie,0.479988250277,-0.431567292286,0.111491267286,0.00512199220468,-0.00133632062704,0.564455014169,0.82544685863
1385574300616776463,1139108,1385574300616776463,/world,vicon/Archie/Archie,0.47998619926,-0.431562355749,0.11149827863,0.00510130379005,-0.00133021501132,0.564447587728,0.825452074887
1385574300626682162,1139109,1385574300626682162,/world,vicon/Archie/Archie,0.479948124259,-0.431532194215,0.111451602723,0.00526575251008,-0.00154932909571,0.564367812134,0.825505205348
1385574300636721317,1139110,1385574300636721317,/world,vicon/Archie/Archie,0.479979268644,-0.431563435041,0.111497396232,0.00512088926692,-0.00133518185252,0.564443747966,0.82545457123
1385574300646739647,1139111,1385574300646739647,/world,vicon/Archie/Archie,0.480035740235,-0.431554077398,0.11150034288,0.00510932709863,-0.00131128924671,0.564432869461,0.825462119767
1385574300656825294,1139112,1385574300656825294,/world,vicon/Archie/Archie,0.479896202892,-0.431546711634,0.111438272243,0.00527287270083,-0.0015738421815,0.564372966018,0.825501589982
1385574300666719573,1139113,1385574300666719573,/world,vicon/Archie/Archie,0.479995006044,-0.431577458862,0.11150895164,0.00513621892046,-0.00132032621584,0.564455777977,0.825446273662
1385574300676579703,1139114,1385574300676579703,/world,vicon/Archie/Archie,0.479897422114,-0.431543918519,0.11144656607,0.00525946478223,-0.0015651085872,0.564375276227,0.825500112689
1385574300686811142,1139115,1385574300686811142,/world,vicon/Archie/Archie,0.479980003232,-0.431555928854,0.111501321659,0.00508597024382,-0.00132946509014,0.564443090994,0.825455245582
1385574300696603917,1139116,1385574300696603917,/world,vicon/Archie/Archie,0.479904138834,-0.431544051819,0.111442571703,0.00526740123422,-0.00157178569607,0.564365001203,0.825507074101
1385574300706779310,1139117,1385574300706779310,/world,vicon/Archie/Archie,0.479993792015,-0.431613932255,0.111520523389,0.00520109157637,-0.00143470173403,0.564439666366,0.825456693782
1385574300716943437,1139118,1385574300716943437,/world,vicon/Archie/Archie,0.480006993249,-0.431581926792,0.11147344021,0.00518963307336,-0.00150948607298,0.564454931609,0.825446194093
1385574300726718128,1139119,1385574300726718128,/world,vicon/Archie/Archie,0.479904610314,-0.431537768493,0.111439286328,0.00525276311225,-0.001568501978,0.564374401531,0.825500746927
1385574300736766639,1139120,1385574300736766639,/world,vicon/Archie/Archie,0.479978986214,-0.431563131976,0.111493989349,0.00511626276075,-0.00133367932237,0.564445984666,0.825453072893
1385574300746638174,1139121,1385574300746638174,/world,vicon/Archie/Archie,0.479913692488,-0.43154233137,0.111449292103,0.00527084980331,-0.00156755020968,0.564372713305,0.825501787645
1385574300756783869,1139122,1385574300756783869,/world,vicon/Archie/Archie,0.479978071415,-0.43156606159,0.111495806323,0.00511417602771,-0.00132887041076,0.564451144274,0.825449565409
1385574300766793543,1139123,1385574300766793543,/world,vicon/Archie/Archie,0.480010881983,-0.431612425651,0.111538531984,0.0052162765233,-0.0014591504772,0.564443165561,0.82545416238
1385574300776634177,1139124,1385574300776634177,/world,vicon/Archie/Archie,0.48000283556,-0.431606543016,0.111518541453,0.0052222038996,-0.00143308640764,0.5644401545,0.82545622951
1385574300786797676,1139125,1385574300786797676,/world,vicon/Archie/Archie,0.479994827282,-0.431566719794,0.111499603272,0.00512668639342,-0.00133376057478,0.564445287414,0.825453484871
1385574300796643948,1139126,1385574300796643948,/world,vicon/Archie/Archie,0.479940248495,-0.431600208394,0.111444544677,0.00545508591662,-0.00191352345158,0.564379950679,0.825494913211
1385574300806777947,1139127,1385574300806777947,/world,vicon/Archie/Archie,0.479985130075,-0.431561708456,0.11149977035,0.00510580532435,-0.00133692025546,0.564432968216,0.825462032917
1385574300816787100,1139128,1385574300816787100,/world,vicon/Archie/Archie,0.479913554438,-0.431546181833,0.111449239522,0.00525545721409,-0.00157814623259,0.564371925932,0.825502403899
1385574300826734111,1139129,1385574300826734111,/world,vicon/Archie/Archie,0.479975554296,-0.431561838825,0.111491900761,0.00510930678621,-0.00131887743637,0.564448966635,0.825451100679
1385574300836751773,1139130,1385574300836751773,/world,vicon/Archie/Archie,0.479985587,-0.431568193799,0.111504872191,0.00510323793637,-0.00131656415918,0.564444627065,0.825454109323
1385574300846709462,1139131,1385574300846709462,/world,vicon/Archie/Archie,0.480002682553,-0.431600697866,0.111527742187,0.00519222278956,-0.00141850555294,0.564444334089,0.825453585842
1385574300856728303,1139132,1385574300856728303,/world,vicon/Archie/Archie,0.480032880732,-0.431553246968,0.111500239537,0.00510920653519,-0.00127925285999,0.56444006212,0.825457252554
1385574300866751764,1139133,1385574300866751764,/world,vicon/Archie/Archie,0.479981734865,-0.431567528289,0.111507463956,0.00509797643495,-0.00130378051127,0.564443128538,0.825455186815
1385574300876667587,1139134,1385574300876667587,/world,vicon/Archie/Archie,0.479992041529,-0.431567955993,0.111500848975,0.00510727311862,-0.00132244985013,0.564450128282,0.825450313205
1385574300886813466,1139135,1385574300886813466,/world,vicon/Archie/Archie,0.479980655806,-0.431564733598,0.111505468495,0.00512341025222,-0.00131501526528,0.56443003776,0.825463962797
1385574300896655898,1139136,1385574300896655898,/world,vicon/Archie/Archie,0.479994287813,-0.431603851996,0.111531080131,0.00517849119603,-0.00141926396058,0.56444552604,0.825452855742
1385574300906728453,1139137,1385574300906728453,/world,vicon/Archie/Archie,0.479996911585,-0.431568955088,0.111502256058,0.00511394885741,-0.00132658371025,0.564443811671,0.825454584559
1385574300917208642,1139138,1385574300917208642,/world,vicon/Archie/Archie,0.479898020367,-0.431544965608,0.111454050108,0.00525537620888,-0.0015625361794,0.564367372316,0.825505547266
1385574300926712697,1139139,1385574300926712697,/world,vicon/Archie/Archie,0.480040443728,-0.431600471043,0.111535917454,0.00519790188452,-0.00140120861493,0.564435163226,0.825459850595
1385574300936799060,1139140,1385574300936799060,/world,vicon/Archie/Archie,0.480000228637,-0.431583966943,0.111482011802,0.00516074009289,-0.0014880196229,0.564462729785,0.82544108163
1385574300946626803,1139141,1385574300946626803,/world,vicon/Archie/Archie,0.479987150499,-0.431573039603,0.111492093961,0.00511474251118,-0.00133162209636,0.564444151757,0.825454338979
1385574300956824766,1139142,1385574300956824766,/world,vicon/Archie/Archie,0.480025110224,-0.431557066527,0.11150871048,0.00511153839675,-0.00128379977289,0.564436613892,0.825459588915
1385574300966778210,1139143,1385574300966778210,/world,vicon/Archie/Archie,0.479995255006,-0.43156753012,0.11150974568,0.00513845604054,-0.00135415394438,0.56444375837,0.825454424044
1385574300976648359,1139144,1385574300976648359,/world,vicon/Archie/Archie,0.479998970022,-0.431563818628,0.111503707684,0.00511323610351,-0.00132846574569,0.564430704619,0.825463548365
1385574300986703139,1139145,1385574300986703139,/world,vicon/Archie/Archie,0.480044172926,-0.43155767109,0.111492010568,0.00510650586904,-0.0013001228953,0.564426243881,0.825466685273
1385574300996733165,1139146,1385574300996733165,/world,vicon/Archie/Archie,0.479982913401,-0.431567581253,0.111507855458,0.00510854893254,-0.00132294421955,0.564427223614,0.825465966463
1385574301006795156,1139147,1385574301006795156,/world,vicon/Archie/Archie,0.47998582182,-0.4315637748,0.111496374293,0.0051068873954,-0.00131733504963,0.564444654794,0.825454066562
1385574301016782799,1139148,1385574301016782799,/world,vicon/Archie/Archie,0.480081821647,-0.431562120696,0.111530691068,0.00514732000043,-0.00132111637846,0.564385888957,0.825493990344
1385574301026805755,1139149,1385574301026805755,/world,vicon/Archie/Archie,0.47999697604,-0.43156273622,0.111505944264,0.0051075721396,-0.00131352516135,0.564442145211,0.825455784442
1385574301036755094,1139150,1385574301036755094,/world,vicon/Archie/Archie,0.479993210199,-0.431568926399,0.111506338126,0.00508582925785,-0.00132631246149,0.564441214018,0.825456534988
1385574301046747293,1139151,1385574301046747293,/world,vicon/Archie/Archie,0.479989724578,-0.43155621424,0.111501315687,0.00512073932497,-0.00130796422307,0.564434859987,0.825460693244
1385574301056806295,1139152,1385574301056806295,/world,vicon/Archie/Archie,0.479998336722,-0.431574493571,0.111522914249,0.00511836481659,-0.00132013476328,0.564436608237,0.825459493172
1385574301066874023,1139153,1385574301066874023,/world,vicon/Archie/Archie,0.479997855828,-0.431575468831,0.111506968697,0.00511705272492,-0.00130918002703,0.564439329572,0.82545765794
1385574301076749718,1139154,1385574301076749718,/world,vicon/Archie/Archie,0.480001726683,-0.431567049293,0.111503020651,0.00511308276216,-0.00133939325838,0.564432434528,0.825462348786
1385574301086756690,1139155,1385574301086756690,/world,vicon/Archie/Archie,0.479991393954,-0.431567568929,0.111509870574,0.00509759962001,-0.00129095306162,0.564447580016,0.825452165381
1385574301096700393,1139156,1385574301096700393,/world,vicon/Archie/Archie,0.479994613945,-0.431612712241,0.111529917333,0.00520639684055,-0.00142400200624,0.56443640305,0.825458910281
1385574301106796989,1139157,1385574301106796989,/world,vicon/Archie/Archie,0.47998180158,-0.431564222129,0.111505302063,0.00510875912399,-0.00128905189986,0.5644409219,0.825456652169
1385574301116791648,1139158,1385574301116791648,/world,vicon/Archie/Archie,0.479984226826,-0.43156083757,0.111509400627,0.00510173419802,-0.00130035414786,0.564438084469,0.825458618096
1385574301126623203,1139159,1385574301126623203,/world,vicon/Archie/Archie,0.479999426668,-0.431582063609,0.111481518456,0.00513933281821,-0.00143604529815,0.564467796976,0.825437842123
1385574301136785655,1139160,1385574301136785655,/world,vicon/Archie/Archie,0.479987432192,-0.43156568689,0.111505302111,0.00508809163098,-0.00128412597582,0.564445571326,0.825453608239
1385574301146801000,1139161,1385574301146801000,/world,vicon/Archie/Archie,0.479991458967,-0.431569147344,0.111505456165,0.00509844721136,-0.00131353570097,0.564452431974,0.82544880671
1385574301156774817,1139162,1385574301156774817,/world,vicon/Archie/Archie,0.479988723557,-0.431571687268,0.111506531172,0.00510517541887,-0.00131695975017,0.564446978347,0.825452488903
1385574301166784319,1139163,1385574301166784319,/world,vicon/Archie/Archie,0.479992540025,-0.431616296352,0.111521952168,0.00519110279928,-0.00143245778515,0.564445584043,0.825452714073
1385574301176690251,1139164,1385574301176690251,/world,vicon/Archie/Archie,0.479980820002,-0.431564757487,0.111501787623,0.00510279412541,-0.0013006429435,0.564453424975,0.825448121237
1385574301186711677,1139165,1385574301186711677,/world,vicon/Archie/Archie,0.479991614483,-0.431569721739,0.11151362062,0.00510641748736,-0.00131724112911,0.56444999888,0.825450415313
1385574301196634955,1139166,1385574301196634955,/world,vicon/Archie/Archie,0.479994439182,-0.431565995936,0.111498472687,0.00512546398145,-0.00132251788027,0.564434182593,0.825461103921
1385574301206861140,1139167,1385574301206861140,/world,vicon/Archie/Archie,0.480000629983,-0.431603604832,0.111523846438,0.0051992903619,-0.00143428442262,0.564441083407,0.825455736893
1385574301217348874,1139168,1385574301217348874,/world,vicon/Archie/Archie,0.479955031748,-0.43158205371,0.111490822999,0.00517057527466,-0.00141335100641,0.564449658322,0.825450089836
1385574301226675434,1139169,1385574301226675434,/world,vicon/Archie/Archie,0.479985178819,-0.431574106349,0.111496389006,0.00511411601325,-0.00133279217073,0.564450504757,0.825449996767
1385574301236852839,1139170,1385574301236852839,/world,vicon/Archie/Archie,0.479982266678,-0.431569470202,0.111493139286,0.00512198833316,-0.00130435292449,0.56444542541,0.825453466667
1385574301246680487,1139171,1385574301246680487,/world,vicon/Archie/Archie,0.479981385191,-0.431573538738,0.111499810048,0.00513011477668,-0.00132940821273,0.564449492037,0.825450595454
1385574301256656576,1139172,1385574301256656576,/world,vicon/Archie/Archie,0.480042521638,-0.431556891092,0.111525753751,0.00515565510201,-0.0013181491979,0.564392119398,0.825489683318
1385574301266803249,1139173,1385574301266803249,/world,vicon/Archie/Archie,0.479984942476,-0.431563225408,0.111504032294,0.00510866397412,-0.00131210908497,0.564453257583,0.825448181248
1385574301276559863,1139174,1385574301276559863,/world,vicon/Archie/Archie,0.479996553509,-0.431562888263,0.111501130237,0.00511867899184,-0.00132624992991,0.564443721477,0.825454617451
1385574301286681939,1139175,1385574301286681939,/world,vicon/Archie/Archie,0.479990973949,-0.431610485077,0.111519866788,0.00522393566487,-0.00143681047318,0.56444092568,0.825455684752
1385574301296691062,1139176,1385574301296691062,/world,vicon/Archie/Archie,0.479889300976,-0.431540878662,0.111448683211,0.00528113552135,-0.00159737448145,0.564367967598,0.825504909224
1385574301306785558,1139177,1385574301306785558,/world,vicon/Archie/Archie,0.47997682515,-0.431564165395,0.111498822924,0.00510557212326,-0.00129028804053,0.564452321629,0.825448874793
1385574301316867486,1139178,1385574301316867486,/world,vicon/Archie/Archie,0.479908896974,-0.431547234819,0.111444905533,0.00526249218426,-0.00158017166634,0.564381341615,0.8254959179
1385574301326684654,1139179,1385574301326684654,/world,vicon/Archie/Archie,0.479976016673,-0.431563134244,0.111499256992,0.00511504188601,-0.0013283752268,0.564453389055,0.825448025832
1385574301336917395,1139180,1385574301336917395,/world,vicon/Archie/Archie,0.479994194071,-0.431607375947,0.111521554402,0.00520063021387,-0.00145573016469,0.564444342428,0.825453462405
1385574301346787076,1139181,1385574301346787076,/world,vicon/Archie/Archie,0.479902154756,-0.431541506837,0.111443826396,0.00527184874096,-0.00157147388849,0.564365129155,0.825506958828
1385574301356780882,1139182,1385574301356780882,/world,vicon/Archie/Archie,0.479977133359,-0.431570359804,0.111499268034,0.00511615134246,-0.00130401664045,0.564450430954,0.825450080581
1385574301366782284,1139183,1385574301366782284,/world,vicon/Archie/Archie,0.47997918676,-0.431555210682,0.111499395111,0.00510740103472,-0.00132647482384,0.564448923188,0.825451130008
1385574301376842987,1139184,1385574301376842987,/world,vicon/Archie/Archie,0.479985079986,-0.43157334081,0.111500116507,0.00511854390171,-0.00131542701153,0.564447879007,0.825451792684
1385574301386744233,1139185,1385574301386744233,/world,vicon/Archie/Archie,0.479987257748,-0.431560911158,0.111497716253,0.00512954165578,-0.00130669009859,0.564431159556,0.825463170884
1385574301396702236,1139186,1385574301396702236,/world,vicon/Archie/Archie,0.480010097898,-0.431579283394,0.111471967055,0.00518000593326,-0.00149110201318,0.564457865134,0.825444281973
1385574301406854767,1139187,1385574301406854767,/world,vicon/Archie/Archie,0.480043498863,-0.431557248652,0.111510972101,0.00508884082694,-0.00131851954465,0.564432090591,0.825462767372
1385574301416938945,1139188,1385574301416938945,/world,vicon/Archie/Archie,0.479975021614,-0.431566880531,0.111501379737,0.0051139913571,-0.00131250566608,0.564442989979,0.82545516867
1385574301426680466,1139189,1385574301426680466,/world,vicon/Archie/Archie,0.479900687707,-0.43155225385,0.111445507523,0.00527066514408,-0.00157150628123,0.564369964474,0.825503660596
1385574301436853692,1139190,1385574301436853692,/world,vicon/Archie/Archie,0.479994128903,-0.4316023164,0.111522091877,0.00519867200837,-0.00145134627309,0.564433317759,0.82546102101
1385574301446685872,1139191,1385574301446685872,/world,vicon/Archie/Archie,0.479986678825,-0.43156843838,0.111496957815,0.00511979834994,-0.00130030333344,0.56444570195,0.825453297544
1385574301456699066,1139192,1385574301456699066,/world,vicon/Archie/Archie,0.479997965508,-0.43157079231,0.111511183649,0.00514008583631,-0.0013242947465,0.564434694801,0.825460659914
1385574301466878425,1139193,1385574301466878425,/world,vicon/Archie/Archie,0.479856297331,-0.431505173856,0.111392629727,0.00522043368113,-0.00157060200283,0.564374455856,0.825500910877
1385574301476670706,1139194,1385574301476670706,/world,vicon/Archie/Archie,0.479895145611,-0.431540862453,0.111443952801,0.00525806486687,-0.00154898789522,0.564367343478,0.825505575394
1385574301486744642,1139195,1385574301486744642,/world,vicon/Archie/Archie,0.48000204065,-0.431607642736,0.111524262916,0.00522925211697,-0.00145101466725,0.564443669475,0.825453750048
1385574301496678662,1139196,1385574301496678662,/world,vicon/Archie/Archie,0.479981013761,-0.431563408262,0.111500233424,0.00511953559925,-0.00130598013787,0.564434738255,0.825460787089
1385574301506731482,1139197,1385574301506731482,/world,vicon/Archie/Archie,0.479983338164,-0.431569450548,0.111496881784,0.00513623318968,-0.00131918769849,0.564455458772,0.825446493672
1385574301516774862,1139198,1385574301516774862,/world,vicon/Archie/Archie,0.479986788485,-0.431564872051,0.111496796092,0.00512324112657,-0.00131970594451,0.564445226568,0.825453570458
1385574301526633542,1139199,1385574301526633542,/world,vicon/Archie/Archie,0.479986857023,-0.431570095255,0.111498169885,0.00512287161568,-0.00131911984081,0.564457037261,0.825445497411
1385574301536990843,1139200,1385574301536990843,/world,vicon/Archie/Archie,0.479896885921,-0.43154150025,0.111443956997,0.00527460189224,-0.00156372738108,0.564376991128,0.825498846285
1385574301546729736,1139201,1385574301546729736,/world,vicon/Archie/Archie,0.47997667483,-0.43157095432,0.111496736773,0.00512137523975,-0.00133875478423,0.564461096346,0.825442699382
1385574301556721035,1139202,1385574301556721035,/world,vicon/Archie/Archie,0.479987305902,-0.431568270989,0.111501927724,0.00512462554093,-0.00131452736844,0.564448990367,0.825450996429
1385574301567250755,1139203,1385574301567250755,/world,vicon/Archie/Archie,0.479983202357,-0.431560128558,0.111498457073,0.00513051534446,-0.0013277927615,0.564446649158,0.82545253954
1385574301576692469,1139204,1385574301576692469,/world,vicon/Archie/Archie,0.479903829076,-0.431572517984,0.111468247132,0.00537203488714,-0.00168070456533,0.564371200643,0.825501946913
1385574301586795723,1139205,1385574301586795723,/world,vicon/Archie/Archie,0.479981075681,-0.431562284751,0.111498110441,0.00513119972514,-0.00133595281561,0.564438041186,0.825458408208
1385574301596671928,1139206,1385574301596671928,/world,vicon/Archie/Archie,0.479987259776,-0.431558784246,0.111499442391,0.00510226351777,-0.00132485888436,0.564449608882,0.825450695493
1385574301606805420,1139207,1385574301606805420,/world,vicon/Archie/Archie,0.479970510966,-0.431563996711,0.111496542737,0.00511966073227,-0.00131806561515,0.564462549971,0.825441749282
1385574301616857369,1139208,1385574301616857369,/world,vicon/Archie/Archie,0.479908019821,-0.431586014516,0.111475196693,0.00537366784592,-0.00173621140774,0.564363625712,0.825507000114
1385574301626730878,1139209,1385574301626730878,/world,vicon/Archie/Archie,0.479979207887,-0.431561690394,0.111498547662,0.00512345533048,-0.00131487254389,0.564454044843,0.825447546835
1385574301636764564,1139210,1385574301636764564,/world,vicon/Archie/Archie,0.479980649157,-0.43156058782,0.111498781005,0.0051285201675,-0.00131485438957,0.564462977477,0.825441407065
1385574301646726551,1139211,1385574301646726551,/world,vicon/Archie/Archie,0.479975778887,-0.431559468395,0.111498783174,0.0051106213384,-0.00132313831321,0.564449499641,0.825450721248
1385574301656660843,1139212,1385574301656660843,/world,vicon/Archie/Archie,0.480038023349,-0.431569394172,0.111539509107,0.00518056261777,-0.00131977273481,0.564397182656,0.825486062984
1385574301666808790,1139213,1385574301666808790,/world,vicon/Archie/Archie,0.47998927319,-0.431552784336,0.111505073114,0.00511061994785,-0.0013123049321,0.564432503832,0.825462360158
1385574301676636285,1139214,1385574301676636285,/world,vicon/Archie/Archie,0.479907376743,-0.431551365303,0.111437950125,0.0052741861221,-0.00158480511401,0.564373962768,0.825500879165
1385574301686818151,1139215,1385574301686818151,/world,vicon/Archie/Archie,0.479991561375,-0.431575776146,0.111522762026,0.00513125124057,-0.00133719063349,0.564437080923,0.825459062499
1385574301696668154,1139216,1385574301696668154,/world,vicon/Archie/Archie,0.479986937978,-0.431561438878,0.111498803167,0.0051174373199,-0.00131205393674,0.564438887743,0.82545795311
1385574301706721636,1139217,1385574301706721636,/world,vicon/Archie/Archie,0.479983246425,-0.431564688319,0.111496760586,0.0051069648358,-0.00133256341217,0.564456656365,0.82544583485
1385574301716850131,1139218,1385574301716850131,/world,vicon/Archie/Archie,0.47998315931,-0.431562808581,0.111502521,0.00513843463553,-0.00133209643208,0.564434281426,0.825460940299
1385574301726658093,1139219,1385574301726658093,/world,vicon/Archie/Archie,0.479981386888,-0.431564314016,0.111494698681,0.0051254658482,-0.00132780597597,0.564455241942,0.825446695054
1385574301736807967,1139220,1385574301736807967,/world,vicon/Archie/Archie,0.479985969817,-0.431559602133,0.111515142853,0.00511521716348,-0.0013183811493,0.564439381246,0.825457619338
1385574301746649944,1139221,1385574301746649944,/world,vicon/Archie/Archie,0.479979069459,-0.431602596182,0.111523635605,0.00521595456929,-0.00140978666984,0.564454772622,0.825446313205
1385574301756699421,1139222,1385574301756699421,/world,vicon/Archie/Archie,0.480001054846,-0.431608587799,0.111517623137,0.00520982043291,-0.00141621214607,0.564435218077,0.825459712347
1385574301766832908,1139223,1385574301766832908,/world,vicon/Archie/Archie,0.479982065582,-0.43156055267,0.111500838868,0.00510731742938,-0.00132921474776,0.564442575616,0.825455466594
1385574301776699041,1139224,1385574301776699041,/world,vicon/Archie/Archie,0.480024746751,-0.43161715647,0.111496032141,0.00528472657772,-0.00161507129439,0.564462220516,0.825440406583
1385574301786797274,1139225,1385574301786797274,/world,vicon/Archie/Archie,0.479990692652,-0.431604110813,0.111516034483,0.00520905602447,-0.00142326599313,0.564441022439,0.825455736086
1385574301797507206,1139226,1385574301797507206,/world,vicon/Archie/Archie,0.479986181689,-0.431557601538,0.111500220815,0.00511641718524,-0.00131411140664,0.564452647543,0.825448547196
1385574301806791704,1139227,1385574301806791704,/world,vicon/Archie/Archie,0.479989056353,-0.431562238024,0.11151374043,0.00511693834376,-0.00133019938364,0.564440765252,0.82545664334
1385574301816810214,1139228,1385574301816810214,/world,vicon/Archie/Archie,0.47999031309,-0.431607507361,0.111523244544,0.00518034013285,-0.0014317909118,0.56445212919,0.825448307227
1385574301826738285,1139229,1385574301826738285,/world,vicon/Archie/Archie,0.479977395929,-0.431566721696,0.111502068896,0.00512936112008,-0.00133514925962,0.564458680382,0.825444307735
1385574301836796398,1139230,1385574301836796398,/world,vicon/Archie/Archie,0.479985082314,-0.431600108818,0.111524575784,0.00521126853926,-0.00145849030171,0.564454601079,0.825446375489
1385574301846651609,1139231,1385574301846651609,/world,vicon/Archie/Archie,0.479991483863,-0.431562858326,0.111502744283,0.00513165897506,-0.00134562724332,0.564443778179,0.825454466726
1385574301857025138,1139232,1385574301857025138,/world,vicon/Archie/Archie,0.480012633514,-0.431580526675,0.111475960991,0.00518097426517,-0.00148120868254,0.564465673707,0.825438953971
1385574301866833680,1139233,1385574301866833680,/world,vicon/Archie/Archie,0.479935061597,-0.43152999238,0.111456775982,0.00508438428915,-0.00128737789064,0.564454322906,0.825447641615
1385574301876669151,1139234,1385574301876669151,/world,vicon/Archie/Archie,0.480027200035,-0.431552712994,0.11151080037,0.00511923754697,-0.00129020199512,0.564432871069,0.825462090494
1385574301886793315,1139235,1385574301886793315,/world,vicon/Archie/Archie,0.479992976523,-0.431562396321,0.111501726506,0.00510812961738,-0.00130175990954,0.564451684099,0.82544927691
1385574301896627846,1139236,1385574301896627846,/world,vicon/Archie/Archie,0.479976355547,-0.431558433229,0.111499683157,0.0051123459798,-0.00129500840606,0.564460937265,0.825442933929
1385574301906764508,1139237,1385574301906764508,/world,vicon/Archie/Archie,0.479989950762,-0.431567760417,0.11151027778,0.00510670003421,-0.00129617088619,0.564449281974,0.825450937146
1385574301916836691,1139238,1385574301916836691,/world,vicon/Archie/Archie,0.479982622264,-0.431565065544,0.111500732472,0.00511406877636,-0.00134317641273,0.564455341753,0.825446672623
1385574301926713986,1139239,1385574301926713986,/world,vicon/Archie/Archie,0.479977014894,-0.4315624884,0.111501722006,0.00512304047157,-0.00130140985327,0.564447802894,0.825451839054
1385574301936871018,1139240,1385574301936871018,/world,vicon/Archie/Archie,0.479982054359,-0.431565250031,0.111496384594,0.00512377260327,-0.00130045110617,0.564444028952,0.825454416647
1385574301946650000,1139241,1385574301946650000,/world,vicon/Archie/Archie,0.479988979872,-0.4315599439,0.111502240003,0.00512647624079,-0.00132783215498,0.564449676755,0.825450494285
1385574301956760137,1139242,1385574301956760137,/world,vicon/Archie/Archie,0.479966791074,-0.431561434796,0.111508735417,0.00512320995763,-0.00131826884914,0.564453028352,0.825448238032
1385574301966810028,1139243,1385574301966810028,/world,vicon/Archie/Archie,0.479997711637,-0.431571590424,0.1115196293,0.00513636875943,-0.00133360342785,0.56444450574,0.825453959441
1385574301976642126,1139244,1385574301976642126,/world,vicon/Archie/Archie,0.479980258561,-0.431568555033,0.111506443527,0.00513559933638,-0.00132295004324,0.564438694852,0.825457954821
1385574301986745675,1139245,1385574301986745675,/world,vicon/Archie/Archie,0.479976912854,-0.43156458945,0.111501811774,0.00511405938366,-0.00131805619865,0.564452405324,0.82544872115
1385574301996743676,1139246,1385574301996743676,/world,vicon/Archie/Archie,0.480006432551,-0.431586138031,0.111473572204,0.00518343881787,-0.00148299108436,0.564466309723,0.825438500367
1385574302006775607,1139247,1385574302006775607,/world,vicon/Archie/Archie,0.479986965252,-0.43156563541,0.111510189677,0.00512478919335,-0.00132476957492,0.564428113422,0.825465254447
1385574302016761701,1139248,1385574302016761701,/world,vicon/Archie/Archie,0.479977997121,-0.431561144153,0.111501426437,0.00512173681623,-0.00130643767756,0.564453137724,0.825448191194
1385574302026684644,1139249,1385574302026684644,/world,vicon/Archie/Archie,0.479986126683,-0.431565633713,0.111504059224,0.00513209590096,-0.00133431550565,0.564446107182,0.825452889801
1385574302036736563,1139250,1385574302036736563,/world,vicon/Archie/Archie,0.479991783401,-0.431556442973,0.111502376385,0.00511835210419,-0.00132819033276,0.564443056138,0.825455071315
1385574302046645435,1139251,1385574302046645435,/world,vicon/Archie/Archie,0.479988657135,-0.431563087225,0.111507483405,0.0051248461033,-0.00132114407018,0.564429274908,0.825464465714
1385574302056786239,1139252,1385574302056786239,/world,vicon/Archie/Archie,0.479994853121,-0.431562641331,0.111502925089,0.00510700246549,-0.00133615615362,0.564432176083,0.825462568391
1385574302066823317,1139253,1385574302066823317,/world,vicon/Archie/Archie,0.479988365461,-0.431564097493,0.111501608792,0.00514207339173,-0.00130169661736,0.564455669765,0.825446340798
1385574302076711975,1139254,1385574302076711975,/world,vicon/Archie/Archie,0.479983655531,-0.431557911711,0.111506253715,0.00510151981614,-0.00130919066573,0.564441982046,0.825455940326
