%time,field.linear.x,field.linear.y,field.linear.z,field.angular.x,field.angular.y,field.angular.z
1385574301769792835,0.0,0.0,0.0,0.0,0.0,0.0
1385574301769809086,0.479982065582,0.43156055267,-0.111500838868,0.00693147049151,0.00796007403009,-1.19950709353
1385574301779513118,0.480024746751,0.43161715647,-0.111496032141,0.00690147218084,0.0086324544232,-1.19955432712
1385574301789512942,0.479990692652,0.431604110813,-0.111516034483,0.00699328477275,0.00823018888585,-1.19950303453
1385574301800589872,0.479986181689,0.431557601538,-0.111500220815,0.00696344701664,0.00794549675604,-1.19953145676
1385574301809475077,0.479989056353,0.431562238024,-0.11151374043,0.00694626059711,0.0079725454829,-1.19950267407
1385574301819459442,0.47999031309,0.431607507361,-0.111523244544,0.0069361406152,0.00821193910106,-1.19953005632
1385574301829517066,0.479977395929,0.431566721696,-0.111502068896,0.00696100938094,0.00799489270047,-1.19954604048
1385574301839502578,0.479985082314,0.431600108818,-0.111524575784,0.00695703756226,0.00829095506164,-1.19953595742
1385574301849512170,0.479991483863,0.431562858326,-0.111502744283,0.00695311913351,0.00801465980055,-1.19950993174
1385574301859512922,0.480012633514,0.431580526675,-0.111475960991,0.00688126404834,0.00829435405232,-1.19956291856
1385574301869502652,0.479935061597,0.43152999238,-0.111456775982,0.00694072441568,0.00786521256219,-1.19953561393
1385574301879500854,0.480027200035,0.431552712994,-0.11151080037,0.00699528405763,0.00790904002006,-1.19948351843
1385574301889533348,0.479992976523,0.431562396321,-0.111501726506,0.00696371710051,0.00791574094741,-1.1995291449
1385574301899496394,0.479976355547,0.431558433229,-0.111499683157,0.00697821131922,0.0079094327507,-1.19955154682
1385574301909462040,0.479989950762,0.431567760417,-0.11151027778,0.00696768927697,0.00790487960581,-1.19952332695
1385574301919664641,0.479982622264,0.431565065544,-0.111500732472,0.00692673244397,0.00799085291978,-1.19953800979
1385574301929537349,0.479977014894,0.4315624884,-0.111501722006,0.00698876723453,0.00793196336448,-1.19951968892
1385574301939516329,0.479982054359,0.431565250031,-0.111496384594,0.00699109455485,0.00793117507125,-1.19951054194
1385574301949548872,0.479988979872,0.4315599439,-0.111502240003,0.00696459385812,0.00797947980943,-1.19952423112
1385574301959624984,0.479966791074,0.431561434796,-0.111508735417,0.00696996482375,0.00796003220896,-1.19953235793
1385574301969617117,0.479997711637,0.431571590424,-0.1115196293,0.00697446133411,0.00800013204841,-1.19951167073
1385574301979547793,0.479980258561,0.431568555033,-0.111506443527,0.00698527356511,0.0079816259939,-1.19949758814
1385574301989533659,0.479976912854,0.43156458945,-0.111501811774,0.00695510339735,0.00794934556969,-1.19953088025
1385574301999537977,0.480006432551,0.431586138031,-0.111473572204,0.00688331437212,0.00830008433627,-1.19956445246
1385574302009521625,0.479986965252,0.43156563541,-0.111510189677,0.00696547412538,0.00797233715157,-1.19947198935
1385574302019511466,0.479977997121,0.431561144153,-0.111501426437,0.00698088777111,0.00793883745952,-1.19953262188
1385574302029529531,0.479986126683,0.431565633713,-0.111504059224,0.00696658748301,0.00799649750709,-1.19951556634
1385574302039523847,0.479991783401,0.431556442973,-0.111502376385,0.00695084055744,0.00797084390331,-1.19950821857
1385574302049533855,0.479988657135,0.431563087225,-0.111507483405,0.00696964950579,0.00796642557144,-1.19947480129
1385574302059572796,0.479994853121,0.431562641331,-0.111502925089,0.00692321494071,0.00797109122171,-1.19948190174
1385574302069537066,0.479988365461,0.431564097493,-0.111501608792,0.00701979096537,0.00795399024908,-1.19953868351
1385574302079534576,0.479983655531,0.431557911711,-0.111506253715,0.00694450896783,0.0079204651502,-1.19950566441
1385574302089584885,0.479990172356,0.43156350776,-0.111504358871,0.00698074864851,0.00795967847447,-1.19950854153
1385574302099579209,0.479981788949,0.431565143802,-0.111519765242,0.0070142392746,0.00794513230125,-1.1995504218
1385574302109567526,0.479983627231,0.431568380632,-0.111503353536,0.00696395271726,0.00794591937557,-1.19952574023
1385574302119516599,0.480014684699,0.431556973539,-0.111507628914,0.00699453181624,0.00789553011722,-1.19945997671
1385574302129580448,0.479978927964,0.431560988599,-0.111503633051,0.00698229886959,0.0079705165033,-1.19948738988
1385574302139566177,0.479975558575,0.431562273913,-0.111494626809,0.00696065601943,0.00790711989725,-1.19953436897
1385574302149531386,0.479996136305,0.431607864557,-0.111522522709,0.00698494605673,0.00820368539621,-1.1995382416
1385574302159596755,0.479998507593,0.431564480156,-0.111498993163,0.00696040438399,0.00797608459154,-1.19951463366
1385574302169587843,0.479985244271,0.431563867831,-0.111508295453,0.00696751455296,0.00796997848987,-1.19949778653
1385574302179558497,0.479975705884,0.431560263897,-0.11150507886,0.0069931913782,0.00801186029655,-1.19950982961
1385574302189560587,0.479978178535,0.431562401054,-0.111499308973,0.00698298745793,0.00796533603385,-1.19951546765
1385574302199528659,0.479992208717,0.431574304753,-0.111522208805,0.00696992850899,0.00794904542663,-1.19952949909
1385574302209523683,0.479982794509,0.431570596907,-0.111496903233,0.00695832162049,0.00798873785292,-1.19953782144
1385574302219580121,0.480044450418,0.431595835824,-0.11153404493,0.00700500705645,0.00819080634509,-1.19946642424
1385574302229523841,0.479985852591,0.431561341544,-0.111506016472,0.00697599752223,0.00797595405609,-1.19950144478
1385574302239523757,0.47998436307,0.431566966429,-0.11150486362,0.00693860011944,0.00792258550884,-1.19951915985
1385574302249542156,0.479992311052,0.431562336838,-0.11149970059,0.00698929432423,0.00795727666525,-1.19951145719
1385574302259563312,0.479983373884,0.431561145961,-0.111494935679,0.00697535186883,0.00798283430552,-1.19951012171
1385574302269584799,0.479954406027,0.431540458593,-0.111468891808,0.00701020303515,0.00857941683699,-1.19898461053
1385574302279524742,0.4799724507,0.431621202024,-0.111533195248,0.00696356119816,0.00827369409017,-1.19990717775
1385574302289518862,0.479984313906,0.431609316623,-0.111555386416,0.00700797194009,0.00829436672273,-1.20023277346
1385574302299677680,0.480081218489,0.431605298347,-0.111539566047,0.00720591342249,0.00848775667827,-1.19927853579
1385574302309544542,0.480041890362,0.431562278477,-0.111509417423,0.00704777435861,0.00800857701649,-1.19899180687
1385574302319520836,0.479994575158,0.431611404714,-0.111523451781,0.00698545913316,0.00820188397176,-1.19980482242
1385574302329537560,0.479979322899,0.431605235622,-0.111532499615,0.00721551573221,0.00811080174862,-1.20013863064
1385574302339567335,0.480053460116,0.431522079899,-0.111501645093,0.00719361606597,0.00814446470706,-1.19910278681
1385574302349570774,0.480028845014,0.431525191538,-0.111529655771,0.00698885383505,0.00810635275974,-1.19890942905
1385574302359603382,0.480014187766,0.431558774464,-0.111566637925,0.00702034341061,0.0080722218754,-1.1998798438
1385574302369587957,0.47994514948,0.431614789921,-0.111603916434,0.00719442403423,0.00821796966435,-1.20047789159
1385574302379596125,0.479933834867,0.431665324089,-0.111597817284,0.0072916856612,0.00853795319209,-1.20002340642
1385574302389528577,0.480061902356,0.431579958335,-0.111582310456,0.00732213952488,0.00815111803558,-1.19891253079
1385574302399525965,0.47998840232,0.431602827032,-0.111553930935,0.00709214140505,0.00799063588798,-1.19956970569
1385574302409525156,0.479968295052,0.431596001044,-0.111556210802,0.0071454312921,0.00823225296215,-1.20041866515
1385574302419522881,0.479993760628,0.431589112913,-0.11151302152,0.00713380245737,0.00812395017306,-1.19968365222
1385574302429527113,0.480052701703,0.431593869845,-0.111569646883,0.00734432741441,0.00806146153202,-1.19926225095
1385574302439521785,0.479891076805,0.431645386429,-0.111568906563,0.007500488616,0.00859589414011,-1.20004878571
1385574302449581960,0.479915230659,0.431581155485,-0.111510623017,0.00699803309035,0.00840201883357,-1.20015396269
1385574302459590725,0.479943038816,0.431606867091,-0.111521563994,0.00713214917348,0.00823150238869,-1.19919988273
1385574302469557314,0.479858867704,0.431564825318,-0.111439975412,0.00723089689928,0.00837932529032,-1.19869562461
1385574302479531191,0.480026497155,0.431768384149,-0.111571220579,0.00705226168068,0.00796560828279,-1.20055862418
1385574302489504375,0.479995001265,0.431602240495,-0.111545013173,0.00702693375489,0.00798629622758,-1.19988667565
1385574302499524622,0.480049523483,0.431590710639,-0.11153961004,0.00712379758631,0.00805536464067,-1.19908888155
1385574302509571151,0.480061332281,0.43159450059,-0.111565653607,0.00716946747529,0.00802768456927,-1.19936347774
1385574302519550097,0.479993548333,0.431598118216,-0.111539600364,0.0070679414998,0.00786879152894,-1.20006656866
1385574302529507747,0.479971024953,0.431601040368,-0.111538190356,0.00730681296517,0.00800879471884,-1.19966710843
1385574302539509287,0.479955875453,0.431636468497,-0.111614809933,0.00784873801202,0.00864855241326,-1.19924979435
1385574302549561199,0.479997795362,0.431593637444,-0.111550010891,0.00705088349614,0.00788092555835,-1.19972379926
1385574302559627422,0.479938336173,0.431653813222,-0.111514218285,0.00736867861684,0.00783661189697,-1.19965706871
1385574302569512859,0.479998817318,0.431593176828,-0.111536291942,0.00704271146941,0.00802960189182,-1.1994278795
1385574302579510808,0.479997171254,0.431588661901,-0.111519895416,0.00709983917522,0.00797095847465,-1.19946842198
1385574302589606195,0.479994141373,0.431648327558,-0.111515348215,0.00667748611153,0.00811559695834,-1.19985614659
1385574302599607173,0.479951371931,0.431580199935,-0.111487951533,0.00704705199489,0.00839490618172,-1.19961119374
1385574302609519320,0.480040409667,0.43159832647,-0.111563936892,0.00723882495559,0.00805793505043,-1.19929303906
1385574302619531157,0.479940317897,0.431615068562,-0.111507511538,0.00747350059471,0.00768076373905,-1.19930578833
1385574302629590932,0.479985355545,0.431633578878,-0.111595530335,0.00736327904859,0.00823778080225,-1.19982920956
1385574302639588322,0.480050532134,0.431708969913,-0.11150974101,0.00697849170281,0.00772685161993,-1.20006796242
1385574302649605714,0.480027999009,0.431598237007,-0.111562676394,0.00715652902829,0.00788282547968,-1.19952480502
1385574302659553197,0.479955696081,0.431584917268,-0.111524106325,0.00718040150516,0.00784944032302,-1.19963416447
1385574302669567339,0.479936876433,0.431625920832,-0.111500721963,0.00746518575214,0.00764093695954,-1.19940513424
1385574302679594779,0.48000878269,0.431681939127,-0.111515077706,0.00702361578076,0.00786739653149,-1.20002140951
1385574302689715722,0.479980945155,0.431650447574,-0.111625880732,0.0070077828222,0.00845348130401,-1.19944901077
1385574302699609548,0.480007712577,0.431617172804,-0.111572559393,0.00724955403153,0.00784271366219,-1.19959611828
1385574302709548256,0.480011646395,0.431562097193,-0.111512683685,0.00712275332287,0.00798358496275,-1.19944927045
1385574302719520555,0.480030482739,0.431648199378,-0.111576518389,0.00729028587761,0.00827891152875,-1.19957145433
1385574302729548838,0.480028105954,0.431612861107,-0.111519438726,0.00714467659034,0.00831144177746,-1.19985915351
1385574302739534445,0.480014529627,0.43160210889,-0.111554472226,0.00730177371631,0.00800968614085,-1.19946320763
1385574302749519325,0.480077575777,0.431645589152,-0.11151948378,0.00717375534478,0.00784510596459,-1.19976574803
1385574302759580272,0.480000953585,0.431606972561,-0.111540908941,0.00713995173957,0.00791581896935,-1.19974509299
1385574302769569279,0.479983151785,0.431604733035,-0.111552457193,0.0069023588754,0.00804271402281,-1.1994886925
1385574302779603444,0.479941218016,0.431620334005,-0.11158145019,0.00742429864385,0.00807689446848,-1.19959675379
1385574302789574029,0.479925880044,0.431634666933,-0.111492998357,0.00706658394671,0.00772675067186,-1.1993846883
1385574302799544362,0.47998110599,0.431597820699,-0.11150461985,0.00667546501731,0.00798089201949,-1.19989545448
1385574302809510115,0.479997508239,0.431608221312,-0.111512252501,0.00678538265603,0.00803658101239,-1.19961356734
1385574302819535790,0.480025337495,0.43160821814,-0.111580469886,0.00705167964901,0.00805716207535,-1.19945288144
1385574302829479371,0.480006994667,0.431693088978,-0.111580008619,0.00727778396253,0.00804707796027,-1.20008828305
1385574302839544740,0.479993115563,0.431613127716,-0.111525296639,0.00742358294237,0.00859602311108,-1.1994387373
1385574302849526054,0.48012935242,0.431658733998,-0.111630964668,0.00787978022958,0.00812098059843,-1.19941255627
1385574302859572207,0.479987067655,0.431580369146,-0.111598430893,0.00766469396852,0.00785706302371,-1.1994297673
1385574302869545929,0.479990520451,0.431612147139,-0.111557933438,0.00681884813859,0.0077805654088,-1.20008559555
1385574302879485933,0.480016100627,0.43163844763,-0.111583077382,0.00640070715597,0.00836177454514,-1.19972438021
1385574302889563638,0.479971601108,0.431604948268,-0.111558288304,0.00657122030792,0.00783712394542,-1.19861893201
1385574302899522703,0.47980183306,0.431637333418,-0.1114913474,0.00622530019193,0.00847725391872,-1.1992625084
1385574302909586404,0.479912975419,0.431570703187,-0.111573613154,0.0064017928334,0.00770298333279,-1.19988318531
1385574302919542464,0.479896296708,0.431696975911,-0.111594551096,0.00687114161341,0.00834002572966,-1.19939312131
1385574302929516416,0.48000762328,0.431595513156,-0.111516318929,0.00627625231485,0.00810115723421,-1.19940297538
1385574302939533666,0.480034188513,0.431616869169,-0.111566900759,0.00658950285771,0.00820303160418,-1.1991271305
1385574302949502456,0.48001871153,0.431687334449,-0.111702318485,0.00655403108113,0.00833725435232,-1.19955933527
1385574302959551351,0.479967942503,0.431626285937,-0.111626466107,0.00652894350339,0.00819056138629,-1.19999133388
1385574302969610021,0.480018086789,0.431632060564,-0.111558252296,0.00686085072611,0.00784514333428,-1.19834427553
1385574302979604323,0.479985061067,0.431674812662,-0.111529685293,0.00668712387822,0.00801150100472,-1.1988322416
1385574302989614753,0.479964709404,0.431641685535,-0.111604513143,0.00632134761386,0.00795119279824,-1.19958336149
1385574302999566460,0.479952503451,0.431627539218,-0.111613802495,0.00665279424806,0.00802921362358,-1.19875713479
1385574303009536252,0.480006997857,0.431672773005,-0.111633072232,0.00635947956485,0.00859533467717,-1.19946216352
1385574303019519880,0.479900829023,0.431640784558,-0.111554378951,0.00672619310079,0.00768545631247,-1.19908070973
1385574303029517481,0.479992894757,0.4317018084,-0.11161092426,0.00684724234175,0.00814595143137,-1.19955184435
1385574303039483885,0.479990426663,0.431627753357,-0.11158703131,0.00655671021589,0.00781690188645,-1.19989132481
1385574303049543916,0.480004314725,0.431659629257,-0.111605386027,0.00668795521881,0.00838032842945,-1.19920258881
1385574303059881301,0.480060192923,0.431613494738,-0.111623375225,0.00639636409826,0.00802501021047,-1.19904429129
1385574303069531476,0.480001234238,0.43161368379,-0.111648970933,0.00616175496533,0.0082872332682,-1.19972471584
1385574303079523291,0.47989052612,0.431676439892,-0.111619046578,0.00677939879387,0.00884377052132,-1.199409353
1385574303089500446,0.480064298494,0.431646012668,-0.111627425078,0.00633108185029,0.00814420756137,-1.19934646072
1385574303099494645,0.479891118357,0.431643766327,-0.111708992329,0.0070276617611,0.00782480043157,-1.20007942605
1385574303109671175,0.479938592342,0.431675848053,-0.111615000076,0.00739899409673,0.00792168470705,-1.19877291017
1385574303119519821,0.47994965865,0.431678383053,-0.111575984392,0.00758548327074,0.00777279734992,-1.19912268183
1385574303129516040,0.479973345417,0.431630101498,-0.111578030934,0.00723107296741,0.00791916968522,-1.1997169105
1385574303139550446,0.479950912307,0.431664846674,-0.111625405986,0.00735366860555,0.00783535322985,-1.19869225306
1385574303149539745,0.479928341131,0.43162759594,-0.111612189302,0.00672785816264,0.00826394331258,-1.19950936458
1385574303159694963,0.479902147871,0.431698933583,-0.111574336551,0.00702525814984,0.00806271106358,-1.19937421174
1385574303169546299,0.480106085424,0.431718578075,-0.111763602869,0.00792516627584,0.00821455341934,-1.19922733247
1385574303179586606,0.480002180915,0.431647695071,-0.111615132781,0.00724443597231,0.0079710422608,-1.19966768435
1385574303190310777,0.479973932479,0.431682444561,-0.111592940974,0.00788622635034,0.00762906589485,-1.19892728298
1385574303199620019,0.48003333163,0.431649689258,-0.111615407069,0.0076595042518,0.00778498805437,-1.19902279808
1385574303209518329,0.480012106391,0.431667170726,-0.111597491313,0.00753007752934,0.00779925873215,-1.20004200246
1385574303219510085,0.47995612746,0.431645948388,-0.111568538885,0.00751594968881,0.00863886476401,-1.19917040419
1385574303229502271,0.479960449526,0.431663939016,-0.111653493645,0.00726742450492,0.00798265261785,-1.19936654826
1385574303239491153,0.479990614742,0.431638283296,-0.111676688516,0.00690134764847,0.00778736703286,-1.19984807651
1385574303249534244,0.479948078776,0.431652791517,-0.111606100522,0.00711677268336,0.00787796426182,-1.19861468806
1385574303259598473,0.479922761189,0.43168365833,-0.111602358801,0.00717161439825,0.00772403634408,-1.19920254699
1385574303269563182,0.479975987617,0.431617169065,-0.111622843294,0.00721348483084,0.00785559455053,-1.19962298511
1385574303279545912,0.479959438415,0.431698123183,-0.111701517942,0.00827592519381,0.00789432156331,-1.19922751106
1385574303290164817,0.479947264401,0.431669185033,-0.111557436976,0.00792423593098,0.00823562950336,-1.19966399553
1385574303299553708,0.480045091141,0.431669098711,-0.111640043374,0.00814918127618,0.00793618376506,-1.19957356335
1385574303309496867,0.48019157238,0.431717101861,-0.11168362162,0.00829948168615,0.00823954885822,-1.19906695202
1385574303319529707,0.480011046457,0.431712698218,-0.111727112679,0.00806826735864,0.00779884725504,-1.20008321589
1385574303329508752,0.480002422784,0.431688289136,-0.111588314045,0.00797235856699,0.0077695327648,-1.19908975023
1385574303339594711,0.480030953403,0.431721752938,-0.111576074525,0.007295505249,0.00849788546266,-1.19929638181
1385574303349536410,0.479985349586,0.431665400048,-0.111624413925,0.00668898398905,0.00790924883473,-1.19995816681
1385574303359507287,0.479883742665,0.431674039826,-0.111669779404,0.00702324852937,0.0089087805127,-1.19916518755
1385574303369570126,0.480024588198,0.431650478596,-0.111675786253,0.00635099873288,0.00755682502091,-1.19951183077
1385574303379533639,0.479977534083,0.431632321402,-0.111602591127,0.00651574056229,0.00780795600379,-1.2000482875
1385574303389531473,0.48004128619,0.431746478682,-0.111495231797,0.00697703637819,0.00870468852288,-1.19943508868
1385574303399544571,0.479941668686,0.431703457436,-0.111566470541,0.00791809220357,0.00791007162356,-1.19973293688
1385574303409517642,0.480012302257,0.431678201091,-0.111656320029,0.00825450153803,0.00788408118456,-1.19975614515
1385574303419557865,0.480058441759,0.431732077534,-0.111692019477,0.0083055995208,0.00802961323353,-1.19916867229
1385574303429542927,0.479926493992,0.431763148088,-0.111677016424,0.00842024639329,0.00852874348961,-1.20006514202
1385574303439536662,0.479962406557,0.431719209447,-0.11147623747,0.00792725554954,0.00805329216267,-1.19930669938
1385574303449540777,0.480008833585,0.431754183842,-0.111637730845,0.00751548184267,0.00819755568251,-1.19940603475
1385574303459583703,0.479910410109,0.431660145594,-0.111586371774,0.00705147425191,0.00867020878947,-1.19987635625
1385574303469531238,0.480106662222,0.431680377078,-0.111650413198,0.00711842031369,0.00837782048289,-1.19890665731
1385574303479703695,0.479991678614,0.431735069062,-0.111582595089,0.00729690092671,0.00802173828706,-1.19945257313
1385574303489574091,0.480045543613,0.43169637299,-0.111592736992,0.00747526189264,0.00816283067971,-1.19983555032
1385574303499529589,0.480045767316,0.431737547676,-0.111593455885,0.00772335058946,0.00827221110036,-1.1992544338
1385574303509509654,0.479933129472,0.431661284328,-0.111771113367,0.00757047639601,0.00663214410134,-1.20025851388
1385574303519623865,0.479970816956,0.431580785988,-0.112090021359,0.00554771665893,0.0054259494757,-1.20247544208
1385574303529799051,0.480092356036,0.431571057738,-0.112209841593,0.00470418518557,0.00530414051243,-1.20100709184
1385574303539566196,0.480012122816,0.431631470764,-0.111873698186,0.00444565520226,0.00726229784491,-1.20261096436
1385574303549613165,0.479935011816,0.431760339139,-0.111557159335,0.00608653555081,0.00942331591431,-1.20170511962
1385574303559956592,0.480038518493,0.431844348644,-0.111218646755,0.00840124653172,0.00991722456625,-1.2006244458
1385574303569720400,0.480315717586,0.431819894979,-0.111396551173,0.0108624184856,0.00896502127895,-1.20169351684
1385574303579477512,0.480339894183,0.431887754403,-0.111914463297,0.0121556025116,0.00731792642597,-1.20070789538
1385574303590340760,0.480373952179,0.431880544165,-0.111926688678,0.0128193632723,0.00733643405831,-1.20072896433
1385574303599581093,0.480335024505,0.432026359421,-0.111595076316,0.0124902272497,0.00903435852368,-1.201257482
1385574303609588963,0.480220385841,0.432032041093,-0.111398459631,0.0113574336184,0.00875877721733,-1.20042909173
1385574303619691520,0.480259484565,0.431975223003,-0.111623518847,0.00992760610473,0.00795345011669,-1.20182499795
1385574303629542232,0.480276902212,0.432010261609,-0.111807323293,0.00909182255085,0.00757493301993,-1.20046966866
1385574303641554774,0.480326688,0.431964322435,-0.111686306331,0.00926374031429,0.00798347051963,-1.20085400037
1385574303649730374,0.480273788635,0.432140677326,-0.111509062138,0.00965540107996,0.00836141313352,-1.20033657674
1385574303659635238,0.480351092571,0.432051940163,-0.111588731551,0.0100060743788,0.00808306599728,-1.20083639078
1385574303669541285,0.480392043665,0.432073130288,-0.111682135671,0.0104849276834,0.00845602237871,-1.20041557029
1385574303679561564,0.480437247778,0.432115530157,-0.111746917591,0.010901485513,0.00810899458127,-1.19988343736
1385574303689548964,0.480281258904,0.432042272956,-0.111613976471,0.0111223374671,0.00835302987545,-1.20014847481
1385574303699542252,0.480358305613,0.432030108807,-0.111543852816,0.0104409790714,0.0086198498462,-1.19980979572
1385574303709553776,0.480326651839,0.432132633215,-0.111654550332,0.0104777238845,0.00813198117221,-1.2009603797
1385574303719595687,0.480424076817,0.432042264304,-0.111702372009,0.00981193406723,0.0087304525117,-1.20003333435
1385574303729654764,0.480331768346,0.432136165861,-0.111738390219,0.00958352974808,0.0083871167352,-1.19982197482
1385574303739844826,0.480359973474,0.432055352263,-0.111588537327,0.00936639700404,0.00836323575944,-1.20045824524
1385574303750297546,0.480299519182,0.432099505861,-0.111517075566,0.00921458542353,0.00857756214293,-1.20009164885
1385574303759710270,0.480434870866,0.432140047426,-0.111630936035,0.00910768548278,0.00875403016386,-1.19998719981
1385574303769569981,0.480519166009,0.432178503345,-0.111819274503,0.0102258456933,0.00857440889422,-1.20043437166
1385574303780943958,0.480521105605,0.432206158013,-0.111834730623,0.0103412685584,0.00862658276926,-1.1994219346
1385574303789555896,0.480369846684,0.432079611183,-0.111523161263,0.00978352282677,0.00856871786956,-1.20065157848
1385574303799670197,0.480355743739,0.432127535028,-0.111501416781,0.00985496274256,0.00818959997212,-1.19978027184
1385574303809600804,0.480342892581,0.432074142586,-0.111637181065,0.00963958685823,0.00831222279074,-1.20026534542
1385574303819521403,0.48046461264,0.432175432536,-0.11181875328,0.0102667641549,0.00802911250828,-1.19950310029
1385574303829501070,0.480362368453,0.432079891582,-0.111696118717,0.00986643091408,0.00841985139732,-1.19965557963
1385574303841255680,0.480350439574,0.432159584405,-0.111694163745,0.0104969233157,0.00824541774771,-1.19922433055
1385574303849659723,0.480391327488,0.432205867733,-0.111551132349,0.010058497501,0.00860618762159,-1.19984957374
1385574303859716375,0.480373008439,0.432160505024,-0.111711269434,0.0106709897087,0.0083587315669,-1.19960599299
1385574303869583694,0.480280083752,0.432170263664,-0.111682814909,0.0106066106347,0.00799579714408,-1.19915963486
1385574303879756479,0.480434359993,0.432185190417,-0.111689229204,0.0102201145549,0.00855267134216,-1.20028953644
1385574303889633564,0.480446439041,0.432235340456,-0.111595759303,0.010128082524,0.00869806572348,-1.19835913088
1385574303899567965,0.480445524949,0.432337560089,-0.111634453213,0.00979364915978,0.00884591452137,-1.20007063454
1385574303909626634,0.480554959932,0.432190564411,-0.111647791437,0.0098841108609,0.0081712614594,-1.19875584586
1385574303919516551,0.480311325169,0.432425441912,-0.111665908567,0.0103080855661,0.00844666809538,-1.19956901594
1385574303929626485,0.480582811164,0.432415884058,-0.111761854575,0.0103264639179,0.00872328754168,-1.20009075675
1385574303940864812,0.480542281037,0.432495758283,-0.111738179117,0.0106282400862,0.00936256574219,-1.19996890202
1385574303950203098,0.480522163869,0.432241653188,-0.111632760269,0.0107047236297,0.00811017472737,-1.20026949657
1385574303959629796,0.480443971372,0.432412051423,-0.111745332829,0.0108544011076,0.00802425259289,-1.20024210461
1385574303969554951,0.480571763478,0.432441809421,-0.111831748314,0.0111776550348,0.00840074752533,-1.2002284504
1385574303979653380,0.480290432135,0.432452515646,-0.111720114984,0.0105519583847,0.00864875015549,-1.19983333816
1385574303989578549,0.480426572149,0.432419499407,-0.111729488837,0.00982820972839,0.00941641942911,-1.19940053414
1385574303999533698,0.48034909438,0.432303264159,-0.111690459505,0.00940036325891,0.0077548923124,-1.20022696707
1385574304010235779,0.480573094149,0.432310662787,-0.11171710301,0.00964827129233,0.00807592544647,-1.19944174516
1385574304019586372,0.480437948842,0.432307456443,-0.11155350637,0.00927547348399,0.00853237914666,-1.20074103801
1385574304029617568,0.480352557453,0.432425366498,-0.111666395633,0.00982643028133,0.00877646650264,-1.20037383161
1385574304039712515,0.480423933629,0.432383063931,-0.111579961196,0.0102763228144,0.00812288836882,-1.19983429704
1385574304049477272,0.480378692127,0.432394452438,-0.111544150708,0.01069864727,0.00752390601986,-1.20077024196
1385574304059507173,0.480398302925,0.432444172961,-0.111596120343,0.0110973986736,0.00887221324766,-1.19957771172
1385574304069532717,0.480391956682,0.432506176526,-0.111568842623,0.0109569963813,0.00908155091792,-1.20047837741
1385574304079650401,0.480330475619,0.432629950359,-0.111696772761,0.0114102064454,0.00920591943366,-1.19894766842
1385574304089808690,0.480319165664,0.432618036553,-0.111702119912,0.0118618321954,0.00803480843514,-1.19951904604
1385574304099496844,0.48039165717,0.43263288884,-0.111574583056,0.0114700212254,0.00844423496837,-1.19894230727
1385574304109724581,0.480446757431,0.432641136582,-0.11165491701,0.0115594095432,0.00839565777277,-1.19837638221
1385574304119602698,0.480347736639,0.432710624147,-0.111598535427,0.0116723845543,0.0086820036036,-1.19882784338
1385574304129645904,0.480469593827,0.432774752207,-0.11167485967,0.0109388049469,0.00905962820559,-1.19876572727
1385574304139518967,0.480381450292,0.432656652032,-0.111771611932,0.0113438973293,0.00770939270141,-1.19801418266
1385574304149499293,0.480239712874,0.432765794368,-0.111576593657,0.0110977637718,0.00861095727472,-1.19775617741
1385574304159677455,0.480266713571,0.432670251602,-0.11143975779,0.0112744111466,0.00982139349581,-1.19716763475
1385574304169613115,0.480160234239,0.432761177643,-0.111529053815,0.0120779887174,0.0087468894495,-1.19615023584
1385574304179513605,0.480149840967,0.432687036548,-0.111688064679,0.0119748158776,0.00827756976574,-1.19623526429
1385574304189615674,0.480061539697,0.432865564239,-0.111815944795,0.0121705796423,0.00933281362618,-1.19593151076
1385574304199551531,0.480104909267,0.432792557806,-0.111616162262,0.0117102624825,0.00900002658674,-1.19549346768
1385574304209591141,0.479933981178,0.432785209673,-0.111513133549,0.011600565571,0.00906767841235,-1.19503080834
1385574304219652384,0.47990301626,0.432846803701,-0.111818661622,0.0111820918505,0.0091523397532,-1.19451753641
1385574304229554425,0.479994921029,0.432623189054,-0.111925924043,0.0121224035469,0.00823043683449,-1.19430153033
1385574304239635820,0.47990196109,0.432770566984,-0.111803251426,0.0120810932906,0.00896993922039,-1.19339982898
1385574304249643626,0.479804056389,0.43265454479,-0.11164499394,0.0132661675135,0.0102051863296,-1.1933926726
1385574304259679007,0.479892320188,0.432756904591,-0.11171504661,0.013024650402,0.0100761952708,-1.19315998894
1385574304269645402,0.479741225747,0.432565863093,-0.111785099167,0.0137161327556,0.0102641398447,-1.19282900469
1385574304279568036,0.47966026257,0.432751249912,-0.112019948887,0.0131203316584,0.00934041094048,-1.19319077645
1385574304289903383,0.47952033969,0.432634208146,-0.111798671495,0.0121306268281,0.00987920975128,-1.19314423507
1385574304299744026,0.479447220009,0.43259915328,-0.11169411674,0.0108803435362,0.00968675911424,-1.19318831824
1385574304309642006,0.479328706248,0.432467190765,-0.111664524034,0.0100398405661,0.0103214618335,-1.19296854259
1385574304319590722,0.479209074929,0.432419191325,-0.11188734731,0.00968721689391,0.00839546701156,-1.19195880503
1385574304330148499,0.478926119635,0.432558966422,-0.111740570295,0.0097000597599,0.00867925209787,-1.19153434082
1385574304340515725,0.479005416605,0.432413340273,-0.111720469871,0.0101510199818,0.00729821679744,-1.19154232973
1385574304349500075,0.47886720385,0.432573461338,-0.111844809655,0.0102738354471,0.00889770870618,-1.19121187958
1385574304359730424,0.478765228503,0.432536401841,-0.111975499494,0.0107590508717,0.00940413342328,-1.19199588575
1385574304369579440,0.478527513064,0.432684347745,-0.11197266286,0.0113887999156,0.0109841924765,-1.19190660995
1385574304379539318,0.47867071297,0.4324952947,-0.111974817096,0.0115504413415,0.0111465938306,-1.19177486254
1385574304389557752,0.478381212568,0.43261954882,-0.112356689758,0.013189633088,0.00794725903392,-1.19136667986
1385574304399496436,0.478447125778,0.432454024275,-0.112424685834,0.0133557369822,0.00945033919423,-1.19041090927
1385574304409633781,0.478177711006,0.432526125084,-0.112385167489,0.0135126963339,0.0102859203542,-1.18971772366
1385574304419565131,0.478063094378,0.432316074081,-0.112125011027,0.0121199075905,0.0101366323,-1.18954914659
1385574304429703370,0.477659690813,0.432512678093,-0.112331103315,0.0116759175546,0.0114297473188,-1.18868308082
1385574304441787928,0.47740838511,0.432361328718,-0.112558101557,0.0100876839207,0.0102248163362,-1.18853843869
1385574304449466407,0.47718635764,0.432397555225,-0.112322555608,0.00845733981497,0.00993574861914,-1.18843382152
1385574304459774151,0.477011867208,0.432245059187,-0.112078810264,0.00792291142681,0.00972309834099,-1.18749205308
1385574304469555450,0.476818128238,0.432245412497,-0.112301333476,0.00710818222204,0.00881587572352,-1.18754528991
1385574304479559621,0.476443008976,0.432171003086,-0.11253740461,0.00762774403933,0.00852684571101,-1.18680301201
1385574304489594304,0.476189774144,0.432233067787,-0.112675225196,0.00831190141465,0.00976934794803,-1.1862251108
1385574304499516615,0.475873972045,0.432285956485,-0.112417975776,0.00893260955408,0.00995112272797,-1.18452290407
1385574304509642578,0.475712528543,0.432072707363,-0.112328614401,0.00914350774749,0.00950086467916,-1.18371403305
1385574304519594752,0.475413285476,0.432217555364,-0.112617625587,0.0102887951547,0.00939169706796,-1.18286254749
1385574304529526385,0.475256620346,0.432226496219,-0.112823728476,0.0115112239387,0.00921347308675,-1.18178566477
1385574304539599083,0.4749232668,0.432299293737,-0.112896923651,0.0127941202143,0.00983760399168,-1.18075656776
1385574304549489810,0.474785360429,0.432336946921,-0.1129551615,0.0138672666183,0.0112194603082,-1.18002354836
1385574304559614196,0.474472743973,0.432420892106,-0.113194944692,0.0145016594586,0.0113613801389,-1.17888014373
1385574304569570946,0.47423827319,0.432347078367,-0.113666658422,0.0154192543127,0.0104839176164,-1.17743145325
1385574304579645372,0.473968293239,0.432498703919,-0.11386627213,0.016468009868,0.0105853592041,-1.17659661403
1385574304589845560,0.473757897174,0.432473357996,-0.114018417963,0.0187720204142,0.0101553454657,-1.17589147158
1385574304599500313,0.473504596232,0.432650718469,-0.114307422299,0.0213971234433,0.0106387986112,-1.17473277956
1385574304609540177,0.473289340193,0.432833345452,-0.114860012316,0.0249036761448,0.0104087661108,-1.17437750357
1385574304619538986,0.472853857613,0.432912144789,-0.115212709982,0.0287838217443,0.00989659429015,-1.17334416135
1385574304629659432,0.472725388045,0.4330766966,-0.115676480334,0.0321139871327,0.00958298816217,-1.17234177847
1385574304639986911,0.472553777783,0.433061082203,-0.116097623488,0.0357606219153,0.00901227683069,-1.17189862963
1385574304649504854,0.472342281904,0.433339177455,-0.116620226341,0.0392833997817,0.00874129764909,-1.17135567844
1385574304659593175,0.472134304265,0.433548691838,-0.117308682902,0.0433867726016,0.00825224643369,-1.1706216896
1385574304669535609,0.47195792512,0.433700185904,-0.117961407867,0.0472989652924,0.0071472272309,-1.17036723542
1385574304679608929,0.471871126889,0.433949264217,-0.11862127779,0.0510481958727,0.00699261151504,-1.16974346986
1385574304689608154,0.471854449601,0.434230864879,-0.119355861623,0.0549543933526,0.00717220679559,-1.16938513202
1385574304699553709,0.471660617177,0.434344470067,-0.120244213491,0.0591528524858,0.00572496243966,-1.16915501865
1385574304709501353,0.471789662861,0.434757067853,-0.121301586836,0.0631584227397,0.0040510095007,-1.16786882729
1385574304719554674,0.471657125224,0.434939849943,-0.122326881588,0.0675129984481,0.00292778805606,-1.16785471669
1385574304729657297,0.471826654175,0.435150744262,-0.123266060786,0.070529252594,0.000830838620136,-1.16682227912
1385574304739599006,0.471853642265,0.435393617052,-0.124502652202,0.0732116844464,0.00132170462682,-1.16627487463
1385574304749558894,0.471869837523,0.435762601209,-0.125845816769,0.0757113114467,0.000919903419162,-1.16468836493
1385574304759512108,0.472038448289,0.436036005455,-0.127157774732,0.0773065101262,-0.000298815298523,-1.16375466151
1385574304769538778,0.472180915836,0.436462766832,-0.12856911013,0.0791762920995,0.000236399479981,-1.16261854605
1385574304779528942,0.472390011987,0.436621268097,-0.12966096975,0.0809321805274,-9.97809242297e-05,-1.16159661955
1385574304789446657,0.472753407748,0.437139629908,-0.131173673184,0.0811774393193,0.00171810196162,-1.16085591888
1385574304799627374,0.472872771877,0.437719775036,-0.132998928765,0.0835467073722,0.00195732052696,-1.15946590903
1385574304809559550,0.47311999916,0.438090781042,-0.134681035669,0.0854854347424,0.00333722328738,-1.1586167526
1385574304819525987,0.473593434116,0.438626978063,-0.136029388987,0.0867073621787,0.00629253563787,-1.15654364219
1385574304829513407,0.474205248384,0.439293286873,-0.137934202568,0.0886652491989,0.00721027382198,-1.15540251
1385574304839512116,0.474652594938,0.440021966675,-0.140050993264,0.0905272907096,0.00984692877882,-1.1536088526
1385574304849530859,0.475532223795,0.440547094632,-0.142083203598,0.0926806323152,0.0100515957984,-1.15241982178
1385574304859557881,0.476147352955,0.441318162605,-0.14387356396,0.0944158529863,0.0126394933203,-1.14989741343
1385574304869530095,0.476708934565,0.442022842484,-0.14550088238,0.0934432436628,0.0169113243076,-1.14835829048
1385574304879490879,0.477622627012,0.442816029679,-0.147911700786,0.0913186764375,0.0215336696993,-1.14637261345
1385574304889521965,0.47861385237,0.443885663239,-0.150674246968,0.09110127811,0.0205256288561,-1.14488479245
1385574304899519921,0.479378749951,0.444788406151,-0.152820925658,0.0892533085346,0.0240504337142,-1.1440832884
1385574304909529919,0.480323185579,0.445656021918,-0.154554537911,0.0872041029851,0.0296397281175,-1.14169059338
1385574304919518888,0.481360393958,0.446638069545,-0.157065181509,0.0861329995024,0.0325058946139,-1.14098123913
1385574304929513178,0.482687337474,0.447737723139,-0.160062693136,0.0838717819784,0.035918714525,-1.13983661475
1385574304939565506,0.483806629627,0.448800306052,-0.162551723069,0.0827939164935,0.0351763945787,-1.13918334874
1385574304949536853,0.484936339042,0.449873894188,-0.164868168033,0.0803582233704,0.0375511616215,-1.13768800882
1385574304959670597,0.486413114095,0.450754748486,-0.167159372472,0.077076321872,0.0388097016415,-1.13675310016
1385574304969554099,0.487882438236,0.451893588532,-0.17003434872,0.0738051121217,0.0399040653039,-1.13588017521
1385574304979528568,0.488812124719,0.453073467318,-0.172935164161,0.0694892319387,0.041906052942,-1.1358255315
1385574304989583302,0.490145602052,0.454152005126,-0.17545108419,0.0644435532221,0.0444205504004,-1.1358366837
1385574304999542493,0.491710079107,0.455472307779,-0.178074574733,0.0603450838875,0.0448063604185,-1.13553355984
1385574305009528759,0.492822560924,0.45657337227,-0.180943358784,0.0552448723866,0.0459248990018,-1.13642659746
1385574305019681169,0.494104070168,0.45799913799,-0.184177261106,0.0508261067645,0.0492581914468,-1.13506601284
1385574305029518699,0.495300627166,0.459327160179,-0.187083451686,0.0469904297307,0.0471572236788,-1.13542310589
1385574305039519357,0.496994108238,0.460596154826,-0.18976923113,0.0432639777667,0.0484713024985,-1.1344511585
1385574305049530528,0.498414507585,0.462130874749,-0.193029029032,0.0386776627882,0.0473368647084,-1.13415652931
1385574305059618504,0.499605090911,0.463717509531,-0.196331494914,0.0350568954272,0.0470415531889,-1.13379534298
1385574305069531533,0.50100701484,0.465102622505,-0.199684841981,0.0315107530573,0.0472850832318,-1.13353287944
1385574305079551519,0.502203053474,0.46649911844,-0.202430796066,0.0288335406171,0.0461977176596,-1.13310730822
1385574305089589388,0.503741689798,0.468257174206,-0.205683289171,0.0285722382453,0.0475282253373,-1.13306072613
1385574305099548237,0.505151418759,0.469904603115,-0.209203719684,0.0285935158345,0.0471932084866,-1.1328976919
1385574305109521520,0.506336777151,0.471674907388,-0.212500676181,0.0289845635351,0.0479984925338,-1.13132062908
1385574305119511579,0.507990044957,0.473584413873,-0.215973104492,0.0289225529985,0.0464119850845,-1.13192957277
1385574305129524286,0.509102811119,0.475214506992,-0.219091643621,0.0283041305051,0.0473897670021,-1.1305117923
1385574305139519126,0.510608921024,0.477378056858,-0.222872430329,0.026578371524,0.0486554642245,-1.13024387331
1385574305149514403,0.511989005474,0.479296934474,-0.226690700315,0.0256698291331,0.0447493101513,-1.13012938487
1385574305159648736,0.513198247665,0.481241824528,-0.230159944747,0.0232243272707,0.0448813059253,-1.12984559214
1385574305169536072,0.514728592415,0.483235245686,-0.233820195494,0.0199113654178,0.0439389880942,-1.13000310998
1385574305179490425,0.515799889977,0.485375970218,-0.237750003497,0.0182891963683,0.0424108295271,-1.1300736907
1385574305189530400,0.51698911814,0.487457287917,-0.241618504507,0.0152023247004,0.0430173234534,-1.13014114353
1385574305199525264,0.518411425306,0.489630016511,-0.245368801573,0.0131598327575,0.0409498072212,-1.12986936387
1385574305209524617,0.51959686769,0.491661925827,-0.248945803937,0.0120049893664,0.0387287245932,-1.12918096072
1385574305219522115,0.520940165623,0.49381896699,-0.253056154004,0.0103004382309,0.0363574729309,-1.12924554091
1385574305229521111,0.522005015189,0.496119070577,-0.257106792474,0.00909313970395,0.035554297863,-1.12820288674
1385574305239514648,0.523060082568,0.498312040579,-0.261191400664,0.0085211073203,0.0332827571302,-1.12873111934
1385574305249578638,0.524262054958,0.500529460407,-0.26525765366,0.00758846559615,0.031075353672,-1.12913563014
1385574305259594054,0.525302044604,0.50278889541,-0.269333412814,0.00754126071342,0.0288460032451,-1.12911631676
1385574305269521864,0.526393916106,0.504944990414,-0.273612790368,0.00743803429671,0.0273197060474,-1.12959308471
1385574305279516429,0.527614636646,0.507316151608,-0.277914838611,0.00692379222109,0.0244661148933,-1.12957345897
1385574305289659442,0.528640919965,0.50954554976,-0.282233133829,0.00618176841814,0.0218910700847,-1.12965931781
1385574305299542327,0.529496904968,0.511766262934,-0.286635607499,0.00451447351771,0.0201074842332,-1.12977574637
1385574305309529818,0.530607793251,0.5141064905,-0.290999216238,0.00246313890695,0.0180045012011,-1.12990993425
1385574305319690190,0.531623390377,0.516369369496,-0.295476824137,0.000716167177789,0.0154119536496,-1.13019682707
1385574305329520432,0.532442822727,0.51853986229,-0.299936613855,-0.000574780174257,0.0136659311368,-1.13003326934
1385574305339520115,0.533517123033,0.5208497012,-0.304706467243,-0.00133642036479,0.0115046607903,-1.1303232721
1385574305349507973,0.53432897787,0.52311045808,-0.309227197138,-0.00228606364904,0.00995248928564,-1.13082096018
1385574305359608026,0.535041855001,0.525207920414,-0.313636300849,-0.00297447762131,0.00670437729332,-1.13095739285
1385574305369573084,0.536103982381,0.527596313042,-0.318512237045,-0.003688293513,0.00484272244656,-1.13161887702
1385574305379629814,0.536796587994,0.529694658705,-0.32299888151,-0.00502286335512,0.00392801889946,-1.13140033128
1385574305389553681,0.537480166828,0.531994795296,-0.32801569502,-0.00575268746638,0.00271698690984,-1.13183893171
1385574305399527376,0.538272824209,0.534228809047,-0.33279865345,-0.00841275425531,0.00322225510973,-1.1317219295
1385574305409537925,0.538879900266,0.536389246377,-0.337663913565,-0.01029994901,0.00205702416046,-1.13202972748
1385574305419534055,0.539476967633,0.538575946375,-0.342626428977,-0.0119976470107,0.00217769824613,-1.13249939375
1385574305429540671,0.540149299305,0.540691612298,-0.347571697784,-0.0146441006806,0.00200399105562,-1.13189346661
1385574305439519167,0.540735077376,0.542910220121,-0.35277294688,-0.0164040080893,0.0031302219664,-1.13289883575
1385574305449556271,0.541314638038,0.545088145407,-0.357814730624,-0.0178499947168,0.00294609540881,-1.13294747575
1385574305459681135,0.541931049119,0.547184526924,-0.362973123128,-0.0195046582473,0.00412786542563,-1.13286338733
1385574305469588154,0.542397348816,0.549265866309,-0.36832451087,-0.019987863884,0.00453310478497,-1.1335806061
1385574305479541213,0.542887730585,0.551261423756,-0.373411199345,-0.0213909337092,0.00396197826055,-1.13338486775
1385574305489493566,0.543409671414,0.553353073105,-0.379007408555,-0.0229098995493,0.00477818164643,-1.13406047618
1385574305499541315,0.543586404644,0.555331494337,-0.38450541988,-0.024743784198,0.00456680793034,-1.13417928177
1385574305509669156,0.544063789837,0.557232333285,-0.389980677019,-0.026550067584,0.00412295529897,-1.13369404841
1385574305519568227,0.544419116306,0.559230286978,-0.39571306196,-0.0284259550597,0.00354278212861,-1.1345536119
1385574305529502669,0.544689523877,0.561045643923,-0.401061163056,-0.0304044473929,0.00298505598361,-1.13423523533
1385574305539541601,0.544887905957,0.562977926759,-0.406181640761,-0.0327219366393,0.00365654641579,-1.13480874584
1385574305549554125,0.545133990709,0.564764563556,-0.411133726114,-0.0341231573492,0.00244883849524,-1.13488693363
1385574305559617790,0.545164888862,0.566595723108,-0.415987375516,-0.0354157486569,0.00195280494804,-1.13493857401
1385574305569626564,0.545469561419,0.568347613952,-0.420944655542,-0.0375925630805,-5.46254087143e-05,-1.13536459081
1385574305579565416,0.545510160048,0.570140278454,-0.425643269776,-0.0384032623531,-0.00053692935972,-1.1352573914
1385574305589532900,0.54564870559,0.571800155509,-0.430093563209,-0.0399985722876,-0.0018437190184,-1.13568088591
1385574305599603583,0.545838514356,0.573500505529,-0.434504382489,-0.0424278274782,-0.00349450394905,-1.13593754474
1385574305609581713,0.545492474889,0.575094824463,-0.438772684696,-0.0431203004055,-0.00490995138257,-1.13575331697
1385574305619539774,0.545633902474,0.576704369873,-0.442857137907,-0.0459744270137,-0.00642482986561,-1.13642441838
1385574305629546820,0.545440562892,0.578321429971,-0.447060652959,-0.0460963750036,-0.00649773734327,-1.13602693776
1385574305639484822,0.545193851454,0.579684291675,-0.450642244949,-0.0480355197864,-0.00905306276218,-1.13567602127
1385574305649587858,0.545097149672,0.581361951297,-0.454471051939,-0.0492657092888,-0.00900484849462,-1.1356529505
1385574305659614195,0.544925807232,0.582749502772,-0.458238651747,-0.0501627557568,-0.0112590058564,-1.13654321323
1385574305669602997,0.544600345949,0.584239780674,-0.46142535375,-0.0526332428211,-0.0124872544,-1.13688109537
1385574305679648489,0.544272396552,0.585656837834,-0.464660654391,-0.0539041174348,-0.0125987963946,-1.1377617922
1385574305689492354,0.543904359473,0.586982234362,-0.467961660651,-0.0555218472997,-0.0135937748766,-1.13742779341
1385574305699534945,0.543485774063,0.588317719369,-0.470819748634,-0.0578200325474,-0.014885037913,-1.13822665017
1385574305709528800,0.543045790511,0.589534503756,-0.473732463908,-0.0585759092281,-0.0170475633422,-1.13839828514
1385574305719550995,0.542551770393,0.590753018736,-0.476375873667,-0.0602193070864,-0.0180655999477,-1.13820844849
1385574305729541210,0.541880922958,0.592002791302,-0.478853066462,-0.0605874804626,-0.0180440435769,-1.13929280211
1385574305739616420,0.541344105093,0.59310579718,-0.481292265118,-0.061514728129,-0.019878201492,-1.1383174882
1385574305749544907,0.540714400476,0.594154675813,-0.48357601132,-0.0625395319058,-0.0213237699117,-1.13966684169
1385574305759553823,0.540039971774,0.595320250104,-0.485645629912,-0.0632302746373,-0.0208148778332,-1.13997759558
1385574305769579438,0.539253122298,0.596277749732,-0.487713523579,-0.0641177400375,-0.022026237025,-1.14016256007
1385574305779554638,0.538381233763,0.597177600517,-0.489601706786,-0.0652355300927,-0.0229779246805,-1.14045951488
1385574305789665707,0.537797646165,0.598144205344,-0.491367640269,-0.0662529614121,-0.0228515975555,-1.14075946034
1385574305799562251,0.536783379197,0.599031813081,-0.492856941498,-0.0670954240017,-0.0230464482845,-1.14116065714
1385574305809550215,0.535930939011,0.599829096691,-0.49418461965,-0.0675055140762,-0.0225294628385,-1.1420912836
1385574305819566144,0.534997002858,0.600561261203,-0.495577021142,-0.0680945359688,-0.0236380612089,-1.14208398209
1385574305829542502,0.53372684966,0.601234219521,-0.496720551243,-0.0675191719065,-0.0230151552828,-1.14216731212
1385574305839548826,0.532712413498,0.601971848359,-0.497730272059,-0.0678641151676,-0.0241139184905,-1.14264732503
1385574305849584602,0.531769912443,0.602622093515,-0.498603615314,-0.0682797602129,-0.0238575377008,-1.14309268766
1385574305859568250,0.530622019488,0.603163402964,-0.499493989139,-0.0681585485694,-0.0239111753905,-1.1435835475
1385574305869573399,0.529490290165,0.603704457653,-0.500157716661,-0.0688074868435,-0.022837037283,-1.14387202714
1385574305879587318,0.528147885745,0.604129322901,-0.500762848847,-0.068558104176,-0.0236269948692,-1.14460740087
1385574305889567389,0.526846110447,0.604610939983,-0.501056572149,-0.0690167959245,-0.0233804078879,-1.1447276471
1385574305899587664,0.525592584796,0.604954338781,-0.501302301748,-0.0694491345024,-0.0234626124202,-1.14522590254
1385574305909569436,0.524234278143,0.605324574063,-0.501375914612,-0.0697567524676,-0.0222912965091,-1.14605407475
1385574305919575562,0.522888968908,0.605587462759,-0.501582910266,-0.0695880711867,-0.0232152822294,-1.14590795143
1385574305929551742,0.521077182502,0.605830505695,-0.501472137346,-0.0686010709161,-0.0229807659055,-1.14667896178
1385574305939540325,0.519899917058,0.606094556062,-0.501495771532,-0.0690193449521,-0.0223346713059,-1.14673023409
1385574305949571617,0.518458400152,0.606195755492,-0.501272758086,-0.0692906757847,-0.0226632543854,-1.14719050448
1385574305959603645,0.516821723262,0.606400364823,-0.500779767435,-0.0697241050413,-0.0200383774908,-1.14766424622
1385574305969569871,0.515138748864,0.606369884446,-0.500456938989,-0.0687228737663,-0.0218874482202,-1.1478054504
1385574305979569248,0.513707330927,0.606373377783,-0.50013919851,-0.067528048164,-0.0210949900861,-1.14827166787
1385574305989757796,0.511831083961,0.606331748154,-0.499506963242,-0.0675319300088,-0.0204330286246,-1.14876648583
1385574305999545678,0.510154238323,0.606256900258,-0.498711524896,-0.0673989841012,-0.0215514033953,-1.14939089741
1385574306009542340,0.508286079473,0.60622475656,-0.497835329783,-0.0662992800624,-0.0201145248569,-1.14900913204
1385574306019555521,0.506581966602,0.606155239582,-0.497057278629,-0.0658657941838,-0.0188567689301,-1.1501900187
1385574306029538349,0.504613071692,0.605786051741,-0.496330947518,-0.0642074097076,-0.0196845622475,-1.14979179612
1385574306039502128,0.502821647372,0.605675067705,-0.495326077107,-0.0645796088502,-0.0193236177291,-1.15078125031
1385574306049473547,0.50097641808,0.605434556162,-0.494338327636,-0.0629652609262,-0.0185597719588,-1.15105706307
1385574306059505386,0.498876735817,0.605036263815,-0.493358151029,-0.0614538897732,-0.0178961291158,-1.15161141994
1385574306069512813,0.497003768253,0.604660710804,-0.492043317296,-0.061298557084,-0.0179388440871,-1.15194020258
1385574306079512042,0.495028747174,0.604348328861,-0.491225209633,-0.0595887459234,-0.0178029145926,-1.1523434038
1385574306089770797,0.49287032714,0.6039053395,-0.4896753003,-0.0595663195675,-0.0163472024234,-1.15294936154
1385574306099564381,0.490663025945,0.603384086502,-0.488510524149,-0.0587072631762,-0.0168060442569,-1.15323635201
1385574306109546395,0.48839142241,0.602828940278,-0.48722292271,-0.0577023277789,-0.0167007478346,-1.15370474973
1385574306119533796,0.486293973891,0.602303559886,-0.486009286932,-0.0572265627802,-0.0151788024414,-1.15388222707
1385574306129631739,0.483936363337,0.601722671481,-0.48459200722,-0.056224574794,-0.0159535565897,-1.15461248919
1385574306139536343,0.481786438536,0.601083506333,-0.483163412273,-0.0556007324376,-0.0156741420412,-1.15412354131
1385574306149559328,0.479524633324,0.60043653775,-0.481731614916,-0.0556087737383,-0.0153705310965,-1.15470790248
1385574306159635107,0.477083412769,0.599686351926,-0.480242971139,-0.0544130403754,-0.0155992819118,-1.15473370063
1385574306169530318,0.474748536446,0.59909773326,-0.478645726075,-0.0548509437003,-0.0123871721639,-1.15554965111
1385574306179532563,0.472463957669,0.598187055076,-0.47739245188,-0.053328477801,-0.0141334255415,-1.15652023937
1385574306189489870,0.470034298155,0.597389690019,-0.475918907186,-0.0524590812845,-0.0137850734235,-1.15622915382
1385574306199545437,0.467439318083,0.596540002285,-0.474288638792,-0.0520944523929,-0.0134910583628,-1.15673318668
1385574306209535019,0.465086064247,0.595648099799,-0.472679600001,-0.0508951795951,-0.0118774628635,-1.15673647971
1385574306219564967,0.462402968659,0.59474469787,-0.471211650146,-0.0498692895238,-0.012950689395,-1.15712581403
1385574306229583647,0.460016722574,0.593855157374,-0.469678181803,-0.0489484838295,-0.0125685466434,-1.1569313972
1385574306239550470,0.457158763051,0.592829386226,-0.467941893383,-0.0483662193574,-0.0114841163565,-1.15690445136
1385574306249544874,0.454707188044,0.591896374735,-0.466416549179,-0.0483853755717,-0.0101439445818,-1.15773769144
1385574306259559163,0.451961040573,0.590821748254,-0.465044444097,-0.0473237505217,-0.0107661387353,-1.158279508
1385574306269589811,0.449275967196,0.589736217076,-0.4634427514,-0.0471726644626,-0.0108604390858,-1.15833621508
1385574306279532492,0.446706856845,0.588676903228,-0.461924021286,-0.0469751689144,-0.0104254041914,-1.15883214148
1385574306289591661,0.443878739929,0.587515859164,-0.460427935317,-0.0460268266204,-0.0097710038743,-1.1591496403
1385574306299560546,0.44104063628,0.586346628625,-0.458966191767,-0.0443644311199,-0.00934268973042,-1.1596074181
1385574306309530043,0.438278445946,0.585188997887,-0.457256907421,-0.0442172794077,-0.00876632553388,-1.15992349379
1385574306319559782,0.435447685593,0.584004047572,-0.455811971979,-0.0427966323221,-0.00868501899423,-1.16036347827
1385574306329519342,0.432573468031,0.582809007675,-0.454326197782,-0.0417062704926,-0.00761922099437,-1.16060120941
1385574306339501353,0.429706083258,0.581569821971,-0.452984659804,-0.03953247902,-0.00686351202601,-1.16108754133
1385574306349583554,0.426804039666,0.580276577404,-0.4514901749,-0.0386313818589,-0.00652793910228,-1.16153596832
1385574306359623467,0.423927862063,0.579068557798,-0.450046746536,-0.038338640505,-0.00574990473959,-1.16206511895
1385574306369576652,0.420986501715,0.577707758661,-0.448765663541,-0.0378171120985,-0.00561136385124,-1.1627567798
1385574306379499132,0.417791663694,0.576369235671,-0.447469164373,-0.0373598555196,-0.00342862683425,-1.16301685297
1385574306389599190,0.415006584818,0.575066340031,-0.446179685682,-0.0375636891275,-0.00350177245192,-1.16365147793
1385574306399638426,0.41194266727,0.573643569938,-0.444973547793,-0.0364587645402,-0.00297930620467,-1.16393375869
1385574306409590520,0.408857006457,0.572258835903,-0.443559201792,-0.0355171269534,-0.00216809337329,-1.16446328906
1385574306419515520,0.406063495763,0.570925392774,-0.442470942705,-0.033760789699,-0.00171781620146,-1.16495521779
1385574306429530865,0.402948795433,0.569408652302,-0.441147014695,-0.0316200934477,-0.000257608428843,-1.16451025879
1385574306439590530,0.399846370001,0.567987023841,-0.439920910547,-0.0304839332465,-0.00120841572461,-1.16538755541
1385574306449560183,0.396585225436,0.56651736396,-0.43876166107,-0.0287083051342,0.00035231857257,-1.16531460172
1385574306459635200,0.393665572338,0.56513311902,-0.437608275947,-0.0275126321995,-5.80879145619e-05,-1.16663228257
1385574306469648463,0.390500820294,0.563637024876,-0.436490353398,-0.0267181982004,-0.000422288568412,-1.16667049202
1385574306479570342,0.387500393401,0.562190967065,-0.435312276797,-0.0266102415795,0.00120199037544,-1.1670593744
1385574306489586421,0.384188339398,0.560622697559,-0.434295580437,-0.0249466112156,0.00145967320337,-1.16718925566
1385574306499517317,0.38099100337,0.559299394793,-0.433203216952,-0.0241041177186,0.00225586409956,-1.16747310321
1385574306509513148,0.377830867213,0.557716283103,-0.43224480125,-0.0224494156332,0.00341256753755,-1.16764347554
1385574306519524585,0.374688273934,0.556261159812,-0.43128192085,-0.0210289176193,0.00411075088992,-1.16813167288
1385574306529482887,0.371647172715,0.554715406319,-0.430209888375,-0.0196997964292,0.00584165762139,-1.16951838214
1385574306539558331,0.368523654795,0.55325784656,-0.429476982938,-0.0169630258718,0.00658961220607,-1.17006124099
1385574306549552093,0.365295662728,0.551689417966,-0.428474881504,-0.0157711993937,0.00771847849767,-1.17030544332
1385574306559530328,0.362159716835,0.550131963279,-0.427518499644,-0.0143090800024,0.0076118174401,-1.17076621125
1385574306569537007,0.359070474983,0.548589824196,-0.426736615773,-0.0128543675397,0.00844921669982,-1.17063752635
1385574306579580728,0.355804416584,0.547124093555,-0.426004627988,-0.0103657431193,0.00845655137608,-1.17176186495
1385574306589490871,0.35276494099,0.545624427567,-0.425132470893,-0.00960101940345,0.00968647627811,-1.17173278821
1385574306599626815,0.349744012268,0.544073528035,-0.424368643032,-0.00774076923592,0.00931816090924,-1.17215414873
1385574306609532570,0.34644057963,0.542527219992,-0.423640905664,-0.00534261091269,0.00932702664576,-1.17300299444
1385574306619536260,0.34347702158,0.541011336168,-0.422836953206,-0.00353753814999,0.0101073685305,-1.17236075105
1385574306629680100,0.34046258353,0.539586224965,-0.422176175815,-0.00145601559625,0.00981553831648,-1.17389298029
1385574306639532649,0.337337418581,0.538040474522,-0.421582697426,0.00161228767916,0.00907521205805,-1.17367904556
1385574306649525762,0.334334317137,0.536524649213,-0.420922787255,0.00350636394812,0.00798657864804,-1.17433006339
1385574306659658401,0.33138901525,0.534988267022,-0.420340086614,0.00550626975859,0.00835681613305,-1.17498479978
1385574306669529180,0.328252625734,0.533481677308,-0.419709344107,0.00818526248775,0.00710842406235,-1.17554746965
1385574306679491966,0.325374689201,0.532035549974,-0.419300574012,0.0101956298603,0.00730833366479,-1.17621961486
1385574306689462727,0.322441008931,0.530530265643,-0.418767688003,0.0129225154643,0.00497792697034,-1.17636557702
1385574306699510409,0.319462474935,0.529044433113,-0.418313456281,0.0147223703048,0.00501700952129,-1.17679886167
1385574306709472912,0.31661839276,0.527679737176,-0.417794849525,0.0169009917009,0.00403735117533,-1.17677230214
1385574306719566482,0.313737586987,0.526181402463,-0.417350947602,0.0188759196733,0.00328523526072,-1.17672501043
1385574306729494583,0.31084587549,0.524693695575,-0.416951332874,0.0198916170222,0.00300646933164,-1.17789912051
1385574306739530322,0.308010225781,0.523267486477,-0.416569781115,0.0213115984695,0.00294602576561,-1.1778133005
1385574306749517273,0.305062391584,0.521774612521,-0.416323750036,0.0232814579175,0.00237441292538,-1.1784769794
1385574306759537925,0.302452966832,0.520450089875,-0.416062106789,0.0242790787758,0.00167742599419,-1.17934084141
1385574306769740124,0.299814022236,0.518972972415,-0.415878515536,0.0257402184312,0.0022718347875,-1.1800912145
1385574306779516470,0.296842911114,0.517501414448,-0.415471458178,0.0272224056982,0.000230969786528,-1.18009333819
1385574306789501136,0.294290921477,0.516150488906,-0.415380781688,0.0280006669527,0.000761256792123,-1.18041666728
1385574306799500733,0.291599841181,0.514734710116,-0.415194192574,0.0285032154278,0.000692285339411,-1.18057938792
1385574306809518265,0.288867058507,0.513384822578,-0.415027502329,0.0291721027437,9.77374996418e-05,-1.18084009344
1385574306819668233,0.28633433484,0.512023035897,-0.414887098507,0.028474443198,0.000614620389508,-1.18139211006
1385574306829509325,0.283689159042,0.510733494823,-0.414822629106,0.0293687335828,0.000263573978323,-1.18158518262
1385574306839516692,0.281179036935,0.509321400175,-0.414653158464,0.0291048209755,0.00121912159789,-1.18222720573
1385574306849512175,0.278747383213,0.508096194473,-0.414663167838,0.0290996160306,0.00245779971342,-1.18298524219
1385574306859541548,0.276231909694,0.506749163855,-0.414550109615,0.0300513117337,0.00330220070705,-1.18276448197
1385574306869524974,0.273752901762,0.505535198118,-0.414442649851,0.0313749216651,0.00518303368521,-1.18344274923
1385574306879521958,0.271516809061,0.504359356298,-0.414437266413,0.0323096557466,0.00677843223188,-1.18385032027
1385574306889527130,0.269094495977,0.503129019425,-0.414366646524,0.0339646728815,0.00780585100656,-1.18386317057
1385574306899520020,0.266914345133,0.5018909226,-0.414349060233,0.035236682278,0.00958605094756,-1.18449847341
1385574306909522153,0.264539153901,0.500659654898,-0.414324731199,0.0364915783203,0.0114441504159,-1.18422491647
1385574306919679298,0.262448358693,0.499433200426,-0.414354857992,0.0378555846408,0.0117211350227,-1.18493660443
1385574306929570620,0.260298790061,0.498284359247,-0.414338972253,0.0399135454881,0.0110426569323,-1.18518003776
1385574306939519788,0.258040809969,0.497165727469,-0.414165973869,0.0407387324511,0.0140518454846,-1.18480460205
1385574306949513761,0.256060395807,0.496009843147,-0.414451616524,0.0434421479822,0.0121398980664,-1.185681219
1385574306959542892,0.254151530097,0.494769237423,-0.414600873712,0.0444269292763,0.0118074691455,-1.18661573682
1385574306969545019,0.252155019626,0.493800843046,-0.414493506249,0.0452388608469,0.0131065964578,-1.18679979834
1385574306979515893,0.25023677622,0.492648417616,-0.414571919216,0.0467212851798,0.0135630444086,-1.18663518111
1385574306989572121,0.248332460705,0.491558716893,-0.414806417498,0.0482956141482,0.0131371273581,-1.18763608245
1385574306999563344,0.24666669552,0.490585245106,-0.41491523358,0.0490691648529,0.0130345746215,-1.18800284587
1385574307009529957,0.244575838586,0.489636519815,-0.414920243182,0.0510357161658,0.0126521457949,-1.18783653232
