%time,field.linear.x,field.linear.y,field.linear.z,field.angular.x,field.angular.y,field.angular.z
1385573861550895354,-0.0,0.0,0.0,1.0,0.0,0.0
1385573861641847777,-0.0,0.0,5.19528424943e-08,1.0,0.0,0.117941684596
1385573861740910993,-0.0644201730855,0.0447280526122,-0.0123729847005,1.0,0.0,0.0490840631528
1385573861841729355,-0.0565098454393,0.0389520122275,-0.0105371889248,1.0,0.0,0.0504321038267
1385573861940747606,-0.0651890113487,0.0448013218828,-0.00963631838442,1.0,0.0,0.038061973366
1385573862040926660,-0.0615403986867,0.0419707096276,-0.00782744491226,1.0,0.0,0.0303891719726
1385573862140745526,-0.0570807742754,0.0387899710423,-0.00546040520487,1.0,0.0,0.0231041930015
1385573862241669868,-0.049264563457,0.0331750184102,-0.00259329894388,1.0,0.0,0.0173317112962
1385573862340689174,-0.0402337846518,0.0267222850478,0.000680754856988,1.0,0.0,0.0132438282922
1385573862440785732,-0.0306040182888,0.0197802379451,0.0042871251708,1.0,0.0,0.0100566176222
1385573862540715848,-0.0213200508273,0.0133217361232,0.00818589301924,1.0,0.0,0.00765609003281
1385573862640875955,-0.0130494597643,0.00749330882022,0.0123781830454,1.0,0.0,0.00586460608116
1385573862740899377,-0.00625801856046,0.00278118143234,0.0167520356979,1.0,0.0,0.00453237068797
1385573862841750965,-0.00115751271012,-0.00080261873998,0.021315391298,1.0,0.0,0.00353533159064
1385573862940710723,0.00224078000309,-0.00308219775227,0.0260308101672,1.0,0.0,0.00280066880456
1385573863040665745,0.003931544301,-0.00431436897579,0.0309028871054,1.0,0.0,0.00225545565231
1385573863141847887,0.00412707868362,-0.00436259885873,0.0358006069949,1.0,0.0,0.00184116842345
1385573863240819845,0.00321261958681,-0.00373142126607,0.0408811235758,1.0,0.0,0.00151327403398
1385573863340813850,0.00138946921449,-0.00242260601282,0.0459844615173,1.0,0.0,0.00132645627184
1385573863440946820,-0.00087555466357,-0.000740063461406,0.0512244430597,1.0,0.0,0.00108630935417
1385573863540905232,-0.00342298087354,0.000984752138523,0.0565142318382,1.0,0.0,0.000932692617014
1385573863641738573,-0.00599283179869,0.00282842653006,0.0618109130492,1.0,0.0,0.000737382891813
1385573863741852422,-0.00818365477328,0.00450934848899,0.0671543849912,1.0,0.0,0.000525136390615
1385573863841831788,-0.0100400848753,0.00593009883926,0.0725472120626,1.0,0.0,0.000151622259437
1385573863940704743,-0.0111176566586,0.00742101633849,0.0780475133528,1.0,0.0,-0.000510148341452
1385573864040762577,-0.0114904200314,0.00796348802829,0.083526955749,1.0,0.0,-0.0010825662912
1385573864140714154,-0.0113562069193,0.00828333499497,0.08898517523,1.0,0.0,-0.00215383897547
1385573864240844261,-0.0112336983375,0.00828582565305,0.0944489120487,1.0,0.0,-0.00345304512988
1385573864340751022,-0.00936825179232,0.00847382631463,0.0999867084432,1.0,0.0,-0.00507692875421
1385573864440859583,-0.00782777818029,0.00734759635257,0.105373752917,1.0,0.0,-0.00663876994575
1385573864541677971,-0.00593062366261,0.00606873750267,0.110480353516,1.0,0.0,-0.00819890837438
1385573864641682329,-0.00246499086244,0.00600187259828,0.114572807796,1.0,0.0,-0.00967373481073
1385573864740896399,-0.00279399945937,0.00726552373678,0.11663557107,1.0,0.0,-0.0114756574996
1385573864840870342,-0.00166160427974,0.00457746127837,0.117712698291,1.0,0.0,-0.0131743373399
1385573864941718546,0.000346988311727,0.00422837862936,0.116464885115,1.0,0.0,-0.0146049475656
1385573865040792552,0.00251176658376,0.00284713909617,0.114786072462,1.0,0.0,-0.0155517175267
1385573865140802380,0.00171158971287,0.00138641311123,0.11197300439,1.0,0.0,-0.016248160764
1385573865240726350,-0.00152629067833,0.000242106556793,0.107899024515,1.0,0.0,-0.016663936624
1385573865341661010,-0.00474136971794,-0.000776228874705,0.102802012486,1.0,0.0,-0.01688443745
1385573865441743718,-0.00781932693094,-0.00185199710324,0.0984929188464,1.0,0.0,-0.0168566599316
1385573865540715529,-0.011452054659,-0.00251926330585,0.0957176624108,1.0,0.0,-0.0168150221303
1385573865641760494,-0.0146365932656,-0.0035056566138,0.094747260279,1.0,0.0,-0.0166761549181
1385573865741763643,-0.017468457073,-0.0048590139132,0.0955941461794,1.0,0.0,-0.016341970279
1385573865840715507,-0.0194176292329,-0.00525682673344,0.0980166686172,1.0,0.0,-0.0159826622492
1385573865940683437,-0.0208196054739,-0.00581577817293,0.101949678724,1.0,0.0,-0.0155761943023
1385573866041753251,-0.0212876624456,-0.00684448159742,0.107034637018,1.0,0.0,-0.0150887795656
1385573866140844204,-0.0198996006362,-0.00651351735876,0.112997115389,1.0,0.0,-0.0145625763536
1385573866240813715,-0.0180793213385,-0.00712863737657,0.119414084475,1.0,0.0,-0.0140287874852
1385573866341810666,-0.0159862748935,-0.00525662375944,0.126005320852,1.0,0.0,-0.0134662213206
1385573866440751204,-0.0130279582393,-0.0041218303694,0.132661443976,1.0,0.0,-0.0128980270721
1385573866541802925,-0.0101420765614,-0.00292226626328,0.139191887163,1.0,0.0,-0.0122423775369
1385573866641797040,-0.00819330779847,-0.000946374029277,0.145539235178,1.0,0.0,-0.0115471013156
1385573866740370614,-0.00514456945535,0.000559341376319,0.149353206527,1.0,0.0,-0.0109049370903
1385573866840778816,-0.00209398464833,0.000757067520618,0.152484745734,1.0,0.0,-0.0102241090724
1385573866941474244,0.00203564911121,0.00276531136341,0.154733859207,1.0,0.0,-0.00962617754717
1385573867040377811,0.0041797724017,0.00383036938365,0.155942810361,1.0,0.0,-0.00904779259539
1385573867140367106,0.00317812931419,0.00438201890704,0.156067138531,1.0,0.0,-0.00849461097208
1385573867240493832,0.00385002165107,0.00549311985666,0.155391825552,1.0,0.0,-0.00792822381204
1385573867341502846,0.00285627086819,0.00561855115104,0.153854625567,1.0,0.0,-0.00731938801388
1385573867441100170,0.00274860720867,0.00490282004036,0.151621312528,1.0,0.0,-0.00680924109568
1385573867541154534,0.00227144933846,0.0045370703279,0.148772982815,1.0,0.0,-0.00627945597749
1385573867640238380,0.00123791559423,0.0036449803862,0.145419221443,1.0,0.0,-0.005722195788
1385573867740565017,-0.000204113349104,0.00288618925914,0.141780102235,1.0,0.0,-0.00527466426425
1385573867840258318,-0.00162403819362,0.0017038810608,0.137942000554,1.0,0.0,-0.00485009399358
1385573867941238506,-0.00337020652985,-0.000618345939557,0.134079563393,1.0,0.0,-0.00448096195866
1385573868041257407,-0.00505169740581,-0.00198075091396,0.130102435373,1.0,0.0,-0.00428697916738
1385573868140235881,-0.0065509037728,-0.00392152151769,0.126282141531,1.0,0.0,-0.0041109248763
1385573868241259692,-0.00771793242196,-0.00522516318983,0.122679524804,1.0,0.0,-0.0040367013627
1385573868340239519,-0.00853059086875,-0.00625844875875,0.119325398048,1.0,0.0,-0.00401324929585
1385573868440211688,-0.00913224466484,-0.00789940302031,0.116190207296,1.0,0.0,-0.00389202905314
1385573868540252664,-0.00899079384555,-0.00856415243514,0.113151308387,1.0,0.0,-0.0038240395489
1385573868640239757,-0.00889082317609,-0.00932060620743,0.110070733525,1.0,0.0,-0.00359102861712
1385573868740229494,-0.00800940629792,-0.00949275529352,0.106936821804,1.0,0.0,-0.00336232674778
1385573868841232778,-0.00720875972553,-0.00936880579269,0.103739785875,1.0,0.0,-0.00309408542686
1385573868941260989,-0.00583118639425,-0.00876049755526,0.100478753803,1.0,0.0,-0.00281103549891
1385573869040265282,-0.00415229380316,-0.00812137741848,0.0971802298783,1.0,0.0,-0.00249403885802
1385573869142247837,-0.0024086784442,-0.00709020912793,0.0939016170106,1.0,0.0,-0.00220410096728
1385573869240225260,-0.000615600044233,-0.00591051379394,0.090698710198,1.0,0.0,-0.0019121230176
1385573869340270975,0.000979743361719,-0.00462313691051,0.0875930281255,1.0,0.0,-0.00169517190066
1385573869440270315,0.00252993765104,-0.00350350240551,0.0846024095682,1.0,0.0,-0.00143602720019
1385573869540239719,0.00366698700877,-0.00207181496278,0.0816947069337,1.0,0.0,-0.00123868373825
1385573869640315222,0.00470532245666,-0.000993063386846,0.078873844476,1.0,0.0,-0.000993406555685
1385573869740239059,0.00528480068672,9.34052844939e-05,0.0761502143393,1.0,0.0,-0.000777581822441
1385573869840270683,0.00554316731305,0.000904455895895,0.0735337309793,1.0,0.0,-0.000522670665155
1385573869940291009,0.00563869124932,0.00170671619003,0.0709641163328,1.0,0.0,-0.000303768039256
1385573870041414737,0.00529452550291,0.00207555309185,0.0684307515126,1.0,0.0,-7.38755199396e-05
1385573870140223367,0.0048235326408,0.00253386762243,0.0659768517444,1.0,0.0,0.000125780146113
1385573870240272556,0.0038788661658,0.00272411435339,0.0635612508646,1.0,0.0,0.00033401368087
1385573870340246733,0.00307713949409,0.00273012286913,0.061206713145,1.0,0.0,0.000569302177347
1385573870440222258,0.00195020671962,0.00266560640043,0.0588866155213,1.0,0.0,0.000821694945162
1385573870540190753,0.000816237877482,0.00237980396693,0.0566013957525,1.0,0.0,0.000998386802897
1385573870640252997,-0.000386106826906,0.00205803569904,0.0543414074242,1.0,0.0,0.0012529525075
1385573870740223510,-0.00167840938213,0.00179508806608,0.0521434849166,1.0,0.0,0.00145168927047
1385573870840272555,-0.00292154931923,0.00138525263217,0.0500608529427,1.0,0.0,0.00172612849834
1385573870940219741,-0.00420897061338,0.00101070553698,0.0481108488559,1.0,0.0,0.00194823479086
1385573871041211895,-0.00539150380544,0.000613597724393,0.0462975924429,1.0,0.0,0.00225322527969
1385573871141216209,-0.00647928866093,0.000310262149359,0.0445538656954,1.0,0.0,0.0025376574741
1385573871240312461,-0.00734279939572,-3.15586616238e-05,0.0429282211089,1.0,0.0,0.00293076210393
1385573871340225995,-0.0081066586574,-0.000249607747018,0.0414041320064,1.0,0.0,0.00323379145767
1385573871440244012,-0.00855356758869,-0.000128777789463,0.0399626536397,1.0,0.0,0.00353507248171
1385573871540239046,-0.00884594394192,-7.51785342279e-05,0.0386757544773,1.0,0.0,0.00383011744191
1385573871640241420,-0.00885044278247,0.000275719099688,0.0375473263289,1.0,0.0,0.00406299639635
1385573871740400655,-0.00841123597392,0.000807521696885,0.0365386038041,1.0,0.0,0.00421482955988
1385573871840163289,-0.0079814346623,0.00138837587977,0.035517113578,1.0,0.0,0.00443835741681
1385573871940289716,-0.00716768278297,0.00224472768454,0.034507522326,1.0,0.0,0.00460213203881
1385573872040246095,-0.0061690804639,0.00320906889983,0.0335725710189,1.0,0.0,0.00469175099494
1385573872140437622,-0.00503645786367,0.00405378248096,0.0326915058853,1.0,0.0,0.00485570162637
1385573872240427425,-0.00391354856177,0.00486398243663,0.0318617249743,1.0,0.0,0.00489145474657
1385573872340220104,-0.00290146983772,0.00547510969536,0.0310267172644,1.0,0.0,0.00492816057614
1385573872441472483,-0.00163741643787,0.0059841800517,0.0303488457823,1.0,0.0,0.00504205759592
1385573872540357133,-0.000699473535237,0.00641298784761,0.0296502029217,1.0,0.0,0.00508685523066
1385573872640391672,0.000284651910258,0.00663617305752,0.0290024284649,1.0,0.0,0.00518224494062
1385573872740357785,0.000866522351054,0.00651710123147,0.0283811291551,1.0,0.0,0.00515547095514
1385573872840179438,0.00154410116178,0.00644881206214,0.0278610930161,1.0,0.0,0.00519534569088
1385573872940371112,0.0018406500119,0.00616397751225,0.0272956053766,1.0,0.0,0.00520272181533
1385573873040383081,0.00204611938382,0.00559074762597,0.0267583754624,1.0,0.0,0.00522568987098
1385573873140812845,0.00211010493266,0.00496344773745,0.0261901203651,1.0,0.0,0.00519593715423
1385573873240857912,0.00196456281006,0.00421584585071,0.0255683534991,1.0,0.0,0.00520658602287
1385573873340120144,0.0015183817624,0.00326782392336,0.0249506593779,1.0,0.0,0.00516986175454
1385573873441123635,0.00108528362489,0.00244571469409,0.0243685509138,1.0,0.0,0.00518777046774
1385573873540232302,0.000440713418944,0.00165407371379,0.0238232195803,1.0,0.0,0.00524389940334
1385573873640992671,-0.000452792640492,0.000890416854636,0.0233420031805,1.0,0.0,0.00524337032398
1385573873740353962,-0.00141806500641,0.00046283629867,0.022951341742,1.0,0.0,0.00532194211884
1385573873840309971,-0.00259730988369,0.000184829226377,0.0225973926304,1.0,0.0,0.00543105228312
1385573873940428130,-0.00370994070686,0.000130536144962,0.0222846693695,1.0,0.0,0.00554190827245
1385573874040447233,-0.00489896611085,0.000378055956508,0.0219321547245,1.0,0.0,0.00565988133702
1385573874140511175,-0.0060785108383,0.000696658652252,0.0215778950371,1.0,0.0,0.0057726844491
1385573874240646802,-0.00716247353799,0.00119355789843,0.0212022950997,1.0,0.0,0.00593592346102
1385573874341499394,-0.00785446404237,0.00208066083261,0.0208856086963,1.0,0.0,0.00613949317176
1385573874441389507,-0.00861361767994,0.00276544023538,0.0205503125931,1.0,0.0,0.00636459651045
1385573874540376040,-0.00897253008981,0.00365202728063,0.0202816173567,1.0,0.0,0.00655541712364
1385573874640485147,-0.00911629278858,0.00441887581421,0.020015020398,1.0,0.0,0.00673891513474
1385573874740469161,-0.00894348183486,0.00499931567573,0.0197503423421,1.0,0.0,0.00692339845535
1385573874841492591,-0.00853764710518,0.00557448435398,0.0195016858403,1.0,0.0,0.00706893302243
1385573874940661283,-0.00790534619632,0.00599351535634,0.0192930388083,1.0,0.0,0.0072416214608
1385573875040469862,-0.00694187274817,0.00625174272356,0.0191216395672,1.0,0.0,0.00740891244416
1385573875140390260,-0.00593796392856,0.00643640285804,0.0189346371985,1.0,0.0,0.00749993577577
1385573875240417796,-0.00494292840865,0.00640772642783,0.018766698654,1.0,0.0,0.00763149637651
1385573875341401271,-0.00380397488326,0.00650487174196,0.0186387509155,1.0,0.0,0.00776783190603
1385573875440386396,-0.00275414043989,0.00657218433446,0.0185855218974,1.0,0.0,0.0079317124781
1385573875541518402,-0.0018265230339,0.00652614734637,0.0185156276294,1.0,0.0,0.00810878750882
1385573875641430738,-0.00120625568612,0.00638864836551,0.0183294241341,1.0,0.0,0.00825300304986
1385573875740467719,-0.000635147673541,0.00646815394152,0.0181038120166,1.0,0.0,0.00836410147911
1385573875840535221,-0.00041422964239,0.00655922796055,0.0178024179795,1.0,0.0,0.00851257974178
1385573875940388226,-0.000487689609309,0.00666615373401,0.0175051365835,1.0,0.0,0.00865083351886
1385573876040437986,-0.000747156814496,0.00687104619822,0.0171993027987,1.0,0.0,0.00877584850613
1385573876140504448,-0.00137927884252,0.00703550521096,0.0169642675671,1.0,0.0,0.00891464307019
1385573876240483458,-0.00204179413102,0.0074297289813,0.016759237868,1.0,0.0,0.00899732801206
1385573876340464354,-0.0030181472164,0.00806804062704,0.0164983339424,1.0,0.0,0.00910310266544
1385573876440474201,-0.00400799396732,0.00864195616729,0.0162371059385,1.0,0.0,0.00919508470385
1385573876541359313,-0.00509614935435,0.00934792989824,0.0159247329979,1.0,0.0,0.00927113316254
1385573876640379691,-0.00621838576717,0.0102855840271,0.0155243788058,1.0,0.0,0.00928151210652
1385573876740467730,-0.00738953027647,0.0111149377418,0.0151057305906,1.0,0.0,0.00932646839861
1385573876840426467,-0.00848063022563,0.0121599036981,0.0147495071988,1.0,0.0,0.00937323329785
1385573876940461229,-0.00952251198877,0.0130742159981,0.0143986016104,1.0,0.0,0.00934770236393
1385573877041466849,-0.0104319025096,0.0140961958434,0.0140372085501,1.0,0.0,0.00935011220323
1385573877140368705,-0.0111615453787,0.0150029644978,0.0136789166506,1.0,0.0,0.00932309238214
1385573877240511385,-0.0117924717018,0.0156555363096,0.0132418941789,1.0,0.0,0.00927661051456
1385573877340509826,-0.0121164292361,0.0163200736949,0.0128081675862,1.0,0.0,0.00917453476819
1385573877440440731,-0.0123190082131,0.0166829225292,0.0123832449713,1.0,0.0,0.00904384071222
1385573877540651471,-0.0123168206075,0.0168872834669,0.012037198598,1.0,0.0,0.00891026394075
1385573877640483658,-0.0121378612568,0.0167954581996,0.0117560997673,1.0,0.0,0.00875732550163
1385573877740511809,-0.0118751738722,0.016691548923,0.0114346877658,1.0,0.0,0.00864439336762
1385573877841640755,-0.0114860477731,0.0162609589175,0.0111657258848,1.0,0.0,0.00857111733507
1385573877941529700,-0.011019643133,0.0156953917748,0.0108921766969,1.0,0.0,0.00847258372477
1385573878041531202,-0.0105249291023,0.0150046635904,0.0106254907578,1.0,0.0,0.0084037354314
1385573878140439031,-0.0101505507098,0.0141704216594,0.0104258214465,1.0,0.0,0.00837424954788
1385573878240531510,-0.00965589135671,0.0133992298898,0.0102297148697,1.0,0.0,0.00834679736319
1385573878340545341,-0.00940690996852,0.0124043675698,0.00997318447654,1.0,0.0,0.00842305706339
1385573878440518810,-0.00896996578365,0.0116001385707,0.00975174494696,1.0,0.0,0.0084406560729
1385573878540651701,-0.00855175949679,0.0108851483872,0.00953752783291,1.0,0.0,0.0084712635447
1385573878640499276,-0.00825049950576,0.0101432359423,0.00924973381467,1.0,0.0,0.00846752660143
1385573878740459889,-0.00814782815118,0.00955313583035,0.00893763270897,1.0,0.0,0.00855035768902
1385573878840529677,-0.0079253555098,0.00913612807115,0.00873825874683,1.0,0.0,0.00864013747006
1385573878940532509,-0.00788242079479,0.00886859325812,0.00853429227148,1.0,0.0,0.00869645018577
1385573879041026390,-0.00797935686056,0.00866102643114,0.00830188441805,1.0,0.0,0.00874366875076
1385573879141088625,-0.00821255945306,0.00847700943712,0.00818478242934,1.0,0.0,0.00884573190901
1385573879241145375,-0.00854774223739,0.00828858072697,0.00800684700164,1.0,0.0,0.00889446753205
1385573879340065576,-0.00882108084215,0.00815512323191,0.00781600577648,1.0,0.0,0.00895782391616
1385573879440546339,-0.00921855652564,0.00789876686079,0.00749357869802,1.0,0.0,0.00906423910005
1385573879540368324,-0.00941345274095,0.00778719577614,0.00725945461661,1.0,0.0,0.00913488467656
1385573879641409486,-0.00962187258193,0.00751209813479,0.00686818581726,1.0,0.0,0.00921398683448
1385573879741230932,-0.00981638998974,0.00733726568946,0.00655743456412,1.0,0.0,0.00932603616208
1385573879840475263,-0.00995407289591,0.00695419106682,0.00628989478353,1.0,0.0,0.00949431389723
1385573879940317565,-0.0100825292701,0.00656844680405,0.00600528917091,1.0,0.0,0.00962156540518
1385573880041700579,-0.0100617760376,0.00613933848546,0.00576657785395,1.0,0.0,0.00973147131421
1385573880140499228,-0.0100324072863,0.00562718235132,0.00551786291294,1.0,0.0,0.00989522689309
1385573880240435360,-0.0100558789174,0.00519067828559,0.00517495758038,1.0,0.0,0.0100620371866
1385573880340420256,-0.00977672171491,0.00468886570168,0.00505231502998,1.0,0.0,0.0102725690818
1385573880440433871,-0.00966908022917,0.00412984789085,0.00479488265186,1.0,0.0,0.0104879702051
1385573880540696547,-0.00935796057608,0.00365883293581,0.00460357087928,1.0,0.0,0.0107189722122
1385573880640509508,-0.00897898195853,0.00326876944541,0.00439587720012,1.0,0.0,0.0108355777959
1385573880740429977,-0.00863130017834,0.00288328120429,0.00416835198773,1.0,0.0,0.0110151994735
1385573880840434573,-0.00834631383113,0.00228750259027,0.00382578356732,1.0,0.0,0.0112406462731
1385573880940474498,-0.0082066989799,0.00167956745181,0.00343835050138,1.0,0.0,0.0115109262142
1385573881041492368,-0.00798962655801,0.0011921267371,0.00305119331983,1.0,0.0,0.0117020869455
1385573881140529089,-0.00786306295285,0.000667098916163,0.00270997891255,1.0,0.0,0.0118585679523
1385573881240463052,-0.00781069623936,0.0002016866319,0.00234807496038,1.0,0.0,0.0120108956995
1385573881340530342,-0.00779220106576,-0.00028157090015,0.00194260662463,1.0,0.0,0.0121512608136
1385573881440416346,-0.00786020547534,-0.000665948403394,0.00150379141819,1.0,0.0,0.0123527547839
1385573881540502018,-0.00794452093771,-0.00109737424631,0.00110026508335,1.0,0.0,0.0125056644505
1385573881640451755,-0.0080448093995,-0.00126763323618,0.000754203955602,1.0,0.0,0.0126560254544
1385573881741488254,-0.00816329011598,-0.00152170338506,0.000444782755869,1.0,0.0,0.0127932209634
1385573881841523622,-0.00824752803744,-0.0017121415183,0.000183891645925,1.0,0.0,0.0129077947862
1385573881940454911,-0.00836428126244,-0.00215541200674,-0.000134039165301,1.0,0.0,0.013019310225
1385573882040447526,-0.00833098601398,-0.00263477170746,-0.000305487711792,1.0,0.0,0.0131545567628
1385573882140492462,-0.0082129457923,-0.00327245084801,-0.000578684152072,1.0,0.0,0.0132449924711
1385573882241634798,-0.00795382408663,-0.00383810724593,-0.000846117733319,1.0,0.0,0.0133084739508
1385573882340507910,-0.00769124821967,-0.00460498440566,-0.001067097967,1.0,0.0,0.0133935557724
1385573882440506912,-0.00731509044422,-0.00524444292438,-0.00134252417128,1.0,0.0,0.0134179061231
1385573882541493183,-0.0069307038347,-0.0058130380451,-0.00152268984524,1.0,0.0,0.0134818071065
1385573882641500635,-0.00663152030262,-0.00648854974555,-0.00175578188527,1.0,0.0,0.013511713754
1385573882740656926,-0.00633932208014,-0.00711764878907,-0.00201471300701,1.0,0.0,0.0134680761495
1385573882840413765,-0.00612018000578,-0.00777362977348,-0.00218626216632,1.0,0.0,0.0134205715028
1385573882940591388,-0.0060114949164,-0.00843728733893,-0.00232720856641,1.0,0.0,0.0133367318668
1385573883040519839,-0.00596664941078,-0.00929132986512,-0.00247239605026,1.0,0.0,0.0132548377671
1385573883140634184,-0.00594790674946,-0.0101386815963,-0.00262255111963,1.0,0.0,0.0132406197933
1385573883240607434,-0.00598494058566,-0.0109846029007,-0.00268260989101,1.0,0.0,0.0131365310624
1385573883340506463,-0.00596128188145,-0.0117947679729,-0.00271778158528,1.0,0.0,0.0131224941236
1385573883440512212,-0.00602974642574,-0.0125368042272,-0.00279164747255,1.0,0.0,0.0130233502063
1385573883540470231,-0.00588680770092,-0.0131865259485,-0.00274326256417,1.0,0.0,0.0129617301524
1385573883640602164,-0.00583890101056,-0.0138143869187,-0.00265949005572,1.0,0.0,0.0128548414047
1385573883740457971,-0.00576008562959,-0.0142208207118,-0.00248814541131,1.0,0.0,0.0127664071787
1385573883840531953,-0.00570291841941,-0.014460235159,-0.00234185902022,1.0,0.0,0.0126432243847
1385573883941605040,-0.00567880237682,-0.0143679309022,-0.00219557931768,1.0,0.0,0.0125433738098
1385573884040449702,-0.00572011678368,-0.0141441029227,-0.00194125215632,1.0,0.0,0.0124158296176
1385573884140753304,-0.00573835876095,-0.0136121974793,-0.00171978745805,1.0,0.0,0.0123578395301
1385573884241680791,-0.00573256757801,-0.0129474383385,-0.00147479731712,1.0,0.0,0.0122938337418
1385573884340545529,-0.00574234128203,-0.0120531826927,-0.00119235355259,1.0,0.0,0.0122182232221
1385573884440521416,-0.00568613997801,-0.0110203419029,-0.00088256668781,1.0,0.0,0.012148482834
1385573884540644935,-0.00547909010749,-0.00980526031964,-0.000574280519533,1.0,0.0,0.0120649154538
1385573884640592731,-0.00514877640286,-0.00857484271361,-0.000310847366391,1.0,0.0,0.0120045539948
1385573884740616966,-0.00481344494895,-0.00734025880176,-9.36173467148e-05,1.0,0.0,0.0119092805214
1385573884840466171,-0.004399693489,-0.00582024020068,0.000170139947112,1.0,0.0,0.0117684842689
1385573884940489607,-0.00396756266115,-0.00448252755495,0.000538833682865,1.0,0.0,0.0116723345988
1385573885041570290,-0.00355747984166,-0.00309541383744,0.000940602219422,1.0,0.0,0.011486783897
1385573885141719677,-0.00314884270261,-0.00183555590409,0.0012702018482,1.0,0.0,0.0112624314029
1385573885240529013,-0.00261023259708,-0.000782381061962,0.00154828959907,1.0,0.0,0.0110513124416
1385573885340648752,-0.00207549106561,5.04047145707e-05,0.00181519375787,1.0,0.0,0.0108741198782
1385573885440550649,-0.00141201496754,0.00071239114166,0.00207590264938,1.0,0.0,0.0107452584552
1385573885541784436,-0.000850998559109,0.000968125768051,0.00221804793988,1.0,0.0,0.010595546154
1385573885640756063,-0.000255405061899,0.00111104213087,0.00234128647968,1.0,0.0,0.0104516522722
1385573885741504773,0.000218896333454,0.00085220624643,0.00248550283328,1.0,0.0,0.0103360473783
1385573885841501747,0.000714662695775,0.000628633306369,0.00271029012595,1.0,0.0,0.0101621171946
1385573885940469757,0.00105519181822,8.28222256419e-05,0.00286273121739,1.0,0.0,0.0100532261783
1385573886040454136,0.00130030580415,-0.000348385694093,0.00310255108047,1.0,0.0,0.00994575800203
1385573886140697719,0.00137992354368,-0.000920095951327,0.0033525478666,1.0,0.0,0.00978121336482
1385573886240512776,0.00127814393933,-0.00130528191458,0.00366910038498,1.0,0.0,0.00962089003243
1385573886340668545,0.0010565364603,-0.00171351596261,0.00408412492119,1.0,0.0,0.00950540326272
1385573886442533740,0.000702993912337,-0.00193804183052,0.00451575062663,1.0,0.0,0.0093104111036
1385573886541505503,0.000213203039302,-0.00208502178529,0.00487302427542,1.0,0.0,0.00918580516725
1385573886641642980,-0.000351353984688,-0.00208742914149,0.0052246826954,1.0,0.0,0.00902594692667
1385573886741570913,-0.000956886958075,-0.00209286316722,0.00556191775249,1.0,0.0,0.00892576727327
1385573886840545236,-0.00170248230236,-0.0016573032185,0.0058049177202,1.0,0.0,0.00879871452889
1385573886940487185,-0.00232418281617,-0.00138332148719,0.00596521101795,1.0,0.0,0.00870449626809
1385573887041686343,-0.00294677551385,-0.000720785868367,0.00602185108852,1.0,0.0,0.00854028811293
1385573887140648481,-0.00365959335722,-4.26403888224e-05,0.00600987816742,1.0,0.0,0.00839079284358
1385573887240644348,-0.00423322121067,0.000736111785191,0.00604750976246,1.0,0.0,0.00824991130214
1385573887340627752,-0.00484770756009,0.00152925654465,0.00603167008462,1.0,0.0,0.00814917874449
1385573887441470607,-0.00538199354461,0.00234278427635,0.00601464855223,1.0,0.0,0.00795629403793
1385573887540516658,-0.00584311526537,0.00300930303473,0.0059598747632,1.0,0.0,0.007882657927
1385573887640495100,-0.00608652305459,0.00372094795482,0.00581829940237,1.0,0.0,0.0078310255053
1385573887740546065,-0.00618614002987,0.00434948252989,0.00565233568795,1.0,0.0,0.0077848844986
1385573887841723883,-0.0061855446406,0.00473206697611,0.00544159849491,1.0,0.0,0.00782356021459
1385573887941691191,-0.00590889091212,0.00507184916595,0.00525352564174,1.0,0.0,0.00786345808728
1385573888040541587,-0.00554707437931,0.00527341797877,0.00504322448541,1.0,0.0,0.00791284439641
1385573888140589427,-0.00502368125187,0.00538056160569,0.0048860693578,1.0,0.0,0.00802061349988
1385573888241556984,-0.00445754073524,0.00516845655083,0.00468274469921,1.0,0.0,0.00815947882712
1385573888340574762,-0.00377719699559,0.00504481586673,0.0045965260222,1.0,0.0,0.00834027966891
1385573888440731308,-0.00310757732784,0.0047512329854,0.00456872411978,1.0,0.0,0.00855649837422
1385573888540687500,-0.00241358549996,0.00446111669663,0.00461852864129,1.0,0.0,0.00878384025956
1385573888640564201,-0.00192165668361,0.00413212375769,0.00464618987639,1.0,0.0,0.00902216922679
1385573888741556186,-0.00147991995593,0.00406856183042,0.00465714250855,1.0,0.0,0.00927148188496
1385573888840517769,-0.00114427782127,0.00400066771672,0.00465003125136,1.0,0.0,0.00961786962369
1385573888940549253,-0.00103979708675,0.00408267066162,0.00461792726767,1.0,0.0,0.00990677468103
1385573889041493008,-0.000960232434475,0.00428395844169,0.00458414145669,1.0,0.0,0.01017507089
1385573889140549409,-0.00117802617077,0.00455587185548,0.0045296271638,1.0,0.0,0.0105130656322
1385573889241000956,-0.00140396482043,0.00503727708355,0.00442895344235,1.0,0.0,0.0107683368969
1385573889341759217,-0.00175789411482,0.00556604067791,0.00431230392984,1.0,0.0,0.0110408390699
1385573889441532662,-0.00215977620366,0.00623812655384,0.00416776180925,1.0,0.0,0.0112519445236
1385573889540583386,-0.00261145168946,0.00682166592207,0.00400720037973,1.0,0.0,0.0114242478159
1385573889641468623,-0.00316257593691,0.00741557298992,0.00378546538469,1.0,0.0,0.0115692480288
1385573889740635698,-0.00377107295676,0.00803949342823,0.0035704202952,1.0,0.0,0.0116843649177
1385573889840589299,-0.00435552784415,0.00873333284593,0.00343513271695,1.0,0.0,0.0117534854213
1385573889940616606,-0.00507411701095,0.00928761574898,0.00325294198778,1.0,0.0,0.0118346858555
1385573890040558874,-0.0058081787123,0.00988349779949,0.00300675264131,1.0,0.0,0.0119063367943
1385573890141548838,-0.00664180335971,0.0102321401648,0.00265155273394,1.0,0.0,0.0118828434429
1385573890240511760,-0.00741598779113,0.0105368869628,0.00222864906342,1.0,0.0,0.0119251304948
1385573890340729141,-0.00805912497903,0.0107778421456,0.00187859042055,1.0,0.0,0.0118882390231
1385573890440623526,-0.00867699712636,0.0107465407769,0.00151950414893,1.0,0.0,0.0118800615991
1385573890540513441,-0.0089591023914,0.0107390734501,0.00127609920554,1.0,0.0,0.0118179499669
1385573890640555770,-0.00917322729318,0.0105614340355,0.000991008390456,1.0,0.0,0.0117505956713
1385573890740554483,-0.00921338153279,0.0102310850887,0.000677303043458,1.0,0.0,0.0116813395233
1385573890840653320,-0.00905884460799,0.00995168467908,0.000445265376304,1.0,0.0,0.0116193976326
1385573890941515060,-0.00884672210481,0.00950554447339,0.000305064164053,1.0,0.0,0.0115753542563
1385573891040464073,-0.00849441788648,0.00906042343154,0.0002381767163,1.0,0.0,0.0114809022136
1385573891140601333,-0.00803873173275,0.00849453702354,0.000194839481468,1.0,0.0,0.0114560284938
1385573891240516666,-0.00758229373928,0.00795312894113,0.000100207899688,1.0,0.0,0.0114116811751
1385573891340527327,-0.00703857861205,0.00740184836608,-5.83165727936e-05,1.0,0.0,0.0114332660883
1385573891441610089,-0.00642158968069,0.00682312945407,-0.000201744908303,1.0,0.0,0.0113693307775
1385573891541594747,-0.00594690634521,0.00623326521988,-0.000368741693048,1.0,0.0,0.011377243517
1385573891641051914,-0.00539342115814,0.00563308938145,-0.000504847534563,1.0,0.0,0.0112877473494
1385573891740896667,-0.00493093247806,0.0049178427608,-0.000548074732302,1.0,0.0,0.0112218627614
1385573891840975499,-0.00457517902722,0.00424848709977,-0.000733734396079,1.0,0.0,0.0111852593426
1385573891940076718,-0.00421997271376,0.00362594944957,-0.000855544338477,1.0,0.0,0.0111286134765
1385573892040940763,-0.00398279314164,0.00297854136934,-0.0009694609058,1.0,0.0,0.0110828385508
1385573892143527992,-0.00379448438266,0.00236545083245,-0.00107434276582,1.0,0.0,0.0110425232111
1385573892240745501,-0.00367283624589,0.00178630876566,-0.00116869595803,1.0,0.0,0.0109913596847
1385573892340613039,-0.00356633853254,0.00121304058807,-0.00123567630975,1.0,0.0,0.0109403531374
1385573892440455688,-0.00369517737435,0.000529996734296,-0.0012974155411,1.0,0.0,0.0110117357434
1385573892542010700,-0.00374293960548,-0.000171236114851,-0.00137827876012,1.0,0.0,0.0109410487133
1385573892641534226,-0.0038873851723,-0.000935791324914,-0.00148074834555,1.0,0.0,0.0110040221014
1385573892742456689,-0.00403209322767,-0.00175890334946,-0.00158145657482,1.0,0.0,0.0109514877359
1385573892841027338,-0.00415010774871,-0.00256360496687,-0.00161583640041,1.0,0.0,0.0110365718465
1385573892941167947,-0.00421293253169,-0.00326746420678,-0.00160772773618,1.0,0.0,0.0111020784574
1385573893041081125,-0.00431355764543,-0.00406048159614,-0.00144920597125,1.0,0.0,0.0112733452643
1385573893140263281,-0.00435579965066,-0.00465772945995,-0.00134744413687,1.0,0.0,0.0114118617408
1385573893240101190,-0.00445944567027,-0.00522145754196,-0.00120549418571,1.0,0.0,0.0116153789999
1385573893341143820,-0.00457521025043,-0.00574801882806,-0.00103764622909,1.0,0.0,0.0118383795031
1385573893441100974,-0.00474734481205,-0.00625693241949,-0.00092493192071,1.0,0.0,0.0120479541139
1385573893540103166,-0.00511961635364,-0.00677288165731,-0.000798145898289,1.0,0.0,0.0122320826785
1385573893640062355,-0.0056352572866,-0.00724570104071,-0.000614796087153,1.0,0.0,0.0123695479128
1385573893740331763,-0.00624514784315,-0.00750396330184,-0.00027744077036,1.0,0.0,0.0125011899822
1385573893841131386,-0.00695022899138,-0.0076886896877,7.5580121805e-05,1.0,0.0,0.0125822451557
1385573893940348215,-0.00778383618867,-0.00779821571817,0.000374697980055,1.0,0.0,0.0126621495588
1385573894041167640,-0.00860393432585,-0.00770534019662,0.000632076690269,1.0,0.0,0.0128016052191
1385573894140200368,-0.00935895610111,-0.00750345013571,0.000939206887937,1.0,0.0,0.0128008950468
1385573894240088023,-0.0101027387862,-0.00729995170994,0.00126086613807,1.0,0.0,0.0128610400156
1385573894341002872,-0.0107154851592,-0.00679733887867,0.00152611243334,1.0,0.0,0.0128682044822
1385573894441098130,-0.0111440681687,-0.00637799352595,0.00179197478315,1.0,0.0,0.0129123883788
1385573894541056145,-0.0114490828209,-0.00585286434829,0.00203626115372,1.0,0.0,0.012949167633
1385573894640010820,-0.0116832989671,-0.00536411378178,0.00218805974455,1.0,0.0,0.0129709136772
1385573894740003956,-0.0117677995395,-0.00485968088133,0.00227050229978,1.0,0.0,0.0130326443325
1385573894840128757,-0.0117389406014,-0.004570901313,0.00231958141553,1.0,0.0,0.0131084827405
1385573894940284567,-0.0116255650897,-0.00417233880974,0.00235030199739,1.0,0.0,0.0132122199471
1385573895040149596,-0.011483226017,-0.00376276087493,0.00235488120242,1.0,0.0,0.0132107928874
1385573895140240177,-0.0112821873679,-0.00348196946556,0.00236721012904,1.0,0.0,0.0132351306077
1385573895240259095,-0.011166838179,-0.00313092487109,0.00226118548558,1.0,0.0,0.0131751539161
1385573895340249545,-0.0109138597884,-0.0029387523666,0.00221304331784,1.0,0.0,0.0132506453119
1385573895440150335,-0.0107787808591,-0.00273451183833,0.00213018626993,1.0,0.0,0.0132811316208
1385573895540263584,-0.0106985588498,-0.00262698756964,0.00203725405534,1.0,0.0,0.0132474418411
1385573895640152740,-0.0106493301217,-0.00259237192055,0.00192472286899,1.0,0.0,0.0132171626158
1385573895740653391,-0.0106923708773,-0.00278622548541,0.00177762320051,1.0,0.0,0.0131906792541
1385573895841375211,-0.0105627314527,-0.00300371502055,0.00165595595115,1.0,0.0,0.013210507596
1385573895941169053,-0.010460638238,-0.00342460343962,0.00148333809395,1.0,0.0,0.0132180539215
1385573896040444199,-0.0103324287424,-0.0038458289642,0.00131636054876,1.0,0.0,0.0132484525803
1385573896141590781,-0.0101582276606,-0.0045530948516,0.00120182740491,1.0,0.0,0.0133131008157
1385573896240263709,-0.0100788131417,-0.00516451870501,0.00101399007606,1.0,0.0,0.0133146408659
1385573896340227459,-0.00999007784736,-0.00589054461896,0.000749249301385,1.0,0.0,0.0134036424417
1385573896440524997,-0.0101835420562,-0.00650845425795,0.000407892166874,1.0,0.0,0.0133809076777
1385573896540298969,-0.0103604287755,-0.00708067788016,2.68688091007e-05,1.0,0.0,0.0134459386807
1385573896641281589,-0.0106811548897,-0.0076113367866,-0.000384811908873,1.0,0.0,0.0134146294239
1385573896741095599,-0.0110081069741,-0.0079019536435,-0.000775439353996,1.0,0.0,0.0133824199702
1385573896840140001,-0.0114646367444,-0.00813883680255,-0.00110795152098,1.0,0.0,0.0132902829593
1385573896940189258,-0.0118009540082,-0.00835256843542,-0.00133369651172,1.0,0.0,0.0131783113153
1385573897040389714,-0.0120559574816,-0.00842451826595,-0.00150057411175,1.0,0.0,0.0130294253469
1385573897140204227,-0.0122964020229,-0.00864281940359,-0.00148173197552,1.0,0.0,0.0129118531972
1385573897240327256,-0.0123659708164,-0.00858003469773,-0.00138795411362,1.0,0.0,0.0126998813662
1385573897340334452,-0.0124432446798,-0.00847707663592,-0.00130501322976,1.0,0.0,0.0125397295079
1385573897440475187,-0.0123312817473,-0.00826266257309,-0.00122389804159,1.0,0.0,0.0123105431142
1385573897540093620,-0.0121608345944,-0.00802758808183,-0.00113124330822,1.0,0.0,0.0121793568195
1385573897640331628,-0.0119241057575,-0.00768040921307,-0.0010556079666,1.0,0.0,0.0120185204817
1385573897740144191,-0.0116738416165,-0.00729721970292,-0.000985576935723,1.0,0.0,0.0118283732062
1385573897840622189,-0.0113779125787,-0.00692825220811,-0.000927251727472,1.0,0.0,0.0117120303491
1385573897943984545,-0.0110089959203,-0.00647049608884,-0.000892031390009,1.0,0.0,0.0115947716299
1385573898041233615,-0.0106601611635,-0.0061351818465,-0.000965634462291,1.0,0.0,0.0115599650945
1385573898140296549,-0.0102942130913,-0.00570741962942,-0.00112581211924,1.0,0.0,0.0115118581468
1385573898241269281,-0.00991672938063,-0.00533119869743,-0.00124352913631,1.0,0.0,0.011459716744
1385573898340866085,-0.00946972944739,-0.00498639131229,-0.00133227638704,1.0,0.0,0.0114386168782
1385573898440415834,-0.00911850844048,-0.00473349029587,-0.00144526531485,1.0,0.0,0.0113711655
1385573898542408347,-0.00866198462423,-0.00450158395103,-0.00152305354932,1.0,0.0,0.0113124477444
1385573898640727326,-0.00828651738147,-0.00447145374344,-0.00155999147563,1.0,0.0,0.0113107139957
1385573898742685981,-0.00790307281748,-0.00438243433286,-0.00156820515516,1.0,0.0,0.0113008271822
1385573898841658430,-0.00743233662128,-0.00420233956447,-0.00158383329734,1.0,0.0,0.0112602303938
1385573898941474595,-0.00693850579672,-0.00432583919311,-0.00164645935327,1.0,0.0,0.0113500329211
1385573899040190432,-0.0065048906536,-0.00424715764897,-0.00174157399505,1.0,0.0,0.0113547162183
1385573899140172939,-0.00609611537206,-0.00426167521039,-0.00169809045326,1.0,0.0,0.0114451237546
1385573899240063135,-0.00566313400792,-0.00426819892812,-0.00170889975296,1.0,0.0,0.0115798466618
1385573899341250893,-0.00531224756008,-0.00427399784478,-0.00166503574353,1.0,0.0,0.0116793853653
1385573899441205536,-0.00501043985816,-0.0041405146093,-0.00169926849735,1.0,0.0,0.011731130992
1385573899540211902,-0.00482710411924,-0.00407379059647,-0.00172186187889,1.0,0.0,0.0118258308314
1385573899640321031,-0.00465051433641,-0.00396863379843,-0.00171683228588,1.0,0.0,0.0119620739842
1385573899740072536,-0.00462546538376,-0.00382823143071,-0.00168899202406,1.0,0.0,0.0120130385099
1385573899841282630,-0.00462929645695,-0.00358384768265,-0.00160726122056,1.0,0.0,0.0120971360825
1385573899940176507,-0.00474970535379,-0.00336953463524,-0.00144549007686,1.0,0.0,0.0121276162569
1385573900040370754,-0.00482477639892,-0.00328182560722,-0.00127242548115,1.0,0.0,0.0122632439609
1385573900140080958,-0.00496823062196,-0.00303154338491,-0.00109543573262,1.0,0.0,0.0123699718862
1385573900240265226,-0.00507243549063,-0.00289006754006,-0.000867567592107,1.0,0.0,0.0125464898988
1385573900341083442,-0.00520940094907,-0.00270850928162,-0.000688996962155,1.0,0.0,0.0127099303266
1385573900441089889,-0.00536728974767,-0.00259940269536,-0.000536594384747,1.0,0.0,0.0129079299977
1385573900540110835,-0.00549182884389,-0.00249977888429,-0.000333262073444,1.0,0.0,0.0131155284724
1385573900640222822,-0.0056616252478,-0.00256320168803,-9.74854704609e-05,1.0,0.0,0.0133342850307
1385573900741095116,-0.00583986463231,-0.00263967373039,0.00011431549889,1.0,0.0,0.0135661692065
1385573900840212662,-0.00599387650242,-0.00281386113012,0.000345023485338,1.0,0.0,0.0138201875919
1385573900940063667,-0.00601089671394,-0.00305898060649,0.000669608012344,1.0,0.0,0.0140920877058
1385573901041038623,-0.00596460210723,-0.00330119012375,0.000949132000595,1.0,0.0,0.0143299852151
1385573901141079216,-0.00574461505157,-0.00376639965476,0.00124392880192,1.0,0.0,0.0145862848378
1385573901240404584,-0.00536731135626,-0.00416875278746,0.00142630839724,1.0,0.0,0.0147907483252
1385573901342403325,-0.00503909699298,-0.0047784880848,0.00159217355913,1.0,0.0,0.0149848034452
1385573901440989977,-0.00473548638735,-0.00543089320211,0.00167069328487,1.0,0.0,0.015122702481
1385573901541086107,-0.00426839904804,-0.00608105550403,0.00179422734903,1.0,0.0,0.0152555531951
1385573901640223220,-0.00400444864937,-0.00670517828043,0.00196654427145,1.0,0.0,0.0153968766953
1385573901741060601,-0.00361981887574,-0.00744205717833,0.00208057092331,1.0,0.0,0.0155747521727
1385573901841290209,-0.00336898261876,-0.0079664294805,0.00215258214557,1.0,0.0,0.0157836111662
1385573901941252737,-0.00309600673721,-0.00847139333118,0.00221913578954,1.0,0.0,0.0160208065146
1385573902041096567,-0.00297311547083,-0.00871829125209,0.00221722185014,1.0,0.0,0.016162653797
1385573902140273849,-0.00296145774832,-0.00877543763388,0.00230251662667,1.0,0.0,0.0163239437636
1385573902240091694,-0.00305951862144,-0.00859510325736,0.00242751301554,1.0,0.0,0.0164117872956
1385573902341101272,-0.00329419747229,-0.00828631556207,0.00243890813558,1.0,0.0,0.0165746072346
1385573902440045707,-0.00358278413089,-0.00770622984504,0.00239362041545,1.0,0.0,0.0167353723396
1385573902540168122,-0.00394328010416,-0.00695071910397,0.00240063301377,1.0,0.0,0.0168477647857
1385573902640233608,-0.00443782985384,-0.0061875645323,0.00241982034183,1.0,0.0,0.0169689214566
1385573902740190275,-0.00500229968351,-0.00537114187013,0.00245702224867,1.0,0.0,0.0170722172835
1385573902841228641,-0.00557973383272,-0.00462323848169,0.00256817884483,1.0,0.0,0.0171634123361
1385573902941034532,-0.0061586810245,-0.00400545285905,0.00263189729668,1.0,0.0,0.0171960073221
1385573903040042284,-0.00673816103116,-0.00356874472375,0.00273723136424,1.0,0.0,0.0172849485354
1385573903141090075,-0.00721283509015,-0.00322941694779,0.00289068487534,1.0,0.0,0.0174070587064
1385573903240062037,-0.00771661569322,-0.00306091858433,0.00308593288381,1.0,0.0,0.0175350499544
1385573903340076162,-0.00804151994851,-0.00305244814101,0.00324449356035,1.0,0.0,0.0177001137964
1385573903441084730,-0.0082667556664,-0.00324128385218,0.00343583797912,1.0,0.0,0.0178844984713
1385573903541084569,-0.00822783502729,-0.00362933217687,0.00360481624994,1.0,0.0,0.0180531609354
1385573903640023412,-0.00807906492363,-0.00420476057678,0.0037470216814,1.0,0.0,0.0181975020591
1385573903740062840,-0.00769496028759,-0.00485376368629,0.00378618508086,1.0,0.0,0.01835515192
1385573903840312238,-0.00724959034132,-0.00555509441809,0.00379218204879,1.0,0.0,0.0184011225371
1385573903940234006,-0.00664518560858,-0.00638710336402,0.00370903512107,1.0,0.0,0.0184793380741
1385573904040259164,-0.00592387462967,-0.00704848090211,0.00368076182141,1.0,0.0,0.0185198347357
1385573904141190262,-0.00527056160288,-0.00774220162029,0.00362774430013,1.0,0.0,0.0185213236542
1385573904240673952,-0.00468854330869,-0.00834423799589,0.00353385280744,1.0,0.0,0.0184856759319
1385573904340947688,-0.00419454849035,-0.00890238513955,0.00346615789525,1.0,0.0,0.0185013225614
1385573904441556669,-0.00397148403916,-0.009232764688,0.00333452870445,1.0,0.0,0.0183587274674
1385573904540547755,-0.00390121232756,-0.00962467668803,0.00325718132592,1.0,0.0,0.0183135482352
1385573904640559595,-0.0040093654314,-0.00984731299693,0.00316997440707,1.0,0.0,0.018230147525
1385573904740590121,-0.00430279763136,-0.00992191478856,0.00307888300378,1.0,0.0,0.0181907154871
1385573904841661616,-0.00473951679892,-0.00977163479934,0.00308109634413,1.0,0.0,0.0180904394814
1385573904941601862,-0.0053067244634,-0.00972523651017,0.00301095518964,1.0,0.0,0.0180800194492
1385573905041472325,-0.00587562108697,-0.00941497534351,0.00295716032072,1.0,0.0,0.0179697245665
1385573905140702304,-0.00645828706653,-0.00920706441303,0.0027749633688,1.0,0.0,0.0178978652551
1385573905240690582,-0.0069934751115,-0.00905637560591,0.00256535288973,1.0,0.0,0.0178760801178
1385573905340567257,-0.00750007014512,-0.00875825471494,0.00241158313057,1.0,0.0,0.0178317576196
1385573905440629253,-0.00795674720093,-0.00832244634985,0.002323777032,1.0,0.0,0.0177927250477
1385573905541697240,-0.00844932704795,-0.00776680219712,0.00220600990784,1.0,0.0,0.0176579014238
1385573905640744833,-0.00877182601792,-0.00735234674498,0.0021365031902,1.0,0.0,0.0176621652417
1385573905740750736,-0.00918414029658,-0.00669326296948,0.00199586104772,1.0,0.0,0.0176420495286
1385573905840623612,-0.00952509718567,-0.00615517744212,0.00188838561326,1.0,0.0,0.0176141589236
1385573905940638202,-0.00986814544863,-0.00553479810861,0.00179504040923,1.0,0.0,0.0175483241445
1385573906040642283,-0.0100207132038,-0.00513394447102,0.00169017801736,1.0,0.0,0.0175064372492
1385573906140603554,-0.0102919244631,-0.00485813557314,0.00165512891028,1.0,0.0,0.0175060769226
1385573906241675777,-0.0103539165471,-0.00472821942942,0.00160137940576,1.0,0.0,0.0174953037194
1385573906340563974,-0.010532996608,-0.00463322163247,0.00147467809723,1.0,0.0,0.0174612935444
1385573906440538982,-0.0103761922783,-0.00480808665357,0.00161893573461,1.0,0.0,0.0175346299942
1385573906541670674,-0.0103824845322,-0.00494988601923,0.00162641380137,1.0,0.0,0.0175591019626
1385573906640554480,-0.0102948850882,-0.00521540002821,0.0016662373199,1.0,0.0,0.0175378838728
1385573906740694163,-0.010040349753,-0.00546133166858,0.00171110799837,1.0,0.0,0.0175598158704
1385573906841538718,-0.00999832365552,-0.00583276683561,0.00173428916502,1.0,0.0,0.0175615723336
1385573906941609920,-0.00966204182392,-0.00597813987679,0.00181500429175,1.0,0.0,0.0174771709511
1385573907040715923,-0.00945776168881,-0.00632147972651,0.00175561225541,1.0,0.0,0.0174717440115
1385573907140552422,-0.00911041607271,-0.00652893172537,0.00171127296415,1.0,0.0,0.0174256917173
1385573907240542161,-0.008835933086,-0.00667944273732,0.00166664037034,1.0,0.0,0.0173553225061
1385573907340711984,-0.00857681427174,-0.00673728781268,0.0016275607205,1.0,0.0,0.0172517347959
1385573907440719743,-0.00832340985912,-0.00666096333319,0.00156711376491,1.0,0.0,0.0171441462633
1385573907540550303,-0.00815760240792,-0.00648579926454,0.00145411173073,1.0,0.0,0.0170544535962
1385573907640698409,-0.00812956469057,-0.006050488771,0.00153133144052,1.0,0.0,0.016847817384
1385573907741707809,-0.00811996311803,-0.00549308602557,0.00158133883828,1.0,0.0,0.0166485430149
1385573907840613553,-0.00821318348674,-0.00465494951561,0.00148884031245,1.0,0.0,0.016406381593
1385573907940572860,-0.00831600338454,-0.00376074036378,0.00130188831188,1.0,0.0,0.0161881600042
1385573908040608901,-0.00843376092291,-0.00266130988249,0.00111489350609,1.0,0.0,0.0159862218547
1385573908140652612,-0.00871904820568,-0.001586188615,0.000922945731472,1.0,0.0,0.015783053731
1385573908240516621,-0.00891937800697,-0.000460258667257,0.000766744121512,1.0,0.0,0.0155851939907
1385573908341647400,-0.00909916231883,0.000803769404269,0.000613159034263,1.0,0.0,0.0153555378018
1385573908440767653,-0.00927603658048,0.00179671896264,0.000473906323552,1.0,0.0,0.0152077974862
1385573908540568818,-0.00951232103054,0.0031937532212,0.000376835040064,1.0,0.0,0.0150160481813
1385573908640587136,-0.0096963395338,0.00422654122925,0.000310987770524,1.0,0.0,0.0149157895001
1385573908740548281,-0.00994931304556,0.00510584064896,0.000284328937221,1.0,0.0,0.0147239478914
1385573908840591734,-0.0101016732816,0.00573165038498,0.000267515096353,1.0,0.0,0.0146410868814
1385573908941644548,-0.0102671253322,0.00616711959253,0.000309722526036,1.0,0.0,0.0145242853578
1385573909040550943,-0.0103367319861,0.00636055417955,0.000368779962836,1.0,0.0,0.0145115125811
1385573909140680509,-0.0103132244098,0.00632939435363,0.00047426084532,1.0,0.0,0.0144995362148
1385573909241648999,-0.0101865947245,0.00615211697275,0.000484293870039,1.0,0.0,0.0145030291282
1385573909340579604,-0.00982883011361,0.00598239032814,0.000419657452742,1.0,0.0,0.0145047076765
1385573909440706005,-0.00946260847209,0.00567337510039,0.000307685153547,1.0,0.0,0.0145490495032
1385573909541899872,-0.00893056802001,0.005385102298,0.000266919318096,1.0,0.0,0.014586584278
1385573909640704200,-0.00838616563763,0.00516065544863,0.000157449029915,1.0,0.0,0.0146281696579
1385573909740616649,-0.00785404589338,0.00488543385137,4.63704837254e-05,1.0,0.0,0.0146249679638
1385573909840574417,-0.00733935692603,0.00467741696916,-3.58036813403e-05,1.0,0.0,0.0146265305288
1385573909941717269,-0.00694823503447,0.00450224052638,-0.000205553835396,1.0,0.0,0.0145628121379
1385573910041537907,-0.00671416959799,0.0042593508996,-0.00043242460421,1.0,0.0,0.0145426171411
1385573910141511695,-0.00653826108104,0.00399396820768,-0.000574161760199,1.0,0.0,0.0145314530105
1385573910241802703,-0.00664848109093,0.00371330636076,-0.000918481798045,1.0,0.0,0.0145521309958
1385573910341033218,-0.00690167810162,0.00342080896069,-0.00115985866838,1.0,0.0,0.0146076950249
1385573910442603057,-0.00733135961811,0.00299035830627,-0.00142198134704,1.0,0.0,0.0148081802328
1385573910540599815,-0.00789983336865,0.00262540007015,-0.00168985615726,1.0,0.0,0.0149694876148
1385573910640725681,-0.00848208834775,0.00235401750025,-0.00188812421292,1.0,0.0,0.0151415207739
1385573910740778055,-0.00910451632542,0.00221831584503,-0.0020703605254,1.0,0.0,0.0152739105865
1385573910841613043,-0.00978139689202,0.00219353922527,-0.00231413097059,1.0,0.0,0.0154104521067
1385573910941561310,-0.0103205322538,0.00221913435805,-0.0024583920274,1.0,0.0,0.0155537259022
1385573911041006396,-0.0108190360306,0.0023838089159,-0.00263915050984,1.0,0.0,0.0156598883971
1385573911141765539,-0.0112805177011,0.00266842651728,-0.00280902040835,1.0,0.0,0.0157567576299
1385573911240477345,-0.011591741647,0.00290921620382,-0.00298778970064,1.0,0.0,0.0158319102702
1385573911340454821,-0.0118534295047,0.00328043267198,-0.00310527536523,1.0,0.0,0.0158307975553
1385573911441074546,-0.0119958255087,0.00356183918093,-0.00316188145968,1.0,0.0,0.0159203794402
1385573911541441145,-0.0120215406215,0.00390534235061,-0.0032554086624,1.0,0.0,0.0160160156224
1385573911641559567,-0.011824873635,0.00409977706722,-0.00339252387694,1.0,0.0,0.016103286523
1385573911740449596,-0.0115494060036,0.00427463054935,-0.00342890693537,1.0,0.0,0.0162619758799
1385573911840489837,-0.0110548494461,0.00439123420302,-0.00345414869407,1.0,0.0,0.0164403790136
1385573911940454488,-0.0105031445097,0.00443794069021,-0.00339302518724,1.0,0.0,0.0166130260466
1385573912040567269,-0.00978249071752,0.00458713260039,-0.00320180161952,1.0,0.0,0.0168921812274
1385573912140456575,-0.00892849771744,0.00467082583274,-0.00302735212923,1.0,0.0,0.0171271815796
1385573912241546314,-0.0081030719686,0.00463147699065,-0.00281916211904,1.0,0.0,0.0174585818838
1385573912340491250,-0.00730112492715,0.00479069365703,-0.00263604398449,1.0,0.0,0.0176903234831
1385573912440672462,-0.00646798577807,0.00496610691649,-0.00253001367889,1.0,0.0,0.0180328278836
1385573912540425070,-0.00584671646331,0.00503050237698,-0.00239554224298,1.0,0.0,0.0183587849954
1385573912640618248,-0.00517695168968,0.00546680786889,-0.00235176986246,1.0,0.0,0.0186079894829
1385573912740441072,-0.00475827705463,0.00562884251782,-0.0023370999496,1.0,0.0,0.0188396552763
1385573912840457817,-0.00429114838705,0.00598479739315,-0.0023120249396,1.0,0.0,0.0192108605037
1385573912941493811,-0.00418223860891,0.0062167566134,-0.00224702795621,1.0,0.0,0.0194099034918
1385573913041469387,-0.00439577458854,0.00617399179609,-0.00225654919423,1.0,0.0,0.0196818410395
1385573913141437316,-0.00471301607577,0.00625313062217,-0.00208863287068,1.0,0.0,0.0199639833874
1385573913240428428,-0.00524024620635,0.00620440717113,-0.0019970978768,1.0,0.0,0.0202780894499
1385573913340705742,-0.00585404279912,0.0061581935614,-0.00187258145475,1.0,0.0,0.0205580983684
1385573913441613955,-0.00649750126517,0.00596774104062,-0.00180137391519,1.0,0.0,0.0208026469464
1385573913540573852,-0.00727877856306,0.00573870410821,-0.00173072152223,1.0,0.0,0.0211012505237
1385573913640490657,-0.00810732427914,0.00544572440521,-0.00166445090592,1.0,0.0,0.0214433410366
1385573913741423359,-0.00898067449941,0.00510806184822,-0.00162141524114,1.0,0.0,0.0217491951889
1385573913841649327,-0.00988639102716,0.00477353859426,-0.00156345516368,1.0,0.0,0.0220777521856
1385573913941521870,-0.0106667415212,0.00435314650087,-0.00147340391805,1.0,0.0,0.0224087867217
1385573914040574539,-0.0113596149286,0.0039991664624,-0.00141782198837,1.0,0.0,0.0226815883166
1385573914140535598,-0.0117683539209,0.00359414210861,-0.00129006638139,1.0,0.0,0.0230322341804
1385573914240538784,-0.0120149315372,0.00300578370932,-0.00127639738467,1.0,0.0,0.0234919715209
1385573914341455146,-0.0119681155369,0.00278095556946,-0.00130308044337,1.0,0.0,0.0238106650288
1385573914440495134,-0.0118274776628,0.00247419338073,-0.00129283102607,1.0,0.0,0.0241824635272
1385573914540465622,-0.0115058224016,0.00222441000826,-0.00118711944797,1.0,0.0,0.0245460206
1385573914640500086,-0.0111376234331,0.00205820957662,-0.00117495518539,1.0,0.0,0.0249029255314
1385573914740449210,-0.0106320692459,0.00194046171619,-0.00121228649911,1.0,0.0,0.0252234422336
1385573914840667059,-0.0101417085613,0.00189828538071,-0.00116923701368,1.0,0.0,0.0255234828059
1385573914941536315,-0.00962471076951,0.00181416423121,-0.00114311410471,1.0,0.0,0.0258331992468
1385573915041634767,-0.00902901362763,0.00197297577037,-0.00112549840326,1.0,0.0,0.0260750076578
1385573915140610962,-0.00850300341059,0.00207715336507,-0.00111499656678,1.0,0.0,0.0263461581749
1385573915240649889,-0.00795746176371,0.00223861710578,-0.00116859094849,1.0,0.0,0.0265498614447
1385573915341638807,-0.00746157672072,0.00261519244075,-0.0011876156163,1.0,0.0,0.026725574938
1385573915440504051,-0.00708301497904,0.00290226675716,-0.00124595399102,1.0,0.0,0.0269172001045
1385573915540465769,-0.00678006402357,0.00340475889498,-0.00129687508505,1.0,0.0,0.0271014870006
1385573915641408439,-0.00654636459285,0.00392709817131,-0.00129450443293,1.0,0.0,0.027229841864
1385573915740515135,-0.00646588660333,0.00458985211407,-0.00130756697143,1.0,0.0,0.027335905073
1385573915841425189,-0.00643816954617,0.0053284745311,-0.00138155503232,1.0,0.0,0.0274188606672
1385573915940460890,-0.00654999553836,0.00610008338018,-0.00151257822033,1.0,0.0,0.0275255675095
1385573916040481030,-0.00671729671236,0.00689775275011,-0.00165061832742,1.0,0.0,0.027640055299
1385573916140449577,-0.006992888014,0.00774974759785,-0.00182289382196,1.0,0.0,0.0278215616746
1385573916241510245,-0.00732412400527,0.00838968932038,-0.00191715620316,1.0,0.0,0.0279435991664
1385573916340527710,-0.00777717084887,0.00898169193056,-0.00202410378319,1.0,0.0,0.0281204860409
1385573916440552270,-0.0082722298847,0.00961688488376,-0.00213457777815,1.0,0.0,0.0282543466131
1385573916540474420,-0.00883404748147,0.0100727929633,-0.00217007373746,1.0,0.0,0.0284208571478
1385573916641155340,-0.00932082757329,0.0105411550092,-0.00212375220735,1.0,0.0,0.0285808669859
1385573916741127727,-0.00983374816157,0.010901622996,-0.00199387617568,1.0,0.0,0.0286853186805
1385573916840471381,-0.0101808768316,0.0112130310328,-0.00182905297514,1.0,0.0,0.0287677950959
1385573916940395562,-0.0104991613945,0.0112877115855,-0.0016410860411,1.0,0.0,0.0289266821042
1385573917040601230,-0.0105509676188,0.0112729190444,-0.00141933210323,1.0,0.0,0.0290737344521
1385573917140638874,-0.0104154515687,0.0111067778099,-0.00125206092945,1.0,0.0,0.029302092187
1385573917241622966,-0.0100008754794,0.0108246574529,-0.00098864346662,1.0,0.0,0.0295069534193
1385573917341044571,-0.00941078650235,0.010434718978,-0.000850357573269,1.0,0.0,0.0297650978301
1385573917440725620,-0.00858796634711,0.00993732247515,-0.00072533626177,1.0,0.0,0.0299459463454
1385573917541031031,-0.0076773962339,0.00922922549056,-0.000666435975657,1.0,0.0,0.0301523790876
1385573917641061324,-0.00666646535896,0.00855749388662,-0.000668046576523,1.0,0.0,0.0303681865503
1385573917740558046,-0.00571728872647,0.00786101034538,-0.0007331509862,1.0,0.0,0.0305378031093
1385573917841216658,-0.00498028424997,0.00713310310928,-0.000649232771837,1.0,0.0,0.0307630625786
1385573917941094746,-0.00426879086787,0.00644462406303,-0.000586876899207,1.0,0.0,0.0310164847902
1385573918040233529,-0.00372550493535,0.00576057857227,-0.00051403583391,1.0,0.0,0.0312704196686
1385573918140136454,-0.00331164351515,0.00525006434155,-0.000469984505381,1.0,0.0,0.0315616019209
1385573918241112304,-0.00303081790779,0.00463092402093,-0.000492745183225,1.0,0.0,0.0318395111789
1385573918340266484,-0.00285235303718,0.00420947810568,-0.000464599079242,1.0,0.0,0.0321395012947
1385573918440179757,-0.00275925026379,0.00385837802221,-0.000525551110049,1.0,0.0,0.0323912899196
1385573918540260364,-0.0027238619357,0.00368090728772,-0.000559583311035,1.0,0.0,0.0326585688814
1385573918641142852,-0.00300579263216,0.00351404033409,-0.000546483985299,1.0,0.0,0.0328849515947
1385573918740601399,-0.00334651588127,0.00343913371252,-0.000541666411468,1.0,0.0,0.0331959085943
1385573918841187789,-0.00382216730662,0.00343781053683,-0.000520534556151,1.0,0.0,0.0334302435368
1385573918941199081,-0.0044028505019,0.00352838539018,-0.000580871479609,1.0,0.0,0.0336203844459
1385573919040199239,-0.00518528437759,0.00364074431258,-0.000663267682424,1.0,0.0,0.0337933514675
1385573919140151821,-0.00602164098896,0.00374381851403,-0.000702740549465,1.0,0.0,0.0339706359004
1385573919240120787,-0.00695395358762,0.0038707228354,-0.000678831680243,1.0,0.0,0.0341159037925
1385573919340371461,-0.00783044918868,0.00392076224823,-0.000649332732296,1.0,0.0,0.0342690218188
1385573919440386964,-0.00873340827794,0.0039781402444,-0.000560163893211,1.0,0.0,0.03446803149
1385573919541221404,-0.00941982302688,0.00394500133653,-0.000458089515012,1.0,0.0,0.0346573300123
1385573919640303077,-0.00998688226196,0.00394628087955,-0.000256285877051,1.0,0.0,0.0348578903619
1385573919740165500,-0.0103406224802,0.00399466974894,-0.00014129029851,1.0,0.0,0.0349835385076
1385573919841106758,-0.0105246988707,0.00409772517188,4.10821794766e-05,1.0,0.0,0.0350996017978
1385573919940172954,-0.0105456385395,0.00404879595097,0.000155953514674,1.0,0.0,0.0352584304939
1385573920040245803,-0.0103395199997,0.00408903501472,0.000363488007414,1.0,0.0,0.0353713176013
1385573920140133751,-0.0100114510549,0.00417060010468,0.00044009921521,1.0,0.0,0.035514670112
1385573920240159223,-0.0095503318956,0.00424655469144,0.000559715471302,1.0,0.0,0.0355982797656
1385573920341356595,-0.00902968181332,0.00434900897239,0.000706589424823,1.0,0.0,0.035674640319
1385573920440388184,-0.00844408528662,0.00446373483406,0.000804290769029,1.0,0.0,0.0357432387145
1385573920540147840,-0.00781107984327,0.004717358332,0.000797155663522,1.0,0.0,0.0357599351627
1385573920641229909,-0.00727775044452,0.00487141484666,0.000753810102193,1.0,0.0,0.0358534253576
1385573920740405318,-0.00673227259073,0.00513488865848,0.000742789896659,1.0,0.0,0.0359584074528
1385573920840222011,-0.0062305888749,0.00537237657355,0.000685886311613,1.0,0.0,0.0359896382247
1385573920940180352,-0.00586759469885,0.00565932706613,0.000589173165608,1.0,0.0,0.0359642338096
1385573921040343858,-0.00553121492703,0.005839407974,0.00050164256015,1.0,0.0,0.0358810965686
1385573921141224726,-0.00539431190338,0.00602960236934,0.000475156845591,1.0,0.0,0.0358885017676
1385573921240259692,-0.00531119264091,0.00597450400855,0.000485219819438,1.0,0.0,0.0358726682677
1385573921340462041,-0.00530530792625,0.00592264935433,0.000488904326301,1.0,0.0,0.0358577097787
1385573921440112067,-0.00544702364064,0.00567836344363,0.000511496676512,1.0,0.0,0.0358284697292
1385573921541181228,-0.00555976886182,0.00548346677991,0.000610247137593,1.0,0.0,0.0358063776683
1385573921641202836,-0.00584860704072,0.00499456214361,0.000693770507006,1.0,0.0,0.0358842726213
1385573921740242725,-0.00609781333401,0.00453178397932,0.000760829293628,1.0,0.0,0.035920965892
1385573921840129444,-0.00638584106839,0.00404554672025,0.000872262566936,1.0,0.0,0.0360246585754
1385573921940294269,-0.00670701722384,0.00355503048216,0.000985840979883,1.0,0.0,0.0361927315732
1385573922040337386,-0.00692492723509,0.00332198209026,0.00107734319782,1.0,0.0,0.0362744742209
1385573922140331145,-0.00713971899226,0.00295263837149,0.00109960309715,1.0,0.0,0.036405772712
1385573922240513638,-0.00728675126847,0.00289698366857,0.00104634139737,1.0,0.0,0.0364736068068
1385573922340251870,-0.00735557868974,0.00259470310775,0.00104846292707,1.0,0.0,0.0367613269852
1385573922441322752,-0.00735144966724,0.00241769396343,0.000995110392289,1.0,0.0,0.0369905855175
1385573922541301076,-0.00722250260828,0.00219118000753,0.000956018430831,1.0,0.0,0.0372311551035
1385573922640432982,-0.00709506436988,0.00183049423506,0.000768722392668,1.0,0.0,0.0374955241289
1385573922740498597,-0.00686878763779,0.00158680879224,0.000585409198275,1.0,0.0,0.0377155418014
1385573922840237332,-0.00667794701288,0.00117423496089,0.000372624453183,1.0,0.0,0.0380193444275
1385573922941247167,-0.00650896490755,0.00087927079099,0.000126703905625,1.0,0.0,0.0382417810462
1385573923040458071,-0.00624436841885,0.000529363583514,-9.06769180086e-05,1.0,0.0,0.038465738253
1385573923140872104,-0.00605781484937,0.000256715466845,-0.00034345749858,1.0,0.0,0.038668270998
1385573923240875631,-0.00586208376989,0.000129761492843,-0.000495282784921,1.0,0.0,0.0387850490112
1385573923340440371,-0.00582181933874,0.000128607869695,-0.000606107088966,1.0,0.0,0.0388959751929
1385573923440645228,-0.00580037825218,0.000333838316662,-0.000732084430888,1.0,0.0,0.0388872479129
1385573923540764775,-0.00593438761569,0.000795831896414,-0.000792004490284,1.0,0.0,0.0388493400457
1385573923641739189,-0.00603145419957,0.001359691415,-0.00072001085018,1.0,0.0,0.0388103644266
