%time,field.linear.x,field.linear.y,field.linear.z,field.angular.x,field.angular.y,field.angular.z
1385573861350357873,0.0,0.0,0.0,0.0,0.0,0.0
1385573861350416686,0.115928751039,-0.16991492688,-0.114161842803,-0.0335967739965,0.00739808761934,-1.56822339562
1385573861360893741,0.115878054666,-0.169931204871,-0.114117520259,-0.0332714893377,0.00718639232344,-1.56831699599
1385573861369699626,0.115882932604,-0.169935293759,-0.114118007497,-0.0332402231291,0.007176165691,-1.56830649598
1385573861379670935,0.116034635282,-0.169892235335,-0.114241718538,-0.0331446756426,0.00747934772086,-1.5682172039
1385573861389652070,0.115855692979,-0.169945716133,-0.114055097099,-0.0333610911416,0.00765104195823,-1.56816155997
1385573861399696139,0.115910572105,-0.169932889276,-0.114130985376,-0.033301435833,0.00720681669993,-1.56830967732
1385573861409741113,0.115887012043,-0.169925212245,-0.114113547352,-0.0332788999604,0.00715855269631,-1.5683184741
1385573861419678009,0.1159296664,-0.169909330059,-0.114151207861,-0.0335919716148,0.00739171890386,-1.56825750602
1385573861429621789,0.116015295244,-0.169889986245,-0.114230903367,-0.0332620638026,0.00755694463094,-1.5682308872
1385573861439722419,0.116021279149,-0.169893547463,-0.114231341353,-0.0332077157132,0.00748710116628,-1.56819272432
1385573861449754747,0.1159029472,-0.169922950745,-0.11412753639,-0.0333844443485,0.00718854764105,-1.5683285618
1385573861459668145,0.115892324323,-0.169927662311,-0.114109700941,-0.0332256628483,0.00720433635942,-1.56833237954
1385573861469837519,0.115892324323,-0.169927662311,-0.114109700941,-0.0332256628483,0.00720433635942,-1.56833237954
1385573861479573336,0.115778026374,-0.169983857086,-0.114217938739,-0.0339948166262,0.00595421635628,-1.56808360487
1385573861489660054,0.115806853928,-0.16996317511,-0.11423372759,-0.0342277562163,0.00613307434256,-1.56804409646
1385573861499631939,0.115808784934,-0.169966315647,-0.114238958587,-0.0342143455008,0.00612462802469,-1.5680334849
1385573861509575878,0.115772190038,-0.169991249564,-0.114211592164,-0.0339826391305,0.00604055212829,-1.5680820552
1385573861519729844,0.115779036983,-0.16998255531,-0.1142257731,-0.03395954121,0.00592645441706,-1.5680859032
1385573861529791148,0.115784251265,-0.169979321746,-0.114210737407,-0.0339979311619,0.00594228591739,-1.56809335605
1385573861539609740,0.115777169381,-0.169972756068,-0.114236224506,-0.0341515951544,0.0061618972678,-1.56804137204
1385573861549632511,0.115777905513,-0.169966967872,-0.114232946573,-0.0341773525532,0.00608965870321,-1.56804202911
1385573861559579240,0.115794555849,-0.169973590856,-0.114244886849,-0.0341279991681,0.00607589698393,-1.56800140222
1385573861569587476,0.115801326343,-0.169966367225,-0.114240099301,-0.0342318129557,0.00608240807121,-1.56801185014
1385573861579617743,0.115804865275,-0.16996733792,-0.114246043763,-0.0342490230757,0.00612247521319,-1.56799098708
1385573861589632432,0.115743686783,-0.169911439501,-0.114333967663,-0.0340130882359,0.00728568951214,-1.56838321208
1385573861599894434,0.11571735625,-0.169927928047,-0.114294675847,-0.0338171021631,0.00713716848847,-1.56845925466
1385573861609603008,0.115800082159,-0.16998812079,-0.114220070187,-0.0342716808963,0.00608526206774,-1.56799006902
1385573861619629155,0.11581315422,-0.169973902066,-0.11423746368,-0.0342287305802,0.00618609055466,-1.56799201864
1385573861629700114,0.115802073727,-0.169972158591,-0.114235533024,-0.0342233159012,0.00605894271408,-1.56804236994
1385573861639829624,0.115808501679,-0.169970789445,-0.11423568792,-0.0342501903918,0.00611630537441,-1.56802901783
1385573861649702490,0.115789353473,-0.169964775212,-0.114232364183,-0.0340765549238,0.00610806583076,-1.56804912353
1385573861659616971,0.115780267877,-0.169974302807,-0.114210442104,-0.0339994091811,0.0060014157046,-1.56811059174
1385573861670171882,0.115819127026,-0.169966221913,-0.114247707458,-0.0341918476784,0.00614191229928,-1.56802223845
1385573861679775540,0.115752675204,-0.16998928995,-0.114198483631,-0.0339226635512,0.00599017963027,-1.56811633801
1385573861689723218,0.115732029709,-0.169981849826,-0.114188444581,-0.0341804830113,0.00664769880796,-1.56789505087
1385573861699782484,0.115770765273,-0.169986783803,-0.114202428685,-0.0338999652865,0.00596860457019,-1.56809233508
1385573861709589877,0.115797405589,-0.169974393205,-0.114238221594,-0.0342329920027,0.00614203442162,-1.56803702658
1385573861719666197,0.115798184108,-0.169979521579,-0.114211147793,-0.0341833733966,0.00612536162882,-1.56800661058
1385573861729653128,0.115806268544,-0.169969225797,-0.114234958118,-0.0342591298011,0.00611461607854,-1.5680417468
1385573861739673952,0.115700621981,-0.169991945148,-0.114150334051,-0.0339466961171,0.00647572513568,-1.567987725
1385573861749581887,0.115788201359,-0.169977506397,-0.114237504447,-0.034165239599,0.00614123831696,-1.56804696372
1385573861759629965,0.115800611013,-0.169965696302,-0.114233945785,-0.0341211225648,0.00614051133128,-1.56803570689
1385573861769706188,0.115709981778,-0.169931262133,-0.114303427923,-0.0338097547795,0.00711766396404,-1.56843270536
1385573861779674746,0.1158564085,-0.169935253293,-0.11407250363,-0.0333936400177,0.0077778647528,-1.56818493484
1385573861789617376,0.115932558426,-0.16992463997,-0.1141483028,-0.0335679438786,0.00739312191687,-1.56824198736
1385573861799674487,0.115941423784,-0.169924242827,-0.114149382585,-0.0335757834338,0.00733117808538,-1.5682072387
1385573861809654870,0.115907231439,-0.169925828809,-0.11411742689,-0.0333497293238,0.00719756787927,-1.56827960539
1385573861819620502,0.115929643063,-0.169910144459,-0.114141004391,-0.0336229318597,0.00729683451354,-1.56824431752
1385573861829616083,0.115932215595,-0.169918461744,-0.114151133573,-0.0335938999932,0.00739074422158,-1.56821292741
1385573861839668158,0.115914061942,-0.169931535525,-0.114121980889,-0.0333616832426,0.00720173727693,-1.56826997915
1385573861849675819,0.115944564191,-0.16990998811,-0.114159931403,-0.0335787169171,0.00735820310891,-1.56822991017
1385573861859639760,0.115916986238,-0.169925267279,-0.114144780209,-0.0335245419933,0.00729816503583,-1.5682548762
1385573861869749820,0.115887705072,-0.169941205583,-0.114091533417,-0.0332845277019,0.0071261392988,-1.56833005376
1385573861879657544,0.115917519913,-0.169917180911,-0.114130971113,-0.0335411635656,0.00733243958251,-1.56824154467
1385573861889647120,0.116033378488,-0.169903295156,-0.114213891928,-0.0332294522781,0.00746500304898,-1.56816824158
1385573861899646416,0.115842661118,-0.169877682277,-0.11421951251,-0.0332895457806,0.00836015205177,-1.56856581422
1385573861909623418,0.116008649971,-0.169899327702,-0.114210874502,-0.032987383399,0.00737838474625,-1.56827338029
1385573861919762777,0.115954486817,-0.169927592554,-0.114156126364,-0.0335941773069,0.00743312741388,-1.56814949863
1385573861929617970,0.116039977331,-0.169896304361,-0.114217196574,-0.0331220445051,0.00738812091908,-1.56790622925
1385573861939698571,0.115907505362,-0.169944509713,-0.114109215861,-0.033189073288,0.0071933456785,-1.56854075597
1385573861949601868,0.115921388278,-0.16992924616,-0.114117626187,-0.033032290486,0.00728069424038,-1.56826195703
1385573861959662361,0.115931119441,-0.169946415279,-0.114190417098,-0.0330894053074,0.00694258489436,-1.56736700588
1385573861969652371,0.115945595555,-0.169925928701,-0.114113700286,-0.0331817691789,0.00728619999246,-1.56817559925
1385573861979658268,0.115886535085,-0.169977306731,-0.114137632573,-0.0329093134952,0.00693081619847,-1.56883929489
1385573861989643346,0.115859194087,-0.169923888614,-0.114228725443,-0.0326861877203,0.00771255652132,-1.56773692531
1385573861999641048,0.115798080541,-0.169889684671,-0.11431193281,-0.0322738127024,0.00840599835303,-1.56779589734
1385573862009623800,0.115922255503,-0.169946652957,-0.114204237875,-0.0324708837539,0.00739264363718,-1.56800215526
1385573862019628412,0.1159614798,-0.170012698541,-0.114170144076,-0.0321122755325,0.0069506465553,-1.56866944407
1385573862029650838,0.115948894445,-0.169975403798,-0.114109614986,-0.0316228589611,0.00765571120193,-1.56748638861
1385573862039666290,0.116005568102,-0.169953923269,-0.114100416072,-0.0316134613726,0.0072507728124,-1.56752889778
1385573862049644587,0.116044405621,-0.16995398884,-0.114214264653,-0.0309358851913,0.00714502470227,-1.56818115605
1385573862059618753,0.115962983242,-0.169969258019,-0.114130920643,-0.0315062860382,0.00721894494204,-1.56794990717
1385573862069645725,0.116047325377,-0.169916314106,-0.114122515673,-0.0316728446321,0.00756485843173,-1.56732173414
1385573862079639642,0.116008834173,-0.169946990441,-0.114113117003,-0.0320522279131,0.00742039318874,-1.56811696537
1385573862089746764,0.115977425192,-0.169967117192,-0.114182969153,-0.0319644635462,0.00695966956383,-1.56844033614
1385573862099661722,0.116029720224,-0.169925830199,-0.114162117296,-0.0318163295064,0.0075695327313,-1.56743276945
1385573862109600215,0.11583216178,-0.170048062191,-0.114220939022,-0.03233561952,0.00555164761747,-1.56734437859
1385573862119640358,0.115790070361,-0.170056411603,-0.114272709558,-0.031728909865,0.00562239036734,-1.56824149772
1385573862129624642,0.115829048058,-0.170026052344,-0.114209233327,-0.0323004748489,0.00592380158569,-1.56790048875
1385573862139658509,0.11583604962,-0.170004143505,-0.114196231961,-0.0326089156297,0.00602707023847,-1.56705051309
1385573862149668464,0.115882714099,-0.170036628157,-0.114252444062,-0.0323243357466,0.00576505372064,-1.56781043529
1385573862159691567,0.115893050742,-0.170035809006,-0.114259638143,-0.0324298094487,0.00577494217955,-1.568287771
1385573862169657271,0.115855571644,-0.169927248954,-0.114360521365,-0.0320882659799,0.00772090851533,-1.56769746188
1385573862179702085,0.115818927984,-0.170023948717,-0.114194614972,-0.0324737719436,0.00604907581753,-1.56718418465
1385573862189674116,0.115777375332,-0.170023282845,-0.114138231118,-0.0324623926752,0.00641474544855,-1.56806674819
1385573862199652317,0.115854664112,-0.170005113918,-0.114220173339,-0.0320040520468,0.0065132569109,-1.56777270862
1385573862209609855,0.115908920876,-0.17000505791,-0.11422052033,-0.0320296529953,0.00600579122469,-1.56716254061
1385573862219596204,0.115890610317,-0.170007003429,-0.114237131916,-0.0323584220631,0.00613385659846,-1.56764108849
1385573862229616330,0.115891647013,-0.170022583092,-0.114287185237,-0.0323455577357,0.00570847067352,-1.56817026491
1385573862239699501,0.115858658142,-0.170013306123,-0.114318690313,-0.0318182312787,0.00624225958301,-1.56745348587
1385573862249630630,0.115912402135,-0.169997247639,-0.114247088786,-0.0321609788121,0.00615536613718,-1.56740057449
1385573862259612599,0.115883150406,-0.170017630019,-0.114263196289,-0.031810506086,0.00597248424096,-1.56792830649
1385573862269672406,0.115912377718,-0.169998895458,-0.114289594946,-0.0320057962339,0.00633431700133,-1.56784971428
1385573862279654053,0.115831501677,-0.170018768617,-0.11420111473,-0.0326057812463,0.00631196665331,-1.5674357023
1385573862289694915,0.115904291123,-0.170009294842,-0.114246580787,-0.0322950293516,0.00623646311432,-1.56757972426
1385573862299608864,0.115888808607,-0.17002309669,-0.114309719085,-0.0321728594337,0.0055451774703,-1.56792637967
1385573862309614400,0.115915566078,-0.170010935506,-0.114253412325,-0.0322109226083,0.00613168051392,-1.56756945285
1385573862319605825,0.115853626575,-0.170016293968,-0.114181020477,-0.0325559934682,0.00606151262814,-1.56746250085
1385573862329653569,0.115900728038,-0.170014795503,-0.114264835948,-0.0319918009851,0.00611036599267,-1.56793659404
1385573862339686514,0.115836125984,-0.170000489097,-0.114221134173,-0.0320868304036,0.00656258806682,-1.56752727827
1385573862349673437,0.1159138252,-0.170007794989,-0.114260706798,-0.0321757759714,0.00613325607003,-1.56756668105
1385573862359675476,0.115790693459,-0.169946426128,-0.114442881352,-0.0314933043895,0.0080310732268,-1.56828674158
1385573862369627949,0.115897115668,-0.170016569323,-0.114235596309,-0.0323223914399,0.00610179405782,-1.56757361909
1385573862379670088,0.115870524375,-0.170029624869,-0.114211109395,-0.0320109716347,0.00595844028851,-1.56758384125
1385573862389594422,0.115898297797,-0.170029014845,-0.114289510283,-0.0321518245411,0.00584934903334,-1.56776325094
1385573862399617364,0.115891933165,-0.170033510553,-0.114263915356,-0.0320583336057,0.00581480686954,-1.56782606791
1385573862409624540,0.115860579706,-0.170000801256,-0.114225433848,-0.032184286262,0.00702468059012,-1.5672568312
1385573862419619747,0.115901635984,-0.170007995383,-0.1142672821,-0.032163067669,0.00612208702406,-1.56757953814
1385573862429624520,0.115841962338,-0.170027027834,-0.114235222553,-0.0321286727872,0.00617628988323,-1.56794890532
1385573862439646535,0.115908887317,-0.16999688078,-0.114233949987,-0.0322294729669,0.00625293627585,-1.56758587417
1385573862449629235,0.115925930254,-0.169949257234,-0.114271273943,-0.0321783703526,0.00634295204582,-1.56705272207
1385573862459707538,0.115887483344,-0.170001202508,-0.114267966656,-0.0321014106941,0.00605422549238,-1.56782080563
1385573862469602784,0.115893148195,-0.170029164352,-0.114321185312,-0.0318766411659,0.0056783748152,-1.56803797172
1385573862479632550,0.115865207057,-0.170019554118,-0.114226954957,-0.0322430492633,0.00601877745055,-1.56741882877
1385573862489646132,0.115825153368,-0.170053573586,-0.114276411604,-0.0321687868294,0.00547356565113,-1.56743998967
1385573862499644269,0.115767680459,-0.170017525895,-0.114216979446,-0.0321741060218,0.0062645518318,-1.56783635227
1385573862509637956,0.115847020502,-0.169996811275,-0.114244135632,-0.0323989210903,0.00612357070929,-1.56776564332
1385573862519642890,0.115858348868,-0.170031051288,-0.114238002516,-0.0323154451439,0.00584686060325,-1.56755265121
1385573862529655107,0.115892979043,-0.170036296984,-0.11427807156,-0.0320021581145,0.00566676342868,-1.56757261548
1385573862539680414,0.115819514188,-0.170000565321,-0.114187275967,-0.0322320150305,0.00594708587849,-1.56773312795
1385573862549602418,0.115841201902,-0.170056134841,-0.114326655959,-0.0314195323084,0.00619370570677,-1.56781472828
1385573862559661331,0.115830597977,-0.170042713201,-0.114328818698,-0.0313576394763,0.00532017898564,-1.56783359802
1385573862569656096,0.11583159703,-0.170000001725,-0.114320612967,-0.0314577783224,0.00526751979421,-1.56738700908
1385573862579654046,0.115859237108,-0.170054338108,-0.114268748126,-0.0316445776711,0.00580359073735,-1.56791740937
1385573862589603098,0.115892245353,-0.170021898905,-0.114360401557,-0.0308838574153,0.00553719860997,-1.56788958195
1385573862599630429,0.115902371591,-0.170057545872,-0.114380178352,-0.0315925252803,0.00602307387724,-1.5674385087
1385573862609632953,0.115807137943,-0.170064756382,-0.114314477897,-0.0316317438077,0.00555304045564,-1.56797864563
1385573862619684579,0.115789060527,-0.170009043375,-0.11431554422,-0.0316415172206,0.0050811499412,-1.56775241526
1385573862629853621,0.115899131775,-0.17002221206,-0.114303034836,-0.0319155954399,0.00590429871946,-1.56779590686
1385573862639747144,0.115809365267,-0.169972825962,-0.114230317977,-0.031554041788,0.00653313629162,-1.56772757293
1385573862649670719,0.115837617122,-0.169973968591,-0.11434586141,-0.0313065816639,0.00538247297693,-1.56759624317
1385573862659583265,0.115829526914,-0.170031653587,-0.114386342223,-0.0314606680251,0.00500810546784,-1.56794783198
1385573862669708464,0.115769090033,-0.170004251505,-0.114415826015,-0.0313589937093,0.00541912030748,-1.56782434772
1385573862679726422,0.11583438659,-0.169956176018,-0.114276385092,-0.0318979006501,0.00599721932737,-1.56768241486
1385573862689613249,0.115913556716,-0.16996628347,-0.114335712246,-0.0312268707802,0.00630699272794,-1.56805077977
1385573862699635597,0.115787682823,-0.169962477844,-0.114305864866,-0.0313088611516,0.00528543177928,-1.56786906583
1385573862709880793,0.115841011456,-0.169994346189,-0.114354418209,-0.0313190124366,0.00530034421717,-1.56777988865
1385573862719668865,0.115828183737,-0.169978370311,-0.114312969667,-0.0315107233768,0.00581212852136,-1.56821023759
1385573862729685290,0.115760777416,-0.169939639736,-0.114228879007,-0.0318904207606,0.00637062967315,-1.56762349135
1385573862739865066,0.115798779207,-0.169977783781,-0.114159469782,-0.0325593562814,0.00642227756166,-1.56774311975
1385573862749701213,0.11572420911,-0.16998904713,-0.114197384979,-0.0323033002293,0.0063900895466,-1.56812000999
1385573862759658392,0.115788036243,-0.169904963558,-0.114338493072,-0.0317838291684,0.00523349389653,-1.56743455338
1385573862769635921,0.11581077265,-0.170002625538,-0.114268323422,-0.0314194775359,0.00574110750204,-1.56812918118
1385573862779599670,0.115795905739,-0.169985772571,-0.114402048007,-0.0308169207124,0.00588748940153,-1.56825551862
1385573862789601030,0.1158002581,-0.169952384007,-0.114324729799,-0.0312730303871,0.00530880572876,-1.56775382911
1385573862799595326,0.115773468682,-0.16997887638,-0.114240948266,-0.031863785944,0.00620938636242,-1.56798977678
1385573862809859978,0.115729845378,-0.169951290572,-0.114237014148,-0.032377050281,0.00636998666976,-1.5680542652
1385573862819628672,0.115830597772,-0.169941970196,-0.114347733565,-0.0320274046914,0.00582261544776,-1.56765174651
1385573862829584708,0.115806118321,-0.169979929316,-0.114218852138,-0.0321846346583,0.005846782822,-1.56814719161
1385573862839775577,0.11580212281,-0.169958548772,-0.114339937283,-0.0315168280885,0.00534195149827,-1.56790571659
1385573862849614137,0.115857550268,-0.169957157642,-0.114323583101,-0.0317664824013,0.00559797348231,-1.56781309776
1385573862859674507,0.115749522848,-0.16999586196,-0.114194766668,-0.0319951272945,0.0065898804034,-1.56829418251
1385573862869864008,0.115737559597,-0.169953517943,-0.114205744011,-0.0320950926036,0.00568216490867,-1.56768073327
1385573862879634202,0.115900499308,-0.169971021535,-0.114320712047,-0.0321768840107,0.00574208836208,-1.56759329075
1385573862889593395,0.11574704941,-0.170002238625,-0.114317297635,-0.0319478296034,0.00609475386678,-1.56834046494
1385573862899686441,0.115802297135,-0.169945564333,-0.114310972761,-0.0317372963709,0.00517970651911,-1.56774595188
1385573862909665753,0.115858708513,-0.169987995207,-0.114258097257,-0.0319832454997,0.00595138190275,-1.56793593844
1385573862919626639,0.115787491888,-0.169980203214,-0.114279493274,-0.0318345348331,0.00561879291341,-1.56834468094
1385573862929706395,0.115765752234,-0.169946669263,-0.114297249316,-0.0319448199273,0.00532575489705,-1.56771230288
1385573862939692868,0.115822191404,-0.169990404931,-0.114262412096,-0.0321294085541,0.0055068812896,-1.56825115183
1385573862949637767,0.115830777105,-0.169950082082,-0.114283893915,-0.0320345196845,0.00601148614455,-1.5681438244
1385573862959745145,0.115802325524,-0.169956931842,-0.114243756674,-0.0322217901616,0.00566267178229,-1.56759545024
1385573862969629112,0.115805636905,-0.170003095286,-0.114239764362,-0.0319586183575,0.0055727801785,-1.56842615628
1385573862979641290,0.115760819949,-0.169937090976,-0.114178592581,-0.032069924132,0.00626271621076,-1.56790933988
1385573862989718410,0.115835998981,-0.170024105465,-0.114303278455,-0.0325055934668,0.00566225178982,-1.56782725781
1385573862999614428,0.115735654208,-0.170008894499,-0.114329743896,-0.031686643253,0.00621377298626,-1.56858346204
1385573863009627630,0.115811702299,-0.169931743793,-0.114228865192,-0.0317417917078,0.00576267758418,-1.56797280763
1385573863019626769,0.115791707326,-0.169979507463,-0.114192455726,-0.0315256152915,0.00581986080007,-1.56807335325
1385573863029585685,0.115823540843,-0.170054303123,-0.11430619093,-0.0320303080704,0.00588369782018,-1.56863307663
1385573863039629467,0.115841427755,-0.169933042122,-0.114382427266,-0.0313982839258,0.00543020573085,-1.56761102951
1385573863049614319,0.115819652735,-0.169996421728,-0.114277407718,-0.0321103215256,0.00534069860703,-1.56840800923
1385573863059644254,0.115805568838,-0.169952500047,-0.114209837392,-0.0321035162415,0.00605455741621,-1.56838723642
1385573863069658165,0.115857014356,-0.169943026008,-0.114351514882,-0.0314567132538,0.00553599164841,-1.56763565135
1385573863079588739,0.115803076301,-0.169986774932,-0.114246779498,-0.0319712351434,0.00576885073695,-1.56845204008
1385573863089569860,0.115767416386,-0.169949506851,-0.114196490904,-0.032115705293,0.00642216844621,-1.56802721759
1385573863099618727,0.115889783414,-0.169928987602,-0.114261313951,-0.0318696103431,0.00620554542706,-1.56781553292
1385573863109610751,0.115800398884,-0.169988199168,-0.114181305809,-0.0324814431054,0.00592973903255,-1.56861520627
1385573863119564077,0.11573623588,-0.16991484374,-0.114243735363,-0.0319636003264,0.00612450906606,-1.56787102919
1385573863129644093,0.11579956837,-0.169940784524,-0.11424760818,-0.0314970731695,0.00604675622212,-1.56820924813
1385573863139625290,0.115809657991,-0.169978870914,-0.114224900447,-0.0314518394544,0.00596169867761,-1.56872640697
1385573863149604433,0.115811146897,-0.169915547931,-0.114273802392,-0.031512088304,0.00538363507191,-1.56767417752
1385573863159634556,0.115814467405,-0.169968198045,-0.114246426379,-0.032098566547,0.00566524369703,-1.56816790587
1385573863169918956,0.115732134165,-0.169980781771,-0.114256801838,-0.0321114252328,0.00538352769448,-1.5682501592
1385573863179639079,0.115757260588,-0.169943759808,-0.114297392663,-0.0324115564461,0.00557645024658,-1.56774653169
1385573863189694046,0.115827186348,-0.170014153517,-0.114223537516,-0.0325916567996,0.00613532214392,-1.56894069895
1385573863199697760,0.115782802079,-0.169930468963,-0.114239508734,-0.0318530485899,0.00588581600634,-1.56800552194
1385573863209657173,0.115814982894,-0.169897998959,-0.114259551634,-0.0318211238519,0.00591160307963,-1.56800944341
1385573863219606598,0.115810000301,-0.170016910489,-0.114317161408,-0.0317235077686,0.00568588335071,-1.56887110741
1385573863229662159,0.115753840971,-0.169913328618,-0.114339706554,-0.0314280250214,0.00512966537645,-1.56818191814
1385573863239731708,0.115772605938,-0.169994266431,-0.114220908297,-0.0321412277431,0.00660185600929,-1.56884633376
1385573863249670281,0.115767736602,-0.169907325952,-0.114260547152,-0.0321822454391,0.00605670174143,-1.56819586755
1385573863259685902,0.11573362727,-0.169875481601,-0.114203092846,-0.0317664160134,0.00576496980759,-1.56823898022
1385573863269787485,0.115735614963,-0.169943542118,-0.11426900928,-0.0317221477941,0.00568516705474,-1.56898713154
1385573863279600228,0.11573987179,-0.16988594001,-0.1143395534,-0.0315724583799,0.00522565294777,-1.56822697763
1385573863289652900,0.115744307365,-0.169919831517,-0.114296852767,-0.0318578327681,0.00576214118318,-1.56904147622
1385573863299618383,0.11567709324,-0.169911256914,-0.114348409003,-0.0315657864883,0.00579307591376,-1.56874244493
1385573863309569201,0.11564914239,-0.16984851722,-0.114281665351,-0.031679926951,0.00506109286961,-1.56880607462
1385573863319658951,0.115692093593,-0.169936681901,-0.114328402049,-0.0320311567734,0.00541884845754,-1.56940490251
1385573863329760116,0.115704365592,-0.169770501598,-0.114295411754,-0.0318940653437,0.00546827189242,-1.56812601694
1385573863339747451,0.115702020718,-0.169885324358,-0.114287463237,-0.0320980060063,0.00597309835998,-1.56984212119
1385573863349689519,0.115682347915,-0.169779587235,-0.114317297227,-0.0317861461996,0.00609397108851,-1.5694935342
1385573863359643201,0.115556932725,-0.169753787891,-0.114406468374,-0.0310268763174,0.00604728451952,-1.56895761997
1385573863369619515,0.115540377093,-0.169735954692,-0.114481468162,-0.0306816468797,0.00669393577105,-1.57040045615
1385573863379598097,0.115632716083,-0.169664565545,-0.114319083911,-0.0310072522039,0.00623877531447,-1.56969737127
1385573863389715871,0.115498293391,-0.169640624388,-0.114371264211,-0.0310208615859,0.00679595945773,-1.57076119141
1385573863399674190,0.115484264417,-0.169601526842,-0.114288258774,-0.0319193017404,0.00598276905221,-1.57002714016
1385573863409688721,0.115435041569,-0.169567165328,-0.114383589743,-0.0319206735372,0.00539628789272,-1.57010830279
1385573863419652603,0.115414150848,-0.169580356438,-0.114354722459,-0.0314847370643,0.00546709575146,-1.57039537025
1385573863429830156,0.115348363089,-0.169562186539,-0.114296977163,-0.0311726617158,0.00662866438843,-1.56979927513
1385573863439698865,0.115393031145,-0.169551871927,-0.11436465916,-0.0311804192606,0.00611996547029,-1.57106196287
1385573863449698883,0.115346258017,-0.169395860884,-0.114425698743,-0.0314163091902,0.00586674611113,-1.57088472115
1385573863459765243,0.115270136334,-0.169469356668,-0.114354191092,-0.0318578984724,0.00635272665992,-1.57178019144
1385573863469792851,0.115255345814,-0.169417850109,-0.114319088591,-0.0319213653404,0.00621238215207,-1.57195875325
1385573863479750036,0.115213623767,-0.169392319941,-0.114351882948,-0.0315989439247,0.0060657641317,-1.57195890165
1385573863489807297,0.115214092827,-0.169433732273,-0.114336409409,-0.0312858013877,0.00584452558007,-1.57258171865
1385573863499691044,0.115240115955,-0.169293444522,-0.114346433546,-0.0319141760721,0.00576411292516,-1.57240719659
1385573863509601119,0.115137009691,-0.169345317439,-0.114341573357,-0.0314076809859,0.00624926665606,-1.5729136743
1385573863519622311,0.115132188746,-0.169187816865,-0.114388028849,-0.031568358073,0.00597733773668,-1.57266337973
1385573863529594436,0.115158005878,-0.169285121875,-0.114355163206,-0.0314402774869,0.00580164959466,-1.57357418677
1385573863539669051,0.115149015798,-0.169177372521,-0.114355345862,-0.0317372298047,0.00554124421845,-1.5742087605
1385573863549855668,0.115306341596,-0.169101747027,-0.114185179707,-0.0315057268213,0.00741700776715,-1.57473660103
1385573863559734431,0.115322395415,-0.169134444115,-0.114215143043,-0.0318404307626,0.00731884353201,-1.57569803897
1385573863569660567,0.115395981277,-0.169081522802,-0.114278110889,-0.0322471678976,0.00767194114792,-1.57634749764
1385573863579608594,0.115451732839,-0.169156215541,-0.114325116732,-0.0315818046129,0.00682647535455,-1.57683778617
1385573863589646616,0.1155555171,-0.168996904679,-0.114237459575,-0.0310203489314,0.00773600428133,-1.57759325551
1385573863599608657,0.115545950399,-0.169133638938,-0.114122278751,-0.0306437084671,0.00767265903239,-1.57796505385
1385573863609574077,0.115434419569,-0.168951112064,-0.114262743954,-0.0310670938415,0.00698779253558,-1.57836143425
1385573863619639740,0.115385607186,-0.169048610595,-0.114363277316,-0.0322688402232,0.00750423440544,-1.57873776425
1385573863629735363,0.115398211629,-0.168901309371,-0.114344121808,-0.0324937513216,0.00745475124141,-1.57922610855
1385573863639701312,0.115320199027,-0.168949481187,-0.114087341952,-0.0318273269918,0.00695352519045,-1.580211768
1385573863649628318,0.115297399708,-0.168861340037,-0.114017619852,-0.0319614072998,0.00745794713929,-1.58079326216
1385573863659689743,0.115176459812,-0.168848763324,-0.114231808385,-0.0325648840388,0.00816130408014,-1.58116704137
1385573863669686231,0.115160018507,-0.16872328046,-0.114669204214,-0.0323155932446,0.00803034442672,-1.58112072028
1385573863679700853,0.115111453139,-0.168743358339,-0.114359618643,-0.0317696426058,0.00644708029408,-1.58115203119
1385573863689682358,0.115100011237,-0.168651069225,-0.114120858122,-0.0319730309062,0.00869900515792,-1.58085747799
1385573863699571751,0.115041478434,-0.168575506843,-0.11421240727,-0.0314724841267,0.00770151634571,-1.58113188498
1385573863709668092,0.115054812824,-0.168491461247,-0.114551553846,-0.0314716474677,0.00636213322299,-1.58119045157
1385573863719811725,0.114890430228,-0.168408561622,-0.114353264449,-0.0321916406399,0.00864720178312,-1.5819088332
1385573863729683267,0.114844025723,-0.168332258899,-0.114138381487,-0.032271781397,0.00795533118482,-1.58210437937
1385573863739782964,0.114659786078,-0.16815224101,-0.114417703179,-0.0321709427306,0.00979171853349,-1.582872436
1385573863749659282,0.114492906174,-0.168156963747,-0.114645635472,-0.0324366318765,0.00568608268366,-1.58300366363
1385573863759643706,0.114260879159,-0.168104901687,-0.114595435196,-0.0317446669377,0.00355205672697,-1.58355591028
1385573863769665572,0.114287221755,-0.167859193555,-0.114147548543,-0.0309345041813,0.00753348480239,-1.58404187116
1385573863779893679,0.114162500105,-0.167623682258,-0.11431457315,-0.0298725312421,0.010895362472,-1.58531122549
1385573863789660517,0.114009465353,-0.167583462341,-0.114675180393,-0.0311979116522,0.0104294053497,-1.58676195023
1385573863799572604,0.113786311904,-0.167584409378,-0.114711452786,-0.0327456147529,0.00755858720037,-1.58738315587
1385573863809562382,0.1137303553,-0.167365538648,-0.114461124649,-0.0329472337451,0.00502376391128,-1.58841295204
1385573863819666598,0.113443057124,-0.167298749755,-0.114121225873,-0.0337211009596,0.00537807593468,-1.58911168808
1385573863829717423,0.113404101509,-0.166977826606,-0.114580559165,-0.0326603406258,0.00776083412813,-1.59025810941
1385573863839591884,0.113032308878,-0.166940991065,-0.114672944621,-0.0326432741082,0.00979365565022,-1.59161238306
1385573863849765846,0.112910718794,-0.16667897288,-0.114609942786,-0.032607192344,0.00860589898278,-1.59376970897
1385573863859721025,0.11262668165,-0.166642249753,-0.114358369611,-0.032904662943,0.00757708315639,-1.59451558341
1385573863869679858,0.112509803349,-0.166477014501,-0.114180098652,-0.0331870743265,0.00675563785188,-1.59601222044
1385573863879729525,0.112361520493,-0.166391927335,-0.114198288174,-0.0330286161974,0.0060048577734,-1.59667289902
1385573863889689117,0.112277465827,-0.166140619616,-0.114448166347,-0.032653639705,0.00630452865163,-1.59692752251
1385573863899694093,0.112129587584,-0.165994217747,-0.114489547745,-0.0319988721624,0.0077353768445,-1.59780249634
1385573863909599704,0.111997362855,-0.165792024628,-0.114435340651,-0.0316155230574,0.00917292472031,-1.59934886063
1385573863919738289,0.111801457173,-0.165572336985,-0.114364969162,-0.0318412421596,0.00762180402822,-1.59963210874
1385573863929739217,0.111561542787,-0.165520222104,-0.114382345118,-0.032371086575,0.00674986080581,-1.60053909917
1385573863939887134,0.111396613102,-0.165325530109,-0.114340585216,-0.032599939987,0.00590714070833,-1.60079797444
1385573863949672651,0.111075332555,-0.165260201122,-0.114194062204,-0.0323881996555,0.00754090864948,-1.60223300919
1385573863959691871,0.110927878403,-0.165004224345,-0.114170947084,-0.0326576077127,0.00922505247092,-1.6031015961
1385573863969689430,0.110790583662,-0.16485026552,-0.114581355885,-0.0324847832208,0.00865257308894,-1.60493205296
1385573863979794968,0.110568719929,-0.164559734644,-0.114717507129,-0.0333954344877,0.0109386058193,-1.60589916246
1385573863989684421,0.110545380778,-0.164498393128,-0.114572515252,-0.0328967535075,0.00638268676864,-1.6071083736
1385573863999692725,0.110503211309,-0.164132758009,-0.114532643781,-0.032039517788,0.00684749401691,-1.60751229059
1385573864009652756,0.110254998332,-0.163994623056,-0.114574984079,-0.0309805643616,0.00499708873195,-1.60877808252
1385573864019561859,0.110126940774,-0.163632615773,-0.114639205628,-0.0303825414024,0.00309542128857,-1.60950701213
1385573864029708021,0.110084337552,-0.163274015579,-0.114494473174,-0.03058376384,0.00599732890775,-1.61041998833
1385573864039787170,0.109734137462,-0.162878795579,-0.114349796631,-0.0300594603068,0.00878247615093,-1.61144352282
1385573864049682347,0.109533782685,-0.162535802272,-0.114570572788,-0.0309005860556,0.00699198827579,-1.6123485427
1385573864059646385,0.109169469637,-0.162111917554,-0.114653053039,-0.0328377436748,0.00939901831717,-1.61374751538
1385573864069769062,0.10904429168,-0.161691444425,-0.114313513261,-0.0346390190413,0.00918300253766,-1.61467327689
1385573864079720766,0.108869248036,-0.161287103186,-0.11429061427,-0.0351296397559,0.00687333833443,-1.61517013904
1385573864089694543,0.108652647837,-0.160802703518,-0.114588234367,-0.0357953698763,0.00562357756015,-1.61539616323
1385573864099697842,0.108336653897,-0.160388751261,-0.114602540262,-0.0349641655792,0.0061144831993,-1.61535612027
1385573864109716843,0.107956521129,-0.159926398011,-0.114387524078,-0.0345007347324,0.00763739866908,-1.61592912048
1385573864119606940,0.108005616644,-0.159379163972,-0.114581541533,-0.0331285400355,0.00786624462767,-1.61687271496
1385573864129629701,0.107578545528,-0.158873815951,-0.114805716326,-0.0325729391078,0.00620214899501,-1.61761708422
1385573864139782284,0.107442460566,-0.158260911986,-0.114977069774,-0.031158919914,0.00588876527686,-1.61850024968
1385573864149734642,0.107145482496,-0.157708601414,-0.114992557275,-0.0293102226756,0.00533494630763,-1.61876428874
1385573864159727394,0.106947120571,-0.157121951566,-0.115035348623,-0.0296694837125,0.00507837096784,-1.61966534308
1385573864169845689,0.106652091866,-0.156438122422,-0.115106352694,-0.0301378081745,0.00398118200294,-1.61977709169
1385573864179727849,0.106344144274,-0.155819497188,-0.115390166964,-0.0315011333368,0.00348958093965,-1.62078210004
1385573864189600506,0.106146299816,-0.155083464411,-0.115487326398,-0.0321310518251,0.00259128282323,-1.62164020533
1385573864199695636,0.105638633796,-0.154375073485,-0.115573584699,-0.0312934700057,0.00243702386455,-1.6226504508
1385573864209994738,0.10530042398,-0.153571307521,-0.115735206126,-0.0320680646771,0.000983031487802,-1.6229945122
1385573864219710784,0.104860880766,-0.152702982229,-0.116357103026,-0.0325850819444,-0.000830277621906,-1.62329461736
1385573864229762712,0.104733252503,-0.151885823211,-0.11653370061,-0.0329753616822,-0.000775886756749,-1.62409020859
1385573864239793699,0.104649501377,-0.150988952318,-0.116911251185,-0.0317587607184,-0.00199928533117,-1.62470395638
1385573864249696107,0.104143725908,-0.150180973704,-0.11742874008,-0.030787001316,-0.00163679707032,-1.62544782103
1385573864259669002,0.103920562484,-0.149169864204,-0.118136937789,-0.03126655939,-0.00281477044578,-1.62557538027
1385573864269841456,0.103549124931,-0.148353952105,-0.118847750708,-0.0297224056921,-0.00352238321804,-1.62624349822
1385573864279678146,0.103290114989,-0.147214746858,-0.119157739476,-0.0293140318573,-0.00224205094619,-1.6262055152
1385573864289640230,0.103080672068,-0.146181658881,-0.120002509101,-0.0286764878828,-0.00273014902475,-1.62696058266
1385573864299753951,0.102830752783,-0.145113782427,-0.121095357323,-0.0292193987311,-0.00320569425599,-1.62745046476
1385573864309631807,0.102607701841,-0.144000926099,-0.122016899034,-0.0274470201601,-0.00243101533867,-1.62778500973
1385573864319691753,0.10211796102,-0.142996572184,-0.122926387118,-0.0267899271733,-0.00479767348586,-1.62830136443
1385573864329700311,0.102352192991,-0.141816802612,-0.124284362498,-0.0254703167598,-0.00380040529239,-1.62946124155
1385573864339866663,0.10189682894,-0.140804895252,-0.125928339287,-0.0240905212884,-0.00589966141411,-1.62989394685
1385573864349669628,0.101767571976,-0.139615307981,-0.127190455559,-0.0227096057614,-0.00586748180756,-1.63047624974
1385573864359666479,0.101408592569,-0.138416861728,-0.128610465306,-0.0209100121071,-0.00936850341896,-1.63070474841
1385573864369808230,0.10147102034,-0.137378959799,-0.130231924123,-0.0196713835709,-0.00911185431963,-1.63185982789
1385573864379778190,0.101191132607,-0.136221186529,-0.132241549182,-0.0171596960605,-0.0111513817469,-1.63281150586
1385573864389692672,0.100977384484,-0.135095359347,-0.134064255549,-0.0160962530345,-0.0151731269552,-1.6336067177
1385573864399788189,0.100967605559,-0.133826609107,-0.136086172462,-0.0133841656167,-0.0177780146167,-1.63434343005
1385573864409744903,0.100484897095,-0.132724854057,-0.138269211153,-0.0126409861399,-0.0226021677833,-1.63538771985
1385573864419719408,0.100501350845,-0.131548411104,-0.140665753943,-0.0119148650135,-0.0273930911831,-1.63738078275
1385573864429648490,0.100207002968,-0.130460786609,-0.143080144575,-0.0111985643225,-0.0296135239689,-1.63853616156
1385573864439821387,0.0999687245132,-0.12937566929,-0.145476100098,-0.0113843083561,-0.0333454489287,-1.64004226724
1385573864449786915,0.0995230105375,-0.128380505557,-0.148133777137,-0.0118176092768,-0.0353092609717,-1.64193874928
1385573864459622245,0.0993634922123,-0.127415310855,-0.151242821894,-0.0116990903555,-0.0384348296968,-1.64300525934
1385573864469781055,0.0990766587385,-0.126275995439,-0.154177616424,-0.0125292377603,-0.0408407935873,-1.64473146798
1385573864479736080,0.0986043995903,-0.125357098298,-0.157322106958,-0.0129774918834,-0.0408808098763,-1.64635330014
1385573864489598085,0.0984706799689,-0.124493134363,-0.160318780196,-0.015378932506,-0.0455204549808,-1.64645741689
1385573864499651200,0.0980778370756,-0.123747239102,-0.163801746426,-0.0161490113939,-0.046174349644,-1.6474211054
1385573864509593807,0.0979190856347,-0.122872486228,-0.167258436535,-0.0164385340064,-0.0471697166306,-1.64702165636
1385573864519639352,0.0974744361091,-0.122163125271,-0.170316224853,-0.0174955949576,-0.0472231226222,-1.64701069871
1385573864531026934,0.0972071144597,-0.121516367582,-0.173827145161,-0.0193595079578,-0.0474170661983,-1.64737637398
1385573864539912444,0.0972071144597,-0.121516367582,-0.173827145161,-0.0193595079578,-0.0474170661983,-1.64737637398
1385573864549654622,0.0967911443308,-0.120379151792,-0.181387361805,-0.0174607264063,-0.0478580587923,-1.64955807687
1385573864559677986,0.0965525610427,-0.119817104156,-0.185034334371,-0.0153000083392,-0.0473311412888,-1.65024741701
1385573864569710071,0.0961316435401,-0.11963675077,-0.18902914404,-0.0143664067489,-0.0469075590495,-1.65015100031
1385573864579623517,0.0958386867586,-0.119218369365,-0.192904057078,-0.0162379659956,-0.0479021533201,-1.65079207045
1385573864589646401,0.0954913613959,-0.118973795604,-0.196799639859,-0.015847288471,-0.0464130773716,-1.65028035673
1385573864599624083,0.0952504975182,-0.118717614537,-0.200752646147,-0.0161857048772,-0.0457518775265,-1.65046870912
1385573864609666669,0.0949448872534,-0.118596266976,-0.204927376439,-0.0164953652204,-0.0452300447074,-1.65017034207
1385573864619662869,0.094494414719,-0.118407231272,-0.208973762154,-0.0169575109486,-0.04502625144,-1.65000024508
1385573864629731426,0.0944797145556,-0.118276200886,-0.21317139029,-0.0172648596506,-0.0392937442554,-1.65146361298
1385573864639862784,0.0940607169871,-0.118218348863,-0.217075069035,-0.0177070984184,-0.0414226436023,-1.65068593495
1385573864649692207,0.0936245137575,-0.118342561316,-0.22167685703,-0.0177331768214,-0.043341843418,-1.65005115594
1385573864659645148,0.0934055351353,-0.118289646551,-0.225877732833,-0.0180069222117,-0.0421232547714,-1.65009335884
1385573864669669588,0.0929242704451,-0.118316692938,-0.230204348082,-0.0178428269049,-0.0399217371257,-1.65024476217
1385573864679830790,0.0927229997409,-0.118574781452,-0.234486172266,-0.0180167996753,-0.0387693551033,-1.64975937712
1385573864689941881,0.0925709872831,-0.118523120442,-0.238888005993,-0.018538118936,-0.0365948097687,-1.65008052164
1385573864699868046,0.0920337462504,-0.118688979912,-0.243049614506,-0.0187443789196,-0.0336477579225,-1.64952677544
1385573864709682523,0.0918763378085,-0.11876464918,-0.247687660456,-0.0185709272271,-0.0298886722972,-1.65005691274
1385573864719802073,0.0915427262787,-0.119127056551,-0.252016267674,-0.0178335296714,-0.0263674634456,-1.64982844172
1385573864729721919,0.0912345682597,-0.119241116085,-0.25637121163,-0.0176960059303,-0.0232255842376,-1.64946545411
1385573864739770856,0.0910368673224,-0.119522542427,-0.26088076435,-0.0177639413506,-0.0197087265905,-1.64921301986
1385573864749711170,0.0906576050642,-0.11988568608,-0.26540066268,-0.0185647517524,-0.0160256151051,-1.64900833123
1385573864759740626,0.090324399034,-0.120163748914,-0.269890931628,-0.0184243954795,-0.0133307636892,-1.64866756975
1385573864769748604,0.0899191075539,-0.120425040793,-0.274338153583,-0.0185015475703,-0.0118334525944,-1.64912288739
1385573864779619171,0.0895602876587,-0.120859951677,-0.278849062331,-0.0187961116279,-0.0090714509728,-1.64896223668
1385573864789798181,0.0893504005921,-0.121225671614,-0.283513228596,-0.0186455646763,-0.0081971300362,-1.64916284613
1385573864799688471,0.0890255219121,-0.121737591138,-0.288204050239,-0.0185814773666,-0.00715668899417,-1.64871389696
1385573864809667196,0.08868945297,-0.122109771522,-0.292736840544,-0.0194537277538,-0.00687726017723,-1.64850429145
1385573864819656535,0.0883241900876,-0.122599005089,-0.297441032524,-0.0194985298976,-0.00695090493397,-1.64816670435
1385573864829731852,0.0879159774441,-0.123224269735,-0.302328528506,-0.0200162299885,-0.00660912031418,-1.64797589781
1385573864839613599,0.0875671303575,-0.123692107316,-0.307030237706,-0.0209966373546,-0.00758066619245,-1.64803278047
1385573864849716849,0.0872457564099,-0.124218629443,-0.311898845045,-0.0211973025356,-0.00880799957104,-1.6481160315
1385573864859697728,0.0868671006101,-0.124676892471,-0.316690248695,-0.0217813556388,-0.00960277042028,-1.6483334975
1385573864869888225,0.0865229024976,-0.125299968599,-0.321748526755,-0.0219205622624,-0.00820853651313,-1.64823937671
1385573864879641731,0.0863509201333,-0.125805372148,-0.326454092797,-0.0213475096371,-0.00598091841316,-1.64825105715
1385573864889733982,0.08575714805,-0.126336122091,-0.331400569854,-0.0218493797258,-0.010409470285,-1.64755784869
1385573864899676178,0.0853773765032,-0.126963664159,-0.336471149705,-0.0212988258856,-0.0101196436252,-1.64709556493
1385573864909591951,0.0848735350608,-0.127563467833,-0.341356282246,-0.0216527652542,-0.0105044405818,-1.64704085903
1385573864919644870,0.084437222226,-0.12818130844,-0.346457914919,-0.0219411583511,-0.00932580262501,-1.64665385759
1385573864929619161,0.0842002424882,-0.128717020363,-0.351435559546,-0.0225711534514,-0.010163566902,-1.6467306516
1385573864939602211,0.0837853116827,-0.129328385539,-0.356526772594,-0.0223576498158,-0.00861576691747,-1.64629566754
1385573864949680495,0.0832583640064,-0.129986368531,-0.361564400384,-0.0229124668384,-0.00859682233957,-1.64635999542
1385573864959633479,0.0829057475517,-0.130657507915,-0.366768966864,-0.0225939589747,-0.00785290471668,-1.64640538954
1385573864969663072,0.0824830780929,-0.131072298032,-0.371927973658,-0.022759455281,-0.00865017416342,-1.64616637302
1385573864979668357,0.0819116744303,-0.131795961939,-0.377339014145,-0.0225895217076,-0.00598418117339,-1.64579161988
1385573864989712913,0.0814762461219,-0.132496162273,-0.38251597126,-0.0229809984527,-0.00712485359742,-1.6452542782
1385573865001809877,0.0810986451493,-0.133040832828,-0.388304720827,-0.0226021743259,-0.00691009129726,-1.64522024678
1385573865009771369,0.0805443974478,-0.133792798182,-0.393881575074,-0.0221499912295,-0.00614053337927,-1.64506831558
1385573865019783182,0.0801490439989,-0.134512941009,-0.39944596479,-0.0216027462382,-0.00468640191664,-1.64494917878
1385573865029736898,0.0795199855698,-0.135164106616,-0.40472614651,-0.0213877089921,-0.0052399627187,-1.64463538189
1385573865039800117,0.0791767771961,-0.135828559877,-0.409765814331,-0.0215550155894,-0.00445084331803,-1.6446116641
1385573865049802592,0.0785202074853,-0.136446110365,-0.414821486247,-0.0217730228963,-0.00351832085837,-1.64391328597
1385573865059754183,0.0782105813837,-0.137064711875,-0.41979921871,-0.0215926560171,-0.00308305724447,-1.64420134895
1385573865069724236,0.0775519461507,-0.137817790842,-0.424526151174,-0.0216599601102,-0.0010687057729,-1.64364109012
1385573865079757255,0.0770965047021,-0.138444730476,-0.429324032415,-0.0207647227004,0.00166957522783,-1.64400024279
1385573865089719991,0.0765747001362,-0.139143049899,-0.433579861936,-0.0209669088947,0.00154033196277,-1.64362022383
1385573865099733288,0.0760106479383,-0.139814168304,-0.438029805588,-0.0215193031808,0.00307750303657,-1.64291730089
1385573865109587103,0.0755954524397,-0.140464278269,-0.442233355275,-0.0212488311148,0.0034676060079,-1.64278220749
1385573865119839662,0.0750510744062,-0.141059198399,-0.446199470126,-0.0210100720811,0.00476533566885,-1.64246413532
1385573865129703637,0.0743442289108,-0.141808507587,-0.449994047257,-0.0197850975175,0.00598137570982,-1.64210487699
1385573865139594615,0.0739855974083,-0.142459304523,-0.453854224942,-0.019780877223,0.00708922899682,-1.64172120354
1385573865149772721,0.0734238338917,-0.14314308136,-0.457508882017,-0.0197297849573,0.00793833108376,-1.64234188739
1385573865159704784,0.0728442035216,-0.143863126835,-0.460889675214,-0.0186474586665,0.00932836756302,-1.64164550666
1385573865169672067,0.0722677123013,-0.144406713355,-0.464165391401,-0.0186730537665,0.0095494142693,-1.64170782825
1385573865179790536,0.0719162171696,-0.145152747519,-0.467190132755,-0.0177836523979,0.0118981084566,-1.64243876493
1385573865189650213,0.0712052837889,-0.145871162937,-0.470010116678,-0.0173239421262,0.0127555484625,-1.64127820939
1385573865199612292,0.0708011796722,-0.146465593009,-0.472858846144,-0.0164583655403,0.0120895535383,-1.64148119883
1385573865209635376,0.0701627243773,-0.147130192157,-0.475690107063,-0.0161382357813,0.0135854778683,-1.64150073171
1385573865219784752,0.0694671489443,-0.147897939215,-0.47808249682,-0.0161596265875,0.0141044683722,-1.64077800313
1385573865229683555,0.069255883384,-0.148527703286,-0.480527400852,-0.0160003306329,0.0134321594198,-1.64162225135
1385573865239595531,0.0684936689356,-0.149061431435,-0.482681424546,-0.0150485556979,0.0137260891068,-1.64071790636
1385573865249991525,0.0681012982014,-0.149672207384,-0.484897405623,-0.0137285145103,0.0144420522239,-1.64106575724
1385573865259677838,0.0675129934316,-0.150393813887,-0.486755234343,-0.0141005652814,0.0143847491219,-1.64084315395
1385573865269716267,0.0667655203826,-0.150974480856,-0.488729515318,-0.013156516928,0.0129586674684,-1.64020299794
1385573865279759141,0.0662565655871,-0.151544654123,-0.490358961521,-0.012977837782,0.0144557490789,-1.63996149576
1385573865289681372,0.0653257097418,-0.152174587955,-0.491862472755,-0.0138423076574,0.0138566329864,-1.63925879833
1385573865299593567,0.0649411801131,-0.152795976188,-0.49329250721,-0.0132863264001,0.0137513510701,-1.63983520215
1385573865309783561,0.0643318636494,-0.153335409209,-0.494566630412,-0.0128427071462,0.01435469072,-1.63945927083
1385573865319823308,0.0639058034085,-0.153893042234,-0.495675762014,-0.0116252944312,0.0168317172129,-1.64001732131
1385573865329684956,0.0634988747905,-0.154514729267,-0.496641901921,-0.0115657319375,0.0168257765458,-1.63923980186
1385573865339768126,0.0626905666537,-0.155073342692,-0.497545229848,-0.0121887235266,0.0185057748392,-1.63933232186
1385573865349730123,0.0620445655114,-0.155580115375,-0.498281493034,-0.0117317843699,0.0172319941722,-1.6387037632
1385573865359707466,0.061539476993,-0.156100004977,-0.498942672406,-0.012343440379,0.0176762152692,-1.63836826257
1385573865369767668,0.0609489124041,-0.156661258423,-0.499492794987,-0.0122565602167,0.0172779943965,-1.63793319531
1385573865379656825,0.0603414337271,-0.157225822938,-0.499922339645,-0.0130371327722,0.0186037695099,-1.63766300632
1385573865389582613,0.0596455776613,-0.157731975388,-0.500449785738,-0.0119517681421,0.0177455414931,-1.63706833772
1385573865399644451,0.059183591328,-0.158223550815,-0.500492141701,-0.0130946393897,0.0179968492569,-1.63691224776
1385573865409615932,0.0584429497927,-0.15864052427,-0.500612717292,-0.0128566351231,0.018780474462,-1.6365348469
1385573865419608070,0.057905997349,-0.159172073192,-0.500722921372,-0.0125700569277,0.0182383582101,-1.63637670709
1385573865429618970,0.0573062545178,-0.159603377613,-0.500658329849,-0.0125533846987,0.0182800882969,-1.6364299996
1385573865439670092,0.0566399689981,-0.160079199558,-0.500527495628,-0.0123356304483,0.0197313989671,-1.6359724176
1385573865449626796,0.0561120136104,-0.160498108913,-0.500239697728,-0.0119606382857,0.0192438669827,-1.63586961934
1385573865459612094,0.0555103565703,-0.161035541637,-0.500009784764,-0.0113698927668,0.0198617439271,-1.63577464295
1385573865469576673,0.0548528193108,-0.161318416858,-0.499576081339,-0.011164626694,0.019594360309,-1.6355318946
1385573865479616181,0.0544585812482,-0.161846055235,-0.499274242991,-0.0107809569302,0.0206446567861,-1.63527594492
1385573865489616963,0.0536511244194,-0.162196722902,-0.498806894132,-0.0110819905701,0.017993652405,-1.63486042623
1385573865499619596,0.0530626823423,-0.162592753322,-0.498192194048,-0.0109382467963,0.0185278891353,-1.6343605136
1385573865509616998,0.0525257767391,-0.162959380215,-0.497445788382,-0.00979838016568,0.0219068616044,-1.63455540858
1385573865519643638,0.0520651756874,-0.163382136053,-0.496566262395,-0.00943097694043,0.0201058399656,-1.633660872
1385573865529678251,0.0515989641033,-0.163649477202,-0.495800031575,-0.00884587718207,0.020862315284,-1.63363958882
1385573865539669651,0.0509918308747,-0.16402611147,-0.494982242243,-0.00743761823727,0.0194388698254,-1.63361897826
1385573865549664286,0.050557379837,-0.164468513455,-0.493962552884,-0.0077507436181,0.020767086918,-1.63382265256
1385573865559640678,0.0499674089265,-0.164777920416,-0.49283660653,-0.00687489350813,0.0203810069868,-1.63398746989
1385573865569642641,0.0493533926748,-0.165077679694,-0.491800875691,-0.00623939472346,0.0185104130835,-1.63335153455
1385573865579609638,0.0489740346569,-0.165371840393,-0.490723195071,-0.00555137000344,0.0194244653794,-1.63346166262
1385573865589623664,0.048458982882,-0.165766986612,-0.489409525704,-0.00525717197348,0.0183266728766,-1.63308929177
1385573865599626524,0.0479988003056,-0.166111795987,-0.488191607614,-0.00550725999103,0.0186404633467,-1.63280313736
1385573865609617970,0.0473641693507,-0.166471658358,-0.48691967096,-0.00537485066756,0.0176172715163,-1.63263673259
1385573865619650877,0.046696528238,-0.166555322485,-0.485632939072,-0.00462805705993,0.0168441115339,-1.63161202564
1385573865629614136,0.046462044303,-0.1669620539,-0.484195723636,-0.00523693906524,0.0164211550697,-1.63223725764
1385573865639688194,0.0459002015543,-0.167218281319,-0.482771816675,-0.00541402029651,0.0167965624828,-1.63142182152
1385573865649636997,0.0454214276527,-0.16745500698,-0.481364162813,-0.00513066007169,0.0164060547021,-1.63118882465
1385573865659584092,0.0450263689623,-0.167693843819,-0.479884128144,-0.00617624126182,0.0164761363121,-1.63154188057
1385573865669617555,0.044295134091,-0.167961337485,-0.478317901647,-0.00614354351685,0.0158058117527,-1.63099205051
1385573865679586787,0.0439288928403,-0.168224792233,-0.476767627991,-0.00691386455326,0.0141940125202,-1.63122994485
1385573865689615013,0.0432823829181,-0.168523498881,-0.475214885963,-0.00765951097624,0.0155442920129,-1.63006062217
1385573865699589464,0.0429405268195,-0.168667471299,-0.473647978587,-0.00692588870676,0.0145474496775,-1.62984003219
1385573865709620099,0.0425334664884,-0.16887625484,-0.472177212838,-0.00759194078853,0.0142668179357,-1.62953681585
1385573865719660487,0.0422044243892,-0.169199860303,-0.47062998459,-0.00831535560871,0.0139157768442,-1.62915974376
1385573865729625409,0.0416093779057,-0.169293751297,-0.468994267585,-0.00850485990173,0.0144252142823,-1.62952056776
1385573865739682080,0.0411650293274,-0.169479334459,-0.467392134898,-0.00885534568115,0.0142402457937,-1.62855266009
1385573865749647422,0.0408152758199,-0.169724051265,-0.465813864841,-0.00898694934082,0.0149635367558,-1.62839064643
1385573865759631400,0.0402913637844,-0.169943040236,-0.464166966777,-0.00916883033865,0.0147627917751,-1.62828566888
1385573865769674601,0.0399550890838,-0.170003124449,-0.462580287756,-0.00912916940093,0.0143814653214,-1.62778113195
1385573865779650273,0.0396230738073,-0.170144568186,-0.460907008412,-0.00889963330041,0.0150165114312,-1.62750559843
1385573865789592436,0.0392711013499,-0.170314733896,-0.459395704612,-0.0085906998579,0.0151283001021,-1.62720868793
1385573865799572913,0.0388596974893,-0.170443531584,-0.457725401954,-0.00772803025892,0.0152332023591,-1.6271266326
1385573865809623577,0.038502267069,-0.170598256558,-0.456279738971,-0.00789831099943,0.0158898566696,-1.62670678377
1385573865819621361,0.0381013099213,-0.170759423128,-0.45461396212,-0.00755598293114,0.016706549638,-1.62640155554
1385573865829658781,0.0377289695848,-0.170926817154,-0.453011646148,-0.0073090545388,0.0162877360927,-1.62668099736
1385573865839601568,0.0372299679577,-0.17100829735,-0.451418792309,-0.00640205475667,0.018503104743,-1.62575857413
1385573865849625780,0.0370446827691,-0.171103314071,-0.450014337596,-0.00674649772142,0.0191416328551,-1.6259996784
1385573865859630008,0.0367482109413,-0.1712228625,-0.448575099496,-0.00584396262276,0.0182627292086,-1.62569511729
1385573865869760785,0.0362669425711,-0.171354773897,-0.44687955582,-0.00597472590564,0.01830425121,-1.62534039286
1385573865879653128,0.0359362315837,-0.171328578876,-0.445350175752,-0.00680816351974,0.0190916174897,-1.6254369988
1385573865889628955,0.0354939831642,-0.171419993022,-0.443884501867,-0.0062751342165,0.0184474680841,-1.62466637345
1385573865899670117,0.0352090135096,-0.171458748118,-0.442433322359,-0.00788552146135,0.0206270386481,-1.62483890265
1385573865909584462,0.0348372760257,-0.171554027413,-0.44096290342,-0.00822680160096,0.0199193436731,-1.62441278914
1385573865919675683,0.0344389276869,-0.171530517958,-0.439421437045,-0.00926073085647,0.0209274776596,-1.62374290555
1385573865929710023,0.0343291224708,-0.171621669719,-0.43810806629,-0.00970514075083,0.0209311623977,-1.62354557297
1385573865939761301,0.0338733310743,-0.17159974718,-0.436692568604,-0.00994899429869,0.0208962036102,-1.62333615846
1385573865949628643,0.0337367683315,-0.171606143623,-0.435273293186,-0.0101112283353,0.0224161733269,-1.62322358489
1385573865959731033,0.033413764351,-0.17156940182,-0.433971122532,-0.00950706830121,0.0212392082358,-1.62288118033
1385573865969698538,0.0330635091016,-0.171509302399,-0.432581472515,-0.0096175685323,0.0228058467361,-1.62281705911
1385573865979660610,0.0329321612767,-0.171532212792,-0.431254528601,-0.0093075061467,0.021787961648,-1.62263606818
1385573865989608789,0.0325360692594,-0.171556148069,-0.42987089828,-0.00820681463479,0.0207853308671,-1.62229834874
1385573865999631979,0.0325811696411,-0.171550552392,-0.428597902725,-0.00790164785384,0.0206623232355,-1.62210904021
1385573866009576155,0.03220119693,-0.171499727482,-0.427371414655,-0.00715033626314,0.0206450663741,-1.62212944418
1385573866019626449,0.0319731640425,-0.171334040614,-0.426129557744,-0.00582739142648,0.0205643121617,-1.62134512659
1385573866029661082,0.0319206274498,-0.17133552887,-0.424956464044,-0.00471308655392,0.0204986918975,-1.62131000148
1385573866039701506,0.0315590782115,-0.171213103369,-0.423743591066,-0.00400498928392,0.0201233021819,-1.62071545639
1385573866049685751,0.0314895896792,-0.171152411913,-0.422570771612,-0.00446047537925,0.0203211592336,-1.62022955292
1385573866059650160,0.031274986513,-0.1710660426,-0.421503623707,-0.00309911868929,0.0200540676042,-1.61999258842
1385573866069744020,0.0310604667055,-0.170913898507,-0.420416922976,-0.00282398823517,0.0210980979388,-1.6195600601
1385573866079621194,0.0307930690326,-0.17072106137,-0.419368613348,-0.0019810253697,0.0210302178978,-1.6196573484
1385573866089644311,0.0305816509662,-0.170599424097,-0.418342815741,-0.00251926302446,0.0207652949125,-1.6193753253
1385573866099699120,0.0304883436718,-0.170488959782,-0.417273888907,-0.00240868819775,0.0210624030484,-1.61906277358
1385573866109603230,0.030300427404,-0.170149659873,-0.416378764611,-0.0017685527933,0.0211218306777,-1.61870089508
1385573866119628862,0.0301322923337,-0.170103128382,-0.415570464207,-0.00154295000381,0.0223148391438,-1.6186766349
1385573866129622056,0.0301369031069,-0.169904205268,-0.41458349669,-0.00213345026878,0.0212358340253,-1.61839492719
1385573866139675489,0.0297560224422,-0.169607693452,-0.413674514163,-0.00147414919125,0.0208186990089,-1.61820744707
1385573866149674593,0.0296836950865,-0.16946161285,-0.412850226366,-0.00190768199243,0.0211109914013,-1.61768784508
1385573866159656003,0.0294917641103,-0.169193194042,-0.412020642442,-0.00175688205699,0.0215120854042,-1.61773511929
1385573866169882904,0.029268618023,-0.168959914095,-0.411346316328,-0.00187051510368,0.0200277516858,-1.61750334459
1385573866179656563,0.0292724412516,-0.168674411845,-0.410503806641,-0.00266672942047,0.0208000665558,-1.61690966423
1385573866189621317,0.0292633400465,-0.168585664424,-0.409915275868,-0.00241627328643,0.0200492879961,-1.61650045345
1385573866199610992,0.0290028276684,-0.168214664327,-0.409120931824,-0.00299222935921,0.0210792335418,-1.61543277726
1385573866209683440,0.0290709175069,-0.167835048212,-0.408608394863,-0.0024421673793,0.0206805525509,-1.61523358093
1385573866219576237,0.0289077032977,-0.167504510763,-0.408049453379,-0.00167433315097,0.0209764075852,-1.61535074807
1385573866229733330,0.0289726228459,-0.167351346011,-0.407156405261,-0.00252943655127,0.0206737786978,-1.61502302351
1385573866239743340,0.0288310795858,-0.166990976684,-0.406541636496,-0.00185586815812,0.0202459962504,-1.61464821829
1385573866249663873,0.0287132647341,-0.166689347668,-0.4059998903,-0.00112625879713,0.0193396531904,-1.61370662634
1385573866259670517,0.0286874872029,-0.166405353317,-0.405399423931,-0.00134704598202,0.020176142607,-1.61324706801
1385573866269731565,0.0288174893505,-0.165987475391,-0.404952427855,-0.000691987644226,0.0182208030991,-1.61258173794
1385573866279659959,0.0288371056308,-0.165686146876,-0.40428830348,-0.00124715703029,0.0172858379515,-1.61224427094
1385573866289646468,0.02878099121,-0.16546288593,-0.403676144821,-0.00075864351607,0.0171787773931,-1.61199316699
1385573866299676112,0.0287707604634,-0.16506550659,-0.403102977671,-0.000410944662022,0.0163214114417,-1.61159458134
1385573866309591651,0.0289025676402,-0.164788568535,-0.402526369518,-0.000461733853699,0.0153448203397,-1.61157319385
1385573866319613976,0.0288368483739,-0.16432878029,-0.402216888362,0.000368619453263,0.0151907256181,-1.61155945978
1385573866329630568,0.0290363617011,-0.16406675033,-0.401778251113,0.000205965118115,0.0147741883835,-1.61101631977
1385573866339682445,0.0291496536856,-0.1636677972,-0.401312275766,-0.000217017604798,0.0149600990927,-1.61106198104
1385573866349738377,0.0290473669837,-0.16333936,-0.400807836294,0.000354895908922,0.0143883539436,-1.61063031995
1385573866359887314,0.0291633999555,-0.162867255107,-0.40032471979,0.000225280291683,0.0144736632117,-1.61060274337
1385573866369823771,0.0293693646119,-0.16256178482,-0.400059782912,0.000422425466792,0.0131353394368,-1.61043272137
1385573866379712741,0.029398531851,-0.162176176144,-0.399737319995,0.000235955596109,0.013443676586,-1.61041620389
1385573866389687062,0.0295340178035,-0.161761138309,-0.39941071253,8.1331891189e-05,0.0136678106473,-1.61012159335
1385573866399755105,0.0296066987285,-0.161383465215,-0.399199794242,0.000662901997954,0.0143523708053,-1.60940627071
1385573866409702714,0.0298403113441,-0.160886384681,-0.39891465936,0.000415943668735,0.0140987901017,-1.60932336811
1385573866419600753,0.029863352642,-0.16054004645,-0.398804525757,0.000882388098838,0.0159743902786,-1.60940755474
1385573866429626714,0.0301731606502,-0.160128609821,-0.398613772068,-2.89244618575e-05,0.0149576829341,-1.60889183998
1385573866439699312,0.0303253937355,-0.159717777459,-0.398321757347,-0.00126410065931,0.0152401147689,-1.60869142579
1385573866449632061,0.0304321654571,-0.159336671537,-0.39826546495,-0.00185341547347,0.0152827719454,-1.60821149028
1385573866459672829,0.0305633587994,-0.1589643935,-0.398070916786,-0.00255555011322,0.0154458873636,-1.60771692294
1385573866469644086,0.0309054617593,-0.158486774222,-0.398010459039,-0.00342773443367,0.0162632470947,-1.60744131221
1385573866479623585,0.0310173994179,-0.158036012366,-0.397993056291,-0.00408028686728,0.0157106056158,-1.60689937518
1385573866489677373,0.0310694003428,-0.157581035421,-0.397853682125,-0.00513021013873,0.0158116540738,-1.60678273264
1385573866499643804,0.0311350430273,-0.157179128263,-0.397798655557,-0.00638645308798,0.0157333605954,-1.60626089671
1385573866509656412,0.0311698771594,-0.156741006463,-0.397946129205,-0.00658501148759,0.0168658505601,-1.60603644503
