%time,field.header.seq,field.header.stamp,field.header.frame_id,field.child_frame_id,field.transform.translation.x,field.transform.translation.y,field.transform.translation.z,field.transform.rotation.x,field.transform.rotation.y,field.transform.rotation.z,field.transform.rotation.w
1385573858127808677,1094860,1385573858127808677,/world,vicon/Archie/Archie,0.11579000615,0.169990319397,0.114214956836,-0.0099375089333,-0.0141247321512,0.70599823098,0.708002991315
1385573858137923406,1094861,1385573858137923406,/world,vicon/Archie/Archie,0.115806493884,0.169970778836,0.114247811882,-0.0099836757648,-0.0142759258588,0.705984755225,0.708012746742
1385573858147693956,1094862,1385573858147693956,/world,vicon/Archie/Archie,0.115805045577,0.169965579589,0.114254736011,-0.00994752732199,-0.0142632164896,0.705981600418,0.70801665745
1385573858157857818,1094863,1385573858157857818,/world,vicon/Archie/Archie,0.115772176321,0.169979047798,0.114219050581,-0.00993300677531,-0.0141126004399,0.706012991692,0.707988577201
1385573858167812831,1094864,1385573858167812831,/world,vicon/Archie/Archie,0.115785114142,0.169976202744,0.114220708593,-0.00994414822659,-0.0141158188,0.7060180627,0.707983299744
1385573858177942086,1094865,1385573858177942086,/world,vicon/Archie/Archie,0.115804442281,0.169967585661,0.114253980873,-0.00996861473621,-0.0142515878933,0.705984921191,0.708013283783
1385573858187968037,1094866,1385573858187968037,/world,vicon/Archie/Archie,0.115813958907,0.169970791208,0.114249814272,-0.00995570845137,-0.0142685944736,0.705968945737,0.708029052184
1385573858197707948,1094867,1385573858197707948,/world,vicon/Archie/Archie,0.115768943559,0.169975460955,0.114220041363,-0.00994426410624,-0.0141125089084,0.706010354508,0.707991050813
1385573858207926636,1094868,1385573858207926636,/world,vicon/Archie/Archie,0.115905272943,0.169944314795,0.114104926642,-0.00928971665356,-0.0143355777267,0.706070560813,0.707935417626
1385573858217914505,1094869,1385573858217914505,/world,vicon/Archie/Archie,0.115945954831,0.169913796456,0.114173479654,-0.00928577671238,-0.0144803046602,0.706037857759,0.707965139352
1385573858227872012,1094870,1385573858227872012,/world,vicon/Archie/Archie,0.115927637442,0.169926439991,0.114159640861,-0.00930037052586,-0.0144688751376,0.706054356193,0.707948727565
1385573858237891559,1094871,1385573858237891559,/world,vicon/Archie/Archie,0.115909858842,0.16991645417,0.114143857955,-0.00927706289494,-0.0144232002158,0.706059631533,0.707944704139
1385573858247861495,1094872,1385573858247861495,/world,vicon/Archie/Archie,0.115904215618,0.169923389293,0.114128692087,-0.00927676883232,-0.0143256239954,0.706083935758,0.707922448946
1385573858257954543,1094873,1385573858257954543,/world,vicon/Archie/Archie,0.115937857968,0.169911515685,0.114160475577,-0.00929093645568,-0.014499167967,0.706033831971,0.707968700396
1385573858267890667,1094874,1385573858267890667,/world,vicon/Archie/Archie,0.115938718747,0.169912855767,0.114160638311,-0.00931136093847,-0.0144646907113,0.70605649114,0.707946539366
1385573858277816934,1094875,1385573858277816934,/world,vicon/Archie/Archie,0.115895585754,0.16992920027,0.114132987491,-0.00927230608305,-0.0143172270723,0.706080338303,0.707926265377
1385573858287855531,1094876,1385573858287855531,/world,vicon/Archie/Archie,0.115836743711,0.16986548912,0.114237371272,-0.00878398200468,-0.0147016578155,0.706198958465,0.707806282807
1385573858297812477,1094877,1385573858297812477,/world,vicon/Archie/Archie,0.115918327228,0.169916744715,0.114144613314,-0.00927500772611,-0.0144534875967,0.706059351178,0.707944392973
1385573858307943053,1094878,1385573858307943053,/world,vicon/Archie/Archie,0.115923969803,0.169910321624,0.114155248168,-0.009283019735,-0.0144547279395,0.706055414918,0.707948188394
1385573858317757241,1094879,1385573858317757241,/world,vicon/Archie/Archie,0.115966623715,0.169896200836,0.114191824546,-0.00894009961149,-0.0145888905634,0.705990042998,0.708015040856
1385573858327736689,1094880,1385573858327736689,/world,vicon/Archie/Archie,0.115939357439,0.16990925371,0.11416491303,-0.00930113891881,-0.0144509314259,0.706053816777,0.707949621944
1385573858337740736,1094881,1385573858337740736,/world,vicon/Archie/Archie,0.115938197775,0.169915826473,0.114157778677,-0.00930578766714,-0.0144673238123,0.706040981175,0.70796202706
1385573858347746591,1094882,1385573858347746591,/world,vicon/Archie/Archie,0.115980825045,0.169910105706,0.114196380584,-0.00906483202571,-0.0141836153668,0.706066612086,0.707945332051
1385573858358049599,1094883,1385573858358049599,/world,vicon/Archie/Archie,0.115905792383,0.169924886648,0.114136325911,-0.00925852361287,-0.0143415691776,0.706067717001,0.707938541219
1385573858367795241,1094884,1385573858367795241,/world,vicon/Archie/Archie,0.115886002418,0.169927120543,0.114113289477,-0.00925951330301,-0.0142683670156,0.706084254895,0.707923512892
1385573858377761968,1094885,1385573858377761968,/world,vicon/Archie/Archie,0.115798688661,0.169875819507,0.114224008878,-0.00877197507115,-0.0146209039116,0.706197742637,0.707809317484
1385573858387916736,1094886,1385573858387916736,/world,vicon/Archie/Archie,0.115946836384,0.169915837762,0.114159376859,-0.00931069138938,-0.0144567792652,0.706048104574,0.707955073848
1385573858397723930,1094887,1385573858397723930,/world,vicon/Archie/Archie,0.115901903761,0.169933543578,0.114127070111,-0.00928662065388,-0.0143282277748,0.706084561578,0.707921642886
1385573858408058277,1094888,1385573858408058277,/world,vicon/Archie/Archie,0.115934420834,0.169910575471,0.114157266865,-0.0093169871113,-0.0144749496435,0.706049343243,0.707953384405
1385573858417803601,1094889,1385573858417803601,/world,vicon/Archie/Archie,0.115918710183,0.169920349531,0.114147364889,-0.00927518153946,-0.0144302594718,0.706051612372,0.707952582653
1385573858427811160,1094890,1385573858427811160,/world,vicon/Archie/Archie,0.115902720542,0.169921056577,0.114136047725,-0.0092577259224,-0.0143850435397,0.7060691074,0.707936282873
1385573858437923747,1094891,1385573858437923747,/world,vicon/Archie/Archie,0.116004321813,0.169892569656,0.114231412156,-0.00909674084773,-0.0143277476652,0.706053556718,0.707955040944
1385573858447777171,1094892,1385573858447777171,/world,vicon/Archie/Archie,0.115907327048,0.169920700441,0.114122444712,-0.00927868779413,-0.0143668904275,0.706085870004,0.70791965829
1385573858458003902,1094893,1385573858458003902,/world,vicon/Archie/Archie,0.115931994453,0.169909712403,0.114156109101,-0.00932001794659,-0.0144656892515,0.706063701092,0.70793921427
1385573858467817837,1094894,1385573858467817837,/world,vicon/Archie/Archie,0.115877414487,0.169933673308,0.114106339364,-0.00925959766186,-0.0142689448322,0.70608841795,0.707919347879
1385573858478011902,1094895,1385573858478011902,/world,vicon/Archie/Archie,0.115883059255,0.169940038385,0.114117061047,-0.0092362225867,-0.0142632354718,0.706087808025,0.707920376642
1385573858487966785,1094896,1385573858487966785,/world,vicon/Archie/Archie,0.115839230963,0.169870042817,0.11423610005,-0.00879454857069,-0.0146907550081,0.706187320918,0.707817988898
1385573858498036456,1094897,1385573858498036456,/world,vicon/Archie/Archie,0.115918920919,0.169923818557,0.114139182828,-0.00926374392092,-0.0143870965641,0.706068581373,0.70793668707
1385573858508005923,1094898,1385573858508005923,/world,vicon/Archie/Archie,0.115930370038,0.169917523335,0.11414986928,-0.00929609045882,-0.0144310536952,0.706059065292,0.70794485923
1385573858517754019,1094899,1385573858517754019,/world,vicon/Archie/Archie,0.115917370984,0.169927301812,0.114133304046,-0.00928975627494,-0.0143001988685,0.706073362511,0.707933338312
1385573858527837180,1094900,1385573858527837180,/world,vicon/Archie/Archie,0.115903385705,0.169924902219,0.114130226943,-0.00923857717423,-0.0143477467339,0.706080717302,0.707925710446
1385573858538000920,1094901,1385573858538000920,/world,vicon/Archie/Archie,0.115909026262,0.169923024655,0.114143744636,-0.00927553841349,-0.0144418736416,0.706063723112,0.707940262719
1385573858547667607,1094902,1385573858547667607,/world,vicon/Archie/Archie,0.1160165664,0.169892356684,0.114219282254,-0.00909678361313,-0.0143546927704,0.70605224719,0.70795580057
1385573858558008722,1094903,1385573858558008722,/world,vicon/Archie/Archie,0.116019215838,0.169887283804,0.11423102481,-0.00911048836737,-0.0143457333102,0.706060483337,0.707947591851
1385573858567863237,1094904,1385573858567863237,/world,vicon/Archie/Archie,0.115913305391,0.169927219803,0.114136773785,-0.00926238646928,-0.0143454344398,0.706084854689,0.707921319559
1385573858579985988,1094905,1385573858579985988,/world,vicon/Archie/Archie,0.115909622146,0.169928858056,0.11414526059,-0.00924890663976,-0.0143220524132,0.706082127831,0.707924689002
1385573858587844057,1094906,1385573858587844057,/world,vicon/Archie/Archie,0.115987809133,0.169905823564,0.114208419301,-0.00906672910853,-0.0142420958183,0.706073931528,0.707936833586
1385573858597828648,1094907,1385573858597828648,/world,vicon/Archie/Archie,0.115926029594,0.169916819382,0.114151996496,-0.00929812107839,-0.0144271317795,0.706062099501,0.707941886358
1385573858607921039,1094908,1385573858607921039,/world,vicon/Archie/Archie,0.115938837082,0.169912302032,0.114157395344,-0.00928912517417,-0.0144877883807,0.706045523985,0.707957296878
1385573858617831830,1094909,1385573858617831830,/world,vicon/Archie/Archie,0.115826532628,0.169938295197,0.114073664715,-0.00907058278767,-0.0144822497216,0.706030552864,0.707975174278
1385573858627933074,1094910,1385573858627933074,/world,vicon/Archie/Archie,0.11600948965,0.169888129901,0.114239104925,-0.00910606364258,-0.0143144405655,0.706057622057,0.707951135836
1385573858638021314,1094911,1385573858638021314,/world,vicon/Archie/Archie,0.115897853919,0.169915192665,0.114134076796,-0.00926565308935,-0.0144186725083,0.706064857329,0.707939733876
1385573858647742568,1094912,1385573858647742568,/world,vicon/Archie/Archie,0.115917509053,0.169915223174,0.114152103429,-0.00927897282283,-0.014427454413,0.706064260821,0.707939975432
1385573858657979083,1094913,1385573858657979083,/world,vicon/Archie/Archie,0.115904318043,0.169924118333,0.11412998198,-0.00925942319229,-0.0143215581895,0.706066874165,0.707939775164
1385573858667885211,1094914,1385573858667885211,/world,vicon/Archie/Archie,0.115936857301,0.169916979484,0.114152620832,-0.00931182057518,-0.01444843164,0.706042046063,0.707961271548
1385573858677946261,1094915,1385573858677946261,/world,vicon/Archie/Archie,0.115934049999,0.169909811059,0.114155254259,-0.00930026367717,-0.0144779588513,0.706055676324,0.707947226658
1385573858687897848,1094916,1385573858687897848,/world,vicon/Archie/Archie,0.115917797702,0.169918816547,0.11414430683,-0.00928416205115,-0.014409082456,0.706055676349,0.707948843189
1385573858697850302,1094917,1385573858697850302,/world,vicon/Archie/Archie,0.116030082542,0.169885748505,0.114243869988,-0.00910555009021,-0.014379251195,0.706050115983,0.707957314965
1385573858707955157,1094918,1385573858707955157,/world,vicon/Archie/Archie,0.115927381719,0.169913675414,0.114159447312,-0.00930885078284,-0.0144622099703,0.706060863503,0.707942262342
1385573858717797648,1094919,1385573858717797648,/world,vicon/Archie/Archie,0.115916199443,0.169915103893,0.114151631661,-0.0092892074371,-0.0143910168223,0.706064053841,0.707940789285
1385573858727911542,1094920,1385573858727911542,/world,vicon/Archie/Archie,0.115934701024,0.169917688193,0.114153141605,-0.009321329486,-0.0144618616778,0.70606049044,0.707942477333
1385573858737877814,1094921,1385573858737877814,/world,vicon/Archie/Archie,0.11592722481,0.169913172894,0.114169044986,-0.00929774512773,-0.0144698379913,0.706054144378,0.70794895362
1385573858747731523,1094922,1385573858747731523,/world,vicon/Archie/Archie,0.115853739578,0.169852664677,0.11426796794,-0.00881515211646,-0.0148427291409,0.706172873185,0.707828976281
1385573858757997937,1094923,1385573858757997937,/world,vicon/Archie/Archie,0.11591001346,0.169924870071,0.114128905511,-0.00926347586255,-0.0143365543622,0.706074603743,0.707931709399
1385573858767882343,1094924,1385573858767882343,/world,vicon/Archie/Archie,0.11592649694,0.169923475576,0.114162403129,-0.00930758949954,-0.0144481967528,0.706047644285,0.707955748891
1385573858777843233,1094925,1385573858777843233,/world,vicon/Archie/Archie,0.115936022553,0.16991982049,0.114164021759,-0.00928641936149,-0.0145010643946,0.706054503873,0.707948104812
1385573858788192901,1094926,1385573858788192901,/world,vicon/Archie/Archie,0.115935864324,0.16990479072,0.114158022779,-0.00927230582171,-0.0145005034125,0.70605086384,0.707951931572
1385573858797567703,1094927,1385573858797567703,/world,vicon/Archie/Archie,0.115936343383,0.16992002708,0.114172366598,-0.00928832516005,-0.0144522162077,0.706054570796,0.70794901195
1385573858807665777,1094928,1385573858807665777,/world,vicon/Archie/Archie,0.115845481403,0.169856737911,0.114253285587,-0.00880269651672,-0.0148067784758,0.706187984484,0.707814807994
1385573858817735475,1094929,1385573858817735475,/world,vicon/Archie/Archie,0.116025422934,0.169891702735,0.114241322564,-0.00910863768745,-0.0143542242046,0.706036905211,0.707970958053
1385573858827925322,1094930,1385573858827925322,/world,vicon/Archie/Archie,0.115896624801,0.169929256361,0.114124141868,-0.00926744023364,-0.0143382865257,0.706079783483,0.707926456242
1385573858837922783,1094931,1385573858837922783,/world,vicon/Archie/Archie,0.115911187267,0.16992271249,0.114142602728,-0.00913488170196,-0.0143739813377,0.706065077824,0.707942122263
1385573858847897349,1094932,1385573858847897349,/world,vicon/Archie/Archie,0.115903393863,0.169925361618,0.114134343698,-0.00925385882534,-0.0143237924618,0.706076234298,0.707930467225
1385573858857969066,1094933,1385573858857969066,/world,vicon/Archie/Archie,0.115930522947,0.169909711662,0.114173666637,-0.00928613025313,-0.0144592641439,0.70605698732,0.707946486764
1385573858867798131,1094934,1385573858867798131,/world,vicon/Archie/Archie,0.115942336816,0.169909308843,0.114171327525,-0.00927860399433,-0.0144761159909,0.706040867534,0.707962317462
1385573858877545122,1094935,1385573858877545122,/world,vicon/Archie/Archie,0.115936983487,0.16991290176,0.114167069831,-0.00928046498937,-0.0144676912236,0.706052423604,0.707950940393
1385573858887865717,1094936,1385573858887865717,/world,vicon/Archie/Archie,0.115893317354,0.169937157703,0.114114411692,-0.00923849028893,-0.0142595259472,0.706073723736,0.707934469331
1385573858897848551,1094937,1385573858897848551,/world,vicon/Archie/Archie,0.115915658078,0.169938414428,0.114103540214,-0.00929890916924,-0.0143134228593,0.706062118028,0.707944165665
1385573858908119833,1094938,1385573858908119833,/world,vicon/Archie/Archie,0.115905929922,0.169932395503,0.114123286111,-0.00921160211802,-0.0142813597214,0.706082650662,0.707925476011
1385573858918353178,1094939,1385573858918353178,/world,vicon/Archie/Archie,0.115913376425,0.16991998586,0.114153757463,-0.00925736032121,-0.0144449733171,0.706050956552,0.707953169904
1385573858927981175,1094940,1385573858927981175,/world,vicon/Archie/Archie,0.115790888366,0.169977495726,0.114221058938,-0.00992180378749,-0.0141132329212,0.706011069856,0.707990638149
1385573858937862860,1094941,1385573858937862860,/world,vicon/Archie/Archie,0.115775890786,0.169981582257,0.114223251727,-0.00989549708959,-0.0141204820576,0.706010694465,0.707991236121
1385573858947888141,1094942,1385573858947888141,/world,vicon/Archie/Archie,0.115773201149,0.169984445704,0.11422567229,-0.00990433176022,-0.0141066254128,0.706006121592,0.707995948863
1385573858957906371,1094943,1385573858957906371,/world,vicon/Archie/Archie,0.115802527347,0.169968909721,0.114256853346,-0.00993394104718,-0.0142107358506,0.705986090882,0.70801342592
1385573858967714766,1094944,1385573858967714766,/world,vicon/Archie/Archie,0.115753365628,0.169994030227,0.114210631974,-0.00987287625173,-0.0140778953313,0.706019353026,0.707983765584
1385573858977867330,1094945,1385573858977867330,/world,vicon/Archie/Archie,0.115757655728,0.169993466871,0.114212573101,-0.00988571729787,-0.014062263421,0.706001281451,0.708001918027
1385573858988155995,1094946,1385573858988155995,/world,vicon/Archie/Archie,0.115804178111,0.169963822825,0.114244062883,-0.00994518352392,-0.0141757755958,0.705998752504,0.708001343342
1385573858997638245,1094947,1385573858997638245,/world,vicon/Archie/Archie,0.11578170964,0.169976248191,0.114225566422,-0.00987602593155,-0.0141346407939,0.706023276658,0.707978678251
1385573859007935323,1094948,1385573859007935323,/world,vicon/Archie/Archie,0.115820281914,0.169979046516,0.114241134153,-0.00995078945432,-0.0142407414267,0.705973024671,0.708025615009
1385573859017953945,1094949,1385573859017953945,/world,vicon/Archie/Archie,0.11574511349,0.169980573078,0.11420447766,-0.0098989684658,-0.0140768295936,0.706020819149,0.707981960378
1385573859027899302,1094950,1385573859027899302,/world,vicon/Archie/Archie,0.115792791097,0.169967424289,0.114237072507,-0.00993852755781,-0.0141887585925,0.706000537404,0.707999396881
1385573859037896397,1094951,1385573859037896397,/world,vicon/Archie/Archie,0.115770887478,0.169987213141,0.114209284644,-0.00991254484264,-0.0140937717243,0.706011703264,0.707990523882
1385573859047650077,1094952,1385573859047650077,/world,vicon/Archie/Archie,0.115692274075,0.169926396949,0.114291774696,-0.00939242714728,-0.014426047713,0.706134617213,0.707868330859
1385573859058075236,1094953,1385573859058075236,/world,vicon/Archie/Archie,0.115797698477,0.169975793479,0.114241523266,-0.00992721379263,-0.0142203681802,0.705989013779,0.708010412338
1385573859067846491,1094954,1385573859067846491,/world,vicon/Archie/Archie,0.115800792964,0.169983452963,0.114221702385,-0.0099429758249,-0.0142582706741,0.705987939534,0.708010500051
1385573859077816835,1094955,1385573859077816835,/world,vicon/Archie/Archie,0.115849330531,0.169958613328,0.11427376286,-0.00967647432692,-0.0139753531781,0.706016505498,0.707991348331
1385573859087980105,1094956,1385573859087980105,/world,vicon/Archie/Archie,0.115786293588,0.169973282772,0.114229641447,-0.00990931082188,-0.0142202372598,0.705984576378,0.708015090466
1385573859097879909,1094957,1385573859097879909,/world,vicon/Archie/Archie,0.115790977304,0.16996870014,0.114235008375,-0.00995144103389,-0.0142688516549,0.705992552124,0.708005568509
1385573859107810272,1094958,1385573859107810272,/world,vicon/Archie/Archie,0.115864824477,0.169957799902,0.114297873832,-0.00968106580666,-0.0140531842897,0.706011797481,0.707994439804
1385573859117881404,1094959,1385573859117881404,/world,vicon/Archie/Archie,0.115756402888,0.169988356136,0.114209573738,-0.00986296908789,-0.0140818882705,0.706011462154,0.707991693151
1385573859127957886,1094960,1385573859127957886,/world,vicon/Archie/Archie,0.115781882831,0.169967265793,0.114229428363,-0.00991466765345,-0.0142187157514,0.706000311261,0.707999355923
1385573859138014436,1094961,1385573859138014436,/world,vicon/Archie/Archie,0.115785457872,0.169971520905,0.114234399731,-0.00991695047358,-0.0142212763042,0.70598681964,0.708012725795
1385573859147714680,1094962,1385573859147714680,/world,vicon/Archie/Archie,0.115789337339,0.16996252051,0.114238647688,-0.00988786749104,-0.0142455187642,0.705997368582,0.708002126287
1385573859157922789,1094963,1385573859157922789,/world,vicon/Archie/Archie,0.115831069081,0.169875895585,0.11422755165,-0.00876088022116,-0.0146669065496,0.706202696572,0.707803560449
1385573859167954322,1094964,1385573859167954322,/world,vicon/Archie/Archie,0.115910061327,0.169929040645,0.114136457072,-0.00927281796321,-0.0144049160124,0.706057799714,0.707946958963
1385573859177920660,1094965,1385573859177920660,/world,vicon/Archie/Archie,0.115907896693,0.169933404563,0.114122567456,-0.00926712632374,-0.0143270736074,0.706080311244,0.707926160983
1385573859188300719,1094966,1385573859188300719,/world,vicon/Archie/Archie,0.115915806903,0.169920106506,0.11413867754,-0.00928220984666,-0.0144119740296,0.706051157879,0.707953316288
1385573859197776929,1094967,1385573859197776929,/world,vicon/Archie/Archie,0.115916026909,0.169923000449,0.114149993885,-0.00925472725613,-0.014426870352,0.70604633145,0.707958186111
1385573859207896644,1094968,1385573859207896644,/world,vicon/Archie/Archie,0.115908679504,0.16992000352,0.114143126015,-0.00928757806894,-0.0144138279354,0.706064426366,0.707939975054
1385573859217875795,1094969,1385573859217875795,/world,vicon/Archie/Archie,0.11592008349,0.169915326668,0.114139387096,-0.00925293053912,-0.0144484995987,0.706052996152,0.707951121731
1385573859227893109,1094970,1385573859227893109,/world,vicon/Archie/Archie,0.11592934719,0.169916085025,0.114149747558,-0.009268352254,-0.014485997702,0.706072513549,0.707930688082
1385573859237838603,1094971,1385573859237838603,/world,vicon/Archie/Archie,0.115925468032,0.16991145099,0.11414521787,-0.00927794876095,-0.0144734064169,0.706055890428,0.70794739901
1385573859247821123,1094972,1385573859247821123,/world,vicon/Archie/Archie,0.115930848083,0.169918196667,0.114160612472,-0.0092766775093,-0.0144447339827,0.70604309099,0.707960766271
1385573859257866118,1094973,1385573859257866118,/world,vicon/Archie/Archie,0.115896161208,0.169923620405,0.114122211825,-0.00925538871998,-0.014318141275,0.70609108264,0.707915751786
1385573859267825492,1094974,1385573859267825492,/world,vicon/Archie/Archie,0.115913031605,0.169932387766,0.114113348549,-0.00927012165912,-0.0144182573088,0.706059952691,0.707944575448
1385573859277997163,1094975,1385573859277997163,/world,vicon/Archie/Archie,0.115767263372,0.16999421399,0.114185769451,-0.00991968428523,-0.0141211770264,0.706014121123,0.707987466696
1385573859287930087,1094976,1385573859287930087,/world,vicon/Archie/Archie,0.115768047904,0.169989554115,0.114194042443,-0.00990634415558,-0.014115752698,0.706016762351,0.707985127775
1385573859297879130,1094977,1385573859297879130,/world,vicon/Archie/Archie,0.115864708974,0.169947664011,0.114294514702,-0.00972152040114,-0.0140320062373,0.706004974774,0.708001109064
1385573859307976462,1094978,1385573859307976462,/world,vicon/Archie/Archie,0.115788191375,0.169974294408,0.114226057868,-0.00988971456674,-0.0141015991468,0.706022558647,0.707979862093
1385573859317915133,1094979,1385573859317915133,/world,vicon/Archie/Archie,0.115886966039,0.169935182018,0.114322208154,-0.00975874963247,-0.014175344836,0.705980192231,0.708022453444
1385573859327942450,1094980,1385573859327942450,/world,vicon/Archie/Archie,0.115799349561,0.16996455995,0.114242616095,-0.0099244829689,-0.0141953387484,0.705994048864,0.708005932153
1385573859337905998,1094981,1385573859337905998,/world,vicon/Archie/Archie,0.115811746212,0.169971017097,0.114238347869,-0.00993514126961,-0.0142648648151,0.705991081398,0.708007344303
1385573859348124968,1094982,1385573859348124968,/world,vicon/Archie/Archie,0.115886875295,0.169937529837,0.114325008219,-0.00976132930956,-0.0141726040616,0.705977573515,0.708025083904
1385573859357925078,1094983,1385573859357925078,/world,vicon/Archie/Archie,0.115766024413,0.16997560066,0.114226566081,-0.00992015975153,-0.0141024433266,0.70601236811,0.707989581561
1385573859367969025,1094984,1385573859367969025,/world,vicon/Archie/Archie,0.11577245052,0.169962999537,0.114236580569,-0.00994321542544,-0.0142152746202,0.705984405815,0.708014884858
1385573859377882072,1094985,1385573859377882072,/world,vicon/Archie/Archie,0.115780549779,0.169976211609,0.114232459363,-0.00988518600465,-0.014122891096,0.706014132924,0.707987903256
1385573859388068235,1094986,1385573859388068235,/world,vicon/Archie/Archie,0.11577726979,0.169969242901,0.114247064153,-0.00992551104695,-0.0142073402077,0.705990737766,0.708008978688
1385573859397744313,1094987,1385573859397744313,/world,vicon/Archie/Archie,0.115776805848,0.169964643642,0.114242242955,-0.00993059923515,-0.0142236902547,0.705992706256,0.708006616175
1385573859407852182,1094988,1385573859407852182,/world,vicon/Archie/Archie,0.115782766991,0.169965185795,0.114241315783,-0.00993975718349,-0.0141884950396,0.705988491688,0.708011396405
1385573859417990801,1094989,1385573859417990801,/world,vicon/Archie/Archie,0.115762382442,0.16997552614,0.114214956436,-0.00991182104837,-0.0141208530696,0.706027484084,0.707974257322
1385573859428278294,1094990,1385573859428278294,/world,vicon/Archie/Archie,0.115781014407,0.169965068628,0.114237731241,-0.00993528484736,-0.0142015542416,0.706003288224,0.70799644278
1385573859437875007,1094991,1385573859437875007,/world,vicon/Archie/Archie,0.115750472259,0.16997624705,0.114210149821,-0.00988823605245,-0.0140592954545,0.706026804192,0.707976490261
1385573859447882622,1094992,1385573859447882622,/world,vicon/Archie/Archie,0.115767662714,0.169968085204,0.114241789108,-0.00993092901965,-0.0142146981657,0.705980181627,0.70801928092
1385573859457948085,1094993,1385573859457948085,/world,vicon/Archie/Archie,0.115769046087,0.169976358423,0.114229483385,-0.00990589767864,-0.0140863220658,0.706014275947,0.707988199676
1385573859468009984,1094994,1385573859468009984,/world,vicon/Archie/Archie,0.115720632651,0.16991231406,0.114326453036,-0.00945792145286,-0.0145509022524,0.706113223785,0.7078862438
1385573859477855681,1094995,1385573859477855681,/world,vicon/Archie/Archie,0.1157379153,0.169983275186,0.114197631174,-0.00989904989464,-0.0140683721006,0.706025751738,0.70797720839
1385573859488116637,1094996,1385573859488116637,/world,vicon/Archie/Archie,0.115746319378,0.169979831104,0.114206860714,-0.009907422147,-0.0140613389054,0.706021281116,0.707981689273
1385573859497735068,1094997,1385573859497735068,/world,vicon/Archie/Archie,0.11576281053,0.169968553556,0.114227660475,-0.0099386714511,-0.0141554848164,0.705994271989,0.708006308572
1385573859507991382,1094998,1385573859507991382,/world,vicon/Archie/Archie,0.115760284461,0.169975418536,0.114230464595,-0.00990943576409,-0.0140926791429,0.706010536939,0.707991752218
1385573859518352034,1094999,1385573859518352034,/world,vicon/Archie/Archie,0.1157817374,0.16996252588,0.114236263858,-0.00991891858053,-0.0142017808469,0.70599064634,0.708009273777
1385573859527848879,1095000,1385573859527848879,/world,vicon/Archie/Archie,0.115761054509,0.169974233506,0.114226061042,-0.00990874859112,-0.0141859124456,0.706000185616,0.708000222104
1385573859537906765,1095001,1385573859537906765,/world,vicon/Archie/Archie,0.115808465142,0.169969655529,0.11422853445,-0.00997108030748,-0.0142222682658,0.705975381204,0.708023351152
1385573859548336498,1095002,1385573859548336498,/world,vicon/Archie/Archie,0.115775617095,0.169967992342,0.114224443853,-0.00989958175173,-0.0141201428822,0.706015747169,0.707986147178
1385573859558027156,1095003,1385573859558027156,/world,vicon/Archie/Archie,0.115785852333,0.169959062063,0.114236919,-0.00996133205533,-0.0142015346678,0.705989874597,0.708009452792
1385573859567757803,1095004,1385573859567757803,/world,vicon/Archie/Archie,0.115778690375,0.169985563351,0.114199855965,-0.00992068818147,-0.0141141809751,0.706020814943,0.70798091691
1385573859577911011,1095005,1385573859577911011,/world,vicon/Archie/Archie,0.115810222396,0.169953553083,0.114242382761,-0.00994810684565,-0.0142535744791,0.705985755895,0.708012699927
1385573859587853360,1095006,1385573859587853360,/world,vicon/Archie/Archie,0.115752302116,0.169980924939,0.114210725657,-0.00986230101515,-0.0140696979079,0.706023085061,0.707980354233
1385573859597664670,1095007,1385573859597664670,/world,vicon/Archie/Archie,0.115754646644,0.169981710621,0.114203468164,-0.00990852885566,-0.0140678634756,0.706020894642,0.707981929573
1385573859607891431,1095008,1385573859607891431,/world,vicon/Archie/Archie,0.115780217795,0.169983209517,0.114221524069,-0.00992110235575,-0.0141190881388,0.706010389156,0.707991210032
1385573859617924697,1095009,1385573859617924697,/world,vicon/Archie/Archie,0.11579967382,0.169963650736,0.114247155315,-0.00996226225507,-0.0142416656967,0.705992954144,0.708005562823
1385573859627790521,1095010,1385573859627790521,/world,vicon/Archie/Archie,0.11575366754,0.169973778345,0.114214921961,-0.00988237486044,-0.0140721085543,0.706021671871,0.707981435687
1385573859637928894,1095011,1385573859637928894,/world,vicon/Archie/Archie,0.115780104228,0.169982263921,0.114221350098,-0.0099067213632,-0.0140952110146,0.7060111569,0.707991121577
1385573859647843486,1095012,1385573859647843486,/world,vicon/Archie/Archie,0.115802212233,0.169961436412,0.11425057245,-0.00994072429965,-0.0142704061966,0.705989240308,0.70800899011
1385573859657894186,1095013,1385573859657894186,/world,vicon/Archie/Archie,0.115732929415,0.169971965962,0.114189449928,-0.0097653695102,-0.0144061325307,0.705941936735,0.708055847277
1385573859667894231,1095014,1385573859667894231,/world,vicon/Archie/Archie,0.11580647898,0.169960000656,0.114256884221,-0.00993048139116,-0.0142517604774,0.705997068908,0.708001703075
1385573859677777868,1095015,1385573859677777868,/world,vicon/Archie/Archie,0.115752967034,0.169965561452,0.114206439112,-0.00976963069037,-0.0144557759888,0.705939317665,0.708057387951
1385573859687892092,1095016,1385573859687892092,/world,vicon/Archie/Archie,0.11576792998,0.169981719853,0.114202561226,-0.00990413127702,-0.0140344557887,0.706030821478,0.707972754671
1385573859697806770,1095017,1385573859697806770,/world,vicon/Archie/Archie,0.115892421751,0.169942231039,0.114324475906,-0.00973685272296,-0.0141618868154,0.705983181259,0.708020043813
1385573859707665856,1095018,1385573859707665856,/world,vicon/Archie/Archie,0.115803598472,0.169962856496,0.114252456335,-0.00994318659497,-0.0142456797461,0.70599470029,0.708004009036
1385573859717656993,1095019,1385573859717656993,/world,vicon/Archie/Archie,0.11578939595,0.169966626583,0.114251271216,-0.00991511269965,-0.0142614748496,0.705990386712,0.70800838607
1385573859727847065,1095020,1385573859727847065,/world,vicon/Archie/Archie,0.115756772725,0.169986331361,0.114213960769,-0.00988618828753,-0.0140523212279,0.706021637472,0.707981809774
1385573859737869383,1095021,1385573859737869383,/world,vicon/Archie/Archie,0.115754736103,0.169964695133,0.114210368672,-0.00975854322387,-0.0144269972315,0.705935159812,0.708062273198
1385573859748082144,1095022,1385573859748082144,/world,vicon/Archie/Archie,0.115791860315,0.169969735634,0.114239365658,-0.00993770425686,-0.0142029059176,0.706003608609,0.707996062226
1385573859757894777,1095023,1385573859757894777,/world,vicon/Archie/Archie,0.115774827271,0.169963363871,0.114236341653,-0.00992341194913,-0.0142291302774,0.705991592602,0.708007718123
1385573859767789042,1095024,1385573859767789042,/world,vicon/Archie/Archie,0.115790559292,0.169959613557,0.114236752532,-0.00991967364197,-0.0142024639066,0.705997067668,0.70800284642
1385573859777902583,1095025,1385573859777902583,/world,vicon/Archie/Archie,0.115804267096,0.16996885476,0.114245374909,-0.00997210027418,-0.0142529950357,0.705978919979,0.708019190343
1385573859787836204,1095026,1385573859787836204,/world,vicon/Archie/Archie,0.115771710374,0.169981044188,0.114212543954,-0.00991883091575,-0.0141331853462,0.706011118237,0.707990233542
1385573859797819119,1095027,1385573859797819119,/world,vicon/Archie/Archie,0.115804790502,0.169967673453,0.114251932228,-0.00996405041206,-0.0142381179071,0.705996833208,0.708001740957
1385573859807905582,1095028,1385573859807905582,/world,vicon/Archie/Archie,0.11580746723,0.169964554203,0.114258755582,-0.00993392708168,-0.0142464290601,0.705991618202,0.708007197266
1385573859817832049,1095029,1385573859817832049,/world,vicon/Archie/Archie,0.11579513214,0.16997041039,0.114261536867,-0.00994759041814,-0.0142394864614,0.705980888764,0.708017843822
1385573859827571285,1095030,1385573859827571285,/world,vicon/Archie/Archie,0.11580460863,0.169970658657,0.114247459867,-0.00995706675031,-0.0142550966665,0.705994211236,0.708004112094
1385573859837912236,1095031,1385573859837912236,/world,vicon/Archie/Archie,0.115782363967,0.169972406814,0.114229202336,-0.00996321221301,-0.0142286487054,0.705987741816,0.708011008646
1385573859847780735,1095032,1385573859847780735,/world,vicon/Archie/Archie,0.115786677058,0.16996943514,0.114237512175,-0.00993594657258,-0.0142116152403,0.705987647894,0.70801182757
1385573859857958826,1095033,1385573859857958826,/world,vicon/Archie/Archie,0.115806261569,0.16997478739,0.114238505149,-0.00992478319434,-0.0142147049956,0.705988681912,0.708010891055
1385573859867923971,1095034,1385573859867923971,/world,vicon/Archie/Archie,0.115728416537,0.169974031433,0.114182506072,-0.00977668637457,-0.0144187587455,0.705952403225,0.708044998697
1385573859877897676,1095035,1385573859877897676,/world,vicon/Archie/Archie,0.115776596467,0.169983809702,0.114217657146,-0.00990941073982,-0.0141501931735,0.706024706788,0.707976474904
1385573859887728418,1095036,1385573859887728418,/world,vicon/Archie/Archie,0.115722307183,0.169985216315,0.114172083566,-0.00974296963647,-0.0143266743658,0.70597142852,0.708028363173
1385573859897643157,1095037,1385573859897643157,/world,vicon/Archie/Archie,0.115725602324,0.16998093954,0.114172713105,-0.00973355954083,-0.0143149652275,0.705971663264,0.708028495372
1385573859907957900,1095038,1385573859907957900,/world,vicon/Archie/Archie,0.115794582185,0.169974257559,0.114239754699,-0.00994581506754,-0.0142160622392,0.705988422698,0.708010827144
1385573859917918192,1095039,1385573859917918192,/world,vicon/Archie/Archie,0.115763415563,0.169995421608,0.114177181079,-0.00989758199927,-0.0140747675057,0.706013374391,0.707989444816
1385573859927912654,1095040,1385573859927912654,/world,vicon/Archie/Archie,0.115795180083,0.169966656943,0.114246346454,-0.00997377414722,-0.0142563754318,0.705982353373,0.70801567519
1385573859937856374,1095041,1385573859937856374,/world,vicon/Archie/Archie,0.115779830136,0.169965135203,0.114232796567,-0.00992811709784,-0.0142097555275,0.70598567923,0.708013937759
1385573859947778961,1095042,1385573859947778961,/world,vicon/Archie/Archie,0.115750854705,0.169990901886,0.114198668873,-0.00990921020784,-0.0140539044453,0.706020133371,0.707982956431
1385573859957967551,1095043,1385573859957967551,/world,vicon/Archie/Archie,0.115775829241,0.169978999151,0.114224695471,-0.00990021611822,-0.0141359555981,0.706021169677,0.7079804153
1385573859967824450,1095044,1385573859967824450,/world,vicon/Archie/Archie,0.115789214599,0.169984580369,0.114212686063,-0.00990378722338,-0.0140982852838,0.70600405831,0.707998180083
1385573859977942470,1095045,1385573859977942470,/world,vicon/Archie/Archie,0.115790770591,0.169965189189,0.114237130903,-0.00992474047068,-0.0142278440017,0.705987555451,0.708011750983
1385573859987843080,1095046,1385573859987843080,/world,vicon/Archie/Archie,0.115826404152,0.169965719719,0.11423535478,-0.00957947793913,-0.0143004833922,0.705919629679,0.70808276791
1385573859997851323,1095047,1385573859997851323,/world,vicon/Archie/Archie,0.115783235441,0.169990315687,0.114192792507,-0.00995727292345,-0.0141024714568,0.706007278748,0.707994135124
1385573860007954112,1095048,1385573860007954112,/world,vicon/Archie/Archie,0.115806068186,0.1699699774,0.114243723286,-0.00995249291706,-0.0142606323658,0.705985612502,0.708012639145
1385573860017809839,1095049,1385573860017809839,/world,vicon/Archie/Archie,0.115883241186,0.169949459889,0.11431900906,-0.00976402437681,-0.0141753009648,0.705979060561,0.708023510005
1385573860027819652,1095050,1385573860027819652,/world,vicon/Archie/Archie,0.115900547432,0.169940027377,0.114327058025,-0.00973712186582,-0.0141566713594,0.705974010026,0.708029289141
1385573860038037450,1095051,1385573860038037450,/world,vicon/Archie/Archie,0.115798219641,0.169969328303,0.114239657486,-0.00996514605649,-0.0142604382605,0.705995916224,0.708002190703
1385573860047549853,1095052,1385573860047549853,/world,vicon/Archie/Archie,0.115813284424,0.169964241268,0.114247344262,-0.00992213990133,-0.014252113926,0.705990094712,0.708008767288
1385573860057920979,1095053,1385573860057920979,/world,vicon/Archie/Archie,0.115776626796,0.16998697372,0.114213706196,-0.00990897873711,-0.014130373366,0.706009693506,0.707991848375
1385573860067932853,1095054,1385573860067932853,/world,vicon/Archie/Archie,0.115809062008,0.169966198965,0.114251264323,-0.00994955789269,-0.0142404901043,0.705991323966,0.708007390656
1385573860077809245,1095055,1385573860077809245,/world,vicon/Archie/Archie,0.115729727033,0.169917184905,0.114337393716,-0.00950463192817,-0.014561299889,0.706103914107,0.707894690614
1385573860087917546,1095056,1385573860087917546,/world,vicon/Archie/Archie,0.115771549829,0.169978273629,0.114215771293,-0.00992636536601,-0.0141196394131,0.706015579389,0.707985949517
1385573860097735962,1095057,1385573860097735962,/world,vicon/Archie/Archie,0.11577017036,0.169983756369,0.114222263551,-0.0099297892582,-0.0141187893028,0.706012051437,0.707989436574
1385573860107820926,1095058,1385573860107820926,/world,vicon/Archie/Archie,0.115777404696,0.169982238364,0.1142194266,-0.00988786436472,-0.0141277469563,0.705998839438,0.708003019497
1385573860117952753,1095059,1385573860117952753,/world,vicon/Archie/Archie,0.115789987583,0.169963380243,0.114236338982,-0.00995323305046,-0.0142028862195,0.705985562899,0.708013838956
1385573860127818377,1095060,1385573860127818377,/world,vicon/Archie/Archie,0.115794291737,0.169973899433,0.114218811691,-0.00993478657528,-0.0142023577058,0.705979459737,0.70802019426
1385573860137830652,1095061,1385573860137830652,/world,vicon/Archie/Archie,0.115805643138,0.169956634215,0.114253787094,-0.00994454403513,-0.0142390527833,0.705996963392,0.708001866595
1385573860147566682,1095062,1385573860147566682,/world,vicon/Archie/Archie,0.11581166201,0.169964419753,0.114244503466,-0.00993434823141,-0.0142767769809,0.705983428675,0.708014746174
1385573860157977478,1095063,1385573860157977478,/world,vicon/Archie/Archie,0.115802525053,0.169966652219,0.114243520051,-0.00994181627553,-0.0142469784871,0.705991625554,0.708007068144
1385573860168450674,1095064,1385573860168450674,/world,vicon/Archie/Archie,0.115812780744,0.169963373457,0.114235474951,-0.00994207004147,-0.0142629376219,0.705986502315,0.70801185188
1385573860177921088,1095065,1385573860177921088,/world,vicon/Archie/Archie,0.115864961707,0.169959832724,0.114293876869,-0.00972785368742,-0.0140371834593,0.706009108557,0.707996797293
1385573860188009060,1095066,1385573860188009060,/world,vicon/Archie/Archie,0.115802610828,0.169964072314,0.114250113806,-0.00992756564042,-0.0142497203374,0.705986308143,0.708012515161
1385573860197855894,1095067,1385573860197855894,/world,vicon/Archie/Archie,0.115805192632,0.169962046183,0.114245249634,-0.00995561884125,-0.0142483964152,0.705987281435,0.708011177387
1385573860207880571,1095068,1385573860207880571,/world,vicon/Archie/Archie,0.115791310293,0.169971436623,0.114232650056,-0.009832103403,-0.0142098878756,0.706006799026,0.70799421506
1385573860217836053,1095069,1385573860217836053,/world,vicon/Archie/Archie,0.115742318521,0.169969939366,0.114203585769,-0.00975159984822,-0.0144465540055,0.705941751468,0.708055398194
1385573860227949648,1095070,1385573860227949648,/world,vicon/Archie/Archie,0.115809540505,0.169958992804,0.114257335537,-0.00994791694248,-0.0142394500412,0.705978603161,0.708020118987
1385573860237895340,1095071,1385573860237895340,/world,vicon/Archie/Archie,0.115708665511,0.169928586988,0.114307507467,-0.00944474161483,-0.0144669539501,0.706130320901,0.707871085724
1385573860247738842,1095072,1385573860247738842,/world,vicon/Archie/Archie,0.115757033876,0.170002650098,0.11418152813,-0.00993266381388,-0.0140564439405,0.706017480848,0.707985222523
1385573860257965343,1095073,1385573860257965343,/world,vicon/Archie/Archie,0.115806579804,0.169971560859,0.114245090556,-0.00996905788314,-0.014274603379,0.705980952548,0.708016771145
1385573860267887103,1095074,1385573860267887103,/world,vicon/Archie/Archie,0.115806160977,0.16995859602,0.114244084096,-0.00996370229641,-0.0142433908133,0.705981732056,0.708016697866
1385573860277814123,1095075,1385573860277814123,/world,vicon/Archie/Archie,0.115797434569,0.169965747532,0.114240703425,-0.00994910515743,-0.0142143229207,0.705993515832,0.708005737218
1385573860288007006,1095076,1385573860288007006,/world,vicon/Archie/Archie,0.115751241328,0.16997865542,0.114204252895,-0.00990627718223,-0.0140477759645,0.706005335104,0.707997876034
1385573860297870879,1095077,1385573860297870879,/world,vicon/Archie/Archie,0.115810902956,0.169968075439,0.114243489144,-0.00994356582822,-0.0142627582869,0.705985181128,0.708013151892
1385573860307931756,1095078,1385573860307931756,/world,vicon/Archie/Archie,0.11580537084,0.169974665277,0.114247387967,-0.0099405431397,-0.0142494808039,0.70597702904,0.708021590325
1385573860317744308,1095079,1385573860317744308,/world,vicon/Archie/Archie,0.115748498657,0.169976739969,0.114190543421,-0.00974854571625,-0.0143972056666,0.705959164094,0.708039084343
1385573860330295254,1095080,1385573860330295254,/world,vicon/Archie/Archie,0.115778741974,0.169969476932,0.114235486788,-0.00993560857476,-0.0142007753641,0.705991165706,0.708008542043
1385573860338056353,1095081,1385573860338056353,/world,vicon/Archie/Archie,0.115783027729,0.169982550549,0.114219974339,-0.00989405865664,-0.014094249501,0.706003306311,0.707999146336
1385573860347881774,1095082,1385573860347881774,/world,vicon/Archie/Archie,0.115798403124,0.169966100079,0.114235414088,-0.00993781928572,-0.0142177214744,0.706001534764,0.70799783125
1385573860358333949,1095083,1385573860358333949,/world,vicon/Archie/Archie,0.115811446741,0.169961826499,0.114244187141,-0.0099463662139,-0.0142643931103,0.705989842127,0.708008431943
1385573860367947998,1095084,1385573860367947998,/world,vicon/Archie/Archie,0.115713295678,0.169925430809,0.114298102779,-0.0094110142525,-0.0144299704421,0.70613443927,0.707868181543
1385573860377882251,1095085,1385573860377882251,/world,vicon/Archie/Archie,0.115808705651,0.169957642354,0.114257868912,-0.00993364065839,-0.0142256839846,0.705995173536,0.708004073182
1385573860388009941,1095086,1385573860388009941,/world,vicon/Archie/Archie,0.115799244175,0.169969035566,0.114244089364,-0.0099348822826,-0.014216289582,0.705992313727,0.708007096139
1385573860397775547,1095087,1385573860397775547,/world,vicon/Archie/Archie,0.115803002655,0.16996343137,0.114240248835,-0.00989739236371,-0.014232705416,0.705992335755,0.708007269438
1385573860407892431,1095088,1385573860407892431,/world,vicon/Archie/Archie,0.115793752346,0.169969838908,0.114230367075,-0.00993572077034,-0.0142581996642,0.705985113434,0.708013421345
1385573860417875219,1095089,1385573860417875219,/world,vicon/Archie/Archie,0.11579719569,0.16996043091,0.114251437013,-0.00992254737505,-0.0142072365971,0.705981255492,0.708018477426
1385573860427867973,1095090,1385573860427867973,/world,vicon/Archie/Archie,0.115855497515,0.169943582576,0.114267518252,-0.00958206729208,-0.0143870052736,0.705925814387,0.708074814301
1385573860437968867,1095091,1385573860437968867,/world,vicon/Archie/Archie,0.11581483594,0.169965532567,0.114260764258,-0.00996008690978,-0.0142243895247,0.705975479735,0.708023365027
1385573860447986528,1095092,1385573860447986528,/world,vicon/Archie/Archie,0.115805900496,0.169961155908,0.114247572866,-0.00995751842388,-0.0142839011562,0.705991869227,0.708005860555
1385573860457711542,1095093,1385573860457711542,/world,vicon/Archie/Archie,0.115719150113,0.169918931459,0.114334832322,-0.00945895689164,-0.0145670528355,0.706108435035,0.707890674524
1385573860467680471,1095094,1385573860467680471,/world,vicon/Archie/Archie,0.115813057502,0.169958695159,0.114251402672,-0.00993336383112,-0.0142778562965,0.705993536423,0.708004659329
1385573860477732314,1095095,1385573860477732314,/world,vicon/Archie/Archie,0.115811392662,0.169962953624,0.114255522026,-0.00993147274114,-0.0142399605826,0.705986416543,0.708012548638
1385573860487965589,1095096,1385573860487965589,/world,vicon/Archie/Archie,0.115783200703,0.170004313506,0.114255258806,-0.010075094663,-0.0140533489377,0.705970636528,0.708029982565
1385573860497639754,1095097,1385573860497639754,/world,vicon/Archie/Archie,0.115846166278,0.169945587115,0.114275760269,-0.00959614597846,-0.0143600951316,0.705927288285,0.708073700476
1385573860507783914,1095098,1385573860507783914,/world,vicon/Archie/Archie,0.115811942973,0.169970695938,0.114245841237,-0.00997266105376,-0.0142436410126,0.70599109835,0.708007227203
1385573860517929173,1095099,1385573860517929173,/world,vicon/Archie/Archie,0.115793665896,0.169972291488,0.114227798965,-0.00992929752385,-0.0142144339239,0.706002932947,0.707996622583
1385573860527905277,1095100,1385573860527905277,/world,vicon/Archie/Archie,0.115801454908,0.169969659118,0.114247149546,-0.0099509358214,-0.0142606367585,0.705993263887,0.708005031382
1385573860537922954,1095101,1385573860537922954,/world,vicon/Archie/Archie,0.115797097289,0.169963765763,0.114249850222,-0.00994907057652,-0.0142244361179,0.705989388734,0.708009649939
1385573860547789046,1095102,1385573860547789046,/world,vicon/Archie/Archie,0.115812380176,0.169971171551,0.114245613369,-0.00994401499253,-0.0142894386058,0.705980604321,0.708017171284
1385573860558016574,1095103,1385573860558016574,/world,vicon/Archie/Archie,0.115768941152,0.169973467944,0.114225879837,-0.00991986628682,-0.0141993515274,0.706006947624,0.707993054045
1385573860567943837,1095104,1385573860567943837,/world,vicon/Archie/Archie,0.115772472014,0.169996033205,0.114191214527,-0.00992777604102,-0.0141429282186,0.706007021679,0.707993998692
1385573860577859728,1095105,1385573860577859728,/world,vicon/Archie/Archie,0.11576904244,0.169982514364,0.114219572238,-0.00991353596509,-0.0141058695936,0.706012034883,0.70798993838
1385573860587924519,1095106,1385573860587924519,/world,vicon/Archie/Archie,0.115777135732,0.169976124294,0.114216878303,-0.00990239450105,-0.0141100546892,0.706023187644,0.707978889127
1385573860597798313,1095107,1385573860597798313,/world,vicon/Archie/Archie,0.115803654374,0.169963153112,0.114241984419,-0.00994420377429,-0.0142421616835,0.705992331051,0.708006428035
1385573860607839868,1095108,1385573860607839868,/world,vicon/Archie/Archie,0.115772667055,0.169975841315,0.114214475467,-0.00991557133165,-0.0141082238149,0.706008175259,0.70799371179
1385573860617961527,1095109,1385573860617961527,/world,vicon/Archie/Archie,0.11579520658,0.169965929507,0.114239327927,-0.00995592778921,-0.0142848690442,0.705982370202,0.708015335273
1385573860627920992,1095110,1385573860627920992,/world,vicon/Archie/Archie,0.11578694275,0.169981561867,0.114207922356,-0.00983279956974,-0.0142061337566,0.706005658639,0.707995417913
1385573860638087757,1095111,1385573860638087757,/world,vicon/Archie/Archie,0.115767273875,0.169973255576,0.114235301516,-0.00991916701222,-0.0142079958513,0.706002594041,0.707997231765
1385573860647826601,1095112,1385573860647826601,/world,vicon/Archie/Archie,0.115804703085,0.169968826345,0.114233990621,-0.00993846854601,-0.0142741459611,0.70598403977,0.708014132055
1385573860657987413,1095113,1385573860657987413,/world,vicon/Archie/Archie,0.115758433173,0.16997978902,0.114228762858,-0.00991761601502,-0.0142063597202,0.705997264178,0.708002601132
1385573860667891565,1095114,1385573860667891565,/world,vicon/Archie/Archie,0.115760133488,0.169999845121,0.11418842184,-0.00992013319067,-0.0141151440519,0.70599649215,0.708005160107
1385573860677971081,1095115,1385573860677971081,/world,vicon/Archie/Archie,0.115753520073,0.169980571346,0.114220235772,-0.00990426027996,-0.0141060677646,0.706012651482,0.707989449377
1385573860688095959,1095116,1385573860688095959,/world,vicon/Archie/Archie,0.115877479438,0.169944612368,0.114315965637,-0.00974981457489,-0.0141716148018,0.705985827733,0.708017031921
1385573860697761983,1095117,1385573860697761983,/world,vicon/Archie/Archie,0.115769818123,0.169982751393,0.114216378714,-0.00989923027845,-0.0140958381601,0.706014901486,0.707987479739
1385573860708030755,1095118,1385573860708030755,/world,vicon/Archie/Archie,0.115787615053,0.169966436583,0.114229950246,-0.0099288101621,-0.0142581612938,0.705990425512,0.708008222163
1385573860717870859,1095119,1385573860717870859,/world,vicon/Archie/Archie,0.115785761861,0.169966817224,0.114241516483,-0.0099476590617,-0.0142275360555,0.705989774308,0.708009223012
1385573860727787663,1095120,1385573860727787663,/world,vicon/Archie/Archie,0.115757900939,0.169982072602,0.11422362491,-0.00991683870025,-0.0141026006195,0.706021810473,0.707980208835
1385573860738038203,1095121,1385573860738038203,/world,vicon/Archie/Archie,0.115870679687,0.169944024985,0.11431392902,-0.00972365236186,-0.0141142631476,0.705993221232,0.708011164979
1385573860747964162,1095122,1385573860747964162,/world,vicon/Archie/Archie,0.115755080967,0.169981197643,0.114212104262,-0.0098722037666,-0.0140953385054,0.70601763597,0.707985140186
1385573860758000561,1095123,1385573860758000561,/world,vicon/Archie/Archie,0.115744746406,0.169910543917,0.114336142132,-0.00948072295983,-0.0146016548692,0.706103881918,0.707894212088
1385573860767972503,1095124,1385573860767972503,/world,vicon/Archie/Archie,0.11579726349,0.169970602688,0.114240099419,-0.00992398386425,-0.0141983641895,0.705993836388,0.708006090356
1385573860777753165,1095125,1385573860777753165,/world,vicon/Archie/Archie,0.115728298129,0.169983055847,0.114201418008,-0.00975228639509,-0.0143862064007,0.705930965973,0.708067370563
1385573860788024779,1095126,1385573860788024779,/world,vicon/Archie/Archie,0.115764228151,0.169984881863,0.114203124059,-0.00990832394921,-0.0140715529031,0.706016402658,0.707986338634
1385573860797843407,1095127,1385573860797843407,/world,vicon/Archie/Archie,0.115814428688,0.169980214669,0.114238443911,-0.00993101685899,-0.0142606414391,0.705984924696,0.70801362636
1385573860808032974,1095128,1385573860808032974,/world,vicon/Archie/Archie,0.115791841602,0.169968067431,0.114234680507,-0.00991896043958,-0.0141976493544,0.705985711583,0.708014276704
1385573860817957096,1095129,1385573860817957096,/world,vicon/Archie/Archie,0.115801357996,0.16997797428,0.114221187521,-0.00992255002229,-0.0141091735986,0.706009741202,0.707992033535
1385573860827933776,1095130,1385573860827933776,/world,vicon/Archie/Archie,0.11581857146,0.169959255131,0.114251718103,-0.0099418337414,-0.0142427736183,0.705988629747,0.708010139765
1385573860837897794,1095131,1385573860837897794,/world,vicon/Archie/Archie,0.115819331647,0.169966662447,0.114245718249,-0.00995063366202,-0.0142634573505,0.705986668672,0.708011555224
1385573860847628640,1095132,1385573860847628640,/world,vicon/Archie/Archie,0.115824327378,0.169956662528,0.114252004404,-0.00996035728633,-0.0142908699646,0.705978699667,0.708018811851
1385573860857997095,1095133,1385573860857997095,/world,vicon/Archie/Archie,0.115803426922,0.169989141749,0.114197472482,-0.00993654452883,-0.0141220059249,0.706017032434,0.707984310521
1385573860868574579,1095134,1385573860868574579,/world,vicon/Archie/Archie,0.115790726412,0.169972273613,0.114232049016,-0.00993184866162,-0.0141567645244,0.705994094473,0.708006555739
1385573860878008737,1095135,1385573860878008737,/world,vicon/Archie/Archie,0.115799414451,0.169979320512,0.11422098782,-0.00993333628322,-0.0141036333692,0.706004216912,0.707997501449
1385573860887980217,1095136,1385573860887980217,/world,vicon/Archie/Archie,0.115788096823,0.169979207592,0.114231212742,-0.0099123395545,-0.0141160475936,0.706016860741,0.707984939864
1385573860897754717,1095137,1385573860897754717,/world,vicon/Archie/Archie,0.115785613198,0.169987064254,0.114226247663,-0.00989879428442,-0.0141184558458,0.706006503008,0.707995410146
1385573860907956040,1095138,1385573860907956040,/world,vicon/Archie/Archie,0.115791868808,0.169976542007,0.114231385051,-0.00991483562149,-0.0141174726139,0.706022488039,0.707979264798
1385573860919432601,1095139,1385573860919432601,/world,vicon/Archie/Archie,0.115809742775,0.169973501498,0.114231934542,-0.00996501872821,-0.0142566823547,0.705983921226,0.708014228939
1385573860927935632,1095140,1385573860927935632,/world,vicon/Archie/Archie,0.115776084722,0.169980655911,0.11422218368,-0.0098889781661,-0.0141296488141,0.706011457854,0.707990383066
1385573860937980516,1095141,1385573860937980516,/world,vicon/Archie/Archie,0.115874223351,0.169942369684,0.114320674053,-0.00972445908514,-0.014137430475,0.705975000487,0.708028860035
1385573860947935584,1095142,1385573860947935584,/world,vicon/Archie/Archie,0.115703152673,0.169922804858,0.1143096166,-0.00943393292552,-0.0144481338722,0.706137571143,0.707864381755
1385573860958218136,1095143,1385573860958218136,/world,vicon/Archie/Archie,0.115776392301,0.169981152658,0.114216711257,-0.00989177947871,-0.0141128017587,0.706019684457,0.707982476255
1385573860967931052,1095144,1385573860967931052,/world,vicon/Archie/Archie,0.115807676453,0.169973964624,0.114263191743,-0.00992803117659,-0.0142372376387,0.705965961039,0.708033048039
1385573860977919546,1095145,1385573860977919546,/world,vicon/Archie/Archie,0.115688173818,0.169989381685,0.114155730632,-0.00974699478174,-0.0142427968206,0.705977842302,0.70802360484
1385573860988039302,1095146,1385573860988039302,/world,vicon/Archie/Archie,0.11579594109,0.169965645339,0.114229002193,-0.00993518927233,-0.014225461203,0.70599299554,0.708006227738
1385573860998078954,1095147,1385573860998078954,/world,vicon/Archie/Archie,0.115780705036,0.16996829174,0.114233699818,-0.00991866611708,-0.0142113235823,0.706004675581,0.707995096313
1385573861008085562,1095148,1385573861008085562,/world,vicon/Archie/Archie,0.115760244354,0.169981069213,0.114214874161,-0.00990448593258,-0.0141244749164,0.706019670891,0.707982079351
1385573861018290028,1095149,1385573861018290028,/world,vicon/Archie/Archie,0.115889229144,0.169939718555,0.11431272527,-0.00975158541337,-0.0141746380324,0.705984519383,0.708018251608
1385573861027935209,1095150,1385573861027935209,/world,vicon/Archie/Archie,0.115782536356,0.169968163468,0.114232260393,-0.00993782826357,-0.0142212816815,0.705978887003,0.708020342803
1385573861038027848,1095151,1385573861038027848,/world,vicon/Archie/Archie,0.115783033449,0.169976770355,0.114239809254,-0.00994752942179,-0.0142026323279,0.705990660675,0.708008840999
1385573861047822950,1095152,1385573861047822950,/world,vicon/Archie/Archie,0.115718225532,0.169935574135,0.114277644097,-0.00945041581807,-0.0144709973756,0.706123945471,0.707877287041
1385573861057807653,1095153,1385573861057807653,/world,vicon/Archie/Archie,0.116012370104,0.169887863309,0.114222566804,-0.00907303775272,-0.0143282654201,0.706038890258,0.707969961396
1385573861067939430,1095154,1385573861067939430,/world,vicon/Archie/Archie,0.115936959007,0.169915912456,0.114164331555,-0.00928269802224,-0.0144755371809,0.706045345754,0.707957809534
1385573861077860728,1095155,1385573861077860728,/world,vicon/Archie/Archie,0.1159162955,0.169928376714,0.114131942465,-0.00925912346582,-0.01431477996,0.706067338559,0.70793945301
1385573861088017611,1095156,1385573861088017611,/world,vicon/Archie/Archie,0.115859380428,0.169851551758,0.114261491946,-0.00881750636834,-0.0148545913661,0.706177982373,0.707823600842
1385573861097884605,1095157,1385573861097884605,/world,vicon/Archie/Archie,0.11592947051,0.16990981765,0.114143781834,-0.0092673587486,-0.0144197947397,0.706055922005,0.707948600241
1385573861107934950,1095158,1385573861107934950,/world,vicon/Archie/Archie,0.115907668647,0.169921866624,0.114130067015,-0.00927645633716,-0.0143787584825,0.706067893967,0.7079373756
1385573861117911343,1095159,1385573861117911343,/world,vicon/Archie/Archie,0.116023320793,0.169881482475,0.114239665586,-0.00910295593163,-0.0143660988387,0.706049539145,0.707958190623
1385573861129010764,1095160,1385573861129010764,/world,vicon/Archie/Archie,0.115933271163,0.169936786184,0.114125925533,-0.00928660076543,-0.0144061040725,0.706041469997,0.707963039894
1385573861138731479,1095161,1385573861138731479,/world,vicon/Archie/Archie,0.115926666112,0.169907761685,0.114140910166,-0.00928878736023,-0.0144158148283,0.706059177588,0.707945153565
1385573861147637344,1095162,1385573861147637344,/world,vicon/Archie/Archie,0.115924692156,0.169911423238,0.114156859753,-0.00927138923529,-0.0143997582074,0.706059118549,0.707945767287
1385573861158054658,1095163,1385573861158054658,/world,vicon/Archie/Archie,0.115929798093,0.169914461207,0.114157799015,-0.00929576204599,-0.0144749120251,0.706051409718,0.707951603265
1385573861167651718,1095164,1385573861167651718,/world,vicon/Archie/Archie,0.115945191972,0.169930070304,0.114134600589,-0.00929172879089,-0.0144555478372,0.706037634845,0.707965789495
1385573861177874580,1095165,1385573861177874580,/world,vicon/Archie/Archie,0.115907194065,0.169931565461,0.114120299619,-0.00915788897884,-0.0143215159111,0.706064817149,0.707943148308
1385573861188057649,1095166,1385573861188057649,/world,vicon/Archie/Archie,0.115912500642,0.16992230244,0.114130270131,-0.00926592792749,-0.0143212130968,0.706081659633,0.707924950376
1385573861197898059,1095167,1385573861197898059,/world,vicon/Archie/Archie,0.115924854772,0.169905743393,0.11415905454,-0.00928737580149,-0.0144645950614,0.706065193032,0.707938177618
1385573861208013484,1095168,1385573861208013484,/world,vicon/Archie/Archie,0.115921342075,0.169914244323,0.114152252553,-0.00927228736133,-0.0144303826991,0.706059867122,0.707944385373
1385573861217894607,1095169,1385573861217894607,/world,vicon/Archie/Archie,0.11584136088,0.169866895316,0.114220480731,-0.00877658540958,-0.0146766180913,0.706197467426,0.70780838186
1385573861227964049,1095170,1385573861227964049,/world,vicon/Archie/Archie,0.115906810156,0.169925661448,0.114126708535,-0.00925012157278,-0.014317864182,0.706071201664,0.707935655408
1385573861238037572,1095171,1385573861238037572,/world,vicon/Archie/Archie,0.115937262637,0.169915418944,0.114153529141,-0.00928269785299,-0.0144742010655,0.706038853947,0.707964311064
1385573861247876456,1095172,1385573861247876456,/world,vicon/Archie/Archie,0.115907933619,0.169923357216,0.11411790561,-0.0092456683779,-0.0143256656653,0.706078838647,0.707927938801
1385573861258077229,1095173,1385573861258077229,/world,vicon/Archie/Archie,0.115923750797,0.169914382791,0.114148924349,-0.00927307240601,-0.0144305910273,0.706056027768,0.707948199958
1385573861267938085,1095174,1385573861267938085,/world,vicon/Archie/Archie,0.115863543125,0.169842863322,0.114258637098,-0.00882074406213,-0.0148511659044,0.706167824042,0.707833766949
1385573861278200877,1095175,1385573861278200877,/world,vicon/Archie/Archie,0.116024880625,0.169885497151,0.114240804557,-0.00912940455441,-0.0143677226903,0.706046835678,0.707960513268
1385573861287963684,1095176,1385573861287963684,/world,vicon/Archie/Archie,0.116025718973,0.169892260239,0.114234769076,-0.00911598699202,-0.0143688714011,0.706045281746,0.707962212579
1385573861297814706,1095177,1385573861297814706,/world,vicon/Archie/Archie,0.115911731318,0.169922708838,0.114127627104,-0.00928695689047,-0.0143279209656,0.7060733496,0.707932827391
1385573861308060091,1095178,1385573861308060091,/world,vicon/Archie/Archie,0.115910383228,0.169923441651,0.114130282968,-0.00925693234672,-0.0143379960335,0.706069617732,0.707936738692
1385573861318083806,1095179,1385573861318083806,/world,vicon/Archie/Archie,0.115927412824,0.169915269401,0.114161920534,-0.00930602226384,-0.0144553726368,0.70605489939,0.707948387384
1385573861327864254,1095180,1385573861327864254,/world,vicon/Archie/Archie,0.115875788088,0.169940175721,0.114109351978,-0.00922036450688,-0.0142821717519,0.706077301165,0.707930681089
1385573861338057553,1095181,1385573861338057553,/world,vicon/Archie/Archie,0.115908446691,0.169941885304,0.114100970719,-0.00928089604109,-0.0143338722506,0.706076243877,0.707929899713
1385573861347937588,1095182,1385573861347937588,/world,vicon/Archie/Archie,0.115928751039,0.16991492688,0.114161842803,-0.00928100639244,-0.0144809297128,0.706048067563,0.707955006964
1385573861357965091,1095183,1385573861357965091,/world,vicon/Archie/Archie,0.115878054666,0.169931204871,0.114117520259,-0.00923993692613,-0.0142916022535,0.70608506427,0.707922492711
