%time,field.linear.x,field.linear.y,field.linear.z,field.angular.x,field.angular.y,field.angular.z
1385571606142276409,-0.0,0.0,0.0,1.0,0.0,0.0
1385571606632257259,-0.0,0.0,1.03375569843e-07,1.0,0.0,0.283690762114
1385571607131213622,-0.157073617328,0.00526699833959,-0.00356797705036,1.0,0.0,0.0708719940106
1385571607631212615,-0.0411369800228,0.00160657480758,0.0194629328587,1.0,0.0,-0.00323543219531
1385571608132245648,0.0505072342485,-0.00145323334987,0.0425198423423,1.0,0.0,-0.00510394359369
1385571608631267251,0.0253357722326,-0.000273645318942,0.068427928443,1.0,0.0,-0.000569909505944
1385571609131195907,-0.0387451461926,0.0046115294297,0.094648937208,1.0,0.0,-0.00338346490284
1385571609631210609,-0.0479520075891,0.0385362018507,0.11584439811,1.0,0.0,-0.0197195928104
1385571610131473097,-0.0533787095572,0.0865574801379,0.103396298421,1.0,0.0,-0.0282881747906
1385571610632247287,-0.0742410601922,0.149458387963,0.0783184109659,1.0,0.0,-0.028743109925
1385571611131334495,-0.0771187832844,0.192000316165,0.0984236455322,1.0,0.0,-0.0276250950319
1385571611631193627,-0.0791198648086,0.208842653256,0.132375079578,1.0,0.0,-0.0256554891804
1385571612131209007,-0.0979835223445,0.183159842352,0.158925539094,1.0,0.0,-0.0219264224076
1385571612632248267,-0.116705407426,0.133037669171,0.164213171623,1.0,0.0,-0.0184948365598
1385571613131270778,-0.102020898848,0.0683123359349,0.154938693783,1.0,0.0,-0.0152412888949
1385571613631309398,-0.0613884607072,0.0335662230435,0.12522549755,1.0,0.0,-0.0122688705241
1385571614131260795,-0.0250994805415,0.0354365503108,0.0997068417178,1.0,0.0,-0.00983438632564
1385571614631211400,-0.0107867555492,0.0584432515192,0.0662021494836,1.0,0.0,-0.00813004763273
1385571615131267277,-0.0147323836661,0.0807781577291,0.0441683227362,1.0,0.0,-0.00627716137963
1385571615631366133,-0.0288164062925,0.0948823378494,0.0302334798767,1.0,0.0,-0.00451117895327
1385571616131258530,-0.0481506998125,0.0930053318225,0.027645633752,1.0,0.0,-0.00230809868202
1385571616631250144,-0.0578523976385,0.0774414483741,0.0268987531217,1.0,0.0,-0.000284421857813
1385571617131268751,-0.0551090200185,0.0566895202905,0.0268670672357,1.0,0.0,0.00173114658191
1385571617631277893,-0.0416678310421,0.0427061916135,0.0218475648431,1.0,0.0,0.00298187968949
1385571618131420495,-0.0243835884332,0.0402506213821,0.0212037578582,1.0,0.0,0.00288431259018
1385571618632164070,-0.0135601506632,0.0431453467668,0.017316911886,1.0,0.0,0.00226307825354
1385571619131263756,-0.0131127024744,0.0498607995425,0.016127893914,1.0,0.0,0.00174372879035
1385571619631186423,-0.0184837164526,0.0543098383869,0.017073421873,1.0,0.0,0.00110661482547
1385571620131282129,-0.0229924567989,0.0516788816212,0.0157036118627,1.0,0.0,0.00066288389002
1385571620631270077,-0.0242565393035,0.0441149188869,0.0141618931899,1.0,0.0,0.000239248466967
1385571621131220750,-0.0225761020544,0.035730786235,0.0120953072001,1.0,0.0,-7.54491651427e-05
1385571621631272369,-0.0185072151297,0.0277642961432,0.00893057069778,1.0,0.0,0.000392635323842
1385571622131382174,-0.0128165645079,0.022256274654,0.00493262844621,1.0,0.0,0.00163095087948
1385571622632520738,-0.0111401030002,0.0200993121542,0.00248090122943,1.0,0.0,0.00363456542264
1385571623131444729,-0.0130963260841,0.0221610945564,0.00140024275791,1.0,0.0,0.00666503808629
1385571623631395661,-0.0123364202409,0.0275610279513,0.00140706840844,1.0,0.0,0.0101015543575
1385571624131268101,-0.00856046008139,0.0319712229226,0.000227134008157,1.0,0.0,0.0128769858876
1385571624631333656,-0.009753389271,0.0368196197563,0.00215931836917,1.0,0.0,0.0157512371069
1385571625131205124,-0.00753217423412,0.0388854417586,0.000702893143129,1.0,0.0,0.0175417848463
1385571625632366306,-0.00550152055297,0.0347275743583,0.00105352715176,1.0,0.0,0.0188485512329
1385571626131237084,-0.00764435922003,0.0285986693806,0.0022440373037,1.0,0.0,0.0200714483173
1385571626632352659,-0.0106104652679,0.0208747110662,0.00292445572439,1.0,0.0,0.0213572398423
1385571627131246683,-0.0107375064636,0.0158142625755,0.00221719575776,1.0,0.0,0.0220508610592
1385571627631214026,-0.010264777246,0.0158961395424,0.00191703790873,1.0,0.0,0.0226173394452
1385571628131197443,-0.00697484425544,0.016206694763,0.00207214139456,1.0,0.0,0.0222604621107
1385571628631211651,-0.00491213608201,0.0149286990924,0.00265569291109,1.0,0.0,0.0217186376846
1385571629131296025,-0.00368996483767,0.0137178865561,0.00267202225802,1.0,0.0,0.0205741132632
1385571629631258487,-0.00389969331498,0.014726956813,0.00335447378004,1.0,0.0,0.0194913546131
1385571630132138809,-0.00343951266143,0.0152269400766,0.00291966029093,1.0,0.0,0.0181813604995
1385571630631240611,-0.00268175104618,0.0150082739429,0.0026958542913,1.0,0.0,0.0160680704907
1385571631131187447,-0.00647675437604,0.015348894761,0.00202951684795,1.0,0.0,0.014206743288
1385571631631280957,-0.0109955954979,0.0161025751496,0.00117700684164,1.0,0.0,0.0130582418626
1385571632131272846,-0.00951590840735,0.0188539814466,-0.00029363599281,1.0,0.0,0.0122704927461
1385571632631280139,-0.0092045497617,0.0236575040954,-0.00175398427187,1.0,0.0,0.0121770563639
1385571633131353118,-0.0104125657922,0.0241666058377,-0.00253887684556,1.0,0.0,0.0120280756407
1385571633631301371,-0.00798925979181,0.0226799812281,-0.00229990488394,1.0,0.0,0.0113629912863
1385571634131413480,-0.00371300971739,0.0203460302968,-0.00164507849371,1.0,0.0,0.0102548574672
1385571634631304831,-0.00354537990704,0.0168860322041,-0.000650752186154,1.0,0.0,0.00869062287578
1385571635131273249,-0.00527974791898,0.0155243134136,0.000681383654878,1.0,0.0,0.0073103611168
1385571635631259507,-0.00515886890969,0.0170491913557,0.000881678827233,1.0,0.0,0.00594985139968
1385571636131333580,-0.00661628961446,0.0160756234645,0.00102188040935,1.0,0.0,0.00426524076282
1385571636631174931,-0.00673655050346,0.00918663513245,0.00105855672818,1.0,0.0,0.00203510991226
1385571637132193266,-0.00513356377281,0.00720479380254,0.00126996183729,1.0,0.0,-0.000399063807812
1385571637631183630,-0.00316743720062,0.0109904020063,0.00111294589725,1.0,0.0,-0.00282151513673
1385571638131345000,-0.00266580740848,0.0166565859189,0.00088646884333,1.0,0.0,-0.00449552875001
1385571638631290038,-0.00404122095216,0.0205900928764,-8.82323613342e-05,1.0,0.0,-0.00468541977361
1385571639131451352,-0.0078719158372,0.0235236219697,-0.00125201699176,1.0,0.0,-0.00296546932838
1385571639632393025,-0.0126359362877,0.0253478808533,-0.00231070235722,1.0,0.0,-1.13834435906e-05
1385571640131414942,-0.013653067257,0.0272812328014,-0.00231573955895,1.0,0.0,0.00334054774396
1385571640631427092,-0.0101596917977,0.0268182507777,-0.00168952722559,1.0,0.0,0.00667628426183
1385571641132415808,-0.00866119504647,0.0272544445994,6.36086116333e-05,1.0,0.0,0.00940459059737
1385571641631269008,-0.00706932000906,0.0308146028332,0.00233984983795,1.0,0.0,0.0113172884345
1385571642131213466,-0.0046283280767,0.0310404869487,0.00290368007888,1.0,0.0,0.0123631143967
1385571642631278261,-0.0039320013651,0.0293368440416,0.00439185414024,1.0,0.0,0.0131863287069
1385571643131205431,-0.00547151864902,0.0240659463007,0.00535461913979,1.0,0.0,0.0133344856996
1385571643632189044,-0.00745702187538,0.01337701213,0.00455735475503,1.0,0.0,0.0135020136943
1385571644131338936,-0.0103877739884,0.00808936651858,0.00434164871134,1.0,0.0,0.0133157403622
1385571644631461472,-0.0132652941801,0.00899157058393,0.00349662741064,1.0,0.0,0.0124311619211
1385571645131447584,-0.0150501748615,0.0123120011772,0.00319220347812,1.0,0.0,0.0118249430504
1385571645631254664,-0.0136910132491,0.0177572020158,0.00110511336478,1.0,0.0,0.0106262539407
1385571646131475299,-0.0135174831199,0.0191151223978,0.000897056176677,1.0,0.0,0.00890406478517
1385571646632469619,-0.0129884185479,0.0150986472047,0.000344831644046,1.0,0.0,0.00639579651985
1385571647131366685,-0.0119683475051,0.0104432699722,-0.00012332359154,1.0,0.0,0.00403222270421
1385571647631433304,-0.0103502213245,0.00615243448521,-0.000175460544048,1.0,0.0,0.00189667488985
1385571648131227811,-0.010164983917,0.00288792359417,-0.00147480778524,1.0,0.0,0.000683503076349
1385571648631285884,-0.0101032213172,0.00291256300832,-0.0031680499228,1.0,0.0,0.00014215891891
1385571649131393511,-0.00948273673817,0.00304069083067,-0.00359240193928,1.0,0.0,9.89687690785e-05
1385571649632145758,-0.00752609768861,0.0047173128207,-0.0033598172169,1.0,0.0,0.00101307246598
1385571650131254128,-0.00623482257746,0.00964945146363,-0.00181410861414,1.0,0.0,0.00233547872984
1385571650631259582,-0.00435893276363,0.0127458382994,-0.00057235967846,1.0,0.0,0.00391071891472
1385571651131230901,-0.00260689392916,0.0158841614641,-0.000537671150564,1.0,0.0,0.00540354418407
1385571651632383505,-0.00285695608809,0.018393689097,-0.000525230597085,1.0,0.0,0.00666957466026
1385571652131241163,-0.00340542053918,0.0178457097413,-0.00061530917639,1.0,0.0,0.00733166299174
1385571652631277857,-0.00433603278576,0.0143399310279,8.87263212456e-05,1.0,0.0,0.00762747139642
1385571653131424035,-0.00652820198432,0.01259649701,0.00191114189676,1.0,0.0,0.00745912171237
1385571653631246635,-0.00846707128759,0.0134223695952,0.00289098219653,1.0,0.0,0.00752377930819
1385571654132181404,-0.00686656031254,0.0143494070956,0.00257468741232,1.0,0.0,0.0079318230998
1385571654631439882,-0.00348599362617,0.0131004461045,0.0011921626115,1.0,0.0,0.0090299582776
1385571655131178778,-0.00166343494612,0.0122366053228,0.000125171362343,1.0,0.0,0.00989014936237
1385571655631410950,-0.00170930108861,0.0114918465634,-0.000472275563571,1.0,0.0,0.0110254597362
1385571656131375056,-0.0052730265813,0.00953299845279,-0.000869238955222,1.0,0.0,0.011996227903
1385571656631417349,-0.00922113905112,0.00792981999126,0.000198286113351,1.0,0.0,0.0123513118414
1385571657131575222,-0.0130729997085,0.00963202988471,0.00103179097358,1.0,0.0,0.012085447827
1385571657632466170,-0.0138604853091,0.0135399830159,0.00111810035392,1.0,0.0,0.0113641771287
1385571658131301392,-0.0153679841876,0.0152458451098,4.92883089621e-07,1.0,0.0,0.00987643758212
1385571658631302682,-0.0177736027075,0.0122226843318,-0.000888732787704,1.0,0.0,0.00767947745131
1385571659132427169,-0.0187972695753,0.00867457034502,-0.00135213175469,1.0,0.0,0.00534783383414
1385571659631398534,-0.0208281204079,0.00458695934312,-0.00167918471636,1.0,0.0,0.00265411324485
1385571660131516115,-0.0200234427862,0.00152584545659,-0.00047503920914,1.0,0.0,0.000330317724086
1385571660631441537,-0.0152536569707,-0.000765344730205,0.000659430686126,1.0,0.0,-0.00132467141474
1385571661132372001,-0.0139654446711,-0.000532447462116,0.00195334554752,1.0,0.0,-0.00286968632315
1385571661630756022,-0.0148885664021,0.0036916258399,0.00348700301162,1.0,0.0,-0.00408842597373
1385571662131510598,-0.0129934680617,0.00560437559037,0.00259713886689,1.0,0.0,-0.00543673490612
1385571662631524067,-0.011315248872,0.00380522798846,0.000812309971429,1.0,0.0,-0.00622062469086
1385571663132689838,-0.00863130285731,0.00280388692706,-0.000243836314378,1.0,0.0,-0.00637799653076
1385571663631556400,-0.00093126860895,0.000839668978084,-0.00259978532868,1.0,0.0,-0.00565999024266
1385571664132454953,0.00389586640494,-0.00573748858989,-0.00546336468325,1.0,0.0,-0.00445841945177
1385571664630572437,0.00102398832287,-0.0106475946141,-0.00739994456349,1.0,0.0,-0.00357089126262
1385571665131666800,-0.00429311119215,-0.0079120001834,-0.00748482677636,1.0,0.0,-0.00319121133429
1385571665632368382,-0.00874544069548,4.74851472266e-05,-0.0053981054718,1.0,0.0,-0.0034542820533
1385571666131463204,-0.010642882729,0.00784527207556,-0.00294340393744,1.0,0.0,-0.00385647062063
1385571666631416292,-0.00899086159033,0.0153214193855,-0.000436760703811,1.0,0.0,-0.00347619249527
1385571667132397753,-0.00433508745553,0.0172582697002,0.000753162027741,1.0,0.0,-0.00244495440968
1385571667631777777,-0.00116366334846,0.0130724600208,-0.000115832694976,1.0,0.0,0.000322113128808
1385571668130571822,-0.00136263814451,0.00846380012888,-0.000557445570297,1.0,0.0,0.00331687237508
1385571668631631260,-0.00297021149942,0.00416047025128,0.000382367558083,1.0,0.0,0.0059409300535
1385571669131037655,-0.00574849281464,0.00379084733162,0.00172040827827,1.0,0.0,0.00847288949061
1385571669630588718,-0.00831000638568,0.00828367034374,0.00275671929522,1.0,0.0,0.0107055071385
1385571670130640506,-0.00981226245408,0.013704955098,0.00366491963387,1.0,0.0,0.0124370769626
1385571670630721201,-0.0102597257308,0.0173300167835,0.00337758510751,1.0,0.0,0.0140155203446
1385571671130565679,-0.00882587460901,0.0201167257258,0.00299053178433,1.0,0.0,0.0163987614436
1385571671630663627,-0.00655006093826,0.0197593201552,0.00252551365091,1.0,0.0,0.0201514671249
1385571672130634008,-0.00607766162484,0.0145799996226,0.000845077481875,1.0,0.0,0.0249297466876
1385571672631530755,-0.0104581993524,0.010076351217,-8.81648691112e-05,1.0,0.0,0.0301827299588
1385571673131588185,-0.0134819858204,0.00977842853445,-0.000505045190036,1.0,0.0,0.0360120864132
1385571673631531785,-0.0123185101685,0.0143744655049,-0.0010021564794,1.0,0.0,0.0411841828808
1385571674130802276,-0.010356401716,0.0196172183561,-0.000900604950838,1.0,0.0,0.0454289219464
1385571674631687050,-0.00862943677345,0.0246740695997,0.000873610578995,1.0,0.0,0.0492838900462
1385571675131599182,-0.00668411005925,0.0249561269978,0.00265705927059,1.0,0.0,0.0538175633252
1385571675631608325,-0.00642507649711,0.0193149875994,0.00228017710505,1.0,0.0,0.0579504607543
1385571676130788965,-0.00838743034166,0.0148026656515,0.00312592817021,1.0,0.0,0.061267812467
1385571676630764032,-0.0100317145811,0.0124597651404,0.00254831786648,1.0,0.0,0.0636870256922
1385571677131597806,-0.011444518548,0.0138960200917,0.00173471519487,1.0,0.0,0.0657575135849
1385571677630665997,-0.0128418739671,0.017863790531,0.00171342689434,1.0,0.0,0.0670893980504
1385571678131688616,-0.0119200980298,0.022370548477,0.00254785094377,1.0,0.0,0.0670009033838
1385571678631695627,-0.00863024547743,0.0246524176217,0.00172219264672,1.0,0.0,0.0663064994907
1385571679131663896,-0.00269579595061,0.0271049552183,0.000599071662948,1.0,0.0,0.0648714905624
1385571679630627703,2.94511047784e-05,0.0253993253751,3.32914587767e-05,1.0,0.0,0.0633124320416
1385571680130685923,-0.000175773632398,0.0148621835996,-0.001666662315,1.0,0.0,0.0615557375805
1385571680631776786,-0.0044689811192,0.00648663062779,-0.00365039962624,1.0,0.0,0.0593304757974
1385571681130746985,-0.00951235393854,0.00889527227468,-0.00452128534735,1.0,0.0,0.0568457667981
1385571681631669534,-0.01365758286,0.015610489033,-0.00502483048819,1.0,0.0,0.0543835847675
1385571682130841546,-0.0109744246941,0.0243395479427,-0.00600001934188,1.0,0.0,0.0515373192722
1385571682630978769,-0.00410429639183,0.0331295218489,-0.00608711706235,1.0,0.0,0.0482185110797
1385571683130675743,-0.0015405553663,0.0349091891874,-0.00442809109912,1.0,0.0,0.0457520209821
1385571683630745113,0.00159126811751,0.0290213838859,-0.00320050985033,1.0,0.0,0.0431573324077
1385571684131002284,0.00546656716939,0.0216138418059,-0.000656962670999,1.0,0.0,0.0412642471806
1385571684631589070,0.00545940362459,0.0118207009439,0.000435987704658,1.0,0.0,0.0407520789075
1385571685131739963,-0.000757646310498,0.00588525124161,0.00239176545058,1.0,0.0,0.0407366320823
1385571685630637903,-0.00676480302846,0.00630189680979,0.0036585711278,1.0,0.0,0.0407220964163
1385571686130635239,-0.0115335796441,0.0121653624243,0.00531927042949,1.0,0.0,0.0400877410543
1385571686630681370,-0.0117049137774,0.0227437180871,0.00683279788051,1.0,0.0,0.038210580203
1385571687131723610,-0.00300752242879,0.0309900859387,0.0070107044949,1.0,0.0,0.0356294929732
1385571687630729806,0.00563318952213,0.0286397643012,0.00615646925924,1.0,0.0,0.0331087475757
1385571688130901850,0.008938246518,0.0130881852653,0.00344666985992,1.0,0.0,0.0319358076843
1385571688631309647,0.00680016093821,-0.00384270785172,0.00244912643071,1.0,0.0,0.0323714508017
1385571689131432040,-0.00136196909336,-0.0131038711579,0.00195486942334,1.0,0.0,0.0342893902004
1385571689632405161,-0.0127811062261,-0.0110308957414,0.00131761470217,1.0,0.0,0.0361203358966
1385571690131314826,-0.0222917334254,0.00321200163031,0.000527276714332,1.0,0.0,0.0382227377092
1385571690632258495,-0.0236021276514,0.0252783768517,-0.000449720817993,1.0,0.0,0.039738316322
1385571691131408795,-0.0166561251741,0.038520907338,-0.00129988379837,1.0,0.0,0.0416885182917
1385571691631315624,-0.00615852595967,0.0368838057078,-0.00240584132133,1.0,0.0,0.0438881879646
1385571692131202819,0.00355256147243,0.0260754727459,-0.00379915335543,1.0,0.0,0.0456740881993
1385571692631403732,0.00133714584223,0.0136606450304,-0.00301424885226,1.0,0.0,0.0484132298089
1385571693132292852,-0.00716778378662,0.000549514569387,-0.00277034454588,1.0,0.0,0.0517544587697
1385571693631181886,-0.0122037052387,-0.00908667433503,-0.00277572777185,1.0,0.0,0.055712363217
1385571694131308532,-0.0194738899858,0.00227554146713,3.96182836174e-05,1.0,0.0,0.0588509492155
1385571694631305622,-0.0239679067912,0.0273946875757,0.00310299997349,1.0,0.0,0.0613243467802
1385571695131204025,-0.016823994519,0.044156419136,0.00139787376781,1.0,0.0,0.0622256382463
1385571695631423421,-0.00686235754279,0.0437530843142,-0.00147970163509,1.0,0.0,0.0615894693766
1385571696132397610,0.00473524414823,0.0281971378328,-0.00541767357687,1.0,0.0,0.0602976307637
1385571696632483733,0.0132358006847,0.00633011644119,-0.00640422616143,1.0,0.0,0.0595081142191
1385571697131388498,0.00315102651897,-0.0143617152764,-0.00486865821463,1.0,0.0,0.0608454246938
1385571697632268463,-0.0221582385475,-0.0234617005113,-0.00271677196855,1.0,0.0,0.0633243788203
1385571698131340713,-0.0387456081097,-0.0109170206832,-0.00144261598027,1.0,0.0,0.0646070348831
1385571698631458275,-0.041426906828,0.0148184348324,0.00283234244805,1.0,0.0,0.0646575950462
1385571699132272605,-0.0350121105824,0.0351250304214,0.00553988737116,1.0,0.0,0.0630648960968
1385571699631316385,-0.0227920578836,0.0439808010456,0.00557603447328,1.0,0.0,0.0605975547749
1385571700131294974,-0.00532326304304,0.0359910511793,0.00437825434016,1.0,0.0,0.0575899080357
1385571700632290515,0.0102592144283,0.0113294834892,0.0018937762517,1.0,0.0,0.0550401324522
1385571701131254477,0.0120101413916,-0.0154811354811,-0.000275721229296,1.0,0.0,0.054005424671
1385571701631270792,-0.00138325676369,-0.0318914830596,-0.00218830252085,1.0,0.0,0.0548908685849
1385571702132402777,-0.0184660600754,-0.0298617068192,-0.00250306861575,1.0,0.0,0.0572236700501
1385571702631292034,-0.0288573136132,-0.00858231191128,-0.000311464375697,1.0,0.0,0.0597847983196
1385571703131433607,-0.0268378904706,0.0214218020686,0.00195966166158,1.0,0.0,0.0621689111671
1385571703631298418,-0.0147157286965,0.0398363545677,0.00264402292059,1.0,0.0,0.0649322028515
1385571704131295314,-0.00177239009715,0.0362267820359,0.00189807144944,1.0,0.0,0.0668195288538
1385571704631439547,0.00610311988938,0.0190333122021,0.00129294410081,1.0,0.0,0.0679223183533
1385571705131291340,0.00984486763294,-0.0044243113123,0.00295377106938,1.0,0.0,0.0684434772353
1385571705632372731,0.00674017688351,-0.0248090291379,0.00356890418939,1.0,0.0,0.0699321829453
1385571706131216118,-0.00515583933099,-0.0275262590503,0.00502647200608,1.0,0.0,0.0713782220046
1385571706631304923,-0.0138794891566,-0.0138414070334,0.00477341454855,1.0,0.0,0.0726860075781
1385571707131284681,-0.0137273073675,0.0136157387996,0.00181652382691,1.0,0.0,0.0725990640389
1385571707631377590,-0.00744890792195,0.0411557206032,-9.69423627292e-05,1.0,0.0,0.0724195570384
1385571708131310768,0.0038106818572,0.0465099683334,-0.00104269961281,1.0,0.0,0.0722146429343
1385571708631251210,0.0152991353048,0.0258830066242,-0.00190732858469,1.0,0.0,0.0730084371502
1385571709131281511,0.0186125612002,-0.00484521742511,-0.00391605919177,1.0,0.0,0.0739496630398
1385571709632249494,0.0124860666762,-0.0281857105829,-0.00589165502236,1.0,0.0,0.0742520171083
1385571710131270875,0.00101986503074,-0.0351504312291,-0.00640005911156,1.0,0.0,0.0741363792048
1385571710632274029,-0.0161763081178,-0.0238030154279,-0.00391874283449,1.0,0.0,0.0726218108992
1385571711131326375,-0.0286826541144,0.000548237373337,-0.00163866260143,1.0,0.0,0.0704256167249
1385571711631170462,-0.0277213251618,0.0225154686384,4.60361338938e-06,1.0,0.0,0.0694058730602
1385571712131493414,-0.0180905110611,0.0348861096704,0.000324299492884,1.0,0.0,0.0701432743191
1385571712631375951,-0.00589835529988,0.0360627254914,0.000423252201587,1.0,0.0,0.071967118859
1385571713132297162,0.00784920796557,0.0228405627657,0.000253926552781,1.0,0.0,0.0741256903729
1385571713632161686,0.0158097908614,-0.00553157183581,-0.000662948098425,1.0,0.0,0.0754020185816
1385571714131273156,0.00959965087877,-0.0340640622975,-0.00234375174257,1.0,0.0,0.0761714063709
1385571714631301150,-0.00869881759073,-0.0413988182146,-0.00495403615639,1.0,0.0,0.0758339309266
1385571715131530936,-0.0230714965214,-0.0222774013048,-0.00452129283571,1.0,0.0,0.0739811051594
1385571715632499273,-0.0259324970787,0.00934413437349,-0.00277327909817,1.0,0.0,0.073116168643
1385571716131209611,-0.0195611982426,0.0427427819889,0.00105565725667,1.0,0.0,0.0731515569188
1385571716631217881,-0.000188244344158,0.0623819742058,0.00643046310587,1.0,0.0,0.074263907904
1385571717132194750,0.030492482722,0.0451868255803,0.00947072926905,1.0,0.0,0.0749969881061
1385571717631319199,0.0478276361584,0.000366458367962,0.00819742917881,1.0,0.0,0.0744931664415
1385571718131266423,0.0344449716861,-0.0431488923229,0.00439824199495,1.0,0.0,0.0715116059186
1385571718631280995,0.000737356169283,-0.0650948427096,0.000315195289726,1.0,0.0,0.0666869252533
1385571719132281400,-0.0386155372333,-0.0497114888722,0.00013011420585,1.0,0.0,0.0605804617893
1385571719632251377,-0.0592133350311,0.007219865506,0.00062920020409,1.0,0.0,0.0547580459736
1385571720131269168,-0.0415402810591,0.0639977313999,0.00473742980743,1.0,0.0,0.0517858035005
1385571720631185499,0.00197735571244,0.0839106704645,0.00655671631627,1.0,0.0,0.0520928989644
1385571721131208273,0.0465718337167,0.0730369883935,0.00533716790249,1.0,0.0,0.0539880949604
1385571721631393855,0.0674927475958,0.0401833842279,0.00210161531191,1.0,0.0,0.0566874228867
1385571722132183274,0.0558791087525,0.00110740771711,-0.000984148068958,1.0,0.0,0.0615559963968
1385571722631276064,0.0273058465403,-0.0328673219915,-0.00254041845901,1.0,0.0,0.0657909690918
1385571723131356315,-0.0127517261663,-0.049807174741,-0.00402997043145,1.0,0.0,0.0677808837454
1385571723632273251,-0.0504858615304,-0.0233137749968,-0.00351481841589,1.0,0.0,0.0662533238474
1385571724131345523,-0.0636737446621,0.0493918434349,0.00165601324188,1.0,0.0,0.0637357247598
1385571724631461649,-0.0308142875979,0.109724275756,0.00822078421183,1.0,0.0,0.0645642823544
1385571725131325432,0.024779879081,0.116095632528,0.00166355417631,1.0,0.0,0.0683896261243
1385571725632446346,0.0688319643967,0.0853424215551,-5.36851350965e-05,1.0,0.0,0.0740985085296
1385571726131299035,0.0858794708844,0.012921747913,0.00252352158317,1.0,0.0,0.0811058177348
1385571726632528308,0.0531800291661,-0.082522202629,-0.000226807460603,1.0,0.0,0.0874210095759
1385571727131200607,-0.0209261173147,-0.119522171099,-0.0047929125627,1.0,0.0,0.0905103795402
1385571727631375530,-0.0886614195311,-0.0610758571773,-0.00399046496546,1.0,0.0,0.0877656438098
1385571728131337059,-0.109132149017,0.0510581845814,0.00361861890101,1.0,0.0,0.0835011593465
1385571728631263460,-0.0582347638601,0.165523211718,0.012299554073,1.0,0.0,0.080535934781
1385571729131251702,0.0339628544609,0.217555432221,0.0103902740576,1.0,0.0,0.0771416470553
1385571729632218474,0.127450233162,0.159899588513,0.00882568572577,1.0,0.0,0.0725897379744
1385571730131359886,0.174823379315,0.0150314019079,0.0153609264172,1.0,0.0,0.0690129243855
1385571730631241121,0.137501588188,-0.138532851148,0.0104088280009,1.0,0.0,0.0638000657042
1385571731131381206,0.0289163070026,-0.21286267835,0.00718606526483,1.0,0.0,0.0551964978878
1385571731632230100,-0.104930602994,-0.166847177011,0.01023108998,1.0,0.0,0.0457314498449
1385571732131253367,-0.176323745068,-0.0384161189858,0.0158164056432,1.0,0.0,0.0376852037945
1385571732632307178,-0.154340983058,0.0957169484478,0.015591143528,1.0,0.0,0.0303557859815
1385571733131265747,-0.0833214297417,0.180439321124,0.0104375002785,1.0,0.0,0.0245636830673
1385571733631252451,0.0142244652186,0.172209277415,0.00812004238081,1.0,0.0,0.0215170289484
1385571734132535547,0.1150913685,0.105112646043,-0.000209916423343,1.0,0.0,0.0178345854189
1385571734632203180,0.158070683965,0.0201926604167,-0.000603992041309,1.0,0.0,0.0194263381116
1385571735131503633,0.120966045697,-0.0821510120066,0.00131229932701,1.0,0.0,0.0264050220023
1385571735631245470,0.025607736593,-0.16444994244,-0.00407156250522,1.0,0.0,0.0337776907397
1385571736131385683,-0.0841317984599,-0.141858128175,-0.000332289864937,1.0,0.0,0.038339562257
1385571736632226980,-0.159225932249,-0.0339332944517,0.00376700366761,1.0,0.0,0.0389219150691
1385571737131256223,-0.151063509864,0.0865342406549,0.011380655385,1.0,0.0,0.0354537857933
1385571737632217294,-0.0612282631822,0.170122802259,0.0109169028877,1.0,0.0,0.0302869289765
1385571738131283913,0.0459900880439,0.166957733758,0.00360044445417,1.0,0.0,0.0290303758197
1385571738631287825,0.126372347922,0.103040775105,-0.00241117305583,1.0,0.0,0.0290681107507
1385571739131497158,0.162340334335,-0.000211628871473,-0.00257565603464,1.0,0.0,0.0346215874092
1385571739631294628,0.125620158443,-0.123316068204,-0.0108950477927,1.0,0.0,0.0398922334767
1385571740131506033,0.0162662387068,-0.171866513001,-0.0124619307637,1.0,0.0,0.0406331488781
1385571740631474212,-0.103642200331,-0.127812268229,-0.00742294878714,1.0,0.0,0.0363889381768
1385571741131472890,-0.163084401694,-0.0268569459148,0.00259070811997,1.0,0.0,0.0314571722774
1385571741631288914,-0.148387164914,0.0846381809613,0.0058027435415,1.0,0.0,0.0263636972757
1385571742131444534,-0.0691564691578,0.157718426036,0.0102109876237,1.0,0.0,0.021111273042
1385571742631240364,0.0414494987828,0.15660576021,0.00556084442174,1.0,0.0,0.0181845827628
1385571743131309454,0.127362995842,0.0983788891836,-0.00265504299311,1.0,0.0,0.0184610010861
1385571743632201163,0.162420828326,-0.0042661068224,-0.0072869744002,1.0,0.0,0.023279303231
1385571744131293319,0.122778160355,-0.121194771536,-0.00916949856309,1.0,0.0,0.0277765110684
1385571744631451388,0.0212939125605,-0.159922225808,-0.00611524743079,1.0,0.0,0.0312373661222
1385571745131369149,-0.0846061816833,-0.108828964401,-0.00419334086476,1.0,0.0,0.0313008991457
1385571745631450985,-0.141179868566,-0.026093016299,0.0028551861057,1.0,0.0,0.0303734603367
1385571746131450272,-0.123388525123,0.0687332718416,0.00852363323768,1.0,0.0,0.0319607747814
1385571746631401146,-0.0513334181519,0.138929676953,0.00969856777746,1.0,0.0,0.0373004549688
1385571747131403878,0.0314840351398,0.160713185502,0.00119003878269,1.0,0.0,0.0443286741842
1385571747631222141,0.0949580111736,0.119784458616,-0.00592234993746,1.0,0.0,0.0506180560583
1385571748131469777,0.139387103506,0.00217037185228,-0.00910737901415,1.0,0.0,0.0537599325613
1385571748632251805,0.11316564533,-0.128770696555,-0.0117537978458,1.0,0.0,0.0509824484711
1385571749131220305,0.0065828504736,-0.175090475865,-0.0110466676735,1.0,0.0,0.0460947164
1385571749631293869,-0.102512742454,-0.121657743144,-0.00282429650288,1.0,0.0,0.0416334762668
1385571750131292719,-0.147527339036,-0.0182921761986,0.00893972510873,1.0,0.0,0.037907249428
1385571750631296348,-0.12548419399,0.0972633327452,0.0183695688825,1.0,0.0,0.0343938177347
1385571751131305111,-0.0563863319364,0.183323905409,0.0202207034963,1.0,0.0,0.0324201242342
1385571751632356897,0.0305456038756,0.189244467411,0.00926786141713,1.0,0.0,0.0341597660771
1385571752131268810,0.103343597523,0.115869508499,-0.00415888629348,1.0,0.0,0.0354674641923
1385571752631274588,0.147495221782,-0.0262381674764,-0.0214310775053,1.0,0.0,0.0386543912371
1385571753132431839,0.109432559961,-0.16157812238,-0.043398899499,1.0,0.0,0.0386639419069
1385571753631329609,-0.00167662625319,-0.202031136194,-0.0528562241026,1.0,0.0,0.0350262726782
1385571754131227952,-0.117238154262,-0.146138385487,-0.0525151254688,1.0,0.0,0.0305996088078
1385571754631506963,-0.158587067641,-0.0351564770793,-0.0478013632786,1.0,0.0,0.027948278863
1385571755132308404,-0.123935161833,0.0830622809656,-0.0489896736687,1.0,0.0,0.0269971710657
1385571755631250926,-0.0519478912347,0.163643997463,-0.0609034488095,1.0,0.0,0.0262223058758
1385571756131395985,0.0270509977807,0.186141060514,-0.0747918333631,1.0,0.0,0.0269821658418
1385571756631326797,0.0801837735209,0.143490954883,-0.0867644417311,1.0,0.0,0.0355950799482
1385571757131202923,0.10865785993,0.033118402401,-0.0832823468898,1.0,0.0,0.0468446897791
1385571757631249739,0.0690007455253,-0.136986041921,-0.0890996918341,1.0,0.0,0.0572744953769
1385571758131356420,-0.0132328840339,-0.22413547698,-0.102435676373,1.0,0.0,0.0617723401899
1385571758632460379,-0.110660482745,-0.155968385787,-0.10182309967,1.0,0.0,0.058288499383
1385571759131614010,-0.162385534959,-0.0247850751522,-0.0914009777244,1.0,0.0,0.0529704062065
1385571759632648772,-0.124943384906,0.113642320453,-0.0861605193716,1.0,0.0,0.045610169825
1385571760131213207,-0.0382432462751,0.234575219796,-0.0926736682314,1.0,0.0,0.0382228390464
1385571760631458600,0.0769415382999,0.252263786383,-0.100395195476,1.0,0.0,0.0325541493867
1385571761132274876,0.162339364234,0.171477842563,-0.0969738589965,1.0,0.0,0.0328394173572
