%time,field.header.seq,field.header.stamp,field.header.frame_id,field.child_frame_id,field.transform.translation.x,field.transform.translation.y,field.transform.translation.z,field.transform.rotation.x,field.transform.rotation.y,field.transform.rotation.z,field.transform.rotation.w
1385571602488523807,876875,1385571602488523807,/world,vicon/Archie/Archie,0.0125523577166,0.314904559625,0.114445486368,0.00257553265822,0.000282828503531,0.704843151783,0.709358455243
1385571602498416519,876876,1385571602498416519,/world,vicon/Archie/Archie,0.0126069180602,0.314934074907,0.114464953224,0.00251117362389,0.000229673369821,0.704876917442,0.709325152884
1385571602508407736,876877,1385571602508407736,/world,vicon/Archie/Archie,0.0126060650967,0.314938837198,0.114465653972,0.00251182123408,0.000211805582282,0.704881541657,0.709320560905
1385571602518425861,876878,1385571602518425861,/world,vicon/Archie/Archie,0.0126000474352,0.314932011555,0.114472083126,0.00249812461923,0.000231863873733,0.704875093895,0.709327010355
1385571602528383155,876879,1385571602528383155,/world,vicon/Archie/Archie,0.0126159238185,0.314930738835,0.114467326189,0.0024850954401,0.000205523565219,0.70487212919,0.709330010328
1385571602538480143,876880,1385571602538480143,/world,vicon/Archie/Archie,0.0125968630273,0.314923965974,0.114478678104,0.0025495811651,0.000172569113656,0.70489829746,0.709303785478
1385571602548486899,876881,1385571602548486899,/world,vicon/Archie/Archie,0.0126092822761,0.314937782238,0.114474231511,0.00250842589361,0.00022539008683,0.704877923443,0.709324164287
1385571602558524791,876882,1385571602558524791,/world,vicon/Archie/Archie,0.0125952710877,0.314926154162,0.114476412497,0.00253623476107,0.000195049690807,0.7048809891,0.709321027937
1385571602568477762,876883,1385571602568477762,/world,vicon/Archie/Archie,0.0126097486375,0.314933244625,0.114459533986,0.00250809367953,0.000204213975615,0.704882586616,0.709319537901
1385571602578524839,876884,1385571602578524839,/world,vicon/Archie/Archie,0.012609592084,0.314928434454,0.114467456171,0.00250374744242,0.000235686312545,0.704874215383,0.709327862268
1385571602588915772,876885,1385571602588915772,/world,vicon/Archie/Archie,0.0126121198925,0.314934413805,0.114467389163,0.00251622083764,0.00021338535397,0.704874959065,0.709327086175
1385571602598549800,876886,1385571602598549800,/world,vicon/Archie/Archie,0.0126145885231,0.314918622009,0.114478590127,0.00255312010709,0.000178557186354,0.704886619226,0.709315376776
1385571602608502691,876887,1385571602608502691,/world,vicon/Archie/Archie,0.0125587295455,0.314897303144,0.114453434235,0.00258039213399,0.000294141324981,0.704858397724,0.70934328376
1385571602618600165,876888,1385571602618600165,/world,vicon/Archie/Archie,0.0126152064969,0.314933439638,0.114463104359,0.00249291478511,0.000215928144633,0.704865074954,0.709336989632
1385571602628807017,876889,1385571602628807017,/world,vicon/Archie/Archie,0.0126188929883,0.314934486429,0.114463015956,0.00250661549769,0.000216732033332,0.704869333206,0.709332709673
1385571602638828043,876890,1385571602638828043,/world,vicon/Archie/Archie,0.0126047459106,0.314924753049,0.114474007271,0.00254133353264,0.000179723195757,0.704890928689,0.709311136227
1385571602648817704,876891,1385571602648817704,/world,vicon/Archie/Archie,0.0126145059987,0.314931753255,0.114466711035,0.00249334004769,0.000226084179013,0.704876531058,0.709325600909
1385571602658694957,876892,1385571602658694957,/world,vicon/Archie/Archie,0.0126110093209,0.314928516801,0.114472704823,0.00254305699309,0.000185302860112,0.704884531801,0.709317485581
1385571602668721805,876893,1385571602668721805,/world,vicon/Archie/Archie,0.012614884964,0.314931951663,0.114467731588,0.00249338233008,0.000212847570548,0.704873128904,0.709328985655
1385571602678658104,876894,1385571602678658104,/world,vicon/Archie/Archie,0.0125964670753,0.314928022347,0.114472222193,0.00253230961758,0.000185854243165,0.704876554073,0.709325451669
1385571602688637129,876895,1385571602688637129,/world,vicon/Archie/Archie,0.0125599368665,0.314902976527,0.114445067141,0.00257371149065,0.000288086860559,0.704842316154,0.709359290046
1385571602698812667,876896,1385571602698812667,/world,vicon/Archie/Archie,0.012606270638,0.314934393694,0.114464736571,0.00248075104882,0.000235193991858,0.704868010545,0.709334109055
1385571602708680953,876897,1385571602708680953,/world,vicon/Archie/Archie,0.0125940902745,0.314928194565,0.114473104773,0.00253454676932,0.000177540150864,0.704893287019,0.709308817419
1385571602719639791,876898,1385571602719639791,/world,vicon/Archie/Archie,0.012605700241,0.314932123922,0.114465811836,0.0024979308983,0.000198423364895,0.704895629043,0.709306614325
1385571602728789736,876899,1385571602728789736,/world,vicon/Archie/Archie,0.0125936634645,0.314928910333,0.114478517893,0.00256042525216,0.000167003113876,0.704889569015,0.709312421875
1385571602738745526,876900,1385571602738745526,/world,vicon/Archie/Archie,0.0126065185054,0.314928802927,0.114473140251,0.00248587922062,0.000220931548644,0.704872083218,0.709330048633
1385571602748753221,876901,1385571602748753221,/world,vicon/Archie/Archie,0.0126036805008,0.31492866408,0.114468809562,0.00250726600044,0.000228971866334,0.704876507559,0.709325574247
1385571602758730544,876902,1385571602758730544,/world,vicon/Archie/Archie,0.0125598542289,0.31490514876,0.114445271778,0.00256871468648,0.000291450116326,0.704835677473,0.709365903129
1385571602768671942,876903,1385571602768671942,/world,vicon/Archie/Archie,0.0125671759494,0.314909954563,0.114443801109,0.00252879466754,0.00031559297016,0.704819070577,0.709382536682
1385571602778607909,876904,1385571602778607909,/world,vicon/Archie/Archie,0.0125627862499,0.314911580809,0.114445572243,0.002527158107,0.000321857517611,0.704817954138,0.709383648955
1385571602788769633,876905,1385571602788769633,/world,vicon/Archie/Archie,0.0126029237236,0.314929896827,0.114466185078,0.00251474812659,0.00023510852336,0.7048762123,0.70932583916
1385571602798591279,876906,1385571602798591279,/world,vicon/Archie/Archie,0.0126042564604,0.314916768504,0.114484136887,0.002525242175,0.000207506112484,0.704880704858,0.709321346086
1385571602808719050,876907,1385571602808719050,/world,vicon/Archie/Archie,0.0126123091401,0.314929407145,0.11446670443,0.00248456778996,0.000237364391355,0.704877411533,0.709324753051
1385571602818673914,876908,1385571602818673914,/world,vicon/Archie/Archie,0.0125472545044,0.314979547985,0.114434532446,0.00251067237749,0.000348937492121,0.704838821164,0.709362961358
1385571602828715767,876909,1385571602828715767,/world,vicon/Archie/Archie,0.0126020835869,0.314924951718,0.114473318278,0.00254412780652,0.000166494798372,0.704885960978,0.709316066158
1385571602838661005,876910,1385571602838661005,/world,vicon/Archie/Archie,0.0125665558379,0.314909198142,0.114438907119,0.00252103757701,0.000348421617126,0.704825704244,0.709375957874
1385571602848693969,876911,1385571602848693969,/world,vicon/Archie/Archie,0.0125552555597,0.314901361235,0.114445336307,0.00257872877988,0.00029407545209,0.704847562015,0.70935405687
1385571602858632787,876912,1385571602858632787,/world,vicon/Archie/Archie,0.0126059826389,0.314927062912,0.114475338006,0.00253528621966,0.000191168201668,0.704888852673,0.709313217948
1385571602868726969,876913,1385571602868726969,/world,vicon/Archie/Archie,0.0126105060078,0.314926846287,0.11446806129,0.00248282716478,0.000210311130649,0.704870514266,0.709331621639
1385571602878676813,876914,1385571602878676813,/world,vicon/Archie/Archie,0.0126050567817,0.31492334469,0.114474330428,0.00254375336983,0.000170341784403,0.704891740167,0.709310323446
1385571602888744071,876915,1385571602888744071,/world,vicon/Archie/Archie,0.0125898306258,0.314925239684,0.114476308756,0.00253465050647,0.000163250782638,0.704886509985,0.709315555262
1385571602898518328,876916,1385571602898518328,/world,vicon/Archie/Archie,0.0126152447546,0.314926507826,0.11446455322,0.00249168231462,0.000223523312431,0.704875118782,0.70932701096
1385571602909177095,876917,1385571602909177095,/world,vicon/Archie/Archie,0.0125996339944,0.31492587575,0.114474319473,0.00253527793038,0.0001871025075,0.704880579746,0.70932144029
1385571602918570854,876918,1385571602918570854,/world,vicon/Archie/Archie,0.0126065041039,0.31491728184,0.11447832721,0.00253917349607,0.000187076269422,0.704887462441,0.709314586692
1385571602928486258,876919,1385571602928486258,/world,vicon/Archie/Archie,0.0126050534301,0.314920776058,0.114479171219,0.00255354043298,0.000170700667933,0.704896079104,0.709305976259
1385571602938684966,876920,1385571602938684966,/world,vicon/Archie/Archie,0.0126073664937,0.314916127556,0.11447722019,0.00253152440431,0.000183066092944,0.704886558996,0.709315512884
1385571602948776736,876921,1385571602948776736,/world,vicon/Archie/Archie,0.0125995119856,0.314917582816,0.114480162705,0.00252928594548,0.000169219100331,0.704890446734,0.709311660824
1385571602958702911,876922,1385571602958702911,/world,vicon/Archie/Archie,0.0125518594542,0.31489664283,0.114449890124,0.00255895049833,0.000277616045391,0.704845585949,0.709356098634
1385571602968787861,876923,1385571602968787861,/world,vicon/Archie/Archie,0.0126162121963,0.314930569658,0.114470943306,0.00250117394356,0.000207726881515,0.704871876058,0.709330204715
1385571602978778080,876924,1385571602978778080,/world,vicon/Archie/Archie,0.0126126036767,0.314929635894,0.114462403969,0.00247750995585,0.000230428618985,0.704877406155,0.709324785369
1385571602988749286,876925,1385571602988749286,/world,vicon/Archie/Archie,0.0126081102559,0.314934849213,0.114467595804,0.00250384307017,0.000228398191794,0.704863043433,0.709338965944
1385571602998670772,876926,1385571602998670772,/world,vicon/Archie/Archie,0.012596573547,0.314927708495,0.114481641085,0.00253134065125,0.000168856325361,0.704880727376,0.709321312224
1385571603008694618,876927,1385571603008694618,/world,vicon/Archie/Archie,0.0126032258002,0.31492014902,0.114480011235,0.00253083116654,0.00019127439176,0.704879541556,0.709322486746
1385571603018801501,876928,1385571603018801501,/world,vicon/Archie/Archie,0.0126045182753,0.314914810327,0.11447854924,0.0025455035086,0.000181704143583,0.704887386496,0.709314640872
1385571603028716935,876929,1385571603028716935,/world,vicon/Archie/Archie,0.01261467431,0.314925895889,0.114470244542,0.00249378871952,0.000183682929658,0.70487139155,0.709330718814
1385571603039622211,876930,1385571603039622211,/world,vicon/Archie/Archie,0.0126023103005,0.314931902339,0.114470575516,0.00249582738242,0.000249265357142,0.704872099804,0.709329987827
1385571603048712966,876931,1385571603048712966,/world,vicon/Archie/Archie,0.0125708814455,0.314903699204,0.114439657304,0.00253214271862,0.000323490496267,0.704828080257,0.709373569347
1385571603058593244,876932,1385571603058593244,/world,vicon/Archie/Archie,0.0126125797978,0.314923440951,0.114476378229,0.00252682845394,0.000191093129577,0.704885034221,0.709317042762
1385571603068748584,876933,1385571603068748584,/world,vicon/Archie/Archie,0.0125654334605,0.314910143218,0.114435267494,0.00254021496693,0.000322918979117,0.704828411271,0.709373211854
1385571603078712854,876934,1385571603078712854,/world,vicon/Archie/Archie,0.0126012610867,0.314927820175,0.114473504838,0.00250564647888,0.000198950297645,0.704881986441,0.709320144467
1385571603088706211,876935,1385571603088706211,/world,vicon/Archie/Archie,0.0126047946562,0.314932698248,0.114474342334,0.00249412019321,0.000235045236903,0.704870304495,0.709331782708
1385571603098691665,876936,1385571603098691665,/world,vicon/Archie/Archie,0.0125886389595,0.314925276843,0.114479805052,0.00252937899085,0.000188104034878,0.704892408062,0.709309706627
1385571603108751462,876937,1385571603108751462,/world,vicon/Archie/Archie,0.0126072652477,0.314920158674,0.114480514151,0.00252764816502,0.000190754875359,0.704892924923,0.709309198447
1385571603118613186,876938,1385571603118613186,/world,vicon/Archie/Archie,0.0125983389494,0.314920510697,0.114479584411,0.00252219800459,0.000179600215557,0.704880598803,0.709321469922
1385571603128711526,876939,1385571603128711526,/world,vicon/Archie/Archie,0.0125708421904,0.314899728014,0.114434886492,0.0025204702805,0.00034561546121,0.704831685316,0.709370018505
1385571603138676994,876940,1385571603138676994,/world,vicon/Archie/Archie,0.0126148511801,0.31492557276,0.114464913597,0.00251054629753,0.000228829626431,0.704878897314,0.709323187916
1385571603148626711,876941,1385571603148626711,/world,vicon/Archie/Archie,0.0126058584302,0.314927720807,0.114467955018,0.00248232100596,0.00023007469858,0.704874972869,0.709327186685
1385571603158643014,876942,1385571603158643014,/world,vicon/Archie/Archie,0.0125534519166,0.31490001247,0.11444625177,0.00256395417275,0.000287331225749,0.704842851061,0.709358794186
1385571603168647834,876943,1385571603168647834,/world,vicon/Archie/Archie,0.0125975152921,0.314922308108,0.114479588478,0.00253681980239,0.000190042095113,0.704895208936,0.709306896095
1385571603178679115,876944,1385571603178679115,/world,vicon/Archie/Archie,0.012604804497,0.31493522178,0.11446764577,0.00250381795847,0.00020276700023,0.704870210573,0.709331851836
1385571603188620999,876945,1385571603188620999,/world,vicon/Archie/Archie,0.0125666534291,0.314903093579,0.114436222957,0.00254853882365,0.000313550104207,0.70483483679,0.709366801792
1385571603198780538,876946,1385571603198780538,/world,vicon/Archie/Archie,0.0126137454976,0.314929152412,0.114471341818,0.00248709544917,0.000231830580235,0.704873971107,0.709328164862
1385571603208547701,876947,1385571603208547701,/world,vicon/Archie/Archie,0.0126092244091,0.314936489874,0.114466824105,0.00250332502146,0.000217345141973,0.70487276455,0.709329311336
1385571603218445708,876948,1385571603218445708,/world,vicon/Archie/Archie,0.0126060898565,0.314929549293,0.114466615124,0.00249920593602,0.000218957613651,0.704876073934,0.709326036757
1385571603228449842,876949,1385571603228449842,/world,vicon/Archie/Archie,0.0125659911444,0.314907617916,0.114441567065,0.00253482196508,0.000328139642211,0.704825450064,0.709376170973
1385571603238429760,876950,1385571603238429760,/world,vicon/Archie/Archie,0.0125659002272,0.314931919788,0.114474979324,0.00236245222525,0.000371849120869,0.704847031746,0.709355300528
1385571603248453177,876951,1385571603248453177,/world,vicon/Archie/Archie,0.012603053787,0.314925833353,0.114475719038,0.0025340080794,0.000179645763277,0.704883990342,0.709318057496
1385571603258482459,876952,1385571603258482459,/world,vicon/Archie/Archie,0.0125709453182,0.31491220944,0.114434988156,0.00252282751806,0.000316876350569,0.704820789125,0.70938084986
1385571603268574830,876953,1385571603268574830,/world,vicon/Archie/Archie,0.0126117287643,0.314934488701,0.114469058345,0.00248932849532,0.000214865557112,0.704877571364,0.709324584703
1385571603278723454,876954,1385571603278723454,/world,vicon/Archie/Archie,0.0126055584595,0.314932704463,0.114468794523,0.002499852606,0.000198100459818,0.704881438943,0.709320709219
1385571603288756412,876955,1385571603288756412,/world,vicon/Archie/Archie,0.0125745378723,0.314903820215,0.114447179357,0.00254476265505,0.000297093819086,0.704814407193,0.709387120923
1385571603298741475,876956,1385571603298741475,/world,vicon/Archie/Archie,0.0126007150115,0.314924853982,0.114477062676,0.00253782218857,0.000182825071714,0.704896935236,0.709305178839
1385571603308789249,876957,1385571603308789249,/world,vicon/Archie/Archie,0.0125540013169,0.314895725927,0.114446792794,0.00256862131469,0.000291230296662,0.704851650858,0.709350031827
1385571603318763906,876958,1385571603318763906,/world,vicon/Archie/Archie,0.0126136727641,0.314930915005,0.114473309123,0.00247844145037,0.000231056414222,0.704873934386,0.709328231896
1385571603328745902,876959,1385571603328745902,/world,vicon/Archie/Archie,0.0126135002986,0.314930380368,0.114469215434,0.00249478882593,0.000232754718329,0.704871819389,0.709330275743
1385571603338995844,876960,1385571603338995844,/world,vicon/Archie/Archie,0.0126088920011,0.314928009163,0.114470938076,0.0025140875857,0.000232708028142,0.704867973772,0.709334029045
1385571603348859671,876961,1385571603348859671,/world,vicon/Archie/Archie,0.0126154178828,0.31493437887,0.114469858581,0.00251022788679,0.000228749518765,0.704862453829,0.709339529148
1385571603358678947,876962,1385571603358678947,/world,vicon/Archie/Archie,0.0126089738323,0.314921096767,0.114471092519,0.00254449943484,0.000179461058891,0.704883202251,0.709318803149
1385571603368824472,876963,1385571603368824472,/world,vicon/Archie/Archie,0.0126082911709,0.314932444676,0.114464149735,0.00250582289567,0.000215705237482,0.704865079869,0.709336939335
1385571603378747121,876964,1385571603378747121,/world,vicon/Archie/Archie,0.0126075238372,0.314937271958,0.114469220285,0.00250814837356,0.000227753081077,0.704862767274,0.709339225358
1385571603388689487,876965,1385571603388689487,/world,vicon/Archie/Archie,0.0126071816067,0.314934690456,0.114476682643,0.00253674466843,0.000194979535167,0.704892087431,0.7093099971
1385571603398740200,876966,1385571603398740200,/world,vicon/Archie/Archie,0.0126027861277,0.314914462287,0.114475654404,0.00255297655587,0.000172254554657,0.704891899194,0.709310131811
1385571603408763253,876967,1385571603408763253,/world,vicon/Archie/Archie,0.0125641909295,0.314919821494,0.114440548665,0.002537342333,0.000313304609324,0.704827831261,0.70937380274
1385571603418674919,876968,1385571603418674919,/world,vicon/Archie/Archie,0.0125952232053,0.314920651228,0.114476765575,0.00253455888808,0.000179086517454,0.704894177552,0.709307931996
1385571603428867177,876969,1385571603428867177,/world,vicon/Archie/Archie,0.0126086377061,0.314928931743,0.114460611764,0.00250123939168,0.000219989373108,0.704867356066,0.709334692341
1385571603438732518,876970,1385571603438732518,/world,vicon/Archie/Archie,0.0126071365631,0.314936265877,0.114471521212,0.00250289131153,0.000217649450765,0.704865275935,0.70933675426
1385571603448712017,876971,1385571603448712017,/world,vicon/Archie/Archie,0.0126075339909,0.314931822884,0.114466081186,0.00250480422426,0.000227788540961,0.704880340707,0.709321774199
1385571603458671272,876972,1385571603458671272,/world,vicon/Archie/Archie,0.0126102883795,0.31493282296,0.114469759661,0.00248776749969,0.000201938615362,0.704878293675,0.709323876194
1385571603468733046,876973,1385571603468733046,/world,vicon/Archie/Archie,0.0126082267853,0.314938650716,0.114469037485,0.0025042449912,0.00020915495946,0.704867786561,0.70933425723
1385571603478648840,876974,1385571603478648840,/world,vicon/Archie/Archie,0.0125995235002,0.314918989405,0.114484507653,0.00255683991338,0.000196603312417,0.704895814871,0.709306220256
1385571603488850181,876975,1385571603488850181,/world,vicon/Archie/Archie,0.0125989181429,0.314921288346,0.114474603874,0.00253242254421,0.00017776957575,0.70489396303,0.709308153145
1385571603498675171,876976,1385571603498675171,/world,vicon/Archie/Archie,0.012601409744,0.314922656789,0.114476109289,0.0025502841841,0.000190821074967,0.704896060571,0.709306001264
1385571603508789415,876977,1385571603508789415,/world,vicon/Archie/Archie,0.0126117902209,0.314930160375,0.114465155413,0.00249491271116,0.000222141308674,0.70487631641,0.709325809927
1385571603518635707,876978,1385571603518635707,/world,vicon/Archie/Archie,0.0126187343863,0.314931493279,0.11446618401,0.00250324282511,0.000235856411226,0.704868995109,0.709333051451
1385571603528633870,876979,1385571603528633870,/world,vicon/Archie/Archie,0.0126096254613,0.314933712233,0.114469542826,0.00250347755933,0.000209556513937,0.704872225006,0.709329849295
1385571603538631496,876980,1385571603538631496,/world,vicon/Archie/Archie,0.0126161295071,0.314936078985,0.11446488809,0.0025072474831,0.000231386929075,0.704872559962,0.709329496343
1385571603548490434,876981,1385571603548490434,/world,vicon/Archie/Archie,0.0126003015118,0.314927578156,0.114477226572,0.0025298034646,0.000181911952219,0.704878466286,0.709323561408
1385571603558385497,876982,1385571603558385497,/world,vicon/Archie/Archie,0.0126134117206,0.314928916451,0.114465582849,0.00249317420418,0.000209314211423,0.70487244001,0.709329672003
1385571603568709852,876983,1385571603568709852,/world,vicon/Archie/Archie,0.0126188911631,0.314933604979,0.114468064723,0.00251887564335,0.000199224118355,0.704867857159,0.709334138132
1385571603578548085,876984,1385571603578548085,/world,vicon/Archie/Archie,0.0126162389273,0.314938457949,0.114469548625,0.00248653830275,0.000245691186185,0.704873512605,0.709328617772
1385571603588516068,876985,1385571603588516068,/world,vicon/Archie/Archie,0.0125699892425,0.314914885843,0.114434847817,0.00253675961268,0.000332047579966,0.704827985508,0.70937364304
1385571603599424853,876986,1385571603599424853,/world,vicon/Archie/Archie,0.0125622998377,0.314898361247,0.114443836812,0.00258658967965,0.000295408227381,0.704839084104,0.709362451647
1385571603608636892,876987,1385571603608636892,/world,vicon/Archie/Archie,0.0125739070848,0.314938249168,0.114463168088,0.00235780112145,0.000374606924294,0.704844769192,0.709357562718
1385571603618788867,876988,1385571603618788867,/world,vicon/Archie/Archie,0.0126138804034,0.314932743729,0.114464794903,0.00250168543894,0.000220027872233,0.704869522318,0.70933253814
1385571603628800379,876989,1385571603628800379,/world,vicon/Archie/Archie,0.0126055583914,0.314928388184,0.114475445738,0.00253449038,0.000175678696784,0.70487842269,0.709323589571
1385571603638747541,876990,1385571603638747541,/world,vicon/Archie/Archie,0.012596936234,0.314927550354,0.114477532563,0.00255736100327,0.000183623528475,0.704877012515,0.709324906805
1385571603648689209,876991,1385571603648689209,/world,vicon/Archie/Archie,0.0125737714647,0.314907167201,0.114431634073,0.00253784354968,0.000333597260322,0.704831551952,0.709370094828
1385571603658726494,876992,1385571603658726494,/world,vicon/Archie/Archie,0.0126044741196,0.314944710549,0.114466850806,0.00248196644323,0.000201567499706,0.704869231622,0.709332901765
1385571603668639542,876993,1385571603668639542,/world,vicon/Archie/Archie,0.0126119080972,0.314928433419,0.114472082562,0.00254111001715,0.000173621379711,0.704893991725,0.709308094586
1385571603678713687,876994,1385571603678713687,/world,vicon/Archie/Archie,0.0126056524849,0.314941926879,0.114466426629,0.00250420732497,0.000226477426869,0.704869703818,0.709332346854
1385571603688655223,876995,1385571603688655223,/world,vicon/Archie/Archie,0.0125741819442,0.314916749241,0.114432843771,0.00253454638574,0.000317006098759,0.704840334349,0.709361387909
1385571603698812988,876996,1385571603698812988,/world,vicon/Archie/Archie,0.0126201253975,0.31493593773,0.114461250429,0.00250315731874,0.000202246474805,0.704871219738,0.709330851497
1385571603708723472,876997,1385571603708723472,/world,vicon/Archie/Archie,0.0126139538526,0.314933461735,0.11446479156,0.00249590640872,0.000216140952273,0.70487872823,0.709323411586
1385571603718657039,876998,1385571603718657039,/world,vicon/Archie/Archie,0.0126175075915,0.31492872436,0.11446534502,0.00250347147878,0.000210740239195,0.704873306708,0.70932877406
1385571603728684094,876999,1385571603728684094,/world,vicon/Archie/Archie,0.0126140548786,0.314939529521,0.114462080685,0.00250519771596,0.000198017520154,0.704872436271,0.7093296366
1385571603738663893,877000,1385571603738663893,/world,vicon/Archie/Archie,0.0125997830989,0.31492799279,0.114472705648,0.00252728591434,0.000178863893133,0.704883925547,0.709318146066
1385571603748661510,877001,1385571603748661510,/world,vicon/Archie/Archie,0.012597363884,0.314938255449,0.114475664292,0.00254296204796,0.000203147482032,0.704892580847,0.709309482202
1385571603758696447,877002,1385571603758696447,/world,vicon/Archie/Archie,0.0126223461446,0.314936057651,0.114464903818,0.00251709459886,0.000205855830525,0.704860763517,0.709341191468
1385571603768679713,877003,1385571603768679713,/world,vicon/Archie/Archie,0.0126212272932,0.314938506411,0.114461967265,0.00250940775341,0.000226369199754,0.70488385681,0.709318264278
1385571603778740878,877004,1385571603778740878,/world,vicon/Archie/Archie,0.0125973017269,0.314933192355,0.114478754772,0.00255259386217,0.00019556539723,0.704889004806,0.709313003491
1385571603788709100,877005,1385571603788709100,/world,vicon/Archie/Archie,0.012603283903,0.31493279044,0.114473659995,0.00254559805,0.000154478404984,0.704889970511,0.709312079088
1385571603798795054,877006,1385571603798795054,/world,vicon/Archie/Archie,0.0126105383554,0.314935281976,0.114463544262,0.00250625911071,0.000202961025734,0.704872901193,0.709329169452
1385571603808686404,877007,1385571603808686404,/world,vicon/Archie/Archie,0.0126121809808,0.314947274002,0.114470438563,0.0024985473256,0.000203552357633,0.704873065266,0.709329033447
1385571603818677193,877008,1385571603818677193,/world,vicon/Archie/Archie,0.0126137433644,0.314939380998,0.11446839822,0.00250240498077,0.000225943832992,0.704867299816,0.709334742254
1385571603828685088,877009,1385571603828685088,/world,vicon/Archie/Archie,0.0125674247038,0.314916397867,0.114433157544,0.00253185413525,0.000311265190643,0.704831270588,0.709370405944
1385571603838656057,877010,1385571603838656057,/world,vicon/Archie/Archie,0.012571190653,0.314913238939,0.114433756588,0.0025232706119,0.000308661423441,0.704826853701,0.709374826263
1385571603848689002,877011,1385571603848689002,/world,vicon/Archie/Archie,0.0126063368269,0.314936248073,0.114459233234,0.00250245992757,0.000205520122615,0.704879640564,0.709322485034
1385571603858713995,877012,1385571603858713995,/world,vicon/Archie/Archie,0.0126139541409,0.314940952825,0.114465730885,0.0025098526057,0.000203774535857,0.704873537016,0.709328524684
1385571603868751199,877013,1385571603868751199,/world,vicon/Archie/Archie,0.0125628286524,0.314980804729,0.114411294199,0.00246291344736,0.000235580192942,0.704867900263,0.709334280673
1385571603878529666,877014,1385571603878529666,/world,vicon/Archie/Archie,0.0126122512866,0.314935906799,0.114463192278,0.00249749108189,0.000231748637347,0.704874178983,0.709327921792
1385571603888422362,877015,1385571603888422362,/world,vicon/Archie/Archie,0.012603918567,0.314925114662,0.114478525549,0.00253934355493,0.000187534499842,0.70489395586,0.709308133013
1385571603898476487,877016,1385571603898476487,/world,vicon/Archie/Archie,0.0126060752509,0.31493687228,0.114468227901,0.00248553844705,0.000229272775942,0.704873675682,0.709328464721
1385571603908485772,877017,1385571603908485772,/world,vicon/Archie/Archie,0.0126041236424,0.31492583355,0.114469491488,0.00254094738009,0.000167191569499,0.704882845875,0.709319173027
1385571603918558239,877018,1385571603918558239,/world,vicon/Archie/Archie,0.0126094873225,0.314938252425,0.114467481638,0.00250510164371,0.00020148538324,0.704865575545,0.709336453512
1385571603928565414,877019,1385571603928565414,/world,vicon/Archie/Archie,0.0125981403698,0.314929529421,0.11447388177,0.00255603316386,0.000189152879253,0.704876152183,0.709325765075
1385571603938678566,877020,1385571603938678566,/world,vicon/Archie/Archie,0.0125742926878,0.314935180787,0.114459934363,0.00233903508308,0.000378717485134,0.704837337552,0.709365006947
1385571603948868134,877021,1385571603948868134,/world,vicon/Archie/Archie,0.0125696114883,0.314914834291,0.114432984856,0.00253013595135,0.000327114635699,0.704814267339,0.709387298987
1385571603958960928,877022,1385571603958960928,/world,vicon/Archie/Archie,0.0125593474875,0.314907682879,0.114447469722,0.00258735387469,0.000293608149981,0.70484832535,0.70935326717
1385571603968688457,877023,1385571603968688457,/world,vicon/Archie/Archie,0.0126065639743,0.314933566948,0.114465618873,0.00250699098976,0.000218741311189,0.70486941669,0.709332624771
1385571603978671897,877024,1385571603978671897,/world,vicon/Archie/Archie,0.0126006913147,0.314933124038,0.114467434317,0.00250463729215,0.000225150498163,0.704869813856,0.709332236412
1385571603988768167,877025,1385571603988768167,/world,vicon/Archie/Archie,0.0126046623736,0.314944895425,0.114464004998,0.00249628028219,0.00021714770462,0.704878124417,0.709324009991
1385571603998715874,877026,1385571603998715874,/world,vicon/Archie/Archie,0.0125946272185,0.314929939049,0.114474988983,0.00253741553725,0.000180352416022,0.704894927948,0.709307175734
1385571604008697640,877027,1385571604008697640,/world,vicon/Archie/Archie,0.0126128932997,0.314936232947,0.114461991608,0.00251396585782,0.000215523411144,0.704872321274,0.70932971475
1385571604018828385,877028,1385571604018828385,/world,vicon/Archie/Archie,0.0126144504687,0.314934140252,0.11447022605,0.00251031886162,0.000233230369246,0.704862711618,0.709339271205
1385571604028619650,877029,1385571604028619650,/world,vicon/Archie/Archie,0.0126008350463,0.31493159577,0.114476131785,0.00254302959087,0.000193645456539,0.704890964122,0.709311091272
1385571604038724714,877030,1385571604038724714,/world,vicon/Archie/Archie,0.0126114522474,0.314927092148,0.114464483469,0.00250998947674,0.000207176479491,0.704886249589,0.709315890257
1385571604048732025,877031,1385571604048732025,/world,vicon/Archie/Archie,0.012568507531,0.314905318677,0.114442128936,0.00257602704459,0.000270359443722,0.704825535073,0.709375962448
1385571604058657439,877032,1385571604058657439,/world,vicon/Archie/Archie,0.0126013994554,0.314938726984,0.114477529311,0.00254667513619,0.000195956337114,0.704883088102,0.709318904411
1385571604068686553,877033,1385571604068686553,/world,vicon/Archie/Archie,0.0126077154241,0.314938689029,0.114467154829,0.00250615970042,0.000229396271469,0.704867112748,0.70933491378
1385571604078627373,877034,1385571604078627373,/world,vicon/Archie/Archie,0.0125989379607,0.314932216555,0.114475522037,0.00255226360289,0.000179118329886,0.704897738134,0.709304330059
1385571604088725413,877035,1385571604088725413,/world,vicon/Archie/Archie,0.0126082636271,0.31493976673,0.114465326134,0.00251945767365,0.00022408045774,0.70487955571,0.709322503564
1385571604098731901,877036,1385571604098731901,/world,vicon/Archie/Archie,0.0125556698019,0.314903950347,0.11443934512,0.0025741630557,0.000267204823443,0.704849493621,0.709352164745
1385571604108669862,877037,1385571604108669862,/world,vicon/Archie/Archie,0.0126102410989,0.31493578603,0.114475380683,0.00254640972619,0.000186959282708,0.704877909849,0.709324053625
1385571604118719648,877038,1385571604118719648,/world,vicon/Archie/Archie,0.0125681704333,0.314923451336,0.114437518019,0.0025363919892,0.000329077266791,0.704829221449,0.709372417716
1385571604128774612,877039,1385571604128774612,/world,vicon/Archie/Archie,0.0125654189502,0.314914999682,0.11443821058,0.00251503035583,0.000362505420758,0.704834738742,0.709366995479
1385571604138689714,877040,1385571604138689714,/world,vicon/Archie/Archie,0.0125679572605,0.31491574302,0.114434671386,0.00252598399179,0.000335869438856,0.704832055298,0.70936963596
1385571604148740598,877041,1385571604148740598,/world,vicon/Archie/Archie,0.0125713793896,0.314916116084,0.114432861937,0.00253634888369,0.000320875804078,0.704831946116,0.709369714399
1385571604158782356,877042,1385571604158782356,/world,vicon/Archie/Archie,0.0126192706644,0.314939782001,0.114466648565,0.00250560496637,0.0002392814965,0.704876349724,0.709325733558
1385571604168668107,877043,1385571604168668107,/world,vicon/Archie/Archie,0.0126139750974,0.314939169806,0.114462234168,0.00250193848967,0.000215901425083,0.704873199485,0.709328884466
1385571604178743802,877044,1385571604178743802,/world,vicon/Archie/Archie,0.0126112209891,0.314946587774,0.114464545406,0.00250116645053,0.000217421819357,0.704874220533,0.709327872089
1385571604188699161,877045,1385571604188699161,/world,vicon/Archie/Archie,0.0126135199482,0.314939122203,0.114471850613,0.00250490241954,0.000231357728272,0.704859715254,0.709342268407
1385571604198694826,877046,1385571604198694826,/world,vicon/Archie/Archie,0.0126068482362,0.31493858808,0.114473731406,0.00250860077771,0.000237809409749,0.70485820707,0.709343751854
1385571604208522054,877047,1385571604208522054,/world,vicon/Archie/Archie,0.012569452213,0.314915152897,0.114438146926,0.00253855961194,0.000346434876841,0.704827478073,0.709374133903
1385571604218533805,877048,1385571604218533805,/world,vicon/Archie/Archie,0.0126021866403,0.314930743314,0.114475472087,0.00253113762861,0.00019636754901,0.704879773675,0.709322253595
1385571604228432905,877049,1385571604228432905,/world,vicon/Archie/Archie,0.0125627544159,0.314906098212,0.114441135593,0.00257836700174,0.000300298917899,0.704841656324,0.709359923702
1385571604238560743,877050,1385571604238560743,/world,vicon/Archie/Archie,0.0125977240971,0.314923905676,0.114482040868,0.00254814350139,0.000202724280739,0.704885261379,0.709316737543
1385571604248498317,877051,1385571604248498317,/world,vicon/Archie/Archie,0.0125954954867,0.314933902075,0.11447622133,0.00255316295443,0.000189059407355,0.704880895064,0.709321062277
1385571604258487219,877052,1385571604258487219,/world,vicon/Archie/Archie,0.0126166895404,0.314937752251,0.114460985301,0.00249834305954,0.000198705578656,0.704879010895,0.709323127212
1385571604268507100,877053,1385571604268507100,/world,vicon/Archie/Archie,0.0125581807631,0.314920872612,0.11444134564,0.00254723723136,0.000319514759705,0.704834739489,0.709366900484
1385571604278772867,877054,1385571604278772867,/world,vicon/Archie/Archie,0.0126151359597,0.314940152518,0.114458726232,0.00249994293036,0.000214065559221,0.704865676225,0.709336367981
1385571604288713270,877055,1385571604288713270,/world,vicon/Archie/Archie,0.0126160316227,0.314945055509,0.114463221183,0.00250300252312,0.000213581504446,0.704878546141,0.709323568304
1385571604298631885,877056,1385571604298631885,/world,vicon/Archie/Archie,0.012570885255,0.314917159749,0.114433909358,0.00253693001769,0.000301338186116,0.704825321263,0.709376303303
1385571604308779841,877057,1385571604308779841,/world,vicon/Archie/Archie,0.0126043783768,0.314930380644,0.114478308253,0.00255153668503,0.000198114965025,0.704892207086,0.709309824266
1385571604318730929,877058,1385571604318730929,/world,vicon/Archie/Archie,0.0126124940338,0.314937929746,0.114466028285,0.00250392341656,0.000234282608798,0.704871544546,0.709330516169
1385571604328704894,877059,1385571604328704894,/world,vicon/Archie/Archie,0.0126004784869,0.314940749405,0.114473534036,0.00254353087694,0.000198780439705,0.70488443137,0.709317580037
1385571604338742995,877060,1385571604338742995,/world,vicon/Archie/Archie,0.0126165445049,0.314945238414,0.11447229065,0.00250417931298,0.000235925480535,0.704878525756,0.709323577328
1385571604348883107,877061,1385571604348883107,/world,vicon/Archie/Archie,0.0126008012273,0.314944323453,0.114467158735,0.00249779009541,0.000231493884848,0.704871888261,0.709330197154
1385571604358723276,877062,1385571604358723276,/world,vicon/Archie/Archie,0.0126099519898,0.314943425685,0.114472382674,0.00250199099417,0.000221949768478,0.704873522795,0.709328561135
1385571604368666355,877063,1385571604368666355,/world,vicon/Archie/Archie,0.0126108326153,0.314939844065,0.114468026185,0.00251141671854,0.000235365577375,0.704881813594,0.709320284677
1385571604379189289,877064,1385571604379189289,/world,vicon/Archie/Archie,0.0126055046464,0.314937317759,0.114465533622,0.00250917663446,0.000221709894406,0.70487314072,0.709328915503
1385571604388738523,877065,1385571604388738523,/world,vicon/Archie/Archie,0.012595184558,0.314928156866,0.114471163355,0.00255206090656,0.000189906424496,0.704884851145,0.709317134677
1385571604398685894,877066,1385571604398685894,/world,vicon/Archie/Archie,0.0125568366857,0.314914192533,0.114442439323,0.0025895519707,0.000286269939142,0.704846737537,0.709354839874
1385571604408802879,877067,1385571604408802879,/world,vicon/Archie/Archie,0.0126051922727,0.314931389566,0.114473620884,0.00254886534198,0.000180678886042,0.704890134239,0.709311898457
1385571604418717585,877068,1385571604418717585,/world,vicon/Archie/Archie,0.0126018041602,0.314928441454,0.114482062804,0.00252792155877,0.000173211850089,0.70488713263,0.709314958155
1385571604428729683,877069,1385571604428729683,/world,vicon/Archie/Archie,0.0126166511468,0.314935758094,0.114465775005,0.00251097239499,0.00022672696207,0.70487215173,0.709329890338
1385571604439163119,877070,1385571604439163119,/world,vicon/Archie/Archie,0.0125666760089,0.314917765989,0.114438202046,0.00253927089471,0.000337937848364,0.704827964478,0.709373652169
1385571604448714599,877071,1385571604448714599,/world,vicon/Archie/Archie,0.0125649983816,0.314906907196,0.114444862574,0.00257785353948,0.000294185076244,0.70483244867,0.709369077017
1385571604458708339,877072,1385571604458708339,/world,vicon/Archie/Archie,0.0126130792278,0.31493671008,0.114461440744,0.0025123536286,0.000210436173825,0.704855521111,0.709346416185
1385571604468704889,877073,1385571604468704889,/world,vicon/Archie/Archie,0.012595109134,0.314935802604,0.114474240585,0.00254317960848,0.000186834823884,0.704872500814,0.709329440335
1385571604478692566,877074,1385571604478692566,/world,vicon/Archie/Archie,0.0125584962598,0.314908887175,0.114449011641,0.00259398604183,0.000288858390898,0.704852166972,0.709349427654
1385571604488668172,877075,1385571604488668172,/world,vicon/Archie/Archie,0.0125638757678,0.314914426577,0.114445582746,0.00258204683969,0.000293580907419,0.704849521485,0.709352097978
1385571604498837521,877076,1385571604498837521,/world,vicon/Archie/Archie,0.0126147578378,0.31494192051,0.114464190469,0.00249162526912,0.000214890406714,0.704879176775,0.709322981282
1385571604508714837,877077,1385571604508714837,/world,vicon/Archie/Archie,0.0126132402806,0.314942378396,0.114461938076,0.00249669783667,0.000241107521673,0.704873002314,0.709329090744
1385571604518691078,877078,1385571604518691078,/world,vicon/Archie/Archie,0.0125999219787,0.314939376488,0.114465473132,0.00251276383695,0.000218500991862,0.704866809516,0.709335195178
1385571604528693218,877079,1385571604528693218,/world,vicon/Archie/Archie,0.0126015580517,0.314928589497,0.114478851157,0.00253645115229,0.000187664923638,0.704877272787,0.709324722187
1385571604538535424,877080,1385571604538535424,/world,vicon/Archie/Archie,0.0126017860659,0.314938091959,0.114475621971,0.00255164107047,0.000188561198071,0.704890001252,0.709312018584
1385571604548478570,877081,1385571604548478570,/world,vicon/Archie/Archie,0.0126019344396,0.314934457575,0.114471445363,0.00252846462028,0.00018987689473,0.704892744725,0.709309374848
1385571604558574452,877082,1385571604558574452,/world,vicon/Archie/Archie,0.0126118733004,0.314940632065,0.114466360937,0.00250372122619,0.000221295366967,0.70487242522,0.709329645914
1385571604568488896,877083,1385571604568488896,/world,vicon/Archie/Archie,0.0126081020762,0.314941700423,0.114475360629,0.00254394943012,0.000180019314864,0.704882304425,0.709319697191
1385571604578612799,877084,1385571604578612799,/world,vicon/Archie/Archie,0.0126112997056,0.314940215762,0.114466766653,0.00251213605671,0.00021668531909,0.704877681626,0.709324394171
1385571604588458857,877085,1385571604588458857,/world,vicon/Archie/Archie,0.0126073501006,0.314937399756,0.114469012052,0.00250240387463,0.000213721839608,0.70486722675,0.709334818651
1385571604598515837,877086,1385571604598515837,/world,vicon/Archie/Archie,0.0126001878478,0.314934833748,0.114473665791,0.00254761452779,0.000182234510371,0.704886409856,0.709315603699
1385571604608853417,877087,1385571604608853417,/world,vicon/Archie/Archie,0.0126077242729,0.314941912387,0.114463625685,0.00250576631111,0.000231496332296,0.704871290563,0.709330762962
1385571604618768567,877088,1385571604618768567,/world,vicon/Archie/Archie,0.0126054621727,0.314925335267,0.114475415371,0.00254594199108,0.000189607491463,0.704895031872,0.70930703949
1385571604628727170,877089,1385571604628727170,/world,vicon/Archie/Archie,0.0126014467612,0.314935569193,0.114477400473,0.00254557632403,0.000194174265719,0.704886863782,0.709315156756
1385571604638805185,877090,1385571604638805185,/world,vicon/Archie/Archie,0.0126136897795,0.314942958373,0.114468509621,0.00249129858891,0.000228509953746,0.70487468798,0.709327438818
1385571604648706923,877091,1385571604648706923,/world,vicon/Archie/Archie,0.0126044906981,0.314932791509,0.114478903606,0.00253741743434,0.000161681237384,0.704880471422,0.709321546535
1385571604658752054,877092,1385571604658752054,/world,vicon/Archie/Archie,0.012600812876,0.314944951193,0.11446980964,0.00248840671572,0.000238922765032,0.704868950533,0.709333146922
1385571604668672976,877093,1385571604668672976,/world,vicon/Archie/Archie,0.0125671312132,0.314918575712,0.114437888492,0.00252521540145,0.000319830314669,0.704825804495,0.709375856872
1385571604678771285,877094,1385571604678771285,/world,vicon/Archie/Archie,0.0125992538439,0.314947008843,0.114465390374,0.00250831761437,0.000222938172322,0.704873764285,0.709328298508
1385571604688731286,877095,1385571604688731286,/world,vicon/Archie/Archie,0.0126122568021,0.314938541632,0.114465933326,0.00249747642653,0.000211348608119,0.704878313738,0.709323819398
1385571604698834982,877096,1385571604698834982,/world,vicon/Archie/Archie,0.012601094737,0.314934423449,0.114475108662,0.00254184270471,0.0002061754237,0.704878064091,0.709323911405
1385571604708764616,877097,1385571604708764616,/world,vicon/Archie/Archie,0.0125670633777,0.314922139957,0.114439624121,0.00253719989554,0.000346833147179,0.704820212019,0.709381357982
1385571604718753857,877098,1385571604718753857,/world,vicon/Archie/Archie,0.012605242301,0.314928240096,0.114479934728,0.00254472549958,0.00014560797247,0.704877327135,0.709324648423
1385571604728672373,877099,1385571604728672373,/world,vicon/Archie/Archie,0.0125511506626,0.314915020043,0.11444574815,0.00258368545655,0.000299442122569,0.704830091643,0.709371395545
1385571604738755997,877100,1385571604738755997,/world,vicon/Archie/Archie,0.0126013236421,0.314941460632,0.114468209161,0.00250436036137,0.000214495217615,0.704874135064,0.709327946643
1385571604748676299,877101,1385571604748676299,/world,vicon/Archie/Archie,0.0125566944137,0.314910960612,0.114443287856,0.00257092441074,0.000293575218341,0.704846452346,0.709355188024
1385571604758697808,877102,1385571604758697808,/world,vicon/Archie/Archie,0.0125971222552,0.314934682494,0.114473063041,0.00254621277324,0.000188425036634,0.704895929535,0.709306146753
1385571604768761497,877103,1385571604768761497,/world,vicon/Archie/Archie,0.0125992274823,0.314929369768,0.11447429582,0.00254427082897,0.000157696728107,0.704878667211,0.709323315794
1385571604778810206,877104,1385571604778810206,/world,vicon/Archie/Archie,0.012606617532,0.314938728447,0.114469197731,0.00248720598666,0.000235075013328,0.704889945177,0.709312289287
1385571604788698318,877105,1385571604788698318,/world,vicon/Archie/Archie,0.0126126598552,0.314936984552,0.114467023165,0.00249445562185,0.000213778564738,0.704879058698,0.709323089008
1385571604798869952,877106,1385571604798869952,/world,vicon/Archie/Archie,0.0126084716319,0.314942708526,0.114469040234,0.0025048071896,0.000243725812803,0.704875801409,0.709326279738
1385571604808708960,877107,1385571604808708960,/world,vicon/Archie/Archie,0.0126068896449,0.31495335699,0.114465100565,0.00250413896296,0.000236355116581,0.704872259134,0.709329804624
1385571604818664865,877108,1385571604818664865,/world,vicon/Archie/Archie,0.0125497746231,0.314913084698,0.114446475524,0.00259029909572,0.000296221586201,0.704835590572,0.70936590901
1385571604828725915,877109,1385571604828725915,/world,vicon/Archie/Archie,0.0125930342244,0.314937519951,0.114477710411,0.0025502488654,0.000168421244618,0.704886581843,0.709315426734
1385571604838721913,877110,1385571604838721913,/world,vicon/Archie/Archie,0.0125971655452,0.314929053789,0.114473343382,0.00254433998787,0.000189710916026,0.704886753219,0.709315272273
1385571604848721158,877111,1385571604848721158,/world,vicon/Archie/Archie,0.0126066291062,0.314937665305,0.114469100112,0.00251342215575,0.000204442158203,0.704878894912,0.709323187567
1385571604858726280,877112,1385571604858726280,/world,vicon/Archie/Archie,0.0126139881222,0.314946514356,0.114472856837,0.00248939917871,0.000218236652998,0.704863990483,0.709338078906
1385571604869115898,877113,1385571604869115898,/world,vicon/Archie/Archie,0.0126055585235,0.314952162451,0.11447020702,0.00250802920914,0.000228179518262,0.704878340776,0.709323750081
1385571604878517274,877114,1385571604878517274,/world,vicon/Archie/Archie,0.0126135834971,0.314936486643,0.114470444237,0.00249631145803,0.000219981971079,0.704872329176,0.709329767879
1385571604888481536,877115,1385571604888481536,/world,vicon/Archie/Archie,0.0126066588307,0.314941069994,0.114468240018,0.00248194339751,0.000221551069672,0.704874762278,0.709327399989
1385571604898456188,877116,1385571604898456188,/world,vicon/Archie/Archie,0.0125987318011,0.314929020601,0.114474848159,0.00254349332299,0.000174323855266,0.704888577546,0.709313466317
1385571604908640702,877117,1385571604908640702,/world,vicon/Archie/Archie,0.0126115454697,0.314943924929,0.114472823653,0.00250927027068,0.000217506004127,0.704877823761,0.709324262819
1385571604918551511,877118,1385571604918551511,/world,vicon/Archie/Archie,0.0126109818677,0.314934796972,0.11446873931,0.00250607930261,0.000230218653621,0.704871079093,0.709330972412
1385571604928569579,877119,1385571604928569579,/world,vicon/Archie/Archie,0.0125967644487,0.314941900609,0.114467800881,0.00251210578884,0.000199216532097,0.704878779552,0.709323308354
1385571604938782676,877120,1385571604938782676,/world,vicon/Archie/Archie,0.0126098275086,0.31494071321,0.114464689507,0.00250177193217,0.000207779817709,0.704865461578,0.709336576696
1385571604948749250,877121,1385571604948749250,/world,vicon/Archie/Archie,0.0125535621024,0.314917652794,0.114442048877,0.0025344188255,0.000308254194377,0.704839820119,0.709361903175
1385571604958732938,877122,1385571604958732938,/world,vicon/Archie/Archie,0.0125986849263,0.314934162401,0.114473876928,0.00253025655239,0.000168289279486,0.704886299534,0.709315778909
1385571604968713403,877123,1385571604968713403,/world,vicon/Archie/Archie,0.0125658529485,0.314922444525,0.114439235818,0.00254659375112,0.000331703678481,0.704828085578,0.709373508537
1385571604978744887,877124,1385571604978744887,/world,vicon/Archie/Archie,0.012595071682,0.314932093481,0.11448199966,0.00252652446828,0.000194074311821,0.704888791146,0.709313309565
1385571604988710180,877125,1385571604988710180,/world,vicon/Archie/Archie,0.012608778272,0.314939553431,0.114466268163,0.00248992133214,0.000213443300449,0.704859040312,0.709342997445
1385571604998708510,877126,1385571604998708510,/world,vicon/Archie/Archie,0.0125985923461,0.314934408978,0.114475936429,0.00255294733472,0.00018603504175,0.704879661704,0.70932228949
1385571605008690046,877127,1385571605008690046,/world,vicon/Archie/Archie,0.012551292206,0.314918036359,0.114446247301,0.00257330981835,0.000307066278412,0.704839783669,0.709361799891
1385571605018871511,877128,1385571605018871511,/world,vicon/Archie/Archie,0.0126011147496,0.314940827339,0.114464709142,0.0024948318865,0.000245173944806,0.704873048053,0.709329050464
1385571605028790907,877129,1385571605028790907,/world,vicon/Archie/Archie,0.0125992617862,0.314935773764,0.114476898844,0.00254159360596,0.000183785306169,0.704883961439,0.709318058018
1385571605038743837,877130,1385571605038743837,/world,vicon/Archie/Archie,0.0125964121552,0.314937621302,0.114482427048,0.00253945292481,0.000179432182729,0.704889738082,0.709312326221
1385571605048785015,877131,1385571605048785015,/world,vicon/Archie/Archie,0.0126074175809,0.314937301661,0.114469089823,0.00251448978031,0.000217470264762,0.704864062857,0.709337918724
1385571605058741405,877132,1385571605058741405,/world,vicon/Archie/Archie,0.0126058765804,0.314941224117,0.114468095546,0.00249122852348,0.000216342675824,0.704875495509,0.709326640418
1385571605068731130,877133,1385571605068731130,/world,vicon/Archie/Archie,0.0126092532285,0.314942114455,0.114469126348,0.00249964707994,0.00022776012013,0.704872211878,0.709329870238
1385571605078689823,877134,1385571605078689823,/world,vicon/Archie/Archie,0.0126018880447,0.314931972131,0.114476139531,0.00253550679163,0.000181203441474,0.704880816064,0.709321206165
1385571605088655180,877135,1385571605088655180,/world,vicon/Archie/Archie,0.012550161872,0.31491868919,0.11445159089,0.00256356548014,0.00030572119365,0.704849375887,0.709352304556
1385571605098717124,877136,1385571605098717124,/world,vicon/Archie/Archie,0.0125461947295,0.314913871038,0.114449601395,0.00256435353295,0.000282411263305,0.704837498882,0.709364112783
1385571605108766394,877137,1385571605108766394,/world,vicon/Archie/Archie,0.0125568131368,0.314912697131,0.114440752516,0.00252650216741,0.000339837269248,0.70482950641,0.709372164799
1385571605118729522,877138,1385571605118729522,/world,vicon/Archie/Archie,0.0126083944104,0.314936392389,0.114467712215,0.00250646005746,0.000209914563116,0.704873745492,0.709328327723
1385571605128749353,877139,1385571605128749353,/world,vicon/Archie/Archie,0.0126042143885,0.314948382147,0.114473329617,0.00251130925704,0.000231575661166,0.704871080826,0.709330951752
1385571605138722723,877140,1385571605138722723,/world,vicon/Archie/Archie,0.012552072035,0.314915115581,0.114440162275,0.00258247137106,0.00028555145245,0.704849355898,0.709352264247
1385571605148670093,877141,1385571605148670093,/world,vicon/Archie/Archie,0.0125607901692,0.314903220095,0.114444304035,0.00258164020156,0.000266724255286,0.704848890887,0.70935273666
1385571605158733177,877142,1385571605158733177,/world,vicon/Archie/Archie,0.0126036859393,0.314941347642,0.114464214883,0.00248645108395,0.000241700349866,0.704869113101,0.709332991294
1385571605168656102,877143,1385571605168656102,/world,vicon/Archie/Archie,0.012564853877,0.314912184338,0.114438307453,0.0025435074676,0.000307621393444,0.704831966702,0.709369674185
1385571605178708281,877144,1385571605178708281,/world,vicon/Archie/Archie,0.0125709443517,0.314915604664,0.114440495289,0.00255394537398,0.0003174935188,0.704840517031,0.709361136596
1385571605188723835,877145,1385571605188723835,/world,vicon/Archie/Archie,0.0125924698299,0.314929389757,0.114475172787,0.00254476943788,0.000193540915488,0.704891725131,0.709310328793
1385571605198799912,877146,1385571605198799912,/world,vicon/Archie/Archie,0.0126017640311,0.31493506332,0.114476063417,0.00253163070868,0.000187990168152,0.704874932559,0.709327064869
1385571605208598302,877147,1385571605208598302,/world,vicon/Archie/Archie,0.0126100594322,0.31493988873,0.114464336171,0.0025108835337,0.000229261953823,0.704874497363,0.709327558939
1385571605218540393,877148,1385571605218540393,/world,vicon/Archie/Archie,0.0126023571039,0.314941272106,0.114463159485,0.00248971096757,0.000228817471,0.704875177239,0.709326958105
1385571605228525422,877149,1385571605228525422,/world,vicon/Archie/Archie,0.0125616253933,0.314915562645,0.114433643712,0.00254099958523,0.000308891062143,0.704849863464,0.709351899893
1385571605238520062,877150,1385571605238520062,/world,vicon/Archie/Archie,0.0126044791927,0.31493731179,0.114477894584,0.00255289529639,0.000170958026665,0.704882377405,0.709319594769
1385571605248471320,877151,1385571605248471320,/world,vicon/Archie/Archie,0.0125540761845,0.314910620806,0.114439801379,0.00257412017502,0.00029027733543,0.704860206508,0.709341510787
1385571605258681545,877152,1385571605258681545,/world,vicon/Archie/Archie,0.0126089396952,0.314943120366,0.114467801901,0.00250321224142,0.000229965919035,0.704867535114,0.709334504297
1385571605268622152,877153,1385571605268622152,/world,vicon/Archie/Archie,0.012595136369,0.314938477017,0.114484879073,0.00256118674279,0.000185474460959,0.704884600209,0.709317352325
1385571605278850305,877154,1385571605278850305,/world,vicon/Archie/Archie,0.0126015234574,0.314940499989,0.114465474298,0.00248470249639,0.000235123416322,0.704875885108,0.709326270178
1385571605288815941,877155,1385571605288815941,/world,vicon/Archie/Archie,0.0126036793867,0.314941116526,0.114471128882,0.00247972083966,0.00024523572342,0.70487484115,0.709327321592
1385571605298688937,877156,1385571605298688937,/world,vicon/Archie/Archie,0.0125537534663,0.314906355129,0.114451896971,0.00256280321773,0.000278129415032,0.70483906105,0.709362567875
1385571605308775119,877157,1385571605308775119,/world,vicon/Archie/Archie,0.0126115427941,0.314940914053,0.114463681159,0.0025112924031,0.000225500404407,0.704867065135,0.70933494419
1385571605318709639,877158,1385571605318709639,/world,vicon/Archie/Archie,0.0125995403645,0.314944237695,0.114469906513,0.00248558868859,0.000215574873227,0.704886215859,0.709316007199
1385571605328722291,877159,1385571605328722291,/world,vicon/Archie/Archie,0.0125893485587,0.314938848838,0.114479640107,0.00254727451278,0.000213926355871,0.70488387149,0.709318118577
1385571605338770116,877160,1385571605338770116,/world,vicon/Archie/Archie,0.0126000134547,0.314938781388,0.114466096504,0.00248450875144,0.0002251038602,0.704879292254,0.709322888321
1385571605348819251,877161,1385571605348819251,/world,vicon/Archie/Archie,0.0126086267207,0.31493894077,0.114464610148,0.00249022197915,0.000218868259977,0.704878419718,0.709323737307
1385571605358757101,877162,1385571605358757101,/world,vicon/Archie/Archie,0.0126050033222,0.31494704683,0.114467503892,0.00250081081134,0.000208518299342,0.704885908558,0.709316261185
1385571605368799263,877163,1385571605368799263,/world,vicon/Archie/Archie,0.0126163529958,0.314938909127,0.114461367572,0.00249978610047,0.000208386605581,0.704866615976,0.709335436396
1385571605378757259,877164,1385571605378757259,/world,vicon/Archie/Archie,0.0126039215566,0.314945099981,0.114470975274,0.00249482915037,0.000226608217754,0.704870472809,0.709331615705
1385571605389145638,877165,1385571605389145638,/world,vicon/Archie/Archie,0.0126062360879,0.314948485269,0.114465012583,0.0025063778535,0.0002058799449,0.704880677588,0.709321440566
1385571605398801191,877166,1385571605398801191,/world,vicon/Archie/Archie,0.0126086779878,0.314942583161,0.114470418839,0.00249043349751,0.000205575906326,0.704875826753,0.709326317246
1385571605408681594,877167,1385571605408681594,/world,vicon/Archie/Archie,0.0125961157514,0.314934013396,0.114474192727,0.00253795227272,0.000213216847488,0.704876727,0.709325251962
1385571605418891299,877168,1385571605418891299,/world,vicon/Archie/Archie,0.0126169263337,0.31494528329,0.114467222584,0.00248232414778,0.000238685338689,0.704864537305,0.70933755374
1385571605428736294,877169,1385571605428736294,/world,vicon/Archie/Archie,0.0126089549838,0.314945709169,0.11446664136,0.0025124312335,0.00021631968156,0.704878746063,0.709323335471
1385571605438708177,877170,1385571605438708177,/world,vicon/Archie/Archie,0.012609460046,0.31494075834,0.114466866221,0.00250974731491,0.000223713697009,0.704867578327,0.709334440263
1385571605448777317,877171,1385571605448777317,/world,vicon/Archie/Archie,0.012599852466,0.314936099947,0.114481651018,0.00253306566367,0.000194995318006,0.704876112756,0.709325885064
1385571605458714677,877172,1385571605458714677,/world,vicon/Archie/Archie,0.0125524752387,0.314913245246,0.114452500021,0.00256328309312,0.000288732784107,0.704848575822,0.70935310768
1385571605468718623,877173,1385571605468718623,/world,vicon/Archie/Archie,0.0125993701927,0.314938824992,0.11447999787,0.00254880785781,0.000185443238647,0.704879070304,0.709322892227
1385571605478722286,877174,1385571605478722286,/world,vicon/Archie/Archie,0.0126030519218,0.31493623276,0.114472039439,0.00252788149645,0.000191470451786,0.704890279705,0.709311826161
1385571605488707168,877175,1385571605488707168,/world,vicon/Archie/Archie,0.0125697349266,0.314922535836,0.114433959202,0.00254169207361,0.00030867174717,0.704842089417,0.709359622131
1385571605498773582,877176,1385571605498773582,/world,vicon/Archie/Archie,0.0126168286802,0.314940265142,0.114467181101,0.00250930366117,0.000217194845712,0.704882288697,0.709319825821
1385571605508722175,877177,1385571605508722175,/world,vicon/Archie/Archie,0.0126102212305,0.314937921656,0.114464262858,0.0025120726948,0.000203322056518,0.704864817413,0.709337181688
1385571605518768893,877178,1385571605518768893,/world,vicon/Archie/Archie,0.0126046201105,0.314937968851,0.114469337682,0.00250288540057,0.000235396765033,0.704879504355,0.709322609602
1385571605528781594,877179,1385571605528781594,/world,vicon/Archie/Archie,0.0126043809411,0.314946356633,0.114470428874,0.00248210543789,0.000239608701204,0.704865207682,0.709336888044
1385571605538575621,877180,1385571605538575621,/world,vicon/Archie/Archie,0.0125653853284,0.314920912531,0.114440996461,0.00254672428232,0.000326625674389,0.704828881124,0.709372719975
1385571605548568827,877181,1385571605548568827,/world,vicon/Archie/Archie,0.0125589794781,0.31492503613,0.114434054951,0.00252794099449,0.000331209448576,0.704825827276,0.709375819308
1385571605558617044,877182,1385571605558617044,/world,vicon/Archie/Archie,0.0126072068276,0.314960804303,0.114490054458,0.00231305032523,0.000265378188807,0.704905201261,0.709297706614
1385571605568588412,877183,1385571605568588412,/world,vicon/Archie/Archie,0.0126036339152,0.314952782329,0.114505297176,0.00235768182518,0.000252427283149,0.704914014958,0.709288805165
1385571605578576242,877184,1385571605578576242,/world,vicon/Archie/Archie,0.0125576070379,0.314924850965,0.114435896436,0.00252743817162,0.00031907630064,0.704838134342,0.709363598322
1385571605588670203,877185,1385571605588670203,/world,vicon/Archie/Archie,0.0125957080444,0.314935165334,0.114470299026,0.0025453802956,0.00018553544995,0.70489108794,0.709310961961
1385571605598612493,877186,1385571605598612493,/world,vicon/Archie/Archie,0.0125669772553,0.314915718521,0.114432505464,0.00253894433056,0.000325568506867,0.70482697689,0.70937464038
1385571605608909531,877187,1385571605608909531,/world,vicon/Archie/Archie,0.0126066287974,0.314935140546,0.11447638225,0.00253947906719,0.000196857801033,0.704893518247,0.70930856489
1385571605618912699,877188,1385571605618912699,/world,vicon/Archie/Archie,0.0126104549974,0.314937195812,0.114470144369,0.00250643250458,0.000220797552141,0.704879859168,0.709322249181
1385571605628788926,877189,1385571605628788926,/world,vicon/Archie/Archie,0.0125611863649,0.314916638053,0.114451099634,0.00256812965831,0.000295656759033,0.704838983937,0.709362618144
1385571605638828292,877190,1385571605638828292,/world,vicon/Archie/Archie,0.0125619856513,0.314926735204,0.114441565302,0.00253283778644,0.000316744317607,0.704826915421,0.709374727281
1385571605648789811,877191,1385571605648789811,/world,vicon/Archie/Archie,0.0125976711594,0.314941826064,0.114469655842,0.00249719597576,0.000228474629555,0.704870613489,0.709331466982
1385571605658770601,877192,1385571605658770601,/world,vicon/Archie/Archie,0.0126100477443,0.314946468298,0.114468386167,0.00250413025075,0.000228091711479,0.704868430583,0.709333611831
1385571605668745119,877193,1385571605668745119,/world,vicon/Archie/Archie,0.0125625022115,0.314921403081,0.114437260101,0.00254775301347,0.000307509458423,0.704829933265,0.709371679422
1385571605678781058,877194,1385571605678781058,/world,vicon/Archie/Archie,0.0126057149188,0.314935054892,0.114474381793,0.00254221751001,0.000181541596375,0.704892964443,0.709309109522
1385571605688818297,877195,1385571605688818297,/world,vicon/Archie/Archie,0.0125511660247,0.314911645532,0.114446831377,0.00258683097085,0.000295746958005,0.704837920861,0.70936360645
1385571605698879371,877196,1385571605698879371,/world,vicon/Archie/Archie,0.0125940736818,0.314935011372,0.114470539807,0.00255473960781,0.000198960124582,0.704885612248,0.709316366205
1385571605708788870,877197,1385571605708788870,/world,vicon/Archie/Archie,0.0126056403514,0.314949328069,0.114466984078,0.00250308928032,0.000217978657307,0.704862031824,0.709339977108
1385571605718743074,877198,1385571605718743074,/world,vicon/Archie/Archie,0.0126044649939,0.314940794988,0.114463733453,0.00250255780881,0.000212776592825,0.704871060079,0.709331009186
