%time,field.linear.x,field.linear.y,field.linear.z,field.angular.x,field.angular.y,field.angular.z
1385571605640319669,0.0,0.0,0.0,0.0,0.0,0.0
1385571605640337963,0.0125619856513,-0.314926735204,-0.114441565302,0.00403999273513,0.0031210487277,-1.56435841302
1385571605650229231,0.0125976711594,-0.314941826064,-0.114469655842,0.00386479883715,0.00319627707287,-1.56448152049
1385571605660191117,0.0126100477443,-0.314946468298,-0.114468386167,0.00387410641185,0.00320658397969,-1.56447536512
1385571605670211355,0.0125625022115,-0.314921403081,-0.114437260101,0.0040481226162,0.00315519340612,-1.56436690927
1385571605680186562,0.0126057149188,-0.314935054892,-0.114474381793,0.00386240183705,0.00332645039232,-1.56454450004
1385571605690290050,0.0125511660247,-0.314911645532,-0.114446831377,0.00408694749283,0.00322701446959,-1.5643894139
1385571605700216532,0.0125940736818,-0.314935011372,-0.114470539807,0.00390475692304,0.00331935313549,-1.56452378299
1385571605710220469,0.0126056403514,-0.314949328069,-0.114466984078,0.00385840191324,0.00321942880177,-1.56445731433
1385571605720193759,0.0126044649939,-0.314940794988,-0.114463733453,0.00385027338668,0.00322610867667,-1.56448276522
1385571605730267868,0.012611254782,-0.314945915534,-0.11446937344,0.0038587590077,0.00324000347763,-1.56449406966
1385571605740193265,0.0125947049903,-0.314930804348,-0.114483190744,0.00386410611267,0.00330370064246,-1.56454285779
1385571605750291871,0.0125950863042,-0.31493300442,-0.114473014468,0.00387593472791,0.00331235888051,-1.56453816261
1385571605760215273,0.012606995093,-0.314938891964,-0.114462066335,0.00385896142388,0.00320572024961,-1.56449483337
1385571605770230386,0.0126064056804,-0.314945570637,-0.114468389601,0.00387239060408,0.00317655129068,-1.56447965426
1385571605780221954,0.0125593994607,-0.3149220106,-0.114439485779,0.00408236378335,0.00311733869788,-1.56436712784
1385571605790252029,0.0126092139563,-0.31494136086,-0.11446964768,0.00384678974565,0.00321315949449,-1.56445199482
1385571605800229495,0.0125958293878,-0.31493649301,-0.114476710551,0.0038414075124,0.00333183854088,-1.56451009562
1385571605810230380,0.0125939119491,-0.314929091321,-0.114474555221,0.00383448005102,0.00330843611353,-1.56456468087
1385571605820200383,0.0125556708436,-0.314912277899,-0.114444644825,0.00406257190286,0.00318985864495,-1.56441232178
1385571605830215134,0.0125893969606,-0.314941619518,-0.114478754075,0.00387118246987,0.00329357808782,-1.56451623358
1385571605840193206,0.0126078983929,-0.314939949303,-0.114460462488,0.00388093421418,0.00320088589384,-1.56447734724
1385571605850211459,0.0126107165776,-0.314945604095,-0.114468452631,0.00387817656468,0.00325756628598,-1.56446778764
1385571605860206037,0.012565408743,-0.314913689412,-0.114432981595,0.00407093077811,0.00313049864667,-1.56438006649
1385571605870219184,0.0125552395411,-0.314910238878,-0.114449695139,0.00402664032802,0.00322912638579,-1.56443186155
1385571605880192838,0.0126091959831,-0.314930969153,-0.114475281631,0.00384690746602,0.00329054317977,-1.56454632118
1385571605890238305,0.012602761015,-0.314949074855,-0.114469786959,0.00386279185822,0.00322108974923,-1.5644721301
1385571605900197360,0.0126053082401,-0.314929308733,-0.114471381616,0.003842398491,0.00330541549805,-1.56451458898
1385571605910222633,0.0126121322188,-0.314935922096,-0.114466769067,0.00384438923901,0.00322251710391,-1.56449084144
1385571605920198184,0.0126029750342,-0.314944192061,-0.114471925811,0.00386239226675,0.00317220209191,-1.56449090616
1385571605930217145,0.0125590803024,-0.314919857129,-0.114437123971,0.00404955683136,0.00310134103712,-1.56438836687
1385571605940191143,0.0125898135223,-0.314942527963,-0.11448085868,0.00387376238165,0.00327748033261,-1.5645029029
1385571605950222687,0.0126147424762,-0.314937811208,-0.114466660512,0.00382026012023,0.00324401291497,-1.56447584536
1385571605960194297,0.0125992371848,-0.314945712372,-0.114466454048,0.00384930564847,0.00319746693021,-1.5644823257
1385571605970225626,0.0125991773931,-0.314940972321,-0.114471129132,0.00384630817211,0.00327320332265,-1.56451379233
1385571605980200239,0.0126124230297,-0.314935338379,-0.114464534772,0.00387246159041,0.00321881377165,-1.56450029257
1385571605990219968,0.012601250571,-0.314929135855,-0.114476978043,0.00386494350967,0.00332928379794,-1.56455413995
1385571606000197092,0.0125575204134,-0.314920874894,-0.114433930267,0.00406466149328,0.00309307317003,-1.56436515286
1385571606010217871,0.0126129162294,-0.314939936416,-0.114461273258,0.00386548365378,0.00321546310532,-1.56449531299
1385571606020194851,0.0126024423437,-0.314945599801,-0.114470644333,0.00388361627117,0.00321042023949,-1.56448687268
1385571606030210488,0.0125656764778,-0.314921342454,-0.114440998937,0.00404885190991,0.00309599856454,-1.56432488548
1385571606040193727,0.0125893344611,-0.31493547245,-0.114477266053,0.00381661404624,0.00334107832089,-1.56454839991
1385571606050477916,0.0125688830751,-0.314922126389,-0.114435630751,0.00403244603472,0.00314015308167,-1.56435922451
1385571606060305771,0.0125984770543,-0.314938026803,-0.114478677053,0.00383961424063,0.00332588943657,-1.56454043311
1385571606070272720,0.0125508025699,-0.314918659479,-0.114445774388,0.00402890327997,0.00325914179984,-1.56444202714
1385571606080297425,0.0125689616221,-0.314920530506,-0.114437204857,0.00404217997262,0.00313066425367,-1.56435615859
1385571606090321187,0.0125995825592,-0.314937301145,-0.114473308964,0.00384517825227,0.00334655806646,-1.56452940848
1385571606100270797,0.0126096962802,-0.31494452346,-0.114467835758,0.00387802059556,0.00320225878276,-1.56448197789
1385571606110348220,0.0126036307499,-0.314944389079,-0.114460828543,0.00383606194039,0.00321668413538,-1.5644864339
1385571606120237098,0.0125510213286,-0.314911654193,-0.11444798457,0.0040572254101,0.00323723039317,-1.56441673166
1385571606130272781,0.0126106837326,-0.314939751778,-0.114465505888,0.0038311876562,0.00320976767018,-1.56448855555
1385571606140242898,0.0126053948273,-0.314942228679,-0.11446477966,0.00387283196862,0.00321220208855,-1.5644874394
1385571606150264164,0.0126037639326,-0.314942716608,-0.114464895266,0.00387048776304,0.00321331938793,-1.56452192244
1385571606160315956,0.0125975037431,-0.314940573032,-0.114474772264,0.00384114016665,0.00332506959871,-1.56454350242
1385571606170315171,0.0125969397591,-0.314941192477,-0.114473735617,0.00386095643698,0.00329143717672,-1.56453458566
1385571606180218568,0.0126039685627,-0.314936421887,-0.114472016691,0.0038586177428,0.00333253680553,-1.5645344077
1385571606190238972,0.0126082006876,-0.314950581966,-0.114465126085,0.00386207736337,0.00320409426269,-1.5645111475
1385571606200207818,0.0126064929195,-0.314941357164,-0.114465936955,0.00384661670232,0.00316234991003,-1.56448981118
1385571606210227083,0.012609883168,-0.314941008515,-0.11446685352,0.00384992170379,0.00318551794776,-1.5644918458
1385571606220207029,0.0125490248009,-0.314917560403,-0.114444491285,0.0040611328583,0.00320908388313,-1.56440789478
1385571606230241502,0.0125705741022,-0.31492289825,-0.114447459354,0.00403522176118,0.00313645782983,-1.56433961935
1385571606240196875,0.0125972775585,-0.314940791059,-0.114471906223,0.00387818606206,0.00326710920054,-1.56448485673
1385571606250224409,0.0125976994728,-0.314941712313,-0.114462312293,0.00386973424699,0.00335290763624,-1.5643135897
1385571606260343482,0.0125670137783,-0.314921211562,-0.114432529426,0.00407816534064,0.00309972396482,-1.56444568036
1385571606270234523,0.0125777152324,-0.314936354547,-0.114480133798,0.00388864808305,0.00326967391786,-1.56507674038
1385571606280209611,0.0125653680855,-0.314919878646,-0.114434893383,0.00409315380027,0.00311666384474,-1.56442350194
1385571606290221486,0.0126019458418,-0.314934491185,-0.114435072417,0.00373411665989,0.00332354528419,-1.56358176047
1385571606300199363,0.0126103935303,-0.314956042206,-0.114458365265,0.00380396359242,0.0032545635628,-1.56435447132
1385571606310295184,0.0125464022072,-0.314953040166,-0.114547835697,0.00414810069551,0.00328346666,-1.56510860622
1385571606320275022,0.0126137391965,-0.31493102435,-0.114448559786,0.00373182568611,0.0032696063868,-1.56521936395
1385571606330261502,0.0125812146137,-0.314986645815,-0.11452407177,0.00427956997726,0.00357427097076,-1.5640405355
1385571606340261136,0.0126328243552,-0.314956458818,-0.114451393178,0.00392903275184,0.00309630041441,-1.56422267273
1385571606350277560,0.0126582944889,-0.314953997756,-0.114472318873,0.00381398717789,0.00315757764473,-1.56511319188
1385571606360220224,0.0125913854221,-0.314947125812,-0.114425877317,0.00375321929171,0.00413839926452,-1.56429883043
1385571606370294783,0.012618337495,-0.314894492045,-0.114479590695,0.00393809436881,0.00330470194152,-1.56438693141
1385571606380269926,0.0125622962645,-0.31487772401,-0.11441831316,0.00427314363752,0.00304250596563,-1.56493696707
1385571606390240962,0.0126157645569,-0.314906540189,-0.114465698292,0.00388172586284,0.00320987436466,-1.56498044464
1385571606400364071,0.0125896887406,-0.314929275069,-0.114430492354,0.00366473834896,0.00323818835374,-1.56413497901
1385571606410268903,0.0125732626765,-0.314894407231,-0.1144334656,0.00398706805911,0.00311000441846,-1.56460773085
1385571606420240509,0.0126246195266,-0.31488632805,-0.114468674612,0.00397664146894,0.00316515594761,-1.56512832436
1385571606430289612,0.0125326334038,-0.31488877895,-0.114484081506,0.00439629686942,0.00341595075524,-1.5645307869
1385571606440223909,0.0126261589498,-0.314909506337,-0.114467174484,0.00398256615815,0.0032161304774,-1.56440405396
1385571606450281885,0.0126163477004,-0.314890569623,-0.114495125864,0.00394909671578,0.00307668117711,-1.56499416524
1385571606460234076,0.0126266195921,-0.314914230185,-0.114466361419,0.00386927028642,0.00314943129316,-1.56494446653
1385571606470217643,0.0126345588982,-0.314896091326,-0.11446196618,0.00382676638368,0.00328479472723,-1.56445440028
1385571606480258852,0.0125940260287,-0.314894423478,-0.114432697062,0.00406740443799,0.00309992645323,-1.56459315216
1385571606490243576,0.0126104315276,-0.314899048921,-0.114488190204,0.00394008720538,0.0031559397249,-1.5650554474
1385571606500403612,0.0126394599784,-0.314897565372,-0.114469430619,0.00397674256901,0.00316517726708,-1.56464378803
1385571606510271438,0.0126667842636,-0.314907816034,-0.114496916079,0.00381691893032,0.00352669691199,-1.56463264727
1385571606520237846,0.0126214203358,-0.314904171958,-0.11446700598,0.0039453087691,0.00324263715373,-1.56499448054
1385571606530239730,0.0126050818331,-0.314888339131,-0.114450517664,0.00403603555989,0.00306519658961,-1.56458907529
1385571606540234565,0.0126304515284,-0.314908446501,-0.114471098334,0.00387128169057,0.00321303731886,-1.5645045643
1385571606550235441,0.012501140551,-0.314893443846,-0.114530672541,0.0046592196287,0.00344068864187,-1.56471732287
1385571606560250846,0.0126208644982,-0.314913496347,-0.114470712191,0.00402588436068,0.00313917170689,-1.56498166784
1385571606570255448,0.0126298875109,-0.314910825882,-0.114471334522,0.00399189150592,0.00318389099616,-1.56453315675
1385571606580409140,0.0125940040711,-0.314866115436,-0.114467703485,0.00408362816071,0.00322938835083,-1.56451974604
1385571606590261334,0.0126218114717,-0.314911340266,-0.114472942105,0.00392892853568,0.00326462222909,-1.56494879409
1385571606600251756,0.0125318146897,-0.314920635426,-0.114380069379,0.00407482880708,0.00301841672678,-1.56459256574
1385571606610251199,0.0126130151868,-0.314897105954,-0.114477277083,0.00393284811608,0.00328133902931,-1.56466982936
1385571606620231663,0.0125617881926,-0.314905987723,-0.114421416401,0.00432080962583,0.00290806182992,-1.56462100945
1385571606630276143,0.0125684473942,-0.314867360255,-0.114443819904,0.00412036065036,0.00321870723702,-1.56473135397
1385571606640245844,0.0126129742958,-0.314900360412,-0.11447323012,0.00395000665187,0.00329276443078,-1.56471670779
1385571606650355055,0.0126316112427,-0.314900490356,-0.114471952789,0.00395841421134,0.00314893026861,-1.56461002621
1385571606660299282,0.0125606221028,-0.31489911994,-0.114403601296,0.00430428332805,0.00297725637117,-1.56463011363
1385571606670339529,0.012575740564,-0.314908267879,-0.114504124706,0.00423295658266,0.00330906826418,-1.56507806479
1385571606680284503,0.0126319931517,-0.314904422566,-0.114465419904,0.00390819028623,0.00322166368084,-1.5644765515
1385571606690270694,0.0126158462703,-0.314926531576,-0.114499228396,0.00369466194715,0.00292129371216,-1.564873732
1385571606700227291,0.0126211063906,-0.314902063627,-0.114463712386,0.00395225373374,0.00334590090053,-1.5649916891
1385571606710244885,0.0125717784477,-0.314881092252,-0.114431550705,0.00409036001567,0.00328546934621,-1.5646533874
1385571606720202374,0.0126179192668,-0.314896478633,-0.114483311754,0.00396235470137,0.00328567551394,-1.56450899652
1385571606730260591,0.0125874326791,-0.314887791764,-0.114465378456,0.00407413148457,0.00312254471304,-1.56456601167
1385571606740200338,0.0126195515152,-0.314920575677,-0.114456464923,0.00394826883844,0.00320952247483,-1.56512718581
1385571606750245013,0.0125448105557,-0.314899640745,-0.11441239057,0.00382959175909,0.00415737878446,-1.56456833048
1385571606760215405,0.0126026881653,-0.314936550795,-0.114416095447,0.00423116365668,0.00301638912793,-1.56459956677
1385571606770238579,0.0125818641431,-0.314890092934,-0.114447809288,0.00416682404306,0.00305154187741,-1.564731722
1385571606780205465,0.0126129902393,-0.314906527036,-0.11449711035,0.0041037529068,0.00319433555633,-1.56486951277
1385571606790228813,0.0126349300399,-0.314898928179,-0.114510021454,0.00415958285987,0.00321372378927,-1.56444411194
1385571606800210371,0.0126279947665,-0.314916982266,-0.114527497513,0.0041887493516,0.00313558057004,-1.56481185628
1385571606810238340,0.0126214348551,-0.314893613088,-0.114530506939,0.00415729569838,0.00305750836837,-1.56528187939
1385571606820215115,0.0126296785903,-0.314910035038,-0.114517014267,0.00391207083691,0.00315767125956,-1.56451559535
1385571606830227726,0.0126316194762,-0.314911479404,-0.114489990462,0.00361270476533,0.00326914307303,-1.56420299979
1385571606840196134,0.012620355841,-0.31492276583,-0.114458610179,0.00356419602148,0.00310392935252,-1.56539286542
1385571606850239646,0.0125387165454,-0.314969795834,-0.114368343292,0.00374980961755,0.00313999954272,-1.56477541813
1385571606860196389,0.0125944975136,-0.314915518708,-0.114572436227,0.00417169614388,0.00348701763356,-1.56382500033
1385571606870224008,0.0126296840175,-0.31491260264,-0.114555941313,0.00434867094269,0.00286559948204,-1.5654442878
1385571606880203609,0.0126323873061,-0.314922451204,-0.114545738348,0.00432165091749,0.0030190552728,-1.56488491803
1385571606890223607,0.0126086354421,-0.314940568985,-0.114470191954,0.00417295860561,0.00312764847091,-1.56435017724
1385571606900230933,0.0126010697839,-0.314936984689,-0.114473897452,0.00387480863156,0.00302294443069,-1.56545190764
1385571606910247278,0.012599359317,-0.314894757,-0.114542743497,0.00387158043794,0.00292284231815,-1.56435458922
1385571606920198116,0.0125555924774,-0.314932008873,-0.114505309085,0.00373410359167,0.00308502052478,-1.56494862224
1385571606930236992,0.0126038549602,-0.3149025971,-0.114516039134,0.0039069697898,0.00324553766842,-1.5653922429
1385571606940198877,0.0126268560387,-0.31487579779,-0.114479293702,0.00416086786349,0.00307997871547,-1.56446327139
1385571606950226265,0.0125948465029,-0.314896782957,-0.114527066498,0.00426167349056,0.00296808687258,-1.56523043908
1385571606960213260,0.0125966333889,-0.314885248073,-0.114596717459,0.00434210697638,0.0030881716209,-1.56468483859
1385571606970230749,0.0126099430141,-0.314872283456,-0.114589365776,0.00426814893123,0.003148338213,-1.56436531445
1385571606980246045,0.0125840802586,-0.314909312202,-0.114502772751,0.00430091588629,0.00298300799142,-1.56553077725
1385571606990238191,0.0125930396795,-0.314864676536,-0.114496689179,0.00434425730783,0.00334522265157,-1.56447603904
1385571607000209554,0.0125463728214,-0.31492664371,-0.114492619976,0.0042946824525,0.00300274165393,-1.56446120512
1385571607010233830,0.0126047089451,-0.31488151281,-0.114594604699,0.00419323823303,0.00281133271661,-1.56541125113
1385571607020204947,0.0125710842805,-0.314857607977,-0.114526969005,0.00450585045984,0.00304245359258,-1.56430344277
1385571607030226144,0.012590987349,-0.314876807441,-0.114453070928,0.00405579811673,0.003421279378,-1.56469847374
1385571607040221182,0.012575001647,-0.314885444992,-0.114500066694,0.00415479981153,0.00304881379032,-1.56519867634
1385571607050224612,0.0125447566285,-0.314833859372,-0.114658715545,0.00442026297524,0.00315170940014,-1.56411055311
1385571607060197965,0.0126298324302,-0.314839508708,-0.114610009723,0.00452418082747,0.00325200779011,-1.56471246125
1385571607070220700,0.012503394425,-0.314849393775,-0.11443489591,0.00461757315439,0.0030471302177,-1.56482565322
1385571607080196815,0.0125613315211,-0.314879213803,-0.114449404028,0.00441483457452,0.00281685373529,-1.56390348053
1385571607090222609,0.0125349519193,-0.314866854549,-0.114503040407,0.00446268425724,0.00282872602294,-1.56498294959
1385571607100206779,0.0125923554041,-0.314834030395,-0.114615489933,0.00429407455508,0.00332760975549,-1.56457689672
1385571607110225250,0.0125705785957,-0.314845088115,-0.11456400119,0.00467287853581,0.00310069466228,-1.56408346129
1385571607120202612,0.0125182846424,-0.314888285125,-0.114581117341,0.00506311116947,0.00308336548391,-1.56508466222
1385571607130272345,0.0125843602623,-0.314824073954,-0.114542767593,0.00452539406298,0.00313180944651,-1.56424972474
1385571607140216466,0.0125469189039,-0.314862601609,-0.114564939346,0.00418848404685,0.00298481331319,-1.5643201309
1385571607150246809,0.0125221378658,-0.314837660792,-0.114544959837,0.00408781565081,0.00285550090427,-1.56492338677
1385571607160281572,0.0125725408286,-0.31481006077,-0.11451373978,0.00422675904798,0.00321564149464,-1.56395127863
1385571607170256818,0.0125925620429,-0.314776575657,-0.114504290835,0.00423473213546,0.00312965702825,-1.56417570853
1385571607180329172,0.0125665633383,-0.314837111876,-0.114526535631,0.00426340453485,0.00303256193371,-1.56478677934
1385571607190286772,0.0125782454524,-0.314770063174,-0.114590786943,0.00429742278776,0.00311868424722,-1.5637314359
1385571607200241119,0.0125610186139,-0.314805637711,-0.114526084873,0.00413024296156,0.00316479943385,-1.56473231304
1385571607210258972,0.0125337281059,-0.314819990036,-0.114475412137,0.00436646231895,0.00316340257633,-1.56466289558
1385571607220204613,0.0125662520159,-0.314772575429,-0.114535227884,0.00414385810321,0.00305889869276,-1.56362424518
1385571607230218497,0.0124475144794,-0.314875608502,-0.114543416409,0.00398285145635,0.0032181444702,-1.56478423273
1385571607240213884,0.012561596422,-0.314734296521,-0.114472161085,0.00378160186941,0.00309802689744,-1.56411776884
1385571607250260699,0.0125720229026,-0.314752912042,-0.11450411958,0.00414484972024,0.00288563585419,-1.5637401042
1385571607260198872,0.0125623657299,-0.314809556407,-0.114523986602,0.00453645289478,0.00285369589699,-1.56470064119
1385571607270212687,0.0125865558967,-0.314792026738,-0.114583825642,0.00454074482148,0.00314377697116,-1.56381947263
1385571607280232258,0.0125123847613,-0.31480655724,-0.114487692498,0.00415343792618,0.00298551236354,-1.56404137649
1385571607290268906,0.0125462018943,-0.314811866961,-0.114461037802,0.00414169047507,0.00298088742142,-1.56474335283
1385571607300199883,0.0125718953996,-0.314743983425,-0.114540385956,0.00409296274237,0.00304085672621,-1.5635497241
1385571607310210694,0.0125151555972,-0.314805975328,-0.114531453733,0.00388688678154,0.00297146751391,-1.56415463231
1385571607320212319,0.0125116909041,-0.314831610027,-0.114468312016,0.00420960796719,0.00294106041479,-1.56468105651
1385571607330255958,0.0125530160526,-0.31472206511,-0.114475040917,0.00446203146833,0.00338721691792,-1.56355900689
1385571607340196975,0.0126616118804,-0.314669679382,-0.114576658351,0.00462176993603,0.00313395637309,-1.56436206576
1385571607350240021,0.0125516359985,-0.314787906515,-0.114549006199,0.00409058460976,0.00299377038681,-1.56405728672
1385571607360202477,0.012567904197,-0.314708029324,-0.114584889845,0.00411152541904,0.0029155333848,-1.56358361316
1385571607370471963,0.0125352913669,-0.314778894027,-0.114492713304,0.00376395024679,0.00326123048615,-1.56452229854
1385571607380226430,0.0125031199655,-0.31473388411,-0.114526242853,0.00410463680163,0.00369770855985,-1.56392109876
1385571607390301980,0.0125256072405,-0.314729263135,-0.114521238731,0.00425452026201,0.00284465183042,-1.56407213924
1385571607400217339,0.0125791874022,-0.314693355698,-0.114720883962,0.00541761667999,0.00316211156584,-1.56611492622
1385571607410232239,0.0126637396846,-0.314662341017,-0.114670082174,0.00599049491606,0.00333095658977,-1.56542843548
1385571607420207995,0.0126303983211,-0.314650397524,-0.1146134666,0.0061528312843,0.00324802387988,-1.56622082224
1385571607430222903,0.0125669309009,-0.314668598787,-0.114496425046,0.00539174611363,0.00366368634741,-1.56636287942
1385571607440197184,0.0126139339622,-0.314569073304,-0.114727341173,0.00447877714204,0.00390857820675,-1.56586612089
1385571607450215945,0.0125087951546,-0.314630899881,-0.114713383217,0.00453795972366,0.00287985359519,-1.56602306763
1385571607460244479,0.0122530475192,-0.314753058597,-0.114459249242,0.00417291788411,0.00416774989049,-1.56754066142
1385571607470241049,0.0125731266614,-0.314575613287,-0.114493863467,0.00571129698501,0.00400855146375,-1.56639177048
1385571607480204746,0.0125223952145,-0.314596727225,-0.114664438972,0.00617969090745,0.00356297011169,-1.56720059513
1385571607490281276,0.0125839580686,-0.314572862241,-0.114819922869,0.00609736318586,0.00310543406043,-1.56671611794
1385571607500205179,0.0125341096201,-0.314562396966,-0.114695201692,0.0062976553428,0.00306937893405,-1.56703144121
1385571607510247479,0.0124841055762,-0.314593332143,-0.114552082185,0.006024728295,0.00272210370352,-1.56726894061
1385571607520229736,0.0125210071103,-0.314512036938,-0.114584026564,0.00538261692457,0.00258805085147,-1.56778926062
1385571607530231694,0.0124988112513,-0.314567799462,-0.114613796057,0.00530680507055,0.00270819363844,-1.56713446558
1385571607540210886,0.0122029886458,-0.314677694083,-0.114568187428,0.00441286203919,0.00322163677988,-1.5680692582
1385571607550267132,0.0124343796543,-0.314581267018,-0.114601791235,0.00522977341112,0.00303464559834,-1.56753495694
1385571607560201395,0.0124830221179,-0.314614648037,-0.114595365293,0.00564086125244,0.00343969538045,-1.56737469581
1385571607570247841,0.012448072898,-0.314603647717,-0.114574921808,0.00555441357715,0.00301795725255,-1.56753702272
1385571607580207888,0.0123813153266,-0.314590951526,-0.114587368775,0.00549902619293,0.00278750997887,-1.56717354331
1385571607590234936,0.0123100178541,-0.314574699104,-0.114518093815,0.00443543690625,0.00301857656729,-1.56772849807
1385571607600203843,0.012280396571,-0.314576781196,-0.114572700289,0.00442433123086,0.00365731031609,-1.56800218819
1385571607610221941,0.0122472126689,-0.314630412241,-0.114634126398,0.0049188769376,0.00315351797305,-1.5674340957
1385571607620195765,0.0121827133185,-0.314663375327,-0.114486362239,0.00476562149356,0.00325786425209,-1.56782292712
1385571607630224963,0.0119841836985,-0.314722611548,-0.114714571051,0.00469939520236,0.00437232891478,-1.5682999677
1385571607640198892,0.0121386218309,-0.314760449892,-0.114593696451,0.00400011827436,0.0034062759848,-1.5680685232
1385571607650268224,0.0120885597143,-0.314685176524,-0.114496292732,0.0041526446752,0.00316216539205,-1.56886388224
1385571607660347832,0.0122461823008,-0.314628209377,-0.114452402065,0.00422801066598,0.00320672119685,-1.56744273097
1385571607670326119,0.0122334413065,-0.31461470036,-0.11441408031,0.00375076674672,0.00327736771578,-1.56814751132
1385571607680259765,0.0122216670892,-0.314666686169,-0.114446148925,0.00321179275939,0.00299918515521,-1.5681350471
1385571607690275092,0.0121401083484,-0.314614795148,-0.114498836998,0.00356201915356,0.00260826876058,-1.5680132079
1385571607700224887,0.0122017204234,-0.314613087858,-0.114472951842,0.00410533267417,0.00297734625132,-1.5679628913
1385571607710276881,0.0122057993257,-0.314653826692,-0.11442722035,0.00462301600264,0.00336321026144,-1.56752345822
1385571607720223811,0.0122527773547,-0.314680985016,-0.114494692889,0.00452259120879,0.00283154325925,-1.56755112763
1385571607730249687,0.0121718082423,-0.314660185674,-0.114504471614,0.00414019278725,0.00288566098288,-1.56788342836
1385571607740228039,0.0122116952109,-0.314655276716,-0.114489960159,0.00365356064162,0.00297194007952,-1.56720834834
1385571607750243589,0.0120987883954,-0.314809878038,-0.114465012754,0.00321338768709,0.00340907832143,-1.56892571211
1385571607760218360,0.0120377787411,-0.314792826377,-0.114460816326,0.0035106417001,0.00357944628893,-1.56825500095
1385571607770253940,0.0121183985413,-0.314787208009,-0.11448236676,0.00383784516172,0.00367259148985,-1.56890668743
1385571607780331964,0.0121277310418,-0.314839410456,-0.114492839639,0.00417567919536,0.00349853720297,-1.56830951092
1385571607790322996,0.0120723455395,-0.314791466609,-0.114573212334,0.00411560277051,0.00324497493465,-1.56869479877
1385571607800257908,0.0120214852451,-0.314807976261,-0.114497439823,0.00393229550138,0.00325479557241,-1.56885531728
1385571607810248975,0.0120864032326,-0.314745474954,-0.114598122312,0.00405790767578,0.00454767733163,-1.56925516685
1385571607820238659,0.0120841393833,-0.314914438256,-0.114534276383,0.00346385402791,0.00344914252708,-1.56964961244
1385571607830234328,0.0121853819194,-0.314754892824,-0.1146352339,0.00422884496785,0.00343312827853,-1.5703941316
1385571607840234569,0.0122147540211,-0.314800564267,-0.114562762419,0.00522720087997,0.00359365330028,-1.57016697793
1385571607850251456,0.0121337415461,-0.314803072038,-0.114660116207,0.00615970082371,0.00418896191142,-1.5710470682
1385571607860244917,0.01208680225,-0.31477344753,-0.114734338499,0.00594777824759,0.00375548932594,-1.57108052982
1385571607870251659,0.0121372798881,-0.314702739874,-0.114719698196,0.00560376128926,0.00275935719087,-1.57060335819
1385571607880234597,0.0122338964445,-0.314601574818,-0.114612157176,0.00486492340523,0.00230529037233,-1.57178813727
1385571607890212636,0.0121692027614,-0.314717302974,-0.11443726365,0.00485807506991,0.00467575053901,-1.57066983115
1385571607900220899,0.0122015374203,-0.314553347223,-0.114577992494,0.00524763773047,0.00385833827392,-1.57233855146
1385571607910303819,0.0121653315071,-0.314674918173,-0.114703118719,0.00519697826267,0.00263777074467,-1.57135396578
1385571607920247541,0.0121653108273,-0.314622625905,-0.114754357835,0.00538775561242,0.00389048168148,-1.57272159029
1385571607930243124,0.0122015279601,-0.314538926534,-0.114583502189,0.0050732356421,0.00421030660042,-1.57283462273
1385571607940257697,0.0120496791473,-0.314480549537,-0.114480924001,0.00514651319412,0.00532986870122,-1.57336913887
1385571607950274103,0.0121143806927,-0.314449795572,-0.114634159523,0.0052982841978,0.00349618730403,-1.57430896852
1385571607960236533,0.012177318442,-0.314352696253,-0.114665034828,0.00565046005991,0.00358791989425,-1.57418563931
1385571607970263199,0.0121623326725,-0.314424687271,-0.114608239831,0.00590512341349,0.00337655896498,-1.57523021626
1385571607980226733,0.0120920763269,-0.314204102538,-0.114570447706,0.00589657822907,0.00357686736601,-1.57575377954
1385571607990253609,0.0120478058225,-0.314273283775,-0.114598812105,0.00567765063671,0.0033582269275,-1.57648477692
1385571608000220525,0.0119805423165,-0.314100882656,-0.114558120908,0.00544127444939,0.00344099445526,-1.57766783067
1385571608010294371,0.0118528818273,-0.314159623753,-0.114585250409,0.00512097161482,0.00379226396812,-1.57817852642
1385571608020234989,0.0117818165689,-0.313889844293,-0.1146192638,0.00512831755711,0.00334986563651,-1.57982171412
1385571608030246831,0.0117214683473,-0.313874717034,-0.114512858016,0.0048584933058,0.00398566352663,-1.58035252894
1385571608040230922,0.0116841772756,-0.313570700952,-0.11462889275,0.00510684830698,0.00424303294412,-1.58188627786
1385571608050314070,0.0114662199021,-0.313689337941,-0.114529892309,0.00548055126424,0.00360191091834,-1.58266533424
1385571608060234737,0.0113996079816,-0.313568366541,-0.114537708779,0.00484399102948,0.00521277543034,-1.58382609995
1385571608070348607,0.0114081026029,-0.31348250828,-0.114495314252,0.00418954416179,0.00556003202519,-1.5847721372
1385571608080289848,0.0113829564408,-0.313166669629,-0.114670211481,0.00427766430836,0.00358199799536,-1.58422783601
1385571608090242870,0.0112889590726,-0.313101663565,-0.115124461081,0.00393425528572,0.00634274824425,-1.58629560915
1385571608100237506,0.0112970487508,-0.312941604336,-0.114538600247,0.00370070452322,0.004707256151,-1.58711309607
1385571608110255684,0.0112849061538,-0.31288402059,-0.114349968833,0.00463993851203,0.00401514805169,-1.5880477183
1385571608120297022,0.011160172676,-0.312794094835,-0.11458190767,0.00466315602435,0.00285775517049,-1.58940170384
1385571608130278884,0.0110275168286,-0.312789475556,-0.114791207791,0.00424103014002,0.00502669236771,-1.59092532871
1385571608140296445,0.0109203519986,-0.3127169644,-0.114662991665,0.00364497852563,0.00593179476113,-1.59278677739
1385571608150290931,0.0108709472875,-0.31263928014,-0.114650855774,0.0037418408347,0.00522857529363,-1.59359572298
1385571608160273525,0.0108217257618,-0.312494118254,-0.114531809858,0.00304703424391,0.00270883528111,-1.59505545392
1385571608170261010,0.0106252787497,-0.312492452756,-0.114528434635,0.00245082884963,0.0050599139847,-1.59592340481
1385571608180242356,0.0105700016858,-0.312285555581,-0.114654128317,0.00230108697597,0.00598791863886,-1.59819744359
1385571608190232338,0.0104004903326,-0.312122941399,-0.114826050726,0.00197478644616,0.00654665722131,-1.59914962284
1385571608200259032,0.0103578453534,-0.312077732334,-0.114834708477,0.00236296871756,0.0047383998887,-1.60190365569
1385571608210457922,0.0103798734268,-0.311991546598,-0.114649870997,0.00308718309207,0.00394187012254,-1.60299251365
1385571608220260741,0.0101837213386,-0.311943574477,-0.114637595068,0.00419862256308,0.00445835239301,-1.60564383615
1385571608230257211,0.00997376476074,-0.311740606538,-0.114662367714,0.00298365533629,0.00503481507922,-1.60780113421
1385571608240251198,0.00987872610468,-0.311752868583,-0.114901699171,0.00239885372825,0.0050777709277,-1.60934116794
1385571608250254108,0.00969372254188,-0.311532013233,-0.114820231693,0.00321222842705,0.00407509126481,-1.61165231633
1385571608260250964,0.00963690331797,-0.311545108558,-0.114555178098,0.00320605848055,0.00442210032693,-1.61348758502
1385571608270266329,0.00956145247002,-0.311429782739,-0.114427974073,0.00197269735278,0.00452147816223,-1.61572816878
1385571608280226582,0.00951049350525,-0.311375157936,-0.114776488589,0.00257808072033,0.00481967115917,-1.61759583486
1385571608290240964,0.00930307250882,-0.311372292801,-0.114614668919,0.00187357747476,0.00374622365024,-1.61963878247
1385571608300247796,0.0092786360718,-0.311149187154,-0.114331318475,0.00168996899439,0.00362765687338,-1.621831592
1385571608310259231,0.00912394453327,-0.311158225626,-0.114378849101,0.00128550037598,0.00416444565128,-1.62359417343
1385571608320224519,0.00903648836008,-0.310913723633,-0.114629261216,0.00128730626059,0.00549747482843,-1.62564199615
1385571608330254439,0.00897839430392,-0.310859896754,-0.114886779311,0.00072163550972,0.00595659121331,-1.62751586575
1385571608340230013,0.00893799771022,-0.310746101103,-0.114835545563,0.000934488766495,0.00388334797351,-1.62939297122
1385571608350234289,0.00882270042928,-0.310786857087,-0.114459866512,0.000653823110777,0.00275446184433,-1.63050228263
1385571608360216022,0.00872194018963,-0.310641534364,-0.114543050884,0.00250198188444,0.00289840550401,-1.63182613517
1385571608370244528,0.0086157756502,-0.310663534952,-0.115128253016,0.00276944751972,0.000194076652999,-1.6323206966
1385571608380233598,0.00857489270452,-0.310552264609,-0.115140721392,0.00280776954195,0.00258098877323,-1.63425884796
1385571608390261080,0.00864228408338,-0.310444590066,-0.114943665894,0.00353666442966,0.00260195858595,-1.63582419724
1385571608400258766,0.00866727397272,-0.310527078995,-0.114807193569,0.00389296321614,0.00254537024605,-1.63778728778
1385571608410253519,0.00857485678405,-0.3105266112,-0.115146397778,0.00383697067064,-0.000221834084869,-1.63965133238
1385571608420215950,0.00858222744088,-0.310598228475,-0.115370638459,0.00459952654983,-0.00170011492766,-1.64069490198
1385571608430271578,0.00869010475589,-0.310327412735,-0.115520994964,0.00557976489948,-6.37407875663e-05,-1.64223874829
1385571608440264454,0.00876268823787,-0.310567668259,-0.115542069371,0.00677641546232,0.000967162512305,-1.64440072269
1385571608450263697,0.00884343021834,-0.310498589415,-0.115758937752,0.00914923257038,0.00131247675776,-1.64565217858
1385571608460220283,0.00897725473502,-0.310568935049,-0.116181751777,0.0110182945652,0.000410692021992,-1.64749863584
1385571608470218440,0.00918468738295,-0.310506146881,-0.116791687467,0.0149793110573,-0.000150296577264,-1.64879576303
1385571608480200483,0.00925253451425,-0.310484605152,-0.116902613185,0.0171587700417,-0.000759582976193,-1.65002848072
1385571608490223519,0.00966125777789,-0.310425511314,-0.117202684399,0.0206608888977,0.00237085510235,-1.65222015789
1385571608500206165,0.00993837662589,-0.310317311183,-0.117934221499,0.0255222375268,0.00178857285206,-1.65332600854
1385571608510211363,0.0101195244807,-0.310334497932,-0.118552837882,0.0292740759754,0.000571022243365,-1.65455884815
1385571608520200131,0.0104000044552,-0.310268101777,-0.118947629965,0.0334868311186,0.000462536003506,-1.65603198353
1385571608530223335,0.0108577022657,-0.3102469784,-0.119311881702,0.0372583236818,-0.000286184982134,-1.65794449285
1385571608540195234,0.0110792408799,-0.310171619628,-0.119976917847,0.0416288831411,-0.000230258708162,-1.65976312486
1385571608550245857,0.0116315950765,-0.310177506989,-0.120824750835,0.0468377543074,-0.000960127736984,-1.66165508377
1385571608560205504,0.0120578435922,-0.310023882262,-0.121411513283,0.0515340620326,-0.000770884459318,-1.66356674149
1385571608570222636,0.0124997933625,-0.310034644481,-0.121880722077,0.0557168621553,-0.00195711180586,-1.6655225312
1385571608580196495,0.0130704244409,-0.309967738471,-0.122606114681,0.0616866653608,-0.00183763969674,-1.66720410143
1385571608590234446,0.0137567447452,-0.310012913385,-0.123737346109,0.0682903660617,-0.00233141021542,-1.66877783819
1385571608600214083,0.0146567728819,-0.309909280916,-0.124663358103,0.0737248973174,-0.00348953483579,-1.67114473786
1385571608610259323,0.015405546093,-0.309811324286,-0.12539598145,0.0804682005543,-0.00523828109071,-1.67254256865
1385571608620200515,0.0164070929414,-0.309774984112,-0.126263960901,0.0851766690795,-0.00610592883331,-1.67369394993
1385571608630250529,0.0175344299072,-0.309704689515,-0.127344696618,0.0898532777703,-0.00900751922845,-1.67562639606
1385571608640206419,0.0187274262252,-0.309746900278,-0.128486031618,0.0939190089982,-0.0119591573436,-1.67744257926
1385571608650237990,0.0196166994189,-0.309800148254,-0.129458043897,0.097323018176,-0.0133862694081,-1.67884503385
1385571608660210661,0.0210312288007,-0.30999443215,-0.130955431513,0.100296118536,-0.0188574214132,-1.68033989866
1385571608670247576,0.0225871438911,-0.310145904338,-0.132287779878,0.103357470116,-0.0204837849818,-1.68141642472
1385571608680198389,0.0240039916328,-0.310325741578,-0.133676152384,0.106788647314,-0.0268560423203,-1.68255647308
1385571608690222856,0.02553151164,-0.310735280739,-0.135274802948,0.107871468857,-0.0318621234306,-1.68272562814
1385571608700210347,0.0272893121773,-0.310998770649,-0.136783556089,0.109039832423,-0.0377300346255,-1.68311613928
1385571608710226205,0.0292053599273,-0.311374952167,-0.13868133273,0.109837625901,-0.0420440513748,-1.68421113876
1385571608720198650,0.0310636022475,-0.31175226541,-0.140439025317,0.110644531742,-0.046738697879,-1.68540383544
1385571608730227215,0.0330435801967,-0.312246424261,-0.14225051394,0.109074419436,-0.0516414308264,-1.68612624067
1385571608740196844,0.035064271296,-0.31283817164,-0.144297029069,0.106911026775,-0.0557563242327,-1.68780185196
1385571608750228103,0.0372135828504,-0.313278748784,-0.146550073202,0.105797379505,-0.0594243716589,-1.68852002712
1385571608760196624,0.0395229286841,-0.31403817183,-0.148770581034,0.103562623078,-0.0634419460099,-1.69013940171
1385571608770248509,0.0416704176043,-0.314627795954,-0.150931320605,0.101026706515,-0.0659188082483,-1.69073086286
1385571608780207241,0.044054413984,-0.315379705722,-0.153240859555,0.0980118932419,-0.0684633046747,-1.69208759381
1385571608790223826,0.0463826503983,-0.316299422115,-0.156003260216,0.0956636750203,-0.0744696411607,-1.69354209351
1385571608800195809,0.0487769379931,-0.317368501435,-0.158664158008,0.0942516991225,-0.076515178242,-1.69443447041
1385571608810243073,0.0513275204262,-0.318367971005,-0.160975468573,0.0930559007003,-0.0792647897294,-1.69470251662
1385571608820215213,0.054023017213,-0.319640691756,-0.163820891484,0.0926748710586,-0.0800590600497,-1.69572810788
1385571608830226941,0.0566787010636,-0.320897857511,-0.166468350905,0.0906653286565,-0.0833522195185,-1.6954036976
1385571608840196033,0.0593978193151,-0.322181022759,-0.169234273266,0.0894564144806,-0.0839941290402,-1.69558486421
1385571608850293547,0.0621637883769,-0.323709879517,-0.172093250853,0.0885197130417,-0.0849863156562,-1.6961341169
1385571608860208533,0.0648471234606,-0.325345802092,-0.175146298866,0.0864407557596,-0.0869255310243,-1.69656062382
1385571608870227847,0.0677242528805,-0.32694716497,-0.178164514055,0.086999022348,-0.0873948643951,-1.69689129347
1385571608880204918,0.0706940241804,-0.328853314902,-0.181344721416,0.0865408366203,-0.0878762481437,-1.69692390448
1385571608890222766,0.0738009368693,-0.330685037416,-0.184215401862,0.0870876415383,-0.0882548931747,-1.6974993847
1385571608900198784,0.0768778654785,-0.332812223979,-0.187286276814,0.0859154773061,-0.0876948714637,-1.69871225004
1385571608910232798,0.0799000870716,-0.334625239134,-0.190547824407,0.0865306471166,-0.0871137385559,-1.69936684422
1385571608920214725,0.0830756723882,-0.336881961309,-0.193848748212,0.0876638505782,-0.0862407565643,-1.69959444451
1385571608930237398,0.0864810200303,-0.339327703912,-0.197087380773,0.0887596901242,-0.0838582321285,-1.70071017318
1385571608940199502,0.0896688915258,-0.341489540918,-0.200470627859,0.0903135241933,-0.0830665641082,-1.7015148436
1385571608950239327,0.0929741696612,-0.344173839726,-0.204064352046,0.0899836263536,-0.0828871939858,-1.70212439637
1385571608960200854,0.0963017175631,-0.34662681171,-0.207612981821,0.0918104045586,-0.0814543526311,-1.70246069633
1385571608970208991,0.0999477225104,-0.349480352521,-0.211256488709,0.0938007997812,-0.0789130175434,-1.70281186666
1385571608980306618,0.10335949646,-0.352173931778,-0.21478476234,0.0955309188522,-0.0769326063546,-1.70277529986
1385571608990244470,0.106984960741,-0.354988932518,-0.218502292309,0.0968876311498,-0.0735342842839,-1.70303193712
1385571609000205905,0.110418488317,-0.357884549101,-0.222142165996,0.0965766981105,-0.0722441079784,-1.70229584777
1385571609010229910,0.113901497995,-0.360920371484,-0.225852358675,0.0970592919243,-0.0700496617162,-1.70299862699
1385571609020211332,0.117625687608,-0.363929289596,-0.229683661423,0.0966237518356,-0.0662783702036,-1.70284860279
1385571609030232422,0.121210107141,-0.36720104799,-0.233601342834,0.0953121570693,-0.0650974152001,-1.70421070175
1385571609040202994,0.124810056611,-0.370240334062,-0.237242190246,0.0944113275644,-0.0599220429155,-1.70422262692
1385571609050228807,0.128719481037,-0.373454329321,-0.241046673116,0.093362261028,-0.0566343721754,-1.70427105113
1385571609060198907,0.13212493829,-0.376736052919,-0.24492418379,0.091023214717,-0.051270254068,-1.70389089122
1385571609070218510,0.136388428049,-0.379948428084,-0.248868148617,0.0889025153572,-0.0495059190132,-1.70397618898
1385571609080199973,0.140323470675,-0.383468539938,-0.252703810908,0.0882652761477,-0.0467586120465,-1.7039484095
1385571609090215976,0.144264366155,-0.386752347477,-0.256372392639,0.0900633424233,-0.043246116565,-1.70349292845
1385571609100196007,0.14828153786,-0.390193875995,-0.260471633519,0.0887912828824,-0.041317990161,-1.70265179508
1385571609110222126,0.152322752916,-0.393816063762,-0.2644195699,0.08830127939,-0.0392871469185,-1.7023105309
1385571609120204045,0.156696919331,-0.397531641195,-0.268495793843,0.0883481010386,-0.0366523012279,-1.70275406845
1385571609130227664,0.16072752461,-0.400919695172,-0.272288062992,0.0879695901,-0.0335104394343,-1.70202617588
1385571609140205570,0.165086961,-0.404445895193,-0.276303566812,0.0885209501331,-0.0311967853017,-1.70158637833
1385571609150241032,0.169523364951,-0.408187453881,-0.280524615074,0.0893133915893,-0.0294545946626,-1.70196234505
1385571609160206549,0.173756241292,-0.411733549409,-0.284708712635,0.0903405572505,-0.0260352520575,-1.70121174865
1385571609170226242,0.178211847197,-0.415299491377,-0.288549563904,0.0898695559578,-0.0236839008008,-1.70120215947
1385571609180202523,0.182653886551,-0.419116481736,-0.292707083695,0.0884582009763,-0.0219090397689,-1.70034820396
1385571609190241858,0.187254215509,-0.422721107302,-0.296812996473,0.0878494524233,-0.0203861759074,-1.70060010822
1385571609200206672,0.191718216207,-0.426640513871,-0.300936782356,0.0869768206397,-0.016144784413,-1.7002692857
1385571609210235819,0.196368250191,-0.4302286195,-0.305023235419,0.08723073017,-0.0160074273833,-1.7000354239
1385571609220198741,0.201067334559,-0.433999579268,-0.309267203431,0.0864535557361,-0.0131527167578,-1.69962451932
1385571609230221908,0.205833193895,-0.437674478828,-0.313312306746,0.0857218063385,-0.0120498444705,-1.69991140031
1385571609240197959,0.210554680443,-0.441640040052,-0.317795552431,0.0855561161019,-0.00994982204192,-1.70015660942
1385571609250224982,0.215277538873,-0.445478534242,-0.321991045765,0.0857317696567,-0.00850843924173,-1.69923435564
1385571609260197788,0.220146919978,-0.449119234161,-0.32622618316,0.0857375120383,-0.00866710783768,-1.6984818147
1385571609270341107,0.225110589488,-0.453060584488,-0.330708081204,0.0866885741443,-0.0069595765275,-1.69872443261
1385571609280276934,0.230341690155,-0.456726354879,-0.335068801074,0.0860911608893,-0.00636626451059,-1.69863989551
1385571609290227283,0.234962502357,-0.460630494886,-0.339353540414,0.0881518315058,-0.000855544836302,-1.69726242854
1385571609300242757,0.240230000062,-0.464487645269,-0.343992568356,0.0889500600882,-0.00237986861765,-1.69825886435
1385571609310249172,0.245387128849,-0.468134364517,-0.348610250983,0.0881154425619,-0.00250725793044,-1.69804981967
1385571609320200755,0.250334718415,-0.47219384057,-0.35332126352,0.0885413167205,0.000428601547488,-1.69816535318
1385571609330220109,0.255850939779,-0.475898566109,-0.358106292319,0.0897141069166,0.000355290795869,-1.69826156761
1385571609340203095,0.26097579736,-0.479683874513,-0.362567681598,0.0895208866333,0.000198979778978,-1.69749639971
1385571609350235417,0.266236459595,-0.483381197726,-0.367395441829,0.0889765962098,0.00115150181768,-1.69712231968
1385571609360198571,0.271828100861,-0.487296159352,-0.372344577792,0.0894684901928,0.00281894833977,-1.6972773454
1385571609370222315,0.277107797128,-0.49093062647,-0.377221334234,0.0908309267637,0.0030013444389,-1.69683619209
1385571609380195744,0.282704671211,-0.494697161524,-0.382191190175,0.0922209932945,0.00169562998279,-1.69696490942
1385571609390233858,0.288040594919,-0.498739094796,-0.387493239976,0.0938881645328,0.00275562845186,-1.69693660738
1385571609400208373,0.293886165607,-0.502349356575,-0.39286850751,0.0947159309777,0.00143225859483,-1.69740943706
1385571609410221111,0.299496540974,-0.506290114349,-0.398074109524,0.0965724934606,1.98578068918e-05,-1.69808932265
1385571609420193292,0.305287902184,-0.509779421458,-0.402972105147,0.0974549627687,-0.00176375343543,-1.69708057667
1385571609430206780,0.310985881192,-0.513638275249,-0.407940783926,0.0982545413954,-0.00242673028776,-1.69833445612
1385571609440220857,0.316645772788,-0.517499060395,-0.412643485285,0.0975186435233,-0.00257630655201,-1.69846062205
1385571609450239021,0.322251691404,-0.521290321093,-0.417230155763,0.0972882416149,-0.00317003251667,-1.69804808444
1385571609460210646,0.328128967288,-0.524918160767,-0.421612805311,0.0963003470025,-0.00402530037668,-1.69816018178
1385571609470249008,0.333989576285,-0.528667295242,-0.426010537913,0.0964605454796,-0.00450795191057,-1.69766905489
1385571609480202990,0.339649727943,-0.532422542898,-0.43028500832,0.0968893834884,-0.00316599351476,-1.69795413497
1385571609490236502,0.345657531868,-0.536227956544,-0.434502608989,0.0964847213484,-0.00388301845079,-1.69854943108
1385571609500200249,0.351693929742,-0.539844850435,-0.438402716401,0.0955256624986,-0.0058031497132,-1.69851935382
1385571609510222990,0.35765526541,-0.543565711587,-0.442265487797,0.0950924534818,-0.00527543045198,-1.69899236658
1385571609520195092,0.363662347731,-0.547311381899,-0.446027290589,0.0942577640822,-0.00518287672407,-1.69842524978
1385571609530224247,0.369692209661,-0.55091524037,-0.449626718426,0.0942221142258,-0.00546190893523,-1.69950228542
1385571609540200548,0.375745065157,-0.554743905444,-0.453130216692,0.0941324225088,-0.00359428893344,-1.69907062719
1385571609550217625,0.381712061684,-0.558567637828,-0.456351119467,0.0933026502982,-0.00474986741543,-1.69915682374
1385571609560196963,0.387925954126,-0.562133566448,-0.459651953669,0.0926125957109,-0.00481267287879,-1.69932900141
1385571609570216146,0.394081381127,-0.565897706945,-0.462809565059,0.0922122192867,-0.00391908427274,-1.69899079577
1385571609580243314,0.400200891084,-0.569514301953,-0.465606703873,0.0920837153689,-0.00396677920673,-1.7002422089
1385571609590250495,0.406390372507,-0.57303303215,-0.468305299968,0.0910059890015,-0.00344336985191,-1.69974270218
1385571609600219234,0.412588466129,-0.576966862971,-0.471026269192,0.0904614128434,-0.00271040977264,-1.69966920039
1385571609610233270,0.419011814152,-0.580354490503,-0.473596353022,0.0897297670192,-0.00268592126648,-1.69979555696
1385571609620201837,0.425277703213,-0.584210167943,-0.476060597546,0.0900177137976,-0.000937604684047,-1.70002520213
1385571609630221151,0.431595147943,-0.587753048864,-0.478365815395,0.0895320679143,0.000806654795646,-1.69982156364
1385571609640218765,0.437874807697,-0.591785110941,-0.480472554841,0.0878673584603,0.0014715717778,-1.70012093127
1385571609650242399,0.444374291201,-0.595090146999,-0.482521519952,0.0875073537688,0.001558050467,-1.69987272046
1385571609660381809,0.450598163964,-0.598871867594,-0.48412526266,0.0873833966125,0.00159768271209,-1.69955861027
1385571609670308708,0.457186544098,-0.602300213017,-0.486038251676,0.0877083063135,0.00185780313817,-1.70036745939
1385571609680259542,0.463535887026,-0.605936130231,-0.487739469635,0.0865447569816,0.00317891292175,-1.70024464646
1385571609690256523,0.470040248793,-0.609735021573,-0.489275003318,0.0858617623207,0.00325135945242,-1.70017456838
1385571609700295628,0.476473399004,-0.613379735582,-0.490511153453,0.0856940419087,0.00378047275024,-1.70064494312
1385571609710258590,0.483159716871,-0.616982981919,-0.49199353347,0.0842403880448,0.0050323765008,-1.70032844992
1385571609720235793,0.489499384662,-0.620676315186,-0.493071104579,0.085177624129,0.00552147846292,-1.70019068947
1385571609730252748,0.496145752964,-0.624183104046,-0.49413766873,0.0846953471823,0.00585201541899,-1.69930908
1385571609740236459,0.502811597186,-0.627617212349,-0.49509375508,0.0848300690643,0.00451508199483,-1.70046079075
1385571609750244305,0.509243284145,-0.631525509119,-0.495900541834,0.0842540704647,0.00737575171511,-1.6993717901
1385571609760241443,0.515997743111,-0.634894625222,-0.496683371314,0.0829161498167,0.00558190801694,-1.69977103953
1385571609770238533,0.522659946349,-0.638586983334,-0.497153155911,0.0814953025482,0.00616529896274,-1.70012073955
1385571609780260566,0.529244944017,-0.642137315131,-0.497814402731,0.0800074184462,0.00711824302548,-1.70028545862
1385571609790228458,0.53598400716,-0.645614060853,-0.498166227329,0.079818784821,0.00659989493222,-1.70027497955
1385571609800241600,0.542730674689,-0.649152429143,-0.498448729465,0.0777654455764,0.00621178252312,-1.69938171577
1385571609810260571,0.549430054774,-0.65270614506,-0.498672220774,0.0781382008586,0.00677469786701,-1.69966417895
1385571609820237710,0.556168787113,-0.656030789113,-0.498839356409,0.0761322743682,0.00723170460144,-1.69979844551
1385571609830275299,0.56267242186,-0.65983983337,-0.4988828291,0.0753922931189,0.0080867669771,-1.69927971964
1385571609840238462,0.569523261395,-0.663312776113,-0.498612522343,0.0736363031218,0.00779894277142,-1.69935838973
1385571609850229752,0.576385993653,-0.666676376353,-0.498388947883,0.0727914755705,0.00834080190131,-1.69865686962
1385571609860238635,0.583075839454,-0.670303664086,-0.498010179625,0.0713386627794,0.0079505739734,-1.6992150015
1385571609870262204,0.589956623289,-0.673431051721,-0.497771024104,0.0713210671441,0.00889477935579,-1.69951317399
1385571609880217559,0.596666236615,-0.677205114178,-0.497332109874,0.071736373948,0.00942284598243,-1.69853255029
1385571609890269661,0.603720487447,-0.680594676531,-0.496602639795,0.0701202479931,0.00877400714947,-1.69855867105
1385571609900244602,0.610637002645,-0.683879605207,-0.495992851811,0.0698444151796,0.00776367296774,-1.69781745309
1385571609910247707,0.617529192866,-0.687448787318,-0.495305273431,0.0697281870198,0.00873600542629,-1.69822976304
1385571609920233724,0.624333461612,-0.69087912294,-0.494465287086,0.0694600811743,0.00894227669321,-1.69827285891
1385571609930306455,0.631298012096,-0.69435131323,-0.493625624474,0.0697028059718,0.00854815819863,-1.69792120624
1385571609940281342,0.63825937339,-0.697629534117,-0.492756289735,0.0702124961313,0.00994473099656,-1.69844396899
1385571609950245074,0.645330385581,-0.701042314061,-0.491578220683,0.0705715631561,0.00831221054655,-1.69745402449
1385571609960256249,0.65225653516,-0.70443636839,-0.490373871668,0.0707145875881,0.00858612120877,-1.69824771983
1385571609970311321,0.659297483409,-0.707877242993,-0.489153995392,0.0704998863494,0.00835447160773,-1.69701192479
1385571609980240638,0.666512566245,-0.711010795179,-0.488008647456,0.0706313475648,0.00746827911582,-1.69740209463
1385571609990271646,0.673622783339,-0.714509274903,-0.486639466355,0.0715861091132,0.00771812848294,-1.69655643555
1385571610000341490,0.680432315669,-0.717941158589,-0.485156715613,0.0727944083135,0.00876080857058,-1.69752653354
1385571610010292302,0.687759436792,-0.72132968374,-0.483722559185,0.0740228844368,0.00807851659905,-1.69709303971
1385571610020344771,0.694890649302,-0.724453060757,-0.482192837261,0.0757698390372,0.00703443952271,-1.69791960629
1385571610030308635,0.702159791231,-0.727893072912,-0.480665959379,0.0768678241928,0.00716337547889,-1.69798721261
1385571610040224058,0.709310899459,-0.731277639284,-0.478825391279,0.0771534109584,0.0069302448145,-1.69664358381
1385571610050242472,0.716573949892,-0.734556446118,-0.477230037388,0.0783010610112,0.00761734833953,-1.69647601923
1385571610060273056,0.723907940908,-0.737799454526,-0.475462764506,0.0798439516642,0.0082057361407,-1.69716854579
1385571610070287633,0.731216552825,-0.74090330998,-0.473724111197,0.0805526845598,0.00873438788367,-1.69633716308
1385571610080356855,0.738414550404,-0.744406826376,-0.47177749976,0.0819508485427,0.00939772318612,-1.6971120667
1385571610090275712,0.745739081468,-0.747409614151,-0.470045269313,0.0822712227244,0.010161166087,-1.69685162288
1385571610100250738,0.75333920993,-0.750491031883,-0.467996982425,0.082046795253,0.00979557689433,-1.69671493157
1385571610110237329,0.760848362743,-0.753659982773,-0.466103110294,0.0829443941074,0.00951646493204,-1.69613138086
1385571610120237426,0.768048940232,-0.757004447996,-0.464061011788,0.084686113268,0.0095337669692,-1.69719941691
1385571610130440302,0.775720734502,-0.760175244721,-0.462100819112,0.085295304603,0.00992917117476,-1.69666781908
1385571610140280035,0.783142655998,-0.763553165765,-0.459880941532,0.0848189186449,0.0106481235574,-1.69542059614
1385571610150282839,0.790858192134,-0.766674904647,-0.457858625667,0.0839489874063,0.0103168951017,-1.69531803679
1385571610160333661,0.798424757427,-0.769891502847,-0.455826424501,0.0844700880504,0.0115296352223,-1.69515294025
1385571610170266149,0.805893106469,-0.773075967364,-0.453580061706,0.0852764855557,0.0118256547688,-1.69566623681
1385571610180263054,0.813674939635,-0.776047246714,-0.451576413906,0.0858151601168,0.0110515345163,-1.69680509093
1385571610190331138,0.82121593504,-0.779300772211,-0.449365453342,0.0857411217796,0.0101402029561,-1.69685590318
1385571610200270241,0.829063495277,-0.782374794712,-0.447299334282,0.0841641545423,0.00989054596613,-1.69576342434
1385571610210235269,0.836893078557,-0.785426251577,-0.445361719093,0.0855045953604,0.0113226779259,-1.69563193231
1385571610220229340,0.844557620457,-0.788739394545,-0.443038140437,0.0862995179254,0.00871868121956,-1.6953879615
1385571610230282623,0.852478223643,-0.791863789876,-0.440794881628,0.0862368313159,0.0089965673356,-1.69497341302
1385571610240239610,0.860380542672,-0.794985163821,-0.438793072645,0.0866613180234,0.00799766846334,-1.69477150453
1385571610250243991,0.868274669864,-0.798051698476,-0.436808470944,0.0865050631409,0.00967749471644,-1.69392772704
1385571610260245073,0.87623196237,-0.801135864907,-0.434745114671,0.0860457891703,0.00724606525427,-1.6943460347
1385571610270243075,0.884131376838,-0.804207199919,-0.432470504664,0.0852138692862,0.00682142082705,-1.69405404167
1385571610280303750,0.892124535748,-0.80731252069,-0.430347132561,0.0846424449823,0.00667450169484,-1.69423379468
1385571610290229159,0.900098298733,-0.81021041611,-0.42824851946,0.0835845295614,0.00666814820416,-1.69505135596
1385571610300243327,0.908168521092,-0.813456793517,-0.426116234912,0.0827085896411,0.00516377218446,-1.69469398017
1385571610310239749,0.916221903167,-0.816554967042,-0.424014998051,0.0813758593237,0.00459325966163,-1.6937647461
1385571610320230616,0.924413544249,-0.819504885005,-0.422036123474,0.0802339500372,0.00433578714638,-1.69336153984
1385571610330262293,0.932360074149,-0.822628384458,-0.419994133271,0.079294420099,0.0031276561782,-1.69335030004
1385571610340227122,0.940623808083,-0.825670439117,-0.418022853412,0.0777026115016,0.00273539710745,-1.69317189692
1385571610350223884,0.948630886286,-0.828688892721,-0.415903822659,0.0763292749686,0.00222613539437,-1.69288308288
1385571610360235419,0.956929597701,-0.831517172061,-0.414045732257,0.0754825616265,0.00123292716787,-1.69398809434
1385571610370234695,0.964997207129,-0.834557685887,-0.412178206255,0.0742203105223,0.000708638129047,-1.69462670697
1385571610380208385,0.973236892016,-0.837605147859,-0.410236684904,0.071900700849,0.000399317957023,-1.69400148503
1385571610390253862,0.981576709932,-0.84052336157,-0.408444598735,0.0701421064269,-0.000330570268065,-1.69387144354
1385571610400239534,0.989757629366,-0.843515890911,-0.406611515325,0.0687497346774,-0.00107634327568,-1.69327535143
1385571610410224770,0.99802396853,-0.846803209188,-0.404908298381,0.0675176062547,-0.00177408271044,-1.69260820928
1385571610420229970,1.00612955059,-0.849789534359,-0.403185772377,0.066422527594,-0.00149496107631,-1.69226770247
1385571610430264142,1.0145954831,-0.852605770127,-0.401487747325,0.0643554130591,-0.00227520047439,-1.69277313855
1385571610440217419,1.02260664954,-0.855861997893,-0.399830640732,0.06414253951,-0.00224768064022,-1.69144755307
1385571610450264864,1.03100571479,-0.85860399774,-0.398389054727,0.0629820159825,-0.00364080244293,-1.69282154603
1385571610460236522,1.03906706553,-0.861855753713,-0.396667515504,0.0621580298524,-0.0037697553487,-1.69182149073
1385571610470238715,1.04758162185,-0.864723014144,-0.395336442673,0.0611888943512,-0.00341438890818,-1.69193326635
1385571610480240132,1.05583200092,-0.867768782124,-0.393793508006,0.0596747897437,-0.00413856799258,-1.69147777961
1385571610490246948,1.0642538491,-0.870775210163,-0.392495713595,0.0582505285155,-0.00588362267104,-1.6906176794
1385571610500250563,1.07255044927,-0.873739365981,-0.390990186743,0.0583657305791,-0.00839551387061,-1.69001747598
1385571610510238008,1.08090891671,-0.876997151451,-0.389893724525,0.057052832457,-0.00772839820896,-1.68970389262
1385571610520233150,1.08932858446,-0.879964262964,-0.388560327477,0.0565068859251,-0.00961615325561,-1.68965303857
1385571610530245782,1.09767677561,-0.883119532083,-0.387478784916,0.055923462906,-0.010352380365,-1.68867217837
1385571610540213355,1.10603151376,-0.886198095172,-0.386274646643,0.0562704203365,-0.0119138852755,-1.68834306994
1385571610550279817,1.114406889,-0.889294210975,-0.385240559102,0.0562599179638,-0.0138687231695,-1.68842929697
1385571610560219441,1.1227941039,-0.892528455738,-0.384181733068,0.0572502557986,-0.0141842011062,-1.68829453297
1385571610570253770,1.13132790188,-0.895523069592,-0.383332758888,0.0576737301895,-0.0156114599296,-1.68775371611
1385571610580222763,1.13976561219,-0.898832708609,-0.382412004313,0.0584212022608,-0.0160845542145,-1.68791448621
1385571610590235822,1.14826636814,-0.90185992678,-0.381617081447,0.0599236999266,-0.0174539030016,-1.68797966732
1385571610600216510,1.15651484252,-0.905170778097,-0.380684518198,0.0598048863589,-0.0178776821658,-1.68747043696
1385571610610303736,1.1651599728,-0.908223262199,-0.379875277328,0.0600546329403,-0.0203586655092,-1.68721460268
1385571610620238877,1.17357157857,-0.911534911783,-0.379250860347,0.0602362670058,-0.0208652260424,-1.68702486553
1385571610630276146,1.1819806413,-0.914739940301,-0.378377367992,0.0598310580687,-0.0222893423893,-1.68748643045
1385571610640524566,1.19039094226,-0.917849480429,-0.377954305849,0.0592956629977,-0.0232852094793,-1.68723539864
1385571610650300164,1.19887949618,-0.921176756966,-0.377229520295,0.0576074336508,-0.0246067026081,-1.68701284174
1385571610660274197,1.20723117438,-0.924417426998,-0.376710546837,0.0575216013515,-0.0251831958618,-1.68706175349
1385571610670285503,1.21560384243,-0.927740277618,-0.376205167273,0.0569152817068,-0.0256741417208,-1.68676684325
1385571610680263905,1.22408478975,-0.930951662568,-0.375816423136,0.0556040434517,-0.0274277788595,-1.68726212039
1385571610690260251,1.23233692453,-0.934366544915,-0.375240594174,0.0547943530084,-0.0272868358361,-1.68753198302
1385571610700306466,1.24075164995,-0.93777848858,-0.374904189123,0.0543301219223,-0.0286543267312,-1.68694836431
1385571610710263645,1.2492862255,-0.941041760389,-0.374532726793,0.0544989322053,-0.0310677008881,-1.68627297347
1385571610720228190,1.25765622293,-0.944412065309,-0.374405855845,0.0525922626061,-0.0288380710352,-1.68587205505
1385571610730238709,1.26613682019,-0.947805793776,-0.374189770699,0.0522700169825,-0.0310939001742,-1.68546515302
1385571610740211972,1.27476501136,-0.951138924278,-0.374227620986,0.0504791484897,-0.0305881814357,-1.68599152588
1385571610750251756,1.28289049,-0.954701559745,-0.374072153403,0.0503700118363,-0.0311669808094,-1.68593337986
1385571610760196768,1.29156704193,-0.958140626414,-0.374082674358,0.0480149344659,-0.031365756183,-1.68485395219
1385571610770230555,1.29995404804,-0.961631728237,-0.374016012511,0.0457128145799,-0.0318422534979,-1.68423789308
1385571610780202582,1.30812468402,-0.96517957517,-0.373991059596,0.0445821908642,-0.0317899533357,-1.68411030435
1385571610790230633,1.3165462451,-0.968767882715,-0.374004194982,0.0423586501172,-0.0314311609541,-1.68410934493
1385571610800283193,1.32491806998,-0.972331799202,-0.374272888565,0.0400321077862,-0.02989022789,-1.68313647319
