%time,field.linear.x,field.linear.y,field.linear.z,field.angular.x,field.angular.y,field.angular.z
1385572094502255684,-0.0,0.0,0.0,1.0,0.0,0.0
1385572094542121692,-0.0,0.0,1.2826396234e-07,1.0,0.0,0.104519805052
1385572094592265762,-0.132262777586,0.0933390370282,-0.010409258193,1.0,0.0,0.0200474992134
1385572094642263897,-0.105604868417,0.0745725481521,-0.0123609356086,1.0,0.0,0.0607916814263
1385572094692116725,-0.132323806692,0.0934535989662,-0.0127178808793,1.0,0.0,0.0455320783585
1385572094742399762,-0.134185080408,0.0948018276932,-0.0126279553244,1.0,0.0,0.0547408102935
1385572094792488266,-0.140745392697,0.0994831527829,-0.0122980666727,1.0,0.0,0.0527221336663
1385572094842262827,-0.141556721008,0.100092402645,-0.0117709056767,1.0,0.0,0.0553525433236
1385572094892128212,-0.140956748808,0.0997218960691,-0.0110662174431,1.0,0.0,0.0556060956362
1385572094942185704,-0.137831822925,0.0974925133929,-0.0102047482596,1.0,0.0,0.0566534332883
1385572094992148366,-0.132907441343,0.0941184212128,-0.00917684808438,1.0,0.0,0.0573057732726
1385572095042224232,-0.126446530862,0.0895796639736,-0.00801565696031,1.0,0.0,0.0579851798478
1385572095092152861,-0.118908786139,0.0841754772843,-0.00671503927782,1.0,0.0,0.0585929513067
1385572095142224713,-0.11035250104,0.0783229461688,-0.00532531551592,1.0,0.0,0.0590610859717
1385572095192158999,-0.101340350174,0.071957964879,-0.00382913459346,1.0,0.0,0.0595247092091
1385572095242237532,-0.0920061725982,0.0654943114981,-0.00214724901658,1.0,0.0,0.0599238032652
1385572095292188395,-0.0826109744163,0.0589260164368,-0.000485894748172,1.0,0.0,0.0602247444344
1385572095342236388,-0.0734624437367,0.0523837536822,0.00128465252421,1.0,0.0,0.0605949234326
1385572095392209190,-0.0645098575056,0.0461724039448,0.00314530821519,1.0,0.0,0.0608299419794
1385572095442228977,-0.0561093442687,0.0402022285507,0.00508271864324,1.0,0.0,0.0611029565811
1385572095492192492,-0.0481317593814,0.0348148379759,0.00713297442441,1.0,0.0,0.061277076576
1385572095542228033,-0.0410603418954,0.0296162986719,0.00917968155633,1.0,0.0,0.0614964841729
1385572095592163595,-0.0345669519881,0.0250791316343,0.0113250272494,1.0,0.0,0.0616748196208
1385572095642291990,-0.0288319785592,0.0210863775196,0.0134955448397,1.0,0.0,0.0618030093592
1385572095692238733,-0.023887563628,0.0176155402872,0.0157660797811,1.0,0.0,0.0619637762134
1385572095742278962,-0.0196648476057,0.0147486463122,0.0180639386923,1.0,0.0,0.0620399087577
1385572095792186650,-0.0162775840346,0.0122985698039,0.0203845331121,1.0,0.0,0.0621725215772
1385572095842317546,-0.013673664321,0.0102737523198,0.0227228708638,1.0,0.0,0.0622790410877
1385572095892300365,-0.0115633411763,0.00894200190629,0.0251287873973,1.0,0.0,0.0623161216905
1385572095942240748,-0.0100897019164,0.00800046194228,0.0276269137257,1.0,0.0,0.0624061640719
1385572095992299753,-0.00945704381114,0.0072468269095,0.0300546030626,1.0,0.0,0.0625179759942
1385572096042295986,-0.00890520644837,0.0071564245951,0.0326158501768,1.0,0.0,0.0625459520137
1385572096092354045,-0.00911935174288,0.00723254694246,0.0350821401199,1.0,0.0,0.0625605142135
1385572096142213078,-0.0094934285621,0.00769760388827,0.0376971330112,1.0,0.0,0.0625752012354
1385572096192193962,-0.0103665005468,0.00817267344101,0.0403040070915,1.0,0.0,0.0626317732126
1385572096242409686,-0.0115738174442,0.00889473817768,0.0428305971916,1.0,0.0,0.0626992957678
1385572096292536907,-0.0125890374358,0.00996518204637,0.0455178238879,1.0,0.0,0.0626469921986
1385572096342177602,-0.0141465678979,0.0109339979881,0.0481164072291,1.0,0.0,0.0626409415308
1385572096392298745,-0.015417056263,0.0122952021754,0.0507979474936,1.0,0.0,0.0626050226442
1385572096442380650,-0.0169687667656,0.0135043572197,0.0534201697652,1.0,0.0,0.0625281539451
1385572096492221877,-0.0184745327812,0.0146617687909,0.0561069991929,1.0,0.0,0.0624517723674
1385572096542278521,-0.0201130511755,0.0156970573999,0.0588357296199,1.0,0.0,0.0624228673705
1385572096592209420,-0.0215004893023,0.01681268003,0.0615702797724,1.0,0.0,0.0623382662006
1385572096642344127,-0.0228988640416,0.0179552174163,0.064323797641,1.0,0.0,0.0622897936998
1385572096692171900,-0.0245323800017,0.018563272766,0.0670460356727,1.0,0.0,0.0623515099835
1385572096742456023,-0.0258131678783,0.0189931504986,0.0698770192934,1.0,0.0,0.062364263095
1385572096792118505,-0.0271297814909,0.019647258436,0.072651374715,1.0,0.0,0.0625220452673
1385572096842278998,-0.028355708925,0.0197356323633,0.0754650502753,1.0,0.0,0.0626924929561
1385572096892226580,-0.0295171831158,0.020213848841,0.07821047482,1.0,0.0,0.0628636024439
1385572096942488431,-0.0302679332757,0.0205190446564,0.0810362920052,1.0,0.0,0.063091856163
1385572096992168492,-0.0313790572237,0.0203908495507,0.0838201939773,1.0,0.0,0.0633326612162
1385572097042382262,-0.0315306169019,0.0207088462312,0.0867064634802,1.0,0.0,0.0635028720211
1385572097092301285,-0.0322596954178,0.0208590728057,0.0894933651623,1.0,0.0,0.0636708706404
1385572097142286999,-0.0325628089811,0.0208217494343,0.0922859878368,1.0,0.0,0.0638358397278
1385572097192187111,-0.032730240016,0.0202142989785,0.0951813281888,1.0,0.0,0.0640316163601
1385572097242248137,-0.0327818582713,0.0200993585709,0.0980015047818,1.0,0.0,0.0642528336033
1385572097292257179,-0.0326913798724,0.0195246169399,0.10084023589,1.0,0.0,0.0645909007212
1385572097342332318,-0.0335047708636,0.0193392731128,0.103306649348,1.0,0.0,0.0650241799541
1385572097392191943,-0.0333042625216,0.0198085627332,0.105653109487,1.0,0.0,0.0654686428778
1385572097442369246,-0.0337277508094,0.0221368549196,0.107409100129,1.0,0.0,0.0658228750858
1385572097492149478,-0.0347667237653,0.0240853635417,0.108752618542,1.0,0.0,0.0664388564788
1385572097542302362,-0.034810104406,0.0245882155598,0.11031583201,1.0,0.0,0.0671475596609
1385572097592227208,-0.0340334799213,0.0256470609348,0.111989641974,1.0,0.0,0.0680007835606
1385572097642388249,-0.0323514936999,0.0250681836041,0.114064744971,1.0,0.0,0.0689359911548
1385572097692273312,-0.0301273219386,0.0265361786619,0.115906910632,1.0,0.0,0.0699681958698
1385572097742269487,-0.0284893583972,0.0272613793069,0.117438772796,1.0,0.0,0.0709128365379
1385572097792186872,-0.0262896917105,0.0310526069448,0.118261346927,1.0,0.0,0.0714569919792
1385572097842232238,-0.0260624591333,0.0340702215677,0.118287467218,1.0,0.0,0.0718764504473
1385572097892292161,-0.0246913510564,0.0373977787755,0.118156922994,1.0,0.0,0.0720620368955
1385572097942205305,-0.0241447464849,0.0395420243105,0.11803343131,1.0,0.0,0.0721448829578
1385572097992282331,-0.0233236677641,0.0428738340484,0.117596849872,1.0,0.0,0.0718573654604
1385572098042222048,-0.0214059685371,0.0463801402781,0.117136924445,1.0,0.0,0.0714384652899
1385572098092309905,-0.0194909413939,0.0520807436025,0.115975296653,1.0,0.0,0.0708395532923
1385572098142312059,-0.0178398955627,0.0564499683724,0.114649411677,1.0,0.0,0.0701537910001
1385572098192316174,-0.0157640679332,0.0619167874688,0.113090040881,1.0,0.0,0.0693480135017
1385572098242367052,-0.0137982873605,0.066635645186,0.111470955529,1.0,0.0,0.0684478446486
1385572098292287036,-0.0123318002435,0.0717964022855,0.109485433488,1.0,0.0,0.0674080528474
1385572098342265936,-0.0115659759661,0.0764050076781,0.107010133009,1.0,0.0,0.0662805811531
1385572098392183798,-0.010560625982,0.0807865753267,0.104721699436,1.0,0.0,0.0651372998791
1385572098442204492,-0.0095758886738,0.0852794971074,0.102682324256,1.0,0.0,0.0638669573626
1385572098492154366,-0.00887036864774,0.0888979306897,0.101128121199,1.0,0.0,0.0625999295212
1385572098542393080,-0.00804346751584,0.0929033194604,0.099835392604,1.0,0.0,0.0612654310932
1385572098592298722,-0.00758114762509,0.0960675773835,0.0990835970099,1.0,0.0,0.0599318703434
1385572098642240952,-0.00713832852501,0.0992209392468,0.0987121287124,1.0,0.0,0.0585823721534
1385572098692305501,-0.00698126911824,0.102046954928,0.0986809222572,1.0,0.0,0.0571811967645
1385572098742274786,-0.00718632687567,0.104825874459,0.0988262132763,1.0,0.0,0.055770869837
1385572098792196279,-0.00745816395026,0.10744727853,0.0992665894733,1.0,0.0,0.0543512797632
1385572098842214807,-0.00792350702481,0.109525288103,0.100189763086,1.0,0.0,0.0529191570841
1385572098892368461,-0.00871828175725,0.111420736516,0.101461483246,1.0,0.0,0.0515145655937
1385572098942321062,-0.00956203958917,0.112614594755,0.103294242818,1.0,0.0,0.050111435036
1385572098992289837,-0.0100631820654,0.113851742756,0.105482278392,1.0,0.0,0.0486206588142
1385572099042311092,-0.0112086227125,0.114347254865,0.108060084305,1.0,0.0,0.0472775771756
1385572099092191518,-0.0123708782243,0.114829139874,0.110772979774,1.0,0.0,0.0459023265983
1385572099142222639,-0.013378996579,0.115204731326,0.113653017422,1.0,0.0,0.044547749904
1385572099192248230,-0.0144720391011,0.115509054236,0.11657041465,1.0,0.0,0.0431746501659
1385572099242192404,-0.0157798033436,0.115453933445,0.119636416032,1.0,0.0,0.0418442258508
1385572099292184188,-0.0174435332055,0.115209234995,0.122714464917,1.0,0.0,0.0405183780533
1385572099342231794,-0.0187916746706,0.115244556527,0.125698903914,1.0,0.0,0.039208608387
1385572099392168120,-0.0199724802271,0.114426392114,0.128983582752,1.0,0.0,0.0379033635232
1385572099442200586,-0.021389852207,0.114120788726,0.132127202788,1.0,0.0,0.0366771678149
1385572099492235487,-0.0227497714311,0.112961200171,0.13538316919,1.0,0.0,0.0354063291258
1385572099542226116,-0.0244499161933,0.112682469892,0.138390641905,1.0,0.0,0.0342517599405
1385572099592155318,-0.0269895756161,0.111491563186,0.140523443906,1.0,0.0,0.033034137122
1385572099642226269,-0.0288909512168,0.11059082617,0.142215891802,1.0,0.0,0.0319286456708
1385572099692207233,-0.0300796924163,0.108953493648,0.144033599455,1.0,0.0,0.0307862213988
1385572099742231938,-0.0312681858078,0.107553515932,0.145702023877,1.0,0.0,0.0297242034307
1385572099792272123,-0.0310138059297,0.106604499801,0.14717205806,1.0,0.0,0.0286407495441
1385572099842400167,-0.0319503459799,0.105130425829,0.148462161271,1.0,0.0,0.0276155505051
1385572099892186319,-0.0325329512207,0.103625592486,0.149601875511,1.0,0.0,0.0265655091041
1385572099944525553,-0.0325089941003,0.102456109708,0.150529554291,1.0,0.0,0.0254924612663
1385572099992434245,-0.0333189749539,0.101547606864,0.150915207421,1.0,0.0,0.0245189795481
1385572100042321282,-0.0335459322603,0.100720912421,0.151104730869,1.0,0.0,0.023497324389
1385572100094538021,-0.0339579552102,0.10009321011,0.150994640664,1.0,0.0,0.0225351993991
1385572100142203293,-0.0345963932396,0.0987684384748,0.150978126648,1.0,0.0,0.0215763150144
1385572100193176788,-0.0357274918837,0.0975383071506,0.150723000223,1.0,0.0,0.0207167403911
1385572100242438489,-0.0355653297487,0.0970571874995,0.150118322415,1.0,0.0,0.0196870150812
1385572100293124704,-0.0373210206491,0.0948937174701,0.149761064344,1.0,0.0,0.0189136032683
1385572100342194911,-0.0380149160492,0.094225809075,0.148899251955,1.0,0.0,0.0180375416888
1385572100392371747,-0.0385599611852,0.0930751012539,0.147904720146,1.0,0.0,0.017269341248
1385572100442847334,-0.0399653599055,0.0917247981385,0.146756103376,1.0,0.0,0.0164376857218
1385572100492255541,-0.0387279582445,0.0911426965667,0.145708023457,1.0,0.0,0.0156238187248
1385572100542212035,-0.0394455870944,0.0896153789073,0.144708175553,1.0,0.0,0.0149376724569
1385572100593380419,-0.0396655121229,0.0882322443761,0.143696215282,1.0,0.0,0.0142316867724
1385572100642503256,-0.0400409814772,0.0869083824192,0.142528425062,1.0,0.0,0.0136021729548
1385572100692350362,-0.0393525354391,0.0862269159335,0.141124758932,1.0,0.0,0.0128896461181
1385572100742508252,-0.0388520814183,0.0855048172303,0.139616267017,1.0,0.0,0.0123268524015
1385572100792325407,-0.0386660543496,0.0849332731642,0.13786893031,1.0,0.0,0.0116843525413
1385572100842300911,-0.0383859278409,0.0840750339866,0.136217579672,1.0,0.0,0.0110838177241
1385572100892392554,-0.0379654133163,0.0836012065858,0.134515823901,1.0,0.0,0.0104960836117
1385572100942326051,-0.0380056917191,0.0826978480909,0.132908912812,1.0,0.0,0.010026166051
1385572100992213528,-0.0378304518065,0.0819262097281,0.131409453705,1.0,0.0,0.00952065195005
1385572101042242457,-0.0383149724619,0.0811175526001,0.129779553977,1.0,0.0,0.00905973212094
1385572101092189633,-0.0367068745908,0.0813285818876,0.128042801817,1.0,0.0,0.00854408365522
1385572101142233923,-0.0365880161417,0.0809187267953,0.126391967298,1.0,0.0,0.00807526320003
1385572101192211819,-0.0361799124267,0.0807125476709,0.124687757356,1.0,0.0,0.00764889252337
1385572101242248401,-0.0351793680975,0.0806335094692,0.123219504135,1.0,0.0,0.00715584801345
1385572101292330186,-0.0352253107942,0.0803976052524,0.121670210886,1.0,0.0,0.00677838224281
1385572101342339356,-0.0344268313206,0.080501990791,0.120201783464,1.0,0.0,0.00632364905701
1385572101392309098,-0.0340742383843,0.0803256867561,0.118769965076,1.0,0.0,0.00594763118572
1385572101442251544,-0.03344160473,0.0804671559755,0.117382258614,1.0,0.0,0.00554856324045
1385572101492259185,-0.0329995246403,0.0805518576866,0.116065456061,1.0,0.0,0.00519659431333
1385572101542432104,-0.0326654613672,0.0804839958205,0.114881802148,1.0,0.0,0.00487010557801
1385572101592205798,-0.0319198516666,0.0806681807202,0.113668154768,1.0,0.0,0.00451109995286
1385572101642321951,-0.0319596610322,0.0808190241553,0.112352003648,1.0,0.0,0.00422982015951
1385572101692208415,-0.0311295331695,0.0811078032284,0.111115485902,1.0,0.0,0.00386215628806
1385572101742385783,-0.0307532594612,0.0814129215328,0.109796364692,1.0,0.0,0.00354837937475
1385572101792321763,-0.0302278265803,0.0815018397065,0.108630657533,1.0,0.0,0.00322547144287
1385572101842207579,-0.0301490744536,0.0818059587526,0.107262295823,1.0,0.0,0.00294874408614
1385572101892232903,-0.0298418117076,0.0819276965811,0.105986874291,1.0,0.0,0.00267457156481
1385572101942428986,-0.0300295798036,0.0820287990134,0.104550494673,1.0,0.0,0.00243890590275
1385572101992170311,-0.0300126835431,0.0821275071585,0.103148062415,1.0,0.0,0.0021926770366
1385572102042211114,-0.029855481353,0.0820812599918,0.101817773478,1.0,0.0,0.00193196797288
1385572102092202401,-0.0306863890689,0.0818467492332,0.100405417846,1.0,0.0,0.00182241591256
1385572102142203554,-0.0305479410486,0.0818684172686,0.0990008788657,1.0,0.0,0.00161277384264
1385572102192199954,-0.0312708492551,0.0816657931619,0.0974225051337,1.0,0.0,0.00149697067978
1385572102242245627,-0.0315786524109,0.0815136769704,0.0957849646577,1.0,0.0,0.00133469307119
1385572102292160448,-0.032217900726,0.0812220275042,0.0942905916558,1.0,0.0,0.0012160285439
1385572102342196148,-0.032687315263,0.0810162630208,0.0926595555272,1.0,0.0,0.00110050928959
1385572102392174758,-0.0332236259973,0.0808229665707,0.0910078357649,1.0,0.0,0.000999055079776
1385572102442213804,-0.0337706436738,0.0806192987555,0.089285940125,1.0,0.0,0.000891871681362
1385572102492174206,-0.0338954756799,0.0805965886722,0.0875794846213,1.0,0.0,0.000705109441736
1385572102542114975,-0.0346191931276,0.0802730061299,0.0859701318997,1.0,0.0,0.000634277215934
1385572102592186347,-0.0346747814265,0.0802275810826,0.0843304330069,1.0,0.0,0.000432854285843
1385572102642378664,-0.0349847406718,0.0798994033387,0.0829375851492,1.0,0.0,0.000299356385986
1385572102692135760,-0.0356788839464,0.0796708230824,0.0814559708574,1.0,0.0,0.000193247973708
1385572102742247647,-0.0362084882422,0.0793866117408,0.0800536882112,1.0,0.0,0.000117586052167
1385572102792193663,-0.0365623864331,0.079190912643,0.0786197146176,1.0,0.0,-2.60542727733e-05
1385572102842248192,-0.0371438967088,0.078939964827,0.0772272066022,1.0,0.0,-8.99978229977e-05
1385572102892189320,-0.0375969553482,0.0787918440557,0.075854253027,1.0,0.0,-0.000205318646153
1385572102942166346,-0.0377860856833,0.0787641527892,0.0743701353459,1.0,0.0,-0.000311281271117
1385572102992238864,-0.0382866574944,0.0787258601158,0.0728607926539,1.0,0.0,-0.000418382183585
1385572103042257246,-0.0386190811046,0.0786068513393,0.0715227495043,1.0,0.0,-0.000490474514832
1385572103092469533,-0.0388995897675,0.0787613687065,0.0700653265117,1.0,0.0,-0.000603572681176
1385572103142203636,-0.0394283425586,0.0785483110447,0.0688831595426,1.0,0.0,-0.000658310175078
1385572103192355083,-0.0391745112133,0.0787837580413,0.0676630850979,1.0,0.0,-0.000829106061981
1385572103242196793,-0.0396676633379,0.07871512317,0.0666420854506,1.0,0.0,-0.000852518403914
1385572103292262896,-0.0401976611235,0.0787965775559,0.065213469679,1.0,0.0,-0.000975041897596
1385572103342329980,-0.0402122933126,0.0790605389669,0.063758257849,1.0,0.0,-0.00107933536991
1385572103392147538,-0.0403451349583,0.0792929702481,0.0624416319455,1.0,0.0,-0.00121062621066
1385572103442260895,-0.0404574926171,0.0797334346595,0.0610050689198,1.0,0.0,-0.00133392406236
1385572103492193868,-0.0404208769485,0.0800716065333,0.0596475354115,1.0,0.0,-0.00149856272019
1385572103542258576,-0.0408503899822,0.0803608587652,0.0584212625697,1.0,0.0,-0.00156568481513
1385572103592215507,-0.0407219958544,0.0810172348282,0.0570413612363,1.0,0.0,-0.00175057863996
1385572103642313257,-0.0411331140136,0.0814032709334,0.0558446550464,1.0,0.0,-0.00183660223091
1385572103692200837,-0.0408135763884,0.0821343067072,0.0547412749559,1.0,0.0,-0.00204091003719
1385572103742170908,-0.0416705043191,0.0824048973577,0.0537858423621,1.0,0.0,-0.0020779785886
1385572103792301595,-0.0417459991092,0.0829637176094,0.0529563100578,1.0,0.0,-0.0021946025841
1385572103842531416,-0.0419763613173,0.0835376703966,0.0522065878755,1.0,0.0,-0.00230195756049
1385572103892274677,-0.0423079687119,0.084115819856,0.0514415900451,1.0,0.0,-0.00239958451151
1385572103942247896,-0.0426646340221,0.0847219999408,0.0505773438838,1.0,0.0,-0.0024714628444
1385572103992236911,-0.0431831260663,0.0852888806577,0.0497378649122,1.0,0.0,-0.00252243801002
1385572104042206810,-0.0434846836753,0.0857733552795,0.0491256307524,1.0,0.0,-0.00261183226753
1385572104092182454,-0.0436934949968,0.0865344043867,0.0482166231881,1.0,0.0,-0.0027001958179
1385572104142323226,-0.0445284544917,0.0867899973366,0.0476029029046,1.0,0.0,-0.00270450734343
1385572104192164705,-0.044557830794,0.0875728694338,0.0468909214069,1.0,0.0,-0.00281318809176
1385572104242260924,-0.0452128577351,0.0879134659725,0.0461467974351,1.0,0.0,-0.00284126061987
1385572104292222547,-0.0455963398142,0.0883796095844,0.045588086749,1.0,0.0,-0.00289410406281
1385572104342253611,-0.0458776730589,0.0888688838119,0.0449941593217,1.0,0.0,-0.00296177677289
1385572104392261414,-0.0461759773507,0.0893977559551,0.0442494744698,1.0,0.0,-0.0030570208207
1385572104442220979,-0.0467968012133,0.0896750891964,0.043692247352,1.0,0.0,-0.00307980164386
1385572104492209448,-0.0472950944397,0.0899942810807,0.0430036397451,1.0,0.0,-0.00313547963869
1385572104542471187,-0.0485297127031,0.0900060437346,0.0423988375947,1.0,0.0,-0.00304954042342
1385572104592245198,-0.0490834931192,0.0902867612666,0.0417050175201,1.0,0.0,-0.00306408374553
1385572104642313226,-0.0498466405287,0.0904032746194,0.0411225625389,1.0,0.0,-0.00302665762942
1385572104692312651,-0.0506269761067,0.0904183841615,0.0406215052425,1.0,0.0,-0.00298960334712
1385572104742307447,-0.051314762544,0.0905729679705,0.0400963754395,1.0,0.0,-0.00296930278332
1385572104792355049,-0.0521815300572,0.090497489737,0.0396833081543,1.0,0.0,-0.00290380836221
1385572104842104624,-0.0521182870843,0.0908028903557,0.0393396332588,1.0,0.0,-0.00297953880601
1385572104892393354,-0.0534672939027,0.0904819381316,0.0388614873329,1.0,0.0,-0.00286922877804
1385572104942335741,-0.0537640727556,0.0904987338882,0.038508434726,1.0,0.0,-0.00288903065476
1385572104992305669,-0.0544595752815,0.0903596340422,0.0381247481523,1.0,0.0,-0.00284977181314
1385572105042257883,-0.0547393804698,0.0902678104206,0.037785192419,1.0,0.0,-0.00288436274729
1385572105092360629,-0.0559942015818,0.089755991206,0.0375798406986,1.0,0.0,-0.00274195188739
1385572105142219763,-0.0558679190217,0.0897227203245,0.0372394967759,1.0,0.0,-0.00280670389945
1385572105192226472,-0.0565625342332,0.0892659640094,0.0370176061124,1.0,0.0,-0.00273511341723
1385572105242260364,-0.0566112642905,0.0889329686255,0.0368982121936,1.0,0.0,-0.00274547111026
1385572105292924976,-0.0569834937435,0.0882714624348,0.0372556814078,1.0,0.0,-0.00268428982225
1385572105342361216,-0.0565049808715,0.0880832403998,0.0375356197784,1.0,0.0,-0.00268760301876
1385572105392182806,-0.0562924666958,0.087517764447,0.037566847352,1.0,0.0,-0.00272014257311
1385572105442258840,-0.05661539513,0.086559071687,0.0375613471514,1.0,0.0,-0.00262899009472
1385572105492176850,-0.0563405904517,0.0857011335368,0.0376501151475,1.0,0.0,-0.0026424862128
1385572105542458295,-0.0559235899288,0.0847758325169,0.0376473908594,1.0,0.0,-0.00256812398984
1385572105592169529,-0.0564299005884,0.0832557036492,0.0374351695147,1.0,0.0,-0.00242187630366
1385572105642221738,-0.0559062987615,0.0820541128591,0.0372647086993,1.0,0.0,-0.00231513790539
1385572105692136902,-0.0559872156333,0.0804524980526,0.0368653804193,1.0,0.0,-0.00213959097468
1385572105742661956,-0.0551488725602,0.0791065386457,0.0364949947526,1.0,0.0,-0.00204405685595
1385572105792245484,-0.0551396023339,0.0772657283754,0.0361877262359,1.0,0.0,-0.00182394477109
1385572105842342771,-0.054385419642,0.0755877434816,0.0359191742059,1.0,0.0,-0.00167716778145
1385572105892200913,-0.0536009496972,0.07396678715,0.0353524897004,1.0,0.0,-0.00150984113603
1385572105942199503,-0.0530140685263,0.0719315414719,0.0351103041025,1.0,0.0,-0.00132898632219
1385572105992343434,-0.0521404790418,0.0702035799212,0.0346594615777,1.0,0.0,-0.00113684960475
1385572106042162572,-0.0505200076206,0.0688107577389,0.0340733676587,1.0,0.0,-0.00107133715947
1385572106092441357,-0.0492483070567,0.0673050319212,0.0334924275594,1.0,0.0,-0.000920803530676
1385572106142199316,-0.0483618942814,0.0655038709559,0.032872059692,1.0,0.0,-0.000774578682287
1385572106192375888,-0.0466168046424,0.0641387243905,0.0325673519861,1.0,0.0,-0.000702625748584
1385572106242328711,-0.0448763386203,0.0629080078729,0.0320929665249,1.0,0.0,-0.000681482138569
1385572106292332013,-0.0442168237922,0.0612520920011,0.0313011354361,1.0,0.0,-0.000502715911819
1385572106342298958,-0.042203504871,0.05992044422,0.0313284123206,1.0,0.0,-0.00050440396071
1385572106392456278,-0.0413167129904,0.0586218873213,0.0306781502129,1.0,0.0,-0.000393929860555
1385572106442515216,-0.0400341873336,0.0572907040628,0.0301072591632,1.0,0.0,-0.000323219480543
1385572106492691434,-0.0386461868996,0.056212299155,0.0297611952786,1.0,0.0,-0.000285882483829
1385572106543775343,-0.0381581327785,0.0547341072841,0.029168109245,1.0,0.0,-0.000109548265852
1385572106592180316,-0.0368459521997,0.0536773744096,0.0288031357665,1.0,0.0,-6.38753349195e-05
1385572106642371512,-0.0360095506935,0.0525812686798,0.0282673986852,1.0,0.0,4.50760714064e-05
1385572106692702243,-0.0349330862965,0.0516857961432,0.0278085052532,1.0,0.0,0.000107646144733
1385572106742312490,-0.0342727140886,0.050764657464,0.0270205171684,1.0,0.0,0.000188126145449
1385572106792372242,-0.0335683918081,0.0498178700297,0.0266178781735,1.0,0.0,0.000286190383333
1385572106842427770,-0.0323430140013,0.0492825911804,0.0261428955663,1.0,0.0,0.000282540830293
1385572106892241921,-0.0321039862405,0.0483733077634,0.0257525230488,1.0,0.0,0.000398709913597
1385572106942261506,-0.0311181509666,0.0479561094489,0.0252166579306,1.0,0.0,0.0003749375684
1385572106992399835,-0.030391398781,0.0474338849286,0.0248574245986,1.0,0.0,0.000370230663669
1385572107042308957,-0.0304776722332,0.0466098402211,0.024595697808,1.0,0.0,0.00047899780075
1385572107092273806,-0.0303656143226,0.0459725694036,0.0240547396803,1.0,0.0,0.0005494616603
1385572107143502832,-0.0303161918751,0.0453070645962,0.0237035968288,1.0,0.0,0.000640892027418
1385572107192214411,-0.0296560888151,0.0451124264898,0.0232664372915,1.0,0.0,0.00061357387254
1385572107242291407,-0.0296127744128,0.0445993567451,0.0230048677071,1.0,0.0,0.000669891882035
1385572107292281330,-0.0299105688973,0.0439852041442,0.0226182621638,1.0,0.0,0.000768794519043
1385572107342373679,-0.0300422128195,0.0434595272964,0.0222445179011,1.0,0.0,0.000845759377275
1385572107392191830,-0.0298726079004,0.0431799452175,0.021717569221,1.0,0.0,0.000852828410553
1385572107442299604,-0.0300144902014,0.0426830339706,0.0213877307286,1.0,0.0,0.00091398205536
1385572107492249208,-0.0301768985875,0.0423012922368,0.0209677965795,1.0,0.0,0.000966952759044
1385572107542341011,-0.0302780575892,0.0418510246317,0.0206834934966,1.0,0.0,0.000993093090896
1385572107592211398,-0.0297091920045,0.0418612713036,0.0203624106312,1.0,0.0,0.000909669848376
1385572107642247877,-0.0306201058385,0.0410359745203,0.0201333918054,1.0,0.0,0.00105981570376
1385572107692098530,-0.0304182972427,0.040847752253,0.019935841603,1.0,0.0,0.00102272507674
1385572107742295563,-0.0301880442551,0.0406135106181,0.0196929862172,1.0,0.0,0.00099046990408
1385572107792238312,-0.0305564001243,0.0400761169229,0.0196107310375,1.0,0.0,0.0010504632039
1385572107842288420,-0.0307028579034,0.0396455694032,0.0192511215213,1.0,0.0,0.00105665126532
1385572107892202262,-0.0307318458665,0.0393409191884,0.0190662429162,1.0,0.0,0.00106172060806
1385572107942230801,-0.0308082770618,0.0388929233504,0.0187599343478,1.0,0.0,0.00106125971776
1385572107992168856,-0.030750019288,0.0385258247356,0.018664954312,1.0,0.0,0.00103811924763
1385572108042224158,-0.0306772573477,0.0380819731641,0.0184151702295,1.0,0.0,0.00100641264857
1385572108092199553,-0.0305616827528,0.0376386929213,0.0184695518793,1.0,0.0,0.000952780133088
1385572108142341662,-0.0307574825111,0.0370841198814,0.018293119483,1.0,0.0,0.000976863424572
1385572108192243273,-0.0308878796915,0.0363887023066,0.018231365982,1.0,0.0,0.000991114710718
1385572108242240538,-0.0306452788545,0.0359974338025,0.0181905920525,1.0,0.0,0.000942312735937
1385572108292175858,-0.0311302936801,0.0351362020152,0.0180346564464,1.0,0.0,0.00101621607253
1385572108342206399,-0.0305592554854,0.0348953036922,0.0179809096555,1.0,0.0,0.000908506670015
1385572108392159934,-0.0308224789934,0.0341543585743,0.0177446909751,1.0,0.0,0.000937934038512
1385572108442127390,-0.0302841816508,0.0338354683253,0.017496830089,1.0,0.0,0.000792772913695
1385572108492220011,-0.0303105183833,0.0331784716766,0.0175681155032,1.0,0.0,0.000787422690877
1385572108542178971,-0.0299518016177,0.0327482020884,0.0174032242823,1.0,0.0,0.000677830185532
1385572108592239216,-0.029862386857,0.032215184962,0.0172899191716,1.0,0.0,0.000633473104579
1385572108642276901,-0.0290828207926,0.0319729527122,0.0172606068994,1.0,0.0,0.000438800200827
1385572108692265336,-0.0293312512437,0.0311508501066,0.0172482348975,1.0,0.0,0.000453082343425
1385572108742224731,-0.0287113896004,0.0308959022945,0.0172354766794,1.0,0.0,0.000311274094999
1385572108792254740,-0.0284881529484,0.0303752357143,0.0170032616937,1.0,0.0,0.000227488673444
1385572108842267284,-0.0280631704934,0.0300056647055,0.0169677141113,1.0,0.0,0.000126466553652
1385572108892193220,-0.0277450136182,0.0295636044444,0.0168457034133,1.0,0.0,5.3104168165e-05
1385572108942235277,-0.0270314184346,0.0292716431398,0.0169389717717,1.0,0.0,-9.29122404669e-05
1385572108992214573,-0.0269398993997,0.0287955238183,0.0167670148787,1.0,0.0,-0.000101508649581
1385572109042198598,-0.026165815177,0.028653227874,0.0166562541726,1.0,0.0,-0.000274765872635
1385572109092171753,-0.025447961345,0.0284255852895,0.0165363088524,1.0,0.0,-0.000427829675078
1385572109142251315,-0.0251232492861,0.0280939025084,0.0163337616406,1.0,0.0,-0.000520756465235
1385572109192218421,-0.0243235144039,0.0280475714288,0.0164264905582,1.0,0.0,-0.000695470713741
1385572109242231726,-0.0235334099614,0.0279636098214,0.0160413149546,1.0,0.0,-0.000927310277532
1385572109292250737,-0.0232183218609,0.0276362017064,0.0158744031268,1.0,0.0,-0.00100899539972
1385572109342354650,-0.0226295250521,0.0274694003183,0.0154628476563,1.0,0.0,-0.00118280252407
1385572109392233425,-0.0221237827216,0.0273024868765,0.0151062967856,1.0,0.0,-0.00130708149727
1385572109442215947,-0.0214519479651,0.0273368027254,0.0148691189596,1.0,0.0,-0.00149013245828
1385572109492189110,-0.0207105404699,0.0273372988463,0.0146989036598,1.0,0.0,-0.00170055291052
1385572109542242543,-0.0204035161377,0.0271185241911,0.0144743135979,1.0,0.0,-0.00183210574723
1385572109592197675,-0.0195539423898,0.0272418160709,0.0142890961293,1.0,0.0,-0.00209400773899
1385572109642205867,-0.0194752516243,0.0269353116113,0.0140293246585,1.0,0.0,-0.00216693305106
1385572109692189266,-0.0189533938592,0.0269318635595,0.0139012476833,1.0,0.0,-0.00236863692015
1385572109742260845,-0.018549719443,0.0268578248186,0.0136442548876,1.0,0.0,-0.00253606447025
1385572109792172458,-0.0182039897409,0.0268201238072,0.0134410444222,1.0,0.0,-0.00267323554622
1385572109842253740,-0.0177777353303,0.026669998783,0.0135303786245,1.0,0.0,-0.00284188125945
1385572109892316291,-0.0175275639093,0.0265803764089,0.0133645602057,1.0,0.0,-0.00299146865636
1385572109942278483,-0.0171168255887,0.0264532370053,0.0131766364132,1.0,0.0,-0.0031514926546
1385572109992150122,-0.0168233838012,0.0262785281483,0.0129843973948,1.0,0.0,-0.00329063983852
1385572110042642111,-0.016654752605,0.0259144423664,0.0128183990253,1.0,0.0,-0.0034263938115
1385572110092160402,-0.0162273778473,0.0256737118253,0.0127876495597,1.0,0.0,-0.00358604617938
1385572110142266010,-0.0162847619788,0.0252259506045,0.0127011913158,1.0,0.0,-0.00364561827606
1385572110192204503,-0.0161063215096,0.0247840346144,0.0123813469188,1.0,0.0,-0.00380420722372
1385572110242287139,-0.0157082905131,0.0244517058552,0.0122551916538,1.0,0.0,-0.00391412925592
1385572110292238588,-0.0153308737139,0.0240446895409,0.0122487846545,1.0,0.0,-0.00407139378883
1385572110342612871,-0.0152542552185,0.0234190452025,0.0121584486656,1.0,0.0,-0.00414138949499
1385572110392215675,-0.015024699291,0.022865786282,0.0120519688707,1.0,0.0,-0.00423390130935
1385572110442323750,-0.0146998315626,0.0223409030965,0.0120543911581,1.0,0.0,-0.00434390972967
1385572110492403599,-0.0143880500666,0.0216978753134,0.0117624307923,1.0,0.0,-0.00442965701608
1385572110542248455,-0.0138662235686,0.0212764392896,0.0114844094001,1.0,0.0,-0.00458925207064
1385572110592182898,-0.0135953596915,0.0206133528567,0.0113401766444,1.0,0.0,-0.00468167462033
1385572110642226297,-0.0133834553964,0.0199921018321,0.0111226477257,1.0,0.0,-0.00475764679454
1385572110692290606,-0.0128868593708,0.0195113771412,0.0109396553243,1.0,0.0,-0.00489969144593
1385572110742342837,-0.0125603909898,0.0189532816144,0.0107490602472,1.0,0.0,-0.00501252053297
1385572110792451413,-0.012173873338,0.0185170027849,0.0104452826939,1.0,0.0,-0.0051350397477
1385572110842210322,-0.0118906802442,0.0180292664292,0.0101499124997,1.0,0.0,-0.00523899210766
1385572110892256118,-0.0117165059122,0.0174966627571,0.00989421973718,1.0,0.0,-0.00531190813997
1385572110942263057,-0.0114456486356,0.0171693551515,0.00964076730315,1.0,0.0,-0.00539936477421
1385572110992320721,-0.0113706820319,0.0167159939507,0.0093597465974,1.0,0.0,-0.00546623244195
1385572111046363542,-0.011117755166,0.016529420531,0.00908616269915,1.0,0.0,-0.00560782838598
1385572111092218031,-0.0109878694456,0.0162834982757,0.00893902944851,1.0,0.0,-0.005706323959
1385572111142190368,-0.0109887213969,0.0160250526572,0.00880699760127,1.0,0.0,-0.0057910714831
1385572111192164406,-0.010924329503,0.015882948926,0.00868611979614,1.0,0.0,-0.0058978169741
1385572111242211206,-0.011071808104,0.0157191339213,0.00841828081387,1.0,0.0,-0.00594362469874
1385572111292170356,-0.0111542794117,0.0155629729982,0.00828537852384,1.0,0.0,-0.00600292054836
1385572111342297528,-0.0111894069952,0.015459260457,0.00815998186122,1.0,0.0,-0.0060968564674
1385572111392256861,-0.0112679516623,0.0154339601899,0.00801149318906,1.0,0.0,-0.00616916889106
1385572111442214198,-0.0114819677052,0.0153466001991,0.0078325191119,1.0,0.0,-0.00624532124616
1385572111492172813,-0.0114759715769,0.0154649530349,0.00758317587692,1.0,0.0,-0.00636674062545
1385572111542245350,-0.0117123303457,0.0153239256024,0.00744767967753,1.0,0.0,-0.00640953097451
1385572111592264455,-0.01172926668,0.0154382726741,0.0073255805118,1.0,0.0,-0.00652172171141
1385572111642230993,-0.0119806451598,0.0153399878151,0.00718367610103,1.0,0.0,-0.0065455342565
1385572111692282849,-0.011975320036,0.0154418302759,0.00709223814472,1.0,0.0,-0.00667509306723
1385572111742236377,-0.0121195862244,0.0154131595361,0.00698057736674,1.0,0.0,-0.00671798583879
1385572111792250413,-0.0121693332362,0.0153890013705,0.00680501769797,1.0,0.0,-0.00678146867857
1385572111842229649,-0.0122115434732,0.0153574196648,0.00670296549546,1.0,0.0,-0.00682237389906
1385572111892250630,-0.0123095510719,0.0153319491207,0.00654586045933,1.0,0.0,-0.00681080425407
1385572111942273173,-0.0120729512879,0.0154656462359,0.0063299985074,1.0,0.0,-0.00694375073165
1385572111992203937,-0.0120470381984,0.0155058073188,0.00621359874306,1.0,0.0,-0.00695324381935
1385572112042262826,-0.011865574416,0.0155196263188,0.00609063951132,1.0,0.0,-0.00704915219373
1385572112092193706,-0.0118105004596,0.0156486525052,0.00596072754759,1.0,0.0,-0.00706210781715
1385572112142277839,-0.0115789849623,0.0157076667911,0.00584449752213,1.0,0.0,-0.00715758558231
1385572112192401022,-0.0114786987988,0.0157288916725,0.00577159149693,1.0,0.0,-0.00717758688416
1385572112242339131,-0.0113183351401,0.0157708141301,0.0057239805687,1.0,0.0,-0.00724325736869
1385572112292216419,-0.0109837793873,0.0158510876138,0.00570528295077,1.0,0.0,-0.00735022462902
1385572112342165144,-0.0109104603827,0.0158460184588,0.00563258281821,1.0,0.0,-0.00738600136183
1385572112392353306,-0.0106571371457,0.0158080178138,0.00561673983898,1.0,0.0,-0.00749047843206
1385572112442283074,-0.0106298652178,0.0157153644463,0.00560607858315,1.0,0.0,-0.00751617575784
1385572112492312846,-0.0103953827864,0.0156653994298,0.00554972770621,1.0,0.0,-0.0076047990634
1385572112542263266,-0.0103216859541,0.0155236534208,0.00547040540888,1.0,0.0,-0.00764687261354
1385572112594570235,-0.0102217612168,0.0154420121528,0.00541264719756,1.0,0.0,-0.00770555026019
1385572112643276448,-0.0100037669115,0.0153670236598,0.00533052840602,1.0,0.0,-0.00783687559505
1385572112692312600,-0.00985756409566,0.0152562729794,0.00524637461813,1.0,0.0,-0.00794309415263
1385572112742635019,-0.00993711344374,0.0150165743943,0.00525094094762,1.0,0.0,-0.00795072210354
1385572112792284792,-0.00994048200261,0.0148555283262,0.00508897929645,1.0,0.0,-0.00799106156458
1385572112842573080,-0.00978792506402,0.0147474610856,0.00496075967146,1.0,0.0,-0.00810440150083
1385572112892841001,-0.00985893228787,0.0146153993936,0.00486127316323,1.0,0.0,-0.0081414461969
1385572112942929183,-0.00996095763132,0.0144383783372,0.00482918696602,1.0,0.0,-0.00817179185819
1385572112992436798,-0.010022171189,0.0143778562073,0.00479027102968,1.0,0.0,-0.00821101967084
1385572113042257460,-0.0100984481643,0.0142009278011,0.00481354685979,1.0,0.0,-0.00825241137944
1385572113092223378,-0.0100865789931,0.0141798755319,0.00476866910895,1.0,0.0,-0.00833540909654
1385572113142428639,-0.0101720053147,0.0140109562121,0.00481286944906,1.0,0.0,-0.008376197202
1385572113192768928,-0.0103249966527,0.01388820949,0.00488501625342,1.0,0.0,-0.0084079813693
1385572113242300771,-0.0104934629911,0.0136214004948,0.00495130924899,1.0,0.0,-0.00839422953261
1385572113292225207,-0.0106308871444,0.0134441103867,0.00496769759126,1.0,0.0,-0.0083919889126
1385572113342260066,-0.0108518277026,0.0131106414626,0.00501298547864,1.0,0.0,-0.00832930503191
1385572113392229608,-0.0108433074737,0.0129676614313,0.00503561979619,1.0,0.0,-0.00839302398973
1385572113442344524,-0.0110596387471,0.0126821757669,0.00500655306528,1.0,0.0,-0.00835746512521
1385572113492208871,-0.011155783889,0.0124357616361,0.00501804177157,1.0,0.0,-0.00836641152382
1385572113542310076,-0.0113604039289,0.0120864900355,0.00504272314928,1.0,0.0,-0.00829825861693
1385572113592287932,-0.011388335978,0.0118666042954,0.00504502490949,1.0,0.0,-0.00831049243694
1385572113642338400,-0.0114891562741,0.011576777954,0.00501109191278,1.0,0.0,-0.0082852663285
1385572113692184245,-0.0115287685416,0.0113218884563,0.00501814961369,1.0,0.0,-0.00830781233667
1385572113742260331,-0.011583250182,0.0109376300068,0.00508067103133,1.0,0.0,-0.00831019079757
1385572113792247458,-0.0116040261489,0.0106633761604,0.00511261368084,1.0,0.0,-0.00832949164931
1385572113842344868,-0.0115758570205,0.0104226103897,0.00508422779701,1.0,0.0,-0.0083507694599
1385572113892191406,-0.0115730376949,0.010058314455,0.00507931041523,1.0,0.0,-0.00836235181266
1385572113942359645,-0.0115577491516,0.00984796027891,0.00501108581704,1.0,0.0,-0.00838615444886
1385572113992190184,-0.011543844418,0.00953742047834,0.00497080584229,1.0,0.0,-0.00842689772661
1385572114042224494,-0.0115115990641,0.00926267920238,0.00491574212931,1.0,0.0,-0.00845641833837
1385572114092171802,-0.0115638131301,0.00892387170325,0.0049126418187,1.0,0.0,-0.00846291468219
1385572114142305613,-0.0114412842723,0.00869986500217,0.00485111228662,1.0,0.0,-0.00855078889059
1385572114192233752,-0.0114932669604,0.00844086909733,0.00479890306522,1.0,0.0,-0.00858631274779
1385572114242278103,-0.0115860191206,0.00817234511677,0.00477270367697,1.0,0.0,-0.00859899363394
1385572114292258971,-0.0115697647038,0.00791802585372,0.00475092312908,1.0,0.0,-0.00866997611256
1385572114342340738,-0.0117514024053,0.00764890052391,0.00469889728838,1.0,0.0,-0.00867285979014
1385572114392956701,-0.0118695384354,0.00738138764596,0.00470466758008,1.0,0.0,-0.0087047285287
1385572114442215494,-0.0120531943764,0.00714674792001,0.00465409426104,1.0,0.0,-0.00869319725961
1385572114492224989,-0.0122153840432,0.00694716577521,0.00460053771494,1.0,0.0,-0.0087219488494
1385572114542257652,-0.0124808384782,0.00667397366681,0.00453738885878,1.0,0.0,-0.00867049779084
1385572114592172209,-0.0126168274315,0.00653967501648,0.00447419034653,1.0,0.0,-0.00869831307364
1385572114642213087,-0.0128538865711,0.00635163404665,0.00440776749632,1.0,0.0,-0.00865722357362
1385572114692245983,-0.0130844517223,0.00617158683079,0.0043124976447,1.0,0.0,-0.00863469702034
1385572114742246352,-0.0132955864865,0.00601767980875,0.00422760938926,1.0,0.0,-0.0085677600726
1385572114792234396,-0.0134713080373,0.00588063264366,0.00412794142567,1.0,0.0,-0.00852859637574
1385572114842302955,-0.0136549412678,0.00577492226146,0.0040843371324,1.0,0.0,-0.00844756909433
1385572114892283830,-0.0137714604679,0.00565788060079,0.00401292893654,1.0,0.0,-0.00838750527342
1385572114942280232,-0.0138290760084,0.00566267308285,0.00395241296679,1.0,0.0,-0.00835249299874
1385572114992305563,-0.0139399936318,0.00564360140871,0.003925004777,1.0,0.0,-0.00826044660317
1385572115042287444,-0.0139012935312,0.00565735005862,0.00393881942134,1.0,0.0,-0.00824613029498
1385572115092210700,-0.0139994697862,0.00570415002558,0.00394979952768,1.0,0.0,-0.00813440323113
1385572115142204305,-0.0139346590301,0.00581137465673,0.00403304110792,1.0,0.0,-0.00809147813052
1385572115192179470,-0.0139234927507,0.00593449338018,0.0040956012974,1.0,0.0,-0.00801818586414
1385572115242206845,-0.013850711256,0.00619125594259,0.00413957898936,1.0,0.0,-0.0079565536615
1385572115292329720,-0.013823389046,0.0062998292263,0.00424260326127,1.0,0.0,-0.00785767144058
1385572115342244155,-0.0137918248089,0.0065421307706,0.00435867715181,1.0,0.0,-0.00774389016566
1385572115392206865,-0.0136916321276,0.00676421761964,0.00448478420144,1.0,0.0,-0.00763699589334
1385572115442260879,-0.0136085226998,0.00700655624032,0.00457460038373,1.0,0.0,-0.00752468465132
1385572115492196447,-0.0134142174519,0.00740192920955,0.00464410081252,1.0,0.0,-0.00745860217655
1385572115542378537,-0.0132338881117,0.00770578258643,0.0047005315968,1.0,0.0,-0.00736577587287
1385572115592171330,-0.0131455417056,0.00800232847886,0.00479140022134,1.0,0.0,-0.00721347054102
1385572115642278831,-0.0129074845646,0.00832972979744,0.00488284355401,1.0,0.0,-0.00711190304317
1385572115692206063,-0.0127023844424,0.00868739068738,0.00497990171874,1.0,0.0,-0.00697866275895
1385572115742260385,-0.0124490056983,0.00901664082278,0.00505792092928,1.0,0.0,-0.00686520715574
1385572115792245675,-0.0122212121507,0.00934600564007,0.00515346246479,1.0,0.0,-0.00671695554674
1385572115842201536,-0.011924295065,0.0097967432589,0.00517233355768,1.0,0.0,-0.00663139055279
1385572115892244245,-0.0116342159194,0.0101189041596,0.00519233190668,1.0,0.0,-0.00649659141708
1385572115942237809,-0.0113370770633,0.0105085159379,0.0052154871234,1.0,0.0,-0.00638360636294
1385572115992197752,-0.0110337768905,0.0109123452754,0.0052044621809,1.0,0.0,-0.00625093608654
1385572116042193618,-0.010708124563,0.01125712388,0.00517786074671,1.0,0.0,-0.00614837260021
1385572116092193536,-0.0104361049497,0.011598606949,0.00522769061711,1.0,0.0,-0.00597108957049
1385572116142224009,-0.010125287642,0.0120181486563,0.00520996117564,1.0,0.0,-0.00586177415856
1385572116192167500,-0.00987647821453,0.0123839708698,0.00523008547978,1.0,0.0,-0.00568067630254
1385572116242244340,-0.00957123797548,0.0128432883086,0.00518359414951,1.0,0.0,-0.00553851431748
1385572116292320144,-0.00938252778256,0.0131668102589,0.00518475357887,1.0,0.0,-0.0053830937832
1385572116342202584,-0.00912300093298,0.0136150918554,0.00519796431085,1.0,0.0,-0.00521465286666
1385572116392212147,-0.00897172764499,0.0139654684486,0.00517281444759,1.0,0.0,-0.00505159565622
1385572116442232282,-0.00876836307333,0.0144072762325,0.00513809244202,1.0,0.0,-0.00489180525883
1385572116492153516,-0.00856929529849,0.0147542105493,0.00510308998561,1.0,0.0,-0.00476627529281
1385572116542202441,-0.00854522132859,0.0150212684215,0.00504555101301,1.0,0.0,-0.00457211158433
1385572116592235166,-0.00848048257194,0.0152856705558,0.00503487229938,1.0,0.0,-0.00441145669869
1385572116642239658,-0.00844253082646,0.015484821586,0.00498700901044,1.0,0.0,-0.00421126109286
1385572116692296446,-0.00850338205558,0.0157213527329,0.004843897216,1.0,0.0,-0.00405783838218
1385572116742245257,-0.00849907750884,0.0157994650407,0.00476175569841,1.0,0.0,-0.00393710438928
1385572116792218118,-0.00864591556527,0.015762072036,0.0046738852949,1.0,0.0,-0.0037671932742
1385572116842236658,-0.00878764435947,0.0157965149236,0.00452352727611,1.0,0.0,-0.00361561727015
1385572116892188437,-0.00908585645817,0.0155680503697,0.00435976338547,1.0,0.0,-0.00339257970009
1385572116942197649,-0.00932159052921,0.0153707037579,0.00420859760764,1.0,0.0,-0.00320809425646
1385572116992253550,-0.00967399275904,0.0150284107652,0.00401648132241,1.0,0.0,-0.00298649202141
1385572117042312311,-0.00994493825161,0.0147475622857,0.00380635098814,1.0,0.0,-0.00285031939461
1385572117092224803,-0.0103721806462,0.0142519954285,0.00362689984474,1.0,0.0,-0.00261703601141
1385572117142182969,-0.0107917766974,0.0138485356263,0.0034197242762,1.0,0.0,-0.00243938212182
1385572117192286222,-0.0112425646398,0.0132504175108,0.00326685947117,1.0,0.0,-0.00221159313494
1385572117242228677,-0.0117392134785,0.0127252219635,0.00312283143898,1.0,0.0,-0.00199611285614
1385572117292205006,-0.0121996669529,0.0120336095559,0.00299864743609,1.0,0.0,-0.00176541611675
1385572117342301309,-0.0126320737501,0.011454695146,0.00286796785351,1.0,0.0,-0.00157422947651
1385572117392186360,-0.0131384424004,0.0108098741344,0.00271103657916,1.0,0.0,-0.00135654385425
1385572117442306369,-0.0135656780916,0.0101928178967,0.00252733584607,1.0,0.0,-0.00117295656429
1385572117492212375,-0.0140436467169,0.00950170029563,0.0023513365861,1.0,0.0,-0.000935275834544
1385572117542366553,-0.014427911361,0.00878857252784,0.00220717790959,1.0,0.0,-0.000732019781039
1385572117592283490,-0.0148299634779,0.00817139688025,0.0020368439051,1.0,0.0,-0.000489837428312
1385572117642353986,-0.0151801316258,0.007553680602,0.00190230471945,1.0,0.0,-0.000262605525615
1385572117692188861,-0.0154830216621,0.00698698893618,0.00173930801502,1.0,0.0,-4.36306956467e-05
1385572117742261409,-0.0157821882928,0.00644995258837,0.00157942475889,1.0,0.0,0.000229654046815
1385572117792294097,-0.0160023460847,0.00593523579262,0.00154246692047,1.0,0.0,0.000460686541398
1385572117842378578,-0.0160968077026,0.00561285405648,0.00139622241758,1.0,0.0,0.000635738668165
1385572117892162024,-0.0162296059845,0.00523249638917,0.00129828813372,1.0,0.0,0.000860512800811
1385572117942257287,-0.0163369425091,0.00488854941026,0.00126500325364,1.0,0.0,0.00108661291294
1385572117992268904,-0.016338982091,0.00465311391683,0.00123435752556,1.0,0.0,0.00127985023268
1385572118042274743,-0.0163913566508,0.00436998572254,0.00120828484697,1.0,0.0,0.00153321948114
1385572118092162150,-0.0163992527033,0.00421033249269,0.00120320019167,1.0,0.0,0.00178420685614
1385572118142233088,-0.0163469109601,0.00404269437191,0.00119573544118,1.0,0.0,0.00203236729828
1385572118192173432,-0.01623551774,0.00398779868482,0.00120381313068,1.0,0.0,0.00222741472844
1385572118242383202,-0.0161614793226,0.0039146023727,0.00124096071875,1.0,0.0,0.00247605562917
1385572118292188475,-0.0160378516947,0.0039026098229,0.00129689426519,1.0,0.0,0.00270629165838
1385572118342172112,-0.0158963107579,0.00391328195059,0.00132882796366,1.0,0.0,0.00292179232785
1385572118392181453,-0.0157916706739,0.00394233527609,0.00139692293316,1.0,0.0,0.00320666881138
1385572118442173498,-0.0155856691794,0.00404764692298,0.00144952360744,1.0,0.0,0.00342937117894
1385572118492457700,-0.0153979912154,0.00417487800599,0.00156169466085,1.0,0.0,0.00365417543571
1385572118542350157,-0.0151730698714,0.00433101477297,0.00165742401163,1.0,0.0,0.00386967701077
1385572118592218000,-0.014884359081,0.00458545097267,0.00171663395956,1.0,0.0,0.00404308242616
1385572118642473420,-0.0146510702902,0.00480675412499,0.00176428293297,1.0,0.0,0.00422817322895
1385572118692358093,-0.0143701478824,0.00503637995659,0.00183770127809,1.0,0.0,0.00441403453594
1385572118743306676,-0.0140528030163,0.00529547566925,0.00189216494637,1.0,0.0,0.00456658555016
1385572118792196563,-0.013751079581,0.00551409329183,0.00195907855037,1.0,0.0,0.00476443366031
1385572118842397014,-0.0134871270971,0.00569149638653,0.00204779735585,1.0,0.0,0.00497087027344
1385572118892382535,-0.0131132765458,0.00594065034819,0.00212465126903,1.0,0.0,0.00511368559828
1385572118942271462,-0.012722562788,0.00625273840106,0.00215545277595,1.0,0.0,0.00519978088462
1385572118992451481,-0.0124305869656,0.0064116874496,0.00220477030102,1.0,0.0,0.00537982968822
1385572119042240175,-0.0120757939005,0.00668995126911,0.0022279520384,1.0,0.0,0.00547828944504
1385572119092223536,-0.0117434727154,0.00679607301955,0.00226834655733,1.0,0.0,0.00563334484632
1385572119142386148,-0.0113798102404,0.00693261234552,0.00231417930592,1.0,0.0,0.00576218033268
1385572119192207992,-0.0111014968626,0.00714627627263,0.00230982525886,1.0,0.0,0.00587086418716
1385572119242176316,-0.0107599111552,0.00726673725065,0.00230509905319,1.0,0.0,0.00597094532421
1385572119292341985,-0.0105147815167,0.00731358241144,0.00235696273267,1.0,0.0,0.0060910088874
1385572119342349195,-0.0102784744866,0.00748973452204,0.00233370667717,1.0,0.0,0.00615642341151
1385572119392343788,-0.0100820815156,0.00752108012844,0.00232458436392,1.0,0.0,0.0062597855012
1385572119442193626,-0.00992824587824,0.00764662319405,0.00228164690784,1.0,0.0,0.00633268568547
1385572119492412403,-0.00985019024639,0.0076762092161,0.00227508505413,1.0,0.0,0.00645056746469
1385572119542506319,-0.00975191445445,0.00780097058976,0.00226031500266,1.0,0.0,0.00652996220028
1385572119592263803,-0.0097633611837,0.00782305724311,0.00224066168093,1.0,0.0,0.00662952523729
1385572119642448628,-0.0097617274647,0.00790464820739,0.00223438893394,1.0,0.0,0.00668708041947
1385572119692690582,-0.00991061118886,0.00791124999993,0.00220324442376,1.0,0.0,0.00676597885634
1385572119742208899,-0.010066597178,0.00793600064687,0.00221599512932,1.0,0.0,0.0068571446903
1385572119792263095,-0.0102666092092,0.00795713793038,0.00223626306364,1.0,0.0,0.00693425972815
1385572119842250150,-0.0105340860905,0.00792832090791,0.00225639430485,1.0,0.0,0.00704402951481
1385572119892307882,-0.0108251586706,0.00791751452924,0.00227356534559,1.0,0.0,0.00715456068716
1385572119942224441,-0.0111260487939,0.00789329270341,0.00226424793411,1.0,0.0,0.00725733150803
1385572119992176223,-0.0114846637552,0.00785453677166,0.00226572297555,1.0,0.0,0.00738369010869
1385572120042279379,-0.0118208665327,0.00782274295447,0.00222755306696,1.0,0.0,0.00749754781512
1385572120092203979,-0.0121760073221,0.00781086808501,0.00220939612206,1.0,0.0,0.00759832211872
1385572120142458642,-0.0125322794945,0.00774047427573,0.00221680337291,1.0,0.0,0.00771957921962
1385572120192223441,-0.0128999569602,0.00765164506764,0.002252752034,1.0,0.0,0.00784884119593
1385572120242272651,-0.0132488102946,0.00759023082832,0.00228550157447,1.0,0.0,0.00797456441152
1385572120292229044,-0.0135959907928,0.00744595857685,0.00234162359156,1.0,0.0,0.00811037480937
1385572120342270750,-0.0139100563896,0.00737752594829,0.00237686779562,1.0,0.0,0.00821114687856
1385572120392256267,-0.0142388699691,0.00721447966476,0.00244566689145,1.0,0.0,0.00835371145554
1385572120442204650,-0.0145152544132,0.00708571608086,0.00250943429992,1.0,0.0,0.00846366648696
1385572120492149691,-0.0148056029641,0.00691742932644,0.00257169265325,1.0,0.0,0.00860229918056
1385572120542194797,-0.0150163047598,0.0067474877016,0.00267648563968,1.0,0.0,0.00871044295998
1385572120592208416,-0.0153013712487,0.0064690077708,0.00274734530955,1.0,0.0,0.00886697385941
1385572120642284849,-0.0154378799391,0.00629969180228,0.00283335991165,1.0,0.0,0.00901652981692
1385572120692568441,-0.0156019475263,0.00605434298694,0.00290160902782,1.0,0.0,0.009168260054
1385572120742240937,-0.0157762388819,0.00571867439872,0.00295297350361,1.0,0.0,0.00931136029495
1385572120792147618,-0.0157853538446,0.00554686544931,0.00301030966429,1.0,0.0,0.00942031577776
1385572120842263311,-0.01588863864,0.00517559842146,0.00307104077194,1.0,0.0,0.00959959485711
1385572120892196226,-0.0158306978165,0.00485849035047,0.00314078813686,1.0,0.0,0.00971264680458
1385572120942232917,-0.0158935082634,0.00449455680799,0.00318086480486,1.0,0.0,0.009899407274
1385572120992168169,-0.0158388504907,0.00411615897756,0.00321756292787,1.0,0.0,0.010060799087
1385572121042341405,-0.0158316715994,0.00374239294825,0.00325702648035,1.0,0.0,0.0102776988476
1385572121092167791,-0.0156333814846,0.00352987473003,0.00329241159758,1.0,0.0,0.0104027263616
1385572121142299664,-0.015480384736,0.00325886628953,0.0033023354984,1.0,0.0,0.0105679653347
1385572121192374786,-0.0152847569796,0.00303039864473,0.00335691074096,1.0,0.0,0.0107237266031
1385572121242298506,-0.0149973915946,0.00294318613715,0.00336639719678,1.0,0.0,0.010834011005
1385572121292209728,-0.0147161064651,0.00282352745109,0.00337624995556,1.0,0.0,0.0109580940055
1385572121342250701,-0.014389388831,0.00282375739947,0.00340411091715,1.0,0.0,0.0110729294584
1385572121392280026,-0.0140302544933,0.00290290018926,0.00340399624254,1.0,0.0,0.0111939920595
1385572121442231542,-0.0136658849603,0.00305056843124,0.00338080338552,1.0,0.0,0.0113034011781
1385572121492285818,-0.0133046624632,0.00321049945719,0.00339805233246,1.0,0.0,0.0114130802685
1385572121542245526,-0.0129335128568,0.00345246861817,0.00338881094007,1.0,0.0,0.011572847746
1385572121592208121,-0.0125811325375,0.00376994240257,0.00338557569445,1.0,0.0,0.0116980487614
1385572121642211081,-0.0122286735712,0.00408433729538,0.00338465429529,1.0,0.0,0.0118469250862
1385572121692220851,-0.0119516195216,0.00436024828605,0.00336952372935,1.0,0.0,0.0120199516963
1385572121742266595,-0.0115648313767,0.00480338629987,0.0033363582246,1.0,0.0,0.0121525405695
1385572121792288305,-0.0112667995172,0.00521267860353,0.00328162111579,1.0,0.0,0.0123148234582
1385572121842257819,-0.0109437364795,0.00560375787801,0.0032562890352,1.0,0.0,0.0124743814637
1385572121892249092,-0.0107116323866,0.00591285422438,0.0031906693753,1.0,0.0,0.0126648024752
1385572121942409778,-0.0103775201077,0.0064621418859,0.00307974048074,1.0,0.0,0.0128121472518
1385572121992205699,-0.0101492959348,0.00674049940785,0.00296486397204,1.0,0.0,0.0130155190446
1385572122042229218,-0.00988431670268,0.00720952402986,0.00284860453001,1.0,0.0,0.0131843853066
1385572122092195632,-0.00974259882057,0.00750145454004,0.00270230524644,1.0,0.0,0.0134167539344
1385572122142189832,-0.00946118756796,0.00801630889018,0.0025026682683,1.0,0.0,0.0135396504114
1385572122192301100,-0.00937311675192,0.00827844459202,0.00232004961836,1.0,0.0,0.0137772225728
1385572122242186853,-0.00931710419104,0.00865052086838,0.00212381499224,1.0,0.0,0.0139753164686
1385572122292119683,-0.00927239768692,0.00899206047784,0.00189413107365,1.0,0.0,0.0141616818285
1385572122342195912,-0.00920772006921,0.00939834827605,0.00171464863358,1.0,0.0,0.0143759444244
1385572122392287304,-0.00928559366048,0.00971413296113,0.00156244742514,1.0,0.0,0.0145725198653
1385572122442326924,-0.00938384823346,0.0100690538959,0.00137037897189,1.0,0.0,0.0148048654127
1385572122492191694,-0.00949310221821,0.0103969560632,0.00122611621856,1.0,0.0,0.0150004721325
1385572122542336039,-0.00962386937897,0.010739610776,0.00105780316667,1.0,0.0,0.0152551940587
1385572122592389931,-0.00977437156354,0.0110181373127,0.000944909333996,1.0,0.0,0.0154711550327
1385572122642316767,-0.00985749713177,0.0113984979709,0.000807636097285,1.0,0.0,0.0156670602607
1385572122692674375,-0.00994880791243,0.0117418579513,0.000611658681798,1.0,0.0,0.0158341709516
1385572122742240145,-0.0100662357171,0.0120477423906,0.000456330639744,1.0,0.0,0.016023741285
1385572122792210914,-0.0102202735361,0.0122264390698,0.00035150747145,1.0,0.0,0.0162265603788
1385572122842255328,-0.0103025740812,0.0124988809897,0.000247141936319,1.0,0.0,0.0163881784502
1385572122892205803,-0.0103463242096,0.0128153701559,0.000102962833536,1.0,0.0,0.0164920783705
1385572122942260490,-0.0104046653492,0.0129849748992,8.37083192849e-05,1.0,0.0,0.0166422481984
1385572122992152125,-0.0104812550826,0.0132313225096,-9.3690214879e-06,1.0,0.0,0.0167567416452
1385572123042356764,-0.0105062621366,0.0133283141411,-6.62024027132e-05,1.0,0.0,0.0168752312771
1385572123092310144,-0.0104554823789,0.0135841763347,-9.61853312939e-05,1.0,0.0,0.0169204334021
1385572123142227717,-0.0104620172057,0.0135850077601,-9.15821469325e-05,1.0,0.0,0.0170101573658
1385572123192501118,-0.0104129519843,0.0137523686462,-0.000166968361166,1.0,0.0,0.017066942794
1385572123242296666,-0.0103287093266,0.0138029228661,-0.000186846370569,1.0,0.0,0.0171340961288
1385572123292266361,-0.0102402154956,0.0138813342927,-0.00022266118899,1.0,0.0,0.0171996240803
1385572123342314050,-0.0101232499963,0.0138881536807,-0.000240622543165,1.0,0.0,0.0172747858962
1385572123392181475,-0.0099893145358,0.0139080670996,-0.000258133839332,1.0,0.0,0.0173517767305
1385572123442333914,-0.00980799906482,0.013920917248,-0.000253270817462,1.0,0.0,0.0174136339726
1385572123492138780,-0.00972896468368,0.0138392850839,-0.000258258957706,1.0,0.0,0.017523514481
1385572123542175501,-0.00946513146586,0.0138604436282,-0.000235626924773,1.0,0.0,0.017530822558
1385572123592144499,-0.00942657279799,0.0137366687363,-0.000239019576594,1.0,0.0,0.0176304844355
1385572123642264467,-0.00926169431845,0.0136122012334,-0.0002082678243,1.0,0.0,0.0176752230705
1385572123692192392,-0.00912458479362,0.0135505746936,-0.000216458260706,1.0,0.0,0.0177186559974
1385572123742285593,-0.00903084281738,0.0133621185445,-0.000200465490409,1.0,0.0,0.0177542051213
1385572123792147492,-0.0089524892196,0.0131910322714,-0.00016939590783,1.0,0.0,0.0178359202997
1385572123842247172,-0.00890108855974,0.0130150618975,-0.000121947752132,1.0,0.0,0.0178934766829
1385572123892162023,-0.00888795912742,0.0127993275884,-7.15663980848e-05,1.0,0.0,0.0179274693852
1385572123942224264,-0.00878197273707,0.0126914798692,-3.56116829435e-06,1.0,0.0,0.0179343872301
1385572123992158714,-0.00885025914813,0.0124247734758,3.07044718839e-05,1.0,0.0,0.0179699458187
1385572124042226693,-0.00892303490813,0.0121033973539,0.000112857920525,1.0,0.0,0.0180169007613
1385572124092233256,-0.00896086216036,0.0119001053771,0.000137029064349,1.0,0.0,0.0180048368725
1385572124142251333,-0.00905516190775,0.0115907054819,0.000189892028286,1.0,0.0,0.0180426823608
1385572124192241561,-0.00917179762681,0.0113266761589,0.000198379125644,1.0,0.0,0.0180648846226
1385572124242262287,-0.00931655900634,0.0110198270554,0.000202209504351,1.0,0.0,0.0180901930755
1385572124292327968,-0.009471002349,0.0107297079147,0.000183525386697,1.0,0.0,0.0181154253792
1385572124342187511,-0.00972976439851,0.0104149284,0.000157260959143,1.0,0.0,0.0181598638543
1385572124392212029,-0.00987699346005,0.0101482368875,0.000173372167234,1.0,0.0,0.0181711599455
1385572124442269942,-0.0100629134754,0.00990459176376,0.000201007241941,1.0,0.0,0.018168125578
1385572124492214258,-0.0102987703448,0.00967065406373,0.000232923247716,1.0,0.0,0.0181992577712
1385572124542229063,-0.0104534761379,0.0095222288762,0.000219154923274,1.0,0.0,0.0181582367124
1385572124592195420,-0.01069713195,0.00931347800116,0.000208096332147,1.0,0.0,0.0181977136236
1385572124642225885,-0.0108255921586,0.00913138997109,0.000247788289171,1.0,0.0,0.0181764298387
1385572124692197416,-0.0110720717972,0.00899127033001,0.000185592710325,1.0,0.0,0.0182013771535
1385572124742563060,-0.0112377303939,0.00883562940402,0.000163588542744,1.0,0.0,0.0182414739735
1385572124792274683,-0.0114242691439,0.00868071601479,0.000157303439442,1.0,0.0,0.018289919715
1385572124842209950,-0.0115532471261,0.00855387890811,0.000141761744349,1.0,0.0,0.018343231326
1385572124892348706,-0.0116933166725,0.00853205233103,0.000102112862612,1.0,0.0,0.0183681775071
1385572124942203087,-0.0117954949036,0.0084638756039,5.63839347222e-05,1.0,0.0,0.018440609259
1385572124992326713,-0.0118640197984,0.00851073182324,2.35373836432e-05,1.0,0.0,0.0184877311217
1385572125042456393,-0.011954812539,0.00853193494381,-1.06212427514e-05,1.0,0.0,0.0185482042061
1385572125092322271,-0.0120300278027,0.00861013054645,-5.40117881529e-05,1.0,0.0,0.0186269513637
1385572125142216057,-0.0120570248971,0.00866692822553,-6.93798195627e-05,1.0,0.0,0.0186861812915
1385572125192364150,-0.0121702344756,0.00875320180544,-7.87611462386e-05,1.0,0.0,0.0187962489675
1385572125242433254,-0.0122101555778,0.00888914842674,-5.85654177543e-05,1.0,0.0,0.0188786256089
1385572125292357851,-0.0122160886379,0.00905587267721,-3.83237639864e-05,1.0,0.0,0.0189769098277
1385572125342234301,-0.0122710449027,0.00910243185542,-1.67124700278e-05,1.0,0.0,0.0191166519565
1385572125392368134,-0.0123492167201,0.00914797558418,3.45419274048e-05,1.0,0.0,0.0192744507106
1385572125442329659,-0.0123142942935,0.00932282205214,6.0399994143e-05,1.0,0.0,0.019367811339
1385572125492162161,-0.0123287795673,0.00943427788053,6.45541134671e-05,1.0,0.0,0.0195230746694
1385572125542224104,-0.0123273080889,0.00961849632301,4.39921937401e-05,1.0,0.0,0.0196669568832
1385572125592332191,-0.0121959026663,0.00985220959764,-2.82120752146e-05,1.0,0.0,0.0197107470419
1385572125642099677,-0.0122031200654,0.00999074276482,-0.000109829523514,1.0,0.0,0.0198251964672
1385572125692291867,-0.0121111384006,0.0102229599338,-0.000199367504827,1.0,0.0,0.0198933136945
1385572125742307773,-0.012098388615,0.0104734859016,-0.000279145442779,1.0,0.0,0.0199796086305
1385572125792372195,-0.012104947219,0.010701480997,-0.000377509483557,1.0,0.0,0.0200780264469
1385572125842242838,-0.0120699333618,0.0110773614987,-0.000486532934881,1.0,0.0,0.0201462447754
1385572125892148817,-0.012201676023,0.0112204252588,-0.000638813489485,1.0,0.0,0.0202489644548
1385572125942283762,-0.0121958364714,0.0115482044816,-0.000713366405748,1.0,0.0,0.0203465684871
1385572125992162689,-0.0123995820967,0.0116964946584,-0.000792055596928,1.0,0.0,0.0204892478041
1385572126042440044,-0.0124759051011,0.0119575040417,-0.00087661529703,1.0,0.0,0.0205947846932
1385572126092195016,-0.0125668968417,0.0122107918748,-0.00100281284038,1.0,0.0,0.0206616290957
