%time,field.linear.x,field.linear.y,field.linear.z,field.angular.x,field.angular.y,field.angular.z
1385572094502155700,0.0,0.0,0.0,0.0,0.0,0.0
1385572094502205837,0.377718507334,-0.320722014565,-0.114916401003,0.0107183565648,0.00155547293271,-1.3206418813
1385572094515212056,0.377705039596,-0.320731283271,-0.114920896258,0.0107448040237,0.0016041941923,-1.32061836052
1385572094522119216,0.377704948212,-0.3207283239,-0.114911179035,0.0107636815295,0.00159035066027,-1.32067178464
1385572094532110820,0.377697820346,-0.320729796103,-0.114910714047,0.0107693450258,0.00154754228299,-1.32070158241
1385572094542058232,0.377699661178,-0.320728458719,-0.114909790826,0.0107390940757,0.00155561354852,-1.32065647609
1385572094552075647,0.377703050238,-0.320720369918,-0.114903793031,0.0107276906545,0.00161874532724,-1.32064490375
1385572094562148834,0.377692262382,-0.320716197092,-0.114909913176,0.0107487319762,0.00155032359811,-1.32069856169
1385572094572134569,0.377701380684,-0.320719833739,-0.114911224371,0.0107438831342,0.00160706860124,-1.32066094732
1385572094582091617,0.377712593404,-0.320721145423,-0.114909231687,0.0107337362554,0.00160447489208,-1.3206864744
1385572094592163132,0.377709276651,-0.320724982243,-0.114909232769,0.0107744136151,0.0015870484407,-1.32068543117
1385572094602162697,0.377705179815,-0.320722808475,-0.114899095706,0.0107189152398,0.00158933931036,-1.32070928857
1385572094612055522,0.377704110042,-0.320724367502,-0.114907274348,0.010768817806,0.00158049649876,-1.3206846145
1385572094622039115,0.377693335607,-0.32073022735,-0.114919978418,0.0107524120991,0.00158674459135,-1.32070962521
1385572094632168802,0.377695187064,-0.320731101392,-0.114924540185,0.0107664982971,0.00155483568224,-1.3206661206
1385572094642172551,0.377691832265,-0.320735965249,-0.114924803032,0.0107739824383,0.00156891367275,-1.3207019241
1385572094652064942,0.377718823736,-0.320719147759,-0.11490851697,0.0107394938701,0.00161017376545,-1.32069709679
1385572094662222427,0.377693914307,-0.320731445114,-0.114920305454,0.0107487535613,0.00159513397992,-1.32068443801
1385572094672059816,0.377696738705,-0.320720099695,-0.114909984698,0.0107831360746,0.00157628216378,-1.32067177413
1385572094682128848,0.377698523504,-0.320719735557,-0.114904628132,0.0107358028073,0.00157605002375,-1.32069274771
1385572094692019477,0.377696096711,-0.320733263639,-0.114923640622,0.0107630941028,0.00159259390106,-1.32065981589
1385572094702030715,0.377695510581,-0.320727454946,-0.114898806561,0.0107393769443,0.00159622390236,-1.32069344579
1385572094712145456,0.377695886966,-0.320738440508,-0.114909724791,0.0107548120588,0.00159259647386,-1.3206738932
1385572094722028995,0.377705943609,-0.320722980402,-0.114910507445,0.0107637829141,0.00157150572636,-1.32065640445
1385572094732022444,0.377697064798,-0.320732329559,-0.114909885124,0.0107659348444,0.00156543070881,-1.32066763018
1385572094742067387,0.377707568814,-0.32071850953,-0.114914868601,0.0107883387235,0.00159258439054,-1.32068366663
1385572094752043601,0.377701069724,-0.320731833907,-0.114921095477,0.0107552387929,0.00157871726883,-1.32066224926
1385572094762030361,0.377701796629,-0.320722922733,-0.114914650384,0.0107631351459,0.00161353379833,-1.32065552239
1385572094772049411,0.377703082176,-0.320719288428,-0.11490163853,0.0107069439382,0.00159392773033,-1.3206968741
1385572094782075112,0.377704753037,-0.320717574191,-0.114911396665,0.0107686838803,0.00158970300953,-1.32068547124
1385572094792154023,0.377708717953,-0.320724244887,-0.114914036623,0.0107349992093,0.00158043180428,-1.32067788455
1385572094802083688,0.377699763761,-0.320721338207,-0.114906733878,0.010792743683,0.00156040502298,-1.32068866682
1385572094812124292,0.377689679267,-0.320730806901,-0.114920732542,0.0107839107278,0.00156966487719,-1.32070185955
1385572094822076858,0.377699244658,-0.320729181184,-0.114908278814,0.0107637184479,0.0015605793741,-1.32067352507
1385572094832076548,0.377697522781,-0.320719789906,-0.114900423093,0.010807629223,0.00153400113551,-1.32069891763
1385572094842036681,0.377705549571,-0.320722871742,-0.11490997955,0.0107206965948,0.00156857330063,-1.32072375919
1385572094852115871,0.377691172397,-0.320733203663,-0.114908161668,0.010759905749,0.00158209896837,-1.32067455189
1385572094862046136,0.377706852991,-0.320721964223,-0.114904763517,0.0107539549108,0.00156360231055,-1.32066740638
1385572094872016169,0.377704839585,-0.320722707882,-0.114907377457,0.0107456585755,0.00156824847112,-1.32070746097
1385572094882024947,0.377706543315,-0.320725196296,-0.114916488413,0.0107739394213,0.00158074392063,-1.32064622325
1385572094892022684,0.377662775293,-0.320840414223,-0.114897188151,0.0107579191798,0.00133693328738,-1.3206364054
1385572094902028168,0.377706533102,-0.320720906085,-0.114907694237,0.0107283220867,0.00160462230071,-1.32066002924
1385572094912041113,0.377699107433,-0.320729942154,-0.114921468933,0.0107169049387,0.00157457312281,-1.32070379272
1385572094922050425,0.377694686865,-0.320722588133,-0.114910459075,0.0107496586388,0.00155116348688,-1.32072477747
1385572094932089836,0.377690561857,-0.320731802963,-0.114908268245,0.0108104767261,0.00158877619509,-1.3206800799
1385572094942036875,0.377697461628,-0.320738613067,-0.11491506053,0.0107796866531,0.00155355212937,-1.32067440158
1385572094952031633,0.377696804773,-0.320729695755,-0.114910519884,0.0107718776361,0.00156883262265,-1.3206925066
1385572094962040172,0.377705993021,-0.320720627796,-0.114903947272,0.0107226409309,0.001608652868,-1.32066944236
1385572094972080218,0.377679065334,-0.320730434335,-0.114925069261,0.0107647494701,0.00156666256461,-1.32067044138
1385572094982039338,0.377682249104,-0.320732520209,-0.114921497174,0.0107384544433,0.00159564166166,-1.32070800071
1385572094992056719,0.377693844186,-0.320725518177,-0.114933878968,0.0108611171074,0.0016008003765,-1.32068126051
1385572095002019863,0.377654041235,-0.320761888515,-0.114989128129,0.0112506698938,0.00188216331015,-1.32067661941
1385572095012041183,0.377737342974,-0.320766942971,-0.114898223274,0.0106118613757,0.00161567079547,-1.32022756135
1385572095022087347,0.377659693714,-0.320747129751,-0.114992326903,0.0112446715246,0.00179452232519,-1.32057245981
1385572095032016650,0.377659779239,-0.320762021889,-0.114981290935,0.0112583528216,0.00186281314537,-1.32082159937
1385572095042024742,0.377739551822,-0.320774705412,-0.114898291029,0.0106308805339,0.00167184612611,-1.32003642528
1385572095052033575,0.377723710637,-0.320770735926,-0.114911838412,0.0106108906066,0.00156488063349,-1.32034848953
1385572095062024436,0.377736656973,-0.320780693321,-0.115033662252,0.0114749736079,0.00188809732406,-1.32080773041
1385572095072025708,0.377735217222,-0.320747411047,-0.114877825154,0.0106810823991,0.00163925655403,-1.32040080024
1385572095082016098,0.377777621829,-0.320814845005,-0.114937688725,0.0103853268943,0.00200268976841,-1.32033316156
1385572095092017744,0.377701619487,-0.320776490492,-0.114912509294,0.0107741616639,0.00135278297082,-1.32073189562
1385572095102018275,0.377780674517,-0.320783014285,-0.11493058275,0.0109889131335,0.00164192044798,-1.32032753795
1385572095112037409,0.377723438137,-0.320794400249,-0.114887115489,0.0109741196466,0.00156668766492,-1.32024543382
1385572095122042975,0.37769680566,-0.320771446914,-0.114872713827,0.0110962069715,0.00141810066607,-1.32046085582
1385572095132065651,0.377670880193,-0.320797240742,-0.114900922597,0.011194168192,0.00126886612905,-1.32092368497
1385572095142037785,0.377663625364,-0.320743437189,-0.114905231097,0.0111555601325,0.00128603782843,-1.32079213506
1385572095152132317,0.377665819484,-0.320709771987,-0.11487003766,0.0112118579911,0.00150897001177,-1.32070373136
1385572095162016199,0.377671984,-0.320755727947,-0.114868583683,0.0112784583896,0.00139584595953,-1.3207003559
1385572095172017789,0.377720110867,-0.320727291514,-0.114934359084,0.0108440880786,0.00145170641855,-1.32116434466
1385572095182051655,0.377716490619,-0.320784630019,-0.114891960584,0.0106893230761,0.00221853295765,-1.32032390308
1385572095192042975,0.377873042512,-0.320664665218,-0.114830795148,0.0115953760232,0.0033828042085,-1.3206676824
1385572095202023836,0.377835715284,-0.320692030866,-0.114799827092,0.0115898492427,0.00293262869481,-1.32132376074
1385572095212065128,0.377713937239,-0.320726026848,-0.114890192267,0.0109880783244,0.0015140489546,-1.32107420762
1385572095222032809,0.377698926478,-0.320743630949,-0.114906431948,0.0109714750264,0.00145010329339,-1.32072763159
1385572095232044899,0.37773383291,-0.320757164883,-0.114924030946,0.0113040763864,0.00149229762162,-1.32053609126
1385572095242043507,0.377673961965,-0.320823241169,-0.114890263022,0.011091208112,0.00160367228322,-1.32150574574
1385572095252095684,0.377762199624,-0.32077442188,-0.114883922331,0.0108013490004,0.00162634452278,-1.32056619098
1385572095262033119,0.377777510634,-0.320649666194,-0.11491893757,0.012257037854,0.00309053023008,-1.32124246934
1385572095272054783,0.377740868074,-0.320726324186,-0.114931025018,0.0108198640798,0.00150140295149,-1.32083470666
1385572095282049249,0.377706585981,-0.320740840633,-0.114897609275,0.0109906116786,0.00149334366537,-1.3210863625
1385572095292106358,0.377769116914,-0.320757543797,-0.114897055894,0.0113261308698,0.00149528248523,-1.32065676568
1385572095302047812,0.377652596802,-0.32075979155,-0.114859584936,0.0112862056467,0.00130669449502,-1.32079921554
1385572095312100176,0.377767383281,-0.320626917115,-0.114878555445,0.0119573876499,0.00285215692739,-1.32167753056
1385572095322080773,0.377736014405,-0.320730421228,-0.114918279942,0.0108623636664,0.00156702598003,-1.32101221071
1385572095332030772,0.377664631545,-0.320744135435,-0.114844500135,0.0110250914141,0.00212931608065,-1.3206698031
1385572095342204353,0.377687337284,-0.320761332426,-0.114884396673,0.0112243850012,0.00130807995885,-1.32101964237
1385572095352119886,0.377768120222,-0.320718972949,-0.114783111647,0.0120511170142,0.0025400930001,-1.32117555434
1385572095362044454,0.377759744572,-0.320659323166,-0.114924622365,0.0121904247487,0.00312274967294,-1.3214058877
1385572095372037965,0.377740361815,-0.320738540264,-0.114909258134,0.0108389664526,0.00162957575418,-1.32085253746
1385572095382051030,0.377644550563,-0.320744318692,-0.114868412058,0.0110151077628,0.00200832262449,-1.3207413854
1385572095392153449,0.377676027599,-0.320741769207,-0.114879985115,0.0112601627667,0.00127417381808,-1.32082700384
1385572095402064838,0.377658575836,-0.32070708475,-0.11502538785,0.0115117049275,0.00173067723907,-1.32119660148
1385572095412030154,0.377734881374,-0.320759058044,-0.114922670906,0.0108735674531,0.00164297174123,-1.32093607781
1385572095422048853,0.377725407939,-0.32073781078,-0.114907709651,0.0109459303464,0.00142656134953,-1.32099989855
1385572095432015376,0.377654548114,-0.32076046264,-0.114873037301,0.0111694546066,0.00135532016632,-1.32079030561
1385572095442199768,0.377763108764,-0.320659385328,-0.114914793095,0.0121839301627,0.00312005257171,-1.32134233641
1385572095452065729,0.377849762137,-0.320688213146,-0.114813622447,0.0115991560056,0.00290956469499,-1.32147370718
1385572095462013401,0.377705950484,-0.320747307101,-0.114898740027,0.0110351953082,0.00144038926378,-1.3207505273
1385572095472051987,0.377746908215,-0.320809093784,-0.114882854184,0.0114283614418,0.00136215049576,-1.32020536236
1385572095482045892,0.37773884554,-0.320740736625,-0.11490665842,0.0107214616882,0.00159313374869,-1.32105443009
1385572095492057093,0.377664038802,-0.320759034572,-0.114874203399,0.0112363238373,0.00136604491089,-1.32103707677
1385572095502054465,0.377712610416,-0.320810384046,-0.114851360633,0.0113123816832,0.00210470917817,-1.32001940597
1385572095512044583,0.377745037141,-0.320733508431,-0.114923479786,0.0108524866749,0.00149815064718,-1.32096213252
1385572095522197423,0.377732520187,-0.320739867243,-0.114919530632,0.0108505086824,0.00156729604016,-1.32114018412
1385572095532040082,0.377775993433,-0.320759768992,-0.114892206097,0.0112083964179,0.0015817830421,-1.32058134864
1385572095542229077,0.377742458691,-0.320734696591,-0.114913871355,0.0107607490816,0.00158220261167,-1.3207226898
1385572095552051866,0.377788963184,-0.320805093384,-0.114999621961,0.0104911269046,0.00202276874697,-1.32150346367
1385572095562052751,0.37765085742,-0.320797312106,-0.114831233747,0.0111929674455,0.00122168276364,-1.32122463137
1385572095572037532,0.377717943909,-0.320756292899,-0.114867726883,0.0113077810947,0.00174486386475,-1.32062723236
1385572095582049617,0.377679069871,-0.320733553553,-0.114892422664,0.011338278116,0.00127132742285,-1.32073909431
1385572095592025836,0.37766566953,-0.320757200074,-0.114911315512,0.0112718708164,0.00140440365146,-1.32115617309
1385572095602065133,0.377661317415,-0.320762174437,-0.114888072626,0.0112241003468,0.00131112139376,-1.3209524394
1385572095612042558,0.377786853894,-0.320708246726,-0.114947440468,0.0121494325349,0.00304826041667,-1.32145890922
1385572095622104746,0.377779382151,-0.320716568333,-0.114777291338,0.0117002876556,0.00247035649512,-1.32137527137
1385572095632053033,0.3778307614,-0.320821196315,-0.114804492863,0.011891774142,0.0025401100337,-1.32120373841
1385572095642027036,0.377780701927,-0.320736879918,-0.114817966144,0.0119019948005,0.00254400578285,-1.32083300899
1385572095652036491,0.377802126971,-0.320721372877,-0.114811120223,0.0119047221607,0.00282081670376,-1.32100114759
1385572095662022980,0.377696627004,-0.320811240372,-0.114893987672,0.0105476478033,0.00113398425164,-1.32133272757
1385572095672022183,0.377899878045,-0.320687984904,-0.114830323522,0.011533235665,0.00304760365183,-1.32147563502
1385572095682025149,0.377814124546,-0.320699482813,-0.114779069599,0.0114935518418,0.00283631315914,-1.32089238609
1385572095692025224,0.377795201014,-0.320755104711,-0.114836684669,0.0117520099362,0.00257555911799,-1.32138525892
1385572095702025581,0.377769849606,-0.320743739226,-0.114799340096,0.0119841543894,0.00228870711208,-1.32169168995
1385572095712028687,0.377834617953,-0.320745984793,-0.114746828213,0.0120117896408,0.0024646473796,-1.32113321336
1385572095722019471,0.377755534731,-0.320842395676,-0.114740635135,0.0117585674691,0.00349345256267,-1.3209931946
1385572095732018065,0.377738897574,-0.32071654029,-0.114887736986,0.0119025437815,0.00264975890355,-1.32153058854
1385572095742027625,0.377813878026,-0.320723681798,-0.114896483067,0.0118346509323,0.00239465697619,-1.32108164011
1385572095752087546,0.377797952598,-0.320789552597,-0.114910709681,0.0120312160996,0.00320651959829,-1.32214106345
1385572095762013356,0.377650217036,-0.320743191007,-0.114886378643,0.0109303448691,0.00144058556178,-1.32119025051
1385572095772019458,0.377668939453,-0.320787645032,-0.114933500603,0.0108797328065,0.00129228826561,-1.3208808384
1385572095782020172,0.377748771296,-0.320862804952,-0.114864264357,0.0116678684815,0.00194178354844,-1.32175317983
1385572095792021266,0.377683238637,-0.320815859051,-0.114972230246,0.0109762084937,0.00111563957618,-1.32068790887
1385572095802037753,0.377662888567,-0.320799840801,-0.11487964537,0.0106811115395,0.00133837322562,-1.32099423908
1385572095812035933,0.377811111463,-0.320730290535,-0.114813749845,0.0111363727096,0.00246872157295,-1.32189901539
1385572095822022006,0.377720461978,-0.320700886127,-0.114799103648,0.0112624175392,0.00296656959466,-1.32109630832
1385572095832024071,0.377681497601,-0.320786879925,-0.115020246707,0.0103433100699,0.00126482170277,-1.32092902583
1385572095842017158,0.377661358537,-0.320808162894,-0.114984938751,0.0105084840665,0.000945343602773,-1.32146499507
1385572095852052581,0.377763040492,-0.32072571774,-0.114930269122,0.0109094903926,0.00147966502178,-1.32094357404
1385572095862013803,0.377796976366,-0.320757505735,-0.114902256201,0.0102988032202,0.00150472872676,-1.32087602487
1385572095872013000,0.377629886306,-0.320768281489,-0.114987886409,0.0106529088888,0.00114602693888,-1.32137313155
1385572095882029676,0.37784738565,-0.320767589662,-0.11499749388,0.0114771702358,0.00264906819099,-1.32135908907
1385572095892026174,0.377741887881,-0.320727136538,-0.114798824403,0.0118915486719,0.00293134827114,-1.3213124866
1385572095902025839,0.377652056383,-0.320750447405,-0.114938105053,0.0113047893267,0.00115835973924,-1.32113447711
1385572095912019408,0.377661065596,-0.320768975573,-0.11495160125,0.0114661148577,0.00106553855173,-1.32067953504
1385572095922016329,0.37771057295,-0.320797415759,-0.114968843942,0.0111810501663,0.00102088646545,-1.32130862491
1385572095932030955,0.377579360801,-0.320720477492,-0.115084287095,0.0119391416205,0.0013388628939,-1.32135405566
1385572095942019139,0.37774037198,-0.320760751919,-0.114986956579,0.0112750838193,0.00130844218403,-1.32038560622
1385572095952043964,0.377791089203,-0.320837654827,-0.114986344104,0.0109101616881,0.00130005835457,-1.32162618267
1385572095962009674,0.377645690255,-0.320724376957,-0.114963653877,0.0109335535129,0.00120061353566,-1.32107667687
1385572095972018643,0.377650147248,-0.320771024651,-0.115024208134,0.0108545689009,0.00143970964126,-1.32074268394
1385572095982053125,0.377765499685,-0.320711289712,-0.114899412296,0.0113440667955,0.00247156564169,-1.32162800207
1385572095992031539,0.377684104993,-0.320690260232,-0.114814176832,0.0119674521185,0.00306628970376,-1.32086167868
1385572096002019882,0.377688081783,-0.320690771374,-0.114910222684,0.01113562397,0.00120219065605,-1.32094464028
1385572096012024649,0.377669937661,-0.32079518311,-0.114965486905,0.0112784596943,0.00152501609543,-1.32176234214
1385572096022115549,0.377813076813,-0.320760217014,-0.115070264185,0.0113781345088,0.00172334781463,-1.32089846035
1385572096032024622,0.377658208117,-0.320758599577,-0.115030906796,0.0112495498459,0.00104273507839,-1.32117282441
1385572096042024462,0.377552819983,-0.320693550498,-0.115087881007,0.0115539615233,0.00129549986515,-1.32169407316
1385572096052090433,0.377729311744,-0.320720297676,-0.114955727934,0.0112008765831,0.00140028875872,-1.32063512033
1385572096062022419,0.377628889602,-0.320769498081,-0.11469257228,0.0114121311043,0.0028650657596,-1.32154713157
1385572096072019629,0.377603800133,-0.320716073734,-0.114949077254,0.0104823938813,0.00118224693275,-1.32139629033
1385572096082017798,0.377655138806,-0.32079280176,-0.115028441102,0.0104360910379,0.00115190066017,-1.32056406039
1385572096092023073,0.377761470712,-0.320743812711,-0.114948746016,0.011294715348,0.00259060364087,-1.32208025745
1385572096102042565,0.37767101531,-0.320663098902,-0.114776503237,0.0121237436839,0.0032346088231,-1.32161065803
1385572096112026792,0.377518050598,-0.320779511622,-0.114979023423,0.0119255285828,0.00155625954418,-1.3213643965
1385572096122098520,0.377745256679,-0.320701415956,-0.11488952524,0.0115581900633,0.00208993356466,-1.32209187987
1385572096132040494,0.377641186724,-0.320689718184,-0.11487254671,0.0115952969383,0.00270089103279,-1.32140239897
1385572096142029233,0.377709975779,-0.320675681655,-0.114870738406,0.0111909534811,0.00254135598922,-1.3215661852
1385572096152044993,0.377591212955,-0.320751595306,-0.114890080332,0.0117837361334,0.00280495193852,-1.32229267352
1385572096162035891,0.377610533588,-0.320691754363,-0.114952110503,0.0109505556743,0.00124479404026,-1.32100625406
1385572096172039278,0.377558849378,-0.320715327227,-0.114921538848,0.0112818863699,0.00148473412884,-1.32132890821
1385572096182032977,0.377608322232,-0.320713571045,-0.114985635578,0.0115768811853,0.00102893983272,-1.32148007899
1385572096192051368,0.377580332522,-0.320721946902,-0.115075103908,0.0121580812719,0.00139542071237,-1.32079588105
1385572096202023218,0.377639738293,-0.320794152734,-0.114846146419,0.0120816861844,0.0026158563418,-1.32168960594
1385572096212024122,0.377702494261,-0.320645731444,-0.11484096151,0.0119678318767,0.00256875621365,-1.32171213998
1385572096222052776,0.377610470105,-0.320664633776,-0.114914183014,0.0108625381146,0.00111643748988,-1.32117130896
1385572096232038261,0.377711040121,-0.320684872792,-0.114946364334,0.0112181858683,0.00271560451171,-1.3220056437
1385572096242025858,0.377694734364,-0.320629592223,-0.114955031903,0.0115268829263,0.00269048542222,-1.32204912449
1385572096252069866,0.377681649143,-0.320600410258,-0.114999917827,0.0121876392065,0.00338564573583,-1.32185387241
1385572096262019296,0.377673620158,-0.320675088542,-0.114913505516,0.0124906085275,0.00275156774291,-1.3227619628
1385572096272018884,0.377583432666,-0.320636873857,-0.114923921792,0.0123672131633,0.00100520897288,-1.32227919692
1385572096282018894,0.377593743712,-0.32063431996,-0.114865262007,0.0118268069481,0.0011004762753,-1.32296059774
1385572096292194651,0.377522173107,-0.320652597974,-0.115023062175,0.0112770344153,0.00104195049111,-1.32271129116
1385572096302025771,0.377688375855,-0.320568411711,-0.115007769951,0.01124053601,0.00249612073966,-1.32291109891
1385572096312028576,0.377618609619,-0.320599911191,-0.114861794213,0.0115015164905,0.00346520526495,-1.32313050526
1385572096322020781,0.377534357882,-0.320510878395,-0.114823105741,0.010687821035,0.00126965719636,-1.32268325231
1385572096332049514,0.377650964663,-0.320465607141,-0.114974683524,0.0126264548042,0.00266914472529,-1.32352205564
1385572096342024771,0.377807473204,-0.320524487663,-0.115030645107,0.0124783142146,0.0026578383259,-1.32316668655
1385572096352071788,0.377683837924,-0.320456595894,-0.114910218102,0.012746667446,0.00229067419545,-1.32424354564
1385572096362038883,0.37764913251,-0.320480036382,-0.114916935977,0.012367476247,0.00148449543128,-1.32338515432
1385572096372022234,0.377708607779,-0.320435284129,-0.114984247889,0.0126710832234,0.0021086274388,-1.32469402375
1385572096382028978,0.377687619795,-0.320545592586,-0.114867022184,0.0130752488692,0.000405764145989,-1.3237120728
1385572096392066916,0.377622670022,-0.320345069074,-0.115027564638,0.0131526623837,0.00150101300146,-1.3242246331
1385572096402048240,0.377681217207,-0.320456557731,-0.114959752236,0.0125399950715,0.00122670353204,-1.32404551532
1385572096412199085,0.377625494287,-0.32039019944,-0.11483760735,0.0125472381646,0.000778156888609,-1.3245063322
1385572096422123601,0.377765138973,-0.320457918816,-0.114910557138,0.0120568580541,0.00163156365366,-1.3244583176
1385572096432050900,0.377605779248,-0.320350633515,-0.114902036848,0.0118527103855,0.00174990424099,-1.32462046676
1385572096442305326,0.377577504848,-0.32034755919,-0.115082834986,0.0121562369001,0.00107943058482,-1.32507135794
1385572096452140786,0.377660727174,-0.320336917111,-0.11471435679,0.0123268483255,0.00240422785406,-1.3249073471
1385572096462084214,0.377678471308,-0.320331236462,-0.114794094284,0.0122396396692,0.00203716951481,-1.32543962813
1385572096472017186,0.377534094626,-0.320374053923,-0.114827430862,0.0117536576012,0.00107894808264,-1.324294722
1385572096482109370,0.377557057111,-0.320456500677,-0.114961987337,0.0113053046603,0.00145643497098,-1.32512672043
1385572096492051386,0.377642467854,-0.3204175355,-0.114946732496,0.0112032454791,0.000674797260238,-1.32487124744
1385572096502046502,0.377566061699,-0.320438905036,-0.115014204343,0.0112347073162,0.00170167300573,-1.32503954422
1385572096512084958,0.377582401053,-0.320415661871,-0.114855836438,0.011074281315,0.00178287488059,-1.32526509988
1385572096522152251,0.377599913033,-0.320457528114,-0.114900207452,0.0108958640796,0.00102233466928,-1.32595238857
1385572096532241703,0.377523594718,-0.320508355459,-0.114903882184,0.0112335919835,0.000650925584372,-1.32525651884
1385572096542199658,0.377428302906,-0.320438569651,-0.11491267587,0.0113891817709,0.000943697731045,-1.32539381815
1385572096552203377,0.377671818972,-0.320554247245,-0.114939181657,0.0111682988418,0.00126644697065,-1.32531612031
1385572096562125670,0.377427747588,-0.320425481649,-0.114959671804,0.0123752811304,0.00249058457567,-1.32551716115
1385572096572044384,0.377557725054,-0.320491310846,-0.114827932999,0.0116016675835,0.000727083408067,-1.32527849295
1385572096582059631,0.377526975232,-0.320493944204,-0.114993223671,0.011637894179,0.000526634320166,-1.32480269764
1385572096592150031,0.377680342594,-0.320459403755,-0.11490788234,0.0118529960652,0.00167108738367,-1.32558883955
1385572096602568266,0.377478634181,-0.320574269198,-0.114878729224,0.0107543972789,0.00063668593966,-1.32478541199
1385572096612235760,0.377495283466,-0.320456154842,-0.114946041022,0.010747362939,0.00220211343493,-1.32522252527
1385572096622185908,0.37756815316,-0.320622589698,-0.114913464649,0.0108556734476,0.000611264107718,-1.32468976605
1385572096632126663,0.377455649289,-0.32052277634,-0.114954675633,0.0114489645667,0.000691895870454,-1.32491196045
1385572096642300767,0.377531178271,-0.320705251516,-0.114974162871,0.0117355863203,0.000910406607976,-1.32390629271
1385572096652121746,0.377390386603,-0.320639819734,-0.114851352351,0.0111692638509,0.000973594324217,-1.32434809078
1385572096662141223,0.377394699249,-0.320711615828,-0.114916918021,0.0107149148261,0.000950445000009,-1.32366011194
1385572096672060369,0.377433822068,-0.32066917976,-0.114967184565,0.0107765877985,0.00333062968966,-1.32414114
1385572096682109744,0.377410021555,-0.320668832464,-0.114964642458,0.0100925656186,0.00230497512413,-1.32430985501
1385572096692142857,0.377237414129,-0.320853630351,-0.114910817024,0.00885783401175,0.000694203669658,-1.32313825748
1385572096702079174,0.377347762045,-0.320769502655,-0.114737523769,0.00965463380766,0.00214263826769,-1.32370028448
1385572096712145223,0.377272812921,-0.320876401045,-0.114933052945,0.00937667077464,0.00123270843853,-1.3223032017
1385572096722235615,0.377133176753,-0.320902273399,-0.115070531723,0.0100380821359,0.00109072039001,-1.32194083856
1385572096732092722,0.377139921646,-0.32098155569,-0.115120438796,0.0102046265981,0.000240327377373,-1.32164149236
1385572096742069351,0.377187059168,-0.321034567775,-0.114925922608,0.0105616142012,0.00156024000895,-1.32091129492
1385572096752047637,0.377093759604,-0.321076172995,-0.11479922013,0.0109342411997,0.00147437477657,-1.32094521653
1385572096762091221,0.376979696765,-0.321119371047,-0.114921176892,0.0111765504614,0.00168965445946,-1.31963246295
1385572096772060108,0.377065004167,-0.321125198683,-0.115178487381,0.0104404575179,0.000818803910557,-1.32006408245
1385572096782029153,0.376954833792,-0.321188374983,-0.115014231765,0.0100989908987,0.000548426829146,-1.31935013408
1385572096792098093,0.376907754599,-0.321089524029,-0.114787549647,0.00965751265461,0.00127258948851,-1.31857770698
1385572096802017820,0.376857916874,-0.321266364368,-0.114811417295,0.00965049169202,0.00145304250437,-1.31869128237
1385572096812973874,0.376836983504,-0.32130800965,-0.115092219392,0.00934561211703,0.000556260884348,-1.3188823204
1385572096822064922,0.376778898331,-0.321446887037,-0.114996999293,0.0102281094275,0.000131238154116,-1.31772092623
1385572096832043484,0.376639139145,-0.321326098772,-0.114825620643,0.0107887536361,0.00167654691572,-1.31792955096
1385572096842120933,0.37679436175,-0.321534359154,-0.114943719217,0.0107651216498,0.000989417210877,-1.31714942821
1385572096852061201,0.376684133152,-0.321477495169,-0.114887718053,0.011032924605,0.00151326137104,-1.31688983406
1385572096862909571,0.376751663124,-0.321469146477,-0.11515169141,0.0115844592916,0.00117782297771,-1.31691022722
1385572096872056801,0.376665144573,-0.32157577192,-0.114847031048,0.0108716234393,0.00267960947648,-1.31595721176
1385572096882422261,0.376722364994,-0.321486604142,-0.114820781611,0.0126435481913,0.00240600473176,-1.31596825077
1385572096892074967,0.376862512871,-0.321637503594,-0.114840442611,0.0121371243239,0.00261150816056,-1.31532620579
1385572096902234082,0.376818211865,-0.32158548902,-0.114695730841,0.0114453604012,0.00320212595872,-1.31545536707
1385572096912031416,0.37688968855,-0.321629955527,-0.114995340916,0.0114321894915,0.00320957956907,-1.31447764447
1385572096922016551,0.376843259981,-0.32165543637,-0.11519915329,0.0115168402245,0.0022516378379,-1.31393883121
1385572096932022565,0.376846854495,-0.321757031119,-0.115086192514,0.0110853600374,0.0030503566267,-1.31430894439
1385572096942455586,0.37687159833,-0.321717812852,-0.114906381602,0.0101931704133,0.000615662567162,-1.3135383481
1385572096952090174,0.376746926075,-0.321878009323,-0.114852864829,0.0109147769033,0.000129712515771,-1.31378172078
1385572096962018116,0.376676089387,-0.322008235911,-0.114979491254,0.0108219764219,0.00227843366147,-1.31346115142
1385572096972090957,0.376638104357,-0.321985120216,-0.115062307461,0.0104215486512,0.00177431542418,-1.31333347856
1385572096982024726,0.376672509281,-0.321868023913,-0.115162042327,0.0104663102284,0.00140992419273,-1.31335274308
1385572096992139023,0.376630203898,-0.32201409095,-0.115053894881,0.0109963419894,0.00354916905457,-1.31324948038
1385572097002049374,0.376755531363,-0.32192161056,-0.115256842194,0.0112369518256,0.00375825429922,-1.31284544185
1385572097012047537,0.376846117814,-0.322063942091,-0.115168635371,0.0119860476677,0.00278634631273,-1.31239823185
1385572097022029394,0.376689387309,-0.322089573383,-0.114624418546,0.0118321624011,0.00363883070245,-1.31242339574
1385572097032210784,0.376985495765,-0.322383312467,-0.114549377383,0.0112154759895,0.00303606161265,-1.31274580271
1385572097042095751,0.376651375173,-0.32218571931,-0.1150467104,0.0112306204804,0.0023317961638,-1.31321311759
1385572097052044475,0.376601211429,-0.322280936163,-0.115466172355,0.0103513106632,0.00309622375848,-1.31248015026
1385572097062284438,0.376491195258,-0.32225623591,-0.115162854759,0.0104915308067,0.00338523465175,-1.31263627041
1385572097072051035,0.376494605938,-0.322377333403,-0.114767997905,0.0108245870952,0.0042733879881,-1.31252435471
1385572097082046595,0.376211311056,-0.3225163353,-0.114850170773,0.0118081309308,0.00436611206367,-1.31275311091
1385572097092020194,0.376243463723,-0.322478657315,-0.115158771361,0.0112906991051,0.00190030322192,-1.31288092096
1385572097102054460,0.376011916899,-0.322605732528,-0.115304581676,0.0105196459335,0.0022451258597,-1.31316956957
1385572097112117176,0.375783631371,-0.322601525632,-0.1150667492,0.00973427126368,0.00385596094725,-1.31292559845
1385572097122029687,0.3755916221,-0.322792701801,-0.114993196475,0.00824309578267,0.000645626818786,-1.31277789656
1385572097132062263,0.3753661491,-0.322690453769,-0.115149464515,0.00846212678184,0.00159529371177,-1.31207393316
1385572097142177775,0.375202646671,-0.32277910125,-0.115286187454,0.00927068339794,0.00261188325151,-1.31191671901
1385572097152222611,0.375018762652,-0.322681799829,-0.115157611347,0.0101151148366,0.00301743948668,-1.31173697056
1385572097162100844,0.374782526178,-0.322645569111,-0.114713912996,0.0103782837674,0.00338067927953,-1.31087384902
1385572097172196839,0.374542614221,-0.322657050918,-0.114945639122,0.0107230446779,0.00039695696224,-1.31030222641
1385572097182115029,0.374410307302,-0.322761037193,-0.11533552992,0.0108375069481,0.000121921361868,-1.31072517198
1385572097192157499,0.374112451588,-0.322616105813,-0.1151664588,0.0108388142112,0.00253236282785,-1.31049192753
1385572097202344191,0.373992975016,-0.322568484226,-0.114914324616,0.0122573596996,0.00333197210901,-1.3100365388
1385572097212088185,0.373789945947,-0.322475516433,-0.115036399625,0.0126452688856,0.00262427488072,-1.30958732512
1385572097222099532,0.373398033472,-0.32260766997,-0.115204411981,0.0121368134398,0.00331109405127,-1.30841616955
1385572097232080812,0.373228220717,-0.322630508731,-0.115441735126,0.0109408681266,0.00279518510992,-1.30812456946
1385572097242071416,0.37291962178,-0.32255437583,-0.115302502314,0.0125217509768,0.00392615506606,-1.30747580232
1385572097252199511,0.372688636937,-0.322479367372,-0.115123226659,0.0134458378088,0.00311128999911,-1.30645471004
1385572097262263446,0.372201883578,-0.322463769898,-0.115572442201,0.0146338914053,0.000702513098266,-1.3058366935
1385572097272095523,0.372082916728,-0.322524853838,-0.115879172535,0.0152460580163,-0.000398810993339,-1.30474871752
1385572097282241246,0.371872421569,-0.322463760395,-0.115973741763,0.0162389201456,-0.000612299699164,-1.30337201953
1385572097292232433,0.37168334957,-0.322496878182,-0.116004828577,0.0174653329448,-0.000838590294639,-1.30331019804
1385572097302129133,0.371608978472,-0.322524620281,-0.116315050873,0.0184985477945,-0.000602378018003,-1.30164300414
1385572097312322421,0.371364263509,-0.322417992236,-0.116744031229,0.0206708570263,0.000742092463633,-1.30224254889
1385572097322241003,0.371066064996,-0.322461903734,-0.117117641821,0.0221029509634,0.00149526589517,-1.30098176803
1385572097332073977,0.370901399153,-0.322424997324,-0.117389969512,0.0240775009613,0.0010184024231,-1.30121217917
1385572097342265021,0.370651998879,-0.322398426267,-0.1176495491,0.026634194556,-0.000850901304645,-1.29985104626
1385572097352101805,0.370603037737,-0.322443325051,-0.118003998609,0.0307098996531,-0.00280835205824,-1.29998656684
1385572097362096382,0.370328217655,-0.322372374737,-0.118660156414,0.0354925788851,-0.00129516909832,-1.29906884034
1385572097372257624,0.369960197373,-0.322541509618,-0.119097884892,0.0389887272181,-0.00241470769748,-1.29843647782
1385572097382093964,0.370017726296,-0.322484048405,-0.119622259149,0.0427720897801,-0.00364466970318,-1.29763471286
1385572097392162942,0.369806123182,-0.322351016955,-0.120293753172,0.0467065643391,-0.00427739270579,-1.29870358874
1385572097402056558,0.36985816852,-0.322283451522,-0.121058130285,0.0495135520688,-0.00505285686355,-1.29798267568
1385572097412059573,0.369800763847,-0.322465151314,-0.121700375348,0.0521611768542,-0.00742831511581,-1.29711979145
1385572097423348492,0.369732010647,-0.322466149433,-0.1223459701,0.0577431013647,-0.00849666580923,-1.29575558641
1385572097432056022,0.369680230487,-0.322235743482,-0.123027134042,0.0640757666705,-0.00923801426952,-1.29503616263
1385572097442307524,0.369791344263,-0.322339686112,-0.123696914843,0.0673455199657,-0.0107526291474,-1.29404959036
1385572097452259810,0.369861705755,-0.322250787387,-0.124953428675,0.0714618095924,-0.0111480265422,-1.29277370754
1385572097462224977,0.369801317872,-0.322046925237,-0.125770627173,0.0737540034755,-0.0115141707978,-1.29200313189
1385572097472148233,0.36995138508,-0.321957621812,-0.126728009946,0.0756310338961,-0.0111472309282,-1.29161375728
1385572097482226744,0.369871673141,-0.321818907009,-0.127677250826,0.0753554150047,-0.0128574585094,-1.28933536048
1385572097492109268,0.369957574584,-0.321868599873,-0.129068740335,0.0754763368232,-0.0111657673899,-1.28775836224
1385572097502157762,0.370227029508,-0.321526856287,-0.130269437562,0.0779590058295,-0.0106493353442,-1.28685235459
1385572097512638184,0.370383051354,-0.321339080732,-0.131489099094,0.0793483571219,-0.00818595721411,-1.2853430991
1385572097522169844,0.370415750508,-0.32104625972,-0.133001232798,0.080479521872,-0.00692399062339,-1.28355399512
1385572097532086970,0.370585854166,-0.320880552323,-0.134475694866,0.0814278728571,-0.00638737021987,-1.28085044479
1385572097542255877,0.37093774995,-0.320739223231,-0.136156685353,0.0825516762193,-0.00475042490887,-1.28080816965
1385572097552233701,0.371116503982,-0.320609434974,-0.137698235078,0.0822327162578,-0.00248883073952,-1.27915366427
1385572097562147051,0.371600257325,-0.320377448682,-0.139375264701,0.0815491065328,0.000322777109836,-1.27855932509
1385572097572039326,0.371819007171,-0.320008155239,-0.141101781611,0.081394024952,0.00198670482213,-1.27724965173
1385572097582112478,0.372408179157,-0.319778276196,-0.14298724728,0.0793163095842,0.00517511304835,-1.27532650621
1385572097592078252,0.372942732147,-0.319473443457,-0.144856290153,0.0779009285283,0.00808237674873,-1.27389474727
1385572097602032246,0.373460584795,-0.31916047123,-0.146717390609,0.0773926896411,0.0116335052626,-1.27162901547
1385572097612101019,0.374167768195,-0.318790507773,-0.148749437636,0.0774756150617,0.0157116029391,-1.2708370153
1385572097622102907,0.375038827602,-0.318352250423,-0.150941093318,0.078952772407,0.0191968305929,-1.26889461863
1385572097632066134,0.375874989795,-0.317809752254,-0.153163408961,0.0800045887613,0.0200157203311,-1.26833421116
1385572097642261695,0.376770755439,-0.317309094728,-0.155361837273,0.0808627849353,0.0234745061522,-1.2669662739
1385572097652278048,0.377727282415,-0.316836246625,-0.157552628738,0.0808978675568,0.0251258810663,-1.26566492912
1385572097662193030,0.378647072498,-0.316241539184,-0.159950353796,0.0798299319977,0.0283935639732,-1.26437371988
1385572097672118203,0.379581499037,-0.31540552222,-0.162392411146,0.0795484473465,0.0303220407404,-1.26351744143
1385572097682149224,0.380622725314,-0.314955320325,-0.164317511898,0.0786265371961,0.03255922534,-1.26300834368
1385572097692245328,0.381876725597,-0.314215823316,-0.166830921976,0.0789034757888,0.0318119857865,-1.26249929143
1385572097702121950,0.38328042063,-0.313357719183,-0.169437448089,0.080812321813,0.0373512493848,-1.26275052186
1385572097712129643,0.384694886461,-0.312611033901,-0.172055514033,0.0810510617101,0.0367152339888,-1.26255719203
1385572097722155929,0.386003897591,-0.311744509389,-0.174524721028,0.0820666341995,0.0368196635025,-1.26330672543
1385572097732171755,0.387292846622,-0.31072470564,-0.177035589819,0.082985142107,0.0377954697344,-1.26401935247
1385572097742234757,0.388762975307,-0.309815911905,-0.180022720307,0.0852205694578,0.0362850332262,-1.26506863982
1385572097752172104,0.390264858538,-0.308893597594,-0.182751315301,0.0851734537556,0.0337821552147,-1.2659092871
1385572097766205179,0.391879206092,-0.307763867497,-0.185499533643,0.0860909913953,0.0321026252336,-1.26667928941
1385572097772265416,0.393406623797,-0.306713217919,-0.188443327908,0.0878827363406,0.0326337893797,-1.26761224725
1385572097782195386,0.395095339521,-0.305466676591,-0.191613474497,0.0892956450719,0.0249449385616,-1.26965815382
1385572097792084917,0.39683694553,-0.304494459131,-0.194496305909,0.087887381987,0.0267980776923,-1.26920258213
1385572097802319105,0.398460864216,-0.303218777297,-0.19736738722,0.0885185964809,0.0250376151645,-1.27029022994
1385572097812223195,0.400152289666,-0.302009385128,-0.200289269185,0.0877944233552,0.0217670225634,-1.27155859002
1385572097822374656,0.401780210769,-0.30066616768,-0.203424716616,0.0882982393471,0.0200267455066,-1.27279535579
1385572097832038389,0.403572867589,-0.299523774758,-0.206447803562,0.0863869012121,0.0187854389918,-1.27343254357
1385572097842023089,0.405655009184,-0.298027740046,-0.209596042867,0.0856012902247,0.0189483480351,-1.27421209338
1385572097852026666,0.407428931745,-0.296900506482,-0.21270640409,0.0837454937167,0.0174424398947,-1.27501490537
1385572097862019546,0.409436126746,-0.295352595804,-0.216030915324,0.0825131828638,0.0158887896749,-1.27588247838
1385572097872036582,0.411195136582,-0.294169537327,-0.219167753572,0.0798383597298,0.0135069506891,-1.27676047582
1385572097882019311,0.413287928804,-0.292716361143,-0.222385447746,0.0770442439222,0.0106958688325,-1.27764210787
1385572097892136493,0.41535239878,-0.291383130808,-0.225677562006,0.0734237287426,0.00936439460103,-1.27875380602
1385572097902029629,0.41757895647,-0.290051630944,-0.229426160968,0.0712815736559,0.00532027135913,-1.28117905712
1385572097912017177,0.419793987121,-0.288531797322,-0.232701076433,0.0683230547897,0.00251573117041,-1.28210756943
1385572097922029349,0.421848887267,-0.287231670168,-0.235941801831,0.0664621174435,0.000273781517541,-1.283313315
1385572097932045514,0.42403913058,-0.285720226258,-0.239448237584,0.0648780542643,-0.00186643519298,-1.28516685799
1385572097942025169,0.426165740893,-0.28432064139,-0.242971029197,0.0618547452739,-0.00233515928521,-1.28653752591
1385572097952024520,0.428513386094,-0.28293236358,-0.24672144922,0.0597679915461,-0.0048700847014,-1.28813812955
1385572097962022420,0.43061492077,-0.281362876329,-0.250359335241,0.0573560087389,-0.00473606828292,-1.28991992498
1385572097972016398,0.433162129506,-0.279804796231,-0.253961066929,0.0546596677113,-0.00552540577502,-1.29147214591
1385572097982034584,0.43530997052,-0.278454517434,-0.257618230821,0.0531432610647,-0.00588345771044,-1.29288166184
1385572097992029351,0.437835488903,-0.277046241383,-0.261585655559,0.0520725365982,-0.00562668830276,-1.29451340201
1385572098002017978,0.440371464258,-0.275501563529,-0.265521953804,0.051834833749,-0.00439433722459,-1.29615404658
1385572098012110888,0.442749452411,-0.274037868014,-0.269369001619,0.052365257908,-0.00536896927644,-1.2972812836
1385572098022026940,0.445430391222,-0.272324378203,-0.273550054394,0.0536040062679,-0.00637366888737,-1.29860759558
1385572098032016522,0.447950270938,-0.270911850464,-0.277561200392,0.0549614461137,-0.00684321715312,-1.30026058297
1385572098042017298,0.450504725607,-0.269320994834,-0.281803403635,0.0567157968104,-0.00741250305176,-1.302155862
1385572098052035852,0.453228995951,-0.267784427642,-0.285994738924,0.0572990863341,-0.00786573689585,-1.30382426186
1385572098062018518,0.455795500824,-0.266289111642,-0.290161179299,0.0568937814469,-0.00826831915839,-1.30605729322
1385572098072025178,0.45846139861,-0.265023324911,-0.294353343747,0.0563332420809,-0.0088460160612,-1.30669132393
1385572098082024732,0.461256164449,-0.263543928968,-0.298808812166,0.055191588369,-0.00971501994587,-1.30797415492
1385572098092039776,0.463893695526,-0.262150571657,-0.303032504388,0.0548707124808,-0.00994792427995,-1.30895959357
1385572098102020725,0.466727764576,-0.260685689104,-0.307343027795,0.0552749877459,-0.0105409000543,-1.31011172749
1385572098112019665,0.469453136414,-0.259142870358,-0.311861682927,0.0563766461431,-0.00979061726137,-1.3117296394
1385572098122066410,0.472211484029,-0.257878122863,-0.316090652796,0.0559316598316,-0.0109741604899,-1.31272767118
1385572098132031562,0.475191101499,-0.256540354623,-0.320598261921,0.0564907242928,-0.0100386838222,-1.31414956936
1385572098142018295,0.478011782565,-0.255148310948,-0.32490014179,0.0561884401766,-0.00937638882263,-1.31556576281
1385572098152084276,0.480898116054,-0.253857923084,-0.329400539571,0.0553232563658,-0.00739006344635,-1.3167627981
1385572098162032631,0.483822025136,-0.252627429227,-0.334044267823,0.0544473629694,-0.00849273376093,-1.31825927598
1385572098172017196,0.486727051425,-0.251356506924,-0.338655930519,0.0538826881152,-0.00932200571318,-1.31957051697
1385572098182036467,0.489693561305,-0.250004683819,-0.343050390789,0.0529811206052,-0.00868971763451,-1.32109675596
1385572098192023068,0.492765474786,-0.248693094763,-0.347834430256,0.0535464962675,-0.00719914829311,-1.32219172801
1385572098202015526,0.495834381533,-0.247433277189,-0.352290684257,0.0535997329707,-0.0073680626196,-1.32393684348
1385572098212056865,0.49892598096,-0.246121452899,-0.357150261823,0.0537326389463,-0.00749476840088,-1.32472221237
1385572098222021341,0.501694075183,-0.244810293796,-0.361617140888,0.0531400570023,-0.00752844875327,-1.3266039614
1385572098232018648,0.504857066714,-0.243740403859,-0.366383676862,0.0525838431985,-0.0090910642508,-1.32754557015
1385572098242017906,0.508107188453,-0.242521890927,-0.371404837122,0.0518141349062,-0.00938352138728,-1.32958643013
1385572098252071931,0.511059350075,-0.241357595098,-0.376265210829,0.0506580002331,-0.0113159611555,-1.3308948413
1385572098262081787,0.514123541519,-0.240257097268,-0.381433258875,0.0503278855522,-0.0122579484597,-1.33257828386
1385572098272044327,0.517365500309,-0.23916032649,-0.386661528939,0.0496204843066,-0.0140976759397,-1.33438609312
1385572098282028419,0.520425295558,-0.238112692448,-0.391791016073,0.0497790144487,-0.0163414513044,-1.33595634211
1385572098292022942,0.523596206238,-0.2371206415,-0.396970685604,0.0487545460899,-0.0167650808201,-1.33712826955
1385572098302017005,0.526770670768,-0.235973197465,-0.4018416388,0.0490170098691,-0.0179715271082,-1.33852348852
1385572098312047435,0.530080746123,-0.234917515179,-0.406657154498,0.0477634941561,-0.0172976393083,-1.33991284522
1385572098322024727,0.533204994068,-0.234019097038,-0.411327683154,0.0462353461323,-0.0191814614878,-1.34081349137
1385572098332037967,0.536227109867,-0.233027803562,-0.415776463765,0.0450531228119,-0.0195166121948,-1.34200488482
1385572098342019091,0.53944499901,-0.232029292006,-0.420399967533,0.0440311534268,-0.020386148681,-1.34355608294
1385572098352024650,0.542644933268,-0.231291474587,-0.424576431477,0.0437399497108,-0.0204730076166,-1.34511397006
1385572098362017037,0.54578016106,-0.230228259183,-0.42884489299,0.0430408759064,-0.0192666040663,-1.34680094513
1385572098372065107,0.54900958376,-0.229440878833,-0.433045640412,0.0428259616122,-0.0206108787736,-1.34853966451
1385572098382023805,0.55237705406,-0.228408540887,-0.437165421999,0.0417160546063,-0.020528819752,-1.34964492011
1385572098392042497,0.555630075436,-0.227769995491,-0.441005600043,0.04105186491,-0.0206509603253,-1.35080522405
1385572098402040062,0.558820154743,-0.226977448524,-0.444636304226,0.0396806162051,-0.0201019912164,-1.35201349186
1385572098412038267,0.562122778858,-0.226131449323,-0.448425369653,0.0382790258429,-0.0208784926073,-1.35369744202
1385572098422020647,0.565194516489,-0.225418626089,-0.451938889552,0.0369400601443,-0.021975653286,-1.35487823148
1385572098432020936,0.56829531026,-0.224700817728,-0.455386730073,0.0359108281588,-0.0205038861993,-1.35603490046
1385572098442019882,0.571587102802,-0.223991411337,-0.458596550193,0.0344080210862,-0.0204307479924,-1.35740624623
1385572098452074826,0.574897804252,-0.223279456296,-0.461764109961,0.033809568527,-0.020194321188,-1.3583087261
1385572098462055078,0.578107684198,-0.22265596904,-0.464850000896,0.0326966550886,-0.0188201252132,-1.36003147674
1385572098472053113,0.581368209895,-0.221989787808,-0.467708839461,0.0328115475038,-0.0186640672164,-1.36149728532
1385572098482093401,0.584406149034,-0.221320572895,-0.470366653594,0.0321144273422,-0.0182981992658,-1.36258247169
1385572098492022219,0.587733114898,-0.220750260414,-0.473227709932,0.0322425050965,-0.0171257025517,-1.3640206544
1385572098502054943,0.591161944004,-0.220153354601,-0.475746485768,0.0302056040837,-0.015950941381,-1.36496563168
1385572098512528533,0.594159506878,-0.219584729342,-0.477940891892,0.0294128130433,-0.0146212049617,-1.36615638285
1385572098522042090,0.59752287205,-0.218993868926,-0.480342001186,0.0289394320355,-0.0136941191439,-1.36723132623
1385572098532075074,0.600549359304,-0.218547290154,-0.482404940093,0.0276444593551,-0.0136397552641,-1.36906298575
1385572098542156053,0.603858824587,-0.218055259096,-0.484473784967,0.0274375938708,-0.0137132248037,-1.37019975695
1385572098552054891,0.607055029143,-0.217502519906,-0.486475253667,0.0272072884131,-0.0120702930037,-1.37143034074
1385572098562036722,0.610226151091,-0.216987929149,-0.488131428454,0.0262156243108,-0.0114855228972,-1.37285880006
1385572098572092033,0.613421665871,-0.216667960663,-0.489770945012,0.025324268483,-0.00962127039656,-1.37352408606
1385572098582063314,0.616553875465,-0.216231250256,-0.491353000627,0.0252164084495,-0.00940213372522,-1.374874569
1385572098592080133,0.619810587666,-0.21573294134,-0.492724160932,0.0248403185656,-0.00922646748753,-1.37604931639
1385572098602061217,0.622855237487,-0.215330805962,-0.493952303318,0.0245364232742,-0.00860750984333,-1.37744609115
1385572098612045760,0.625925464962,-0.214937507472,-0.49532194663,0.0243735784477,-0.00832905607944,-1.37866738033
1385572098622045983,0.629292769723,-0.21452516572,-0.496457660345,0.0235118448769,-0.00694477461494,-1.38013199443
1385572098632040987,0.632380729897,-0.214185744575,-0.497349363695,0.0235518200482,-0.00743731967862,-1.38144086196
1385572098642093160,0.635771111448,-0.213927324465,-0.498344868075,0.0227469325969,-0.00622688788268,-1.38244587667
1385572098652079787,0.63873451886,-0.213620041493,-0.498855857956,0.0233335064305,-0.0070439228795,-1.383679065
1385572098662058040,0.641955303364,-0.213249077834,-0.499522045218,0.0226190444531,-0.00634385437095,-1.38509452631
1385572098672031605,0.644976965359,-0.212919307968,-0.500300075476,0.0247054127668,-0.00594530148127,-1.38606126458
1385572098682103578,0.648142093652,-0.212685723937,-0.50047434817,0.0235497613825,-0.0051633156667,-1.38704820581
1385572098692027446,0.651346276048,-0.212328836105,-0.500791528837,0.0241205854847,-0.00632064188943,-1.38877255045
1385572098702170008,0.654404176104,-0.212284353845,-0.501151319235,0.0241046661859,-0.00728825627762,-1.38986533682
1385572098712030589,0.657717680328,-0.211910396135,-0.501183157227,0.0249071968004,-0.00464648209642,-1.39100942956
1385572098722020662,0.660902762933,-0.211673070436,-0.501265281883,0.0256439208081,-0.00523667699916,-1.39250908924
1385572098732180543,0.6639122165,-0.211425427842,-0.501224015966,0.0256092973827,-0.00429522217117,-1.39317703248
1385572098742045949,0.66713033445,-0.211040702158,-0.500986708546,0.0266112886645,-0.00572296752329,-1.39484212734
1385572098752024957,0.670116321731,-0.211076002036,-0.500823113733,0.0262023310663,-0.00651924313332,-1.39538210098
1385572098762066488,0.673304434537,-0.210903619443,-0.500602247687,0.0261260750533,-0.00679921811635,-1.3966974378
1385572098772047170,0.676291992048,-0.210699309553,-0.500178723781,0.0265904292525,-0.00626652786472,-1.3977413019
1385572098782023515,0.679489890344,-0.21030533522,-0.499544680677,0.0267400199165,-0.00353735060995,-1.39904146994
1385572098792026703,0.682686526404,-0.210283553143,-0.499108634738,0.027062955845,-0.00489895238701,-1.40087933023
1385572098802031334,0.685673818578,-0.210213143628,-0.498495900995,0.0262908830185,-0.00657888630962,-1.40175909155
1385572098812032073,0.689041281096,-0.209918173883,-0.497871863937,0.0271888066443,-0.00432213540259,-1.40299494579
1385572098822024330,0.692197986889,-0.209915705433,-0.497094302436,0.0268985121809,-0.00485189460459,-1.40444325056
1385572098832068156,0.695236988134,-0.209713445424,-0.496225752243,0.0271316748782,-0.00505036867559,-1.40536916603
1385572098842021819,0.698312161873,-0.209623190884,-0.4954312327,0.0274005527558,-0.00564625213852,-1.40635213177
1385572098852025841,0.701320729146,-0.209555392993,-0.494666393941,0.0259600312456,-0.00633880684283,-1.40746380923
1385572098862024973,0.704522501111,-0.209539456978,-0.493638245801,0.0259286421237,-0.00730647743406,-1.40865717763
1385572098872052241,0.707624069676,-0.209503365193,-0.492605321429,0.0256706498711,-0.00678771164999,-1.40960633594
1385572098882032875,0.710635390583,-0.209292892605,-0.491527227075,0.0250210443151,-0.00591171522044,-1.41096832074
1385572098892077385,0.713829902274,-0.209274764289,-0.490326154518,0.02444031531,-0.00606083245938,-1.41168181213
1385572098902040397,0.716844861276,-0.209242577334,-0.489270781447,0.0241078639884,-0.00634323899725,-1.4129204475
1385572098912021681,0.719820510573,-0.209051980821,-0.488056624468,0.0246316328525,-0.00558670478978,-1.41521352104
1385572098922024020,0.723010288219,-0.20911603374,-0.486693417078,0.0237882471937,-0.00601429809479,-1.41602918388
1385572098932049095,0.7261606483,-0.209065685915,-0.485440882976,0.0225788261239,-0.0056080128164,-1.41756781169
1385572098942026650,0.729201168351,-0.209063711925,-0.48417958071,0.0220778204988,-0.00582424788604,-1.41844802561
1385572098952030847,0.732320436483,-0.209103953143,-0.482880018123,0.0210499134874,-0.00563762562994,-1.41933462206
1385572098962047235,0.7353995097,-0.209176955783,-0.481729236294,0.0203879447154,-0.00407540394302,-1.42051207048
1385572098972017840,0.738373027752,-0.209266777086,-0.48027075024,0.0192355086929,-0.00501679979128,-1.421438882
1385572098982021865,0.741536320496,-0.209257890454,-0.478985053091,0.0187900335741,-0.00511563092175,-1.42247598227
1385572098992024661,0.74465481842,-0.209395155957,-0.477624217673,0.0183092917694,-0.00499248208362,-1.4230153315
1385572099002015759,0.747627209893,-0.209355233241,-0.47619185269,0.0180456838835,-0.00428143291951,-1.4237119673
1385572099012023167,0.750699983993,-0.209525116749,-0.474973632229,0.017848721624,-0.00590007957099,-1.42507922098
1385572099022015562,0.753752627135,-0.209547299077,-0.473479868284,0.0172608309133,-0.00550177241825,-1.42575578036
1385572099032077981,0.756753540087,-0.209782629025,-0.472180982206,0.0165640134979,-0.00530784854994,-1.42692517834
1385572099042044747,0.75975564287,-0.209915625318,-0.470807082918,0.0159237902774,-0.00570141860351,-1.42762016623
1385572099052057925,0.762727309324,-0.209916961456,-0.469393486305,0.0156033598957,-0.00542923099586,-1.42868141316
1385572099062061502,0.765862709544,-0.210196278808,-0.468042261711,0.0151793891273,-0.00534001291651,-1.4298369807
1385572099072025192,0.768807800491,-0.210179740684,-0.466761119054,0.0147498043165,-0.00422761977024,-1.43051981557
1385572099082019071,0.771750116838,-0.210354855702,-0.465260439425,0.0145204270029,-0.00457319202264,-1.4318171812
1385572099092027532,0.774894060897,-0.210689628745,-0.463822938751,0.0143921404366,-0.0053689710231,-1.43260179267
1385572099102025424,0.777883263324,-0.210852779036,-0.462506308798,0.0144297820113,-0.00551235020536,-1.43365411372
1385572099112021530,0.780913838578,-0.211070573194,-0.461220281526,0.0145570786549,-0.00521766952098,-1.43478680518
1385572099122018877,0.783830400431,-0.211222449104,-0.459841860008,0.0138874426084,-0.00513350343629,-1.43517350617
1385572099132044636,0.786779649331,-0.211403835437,-0.458594737535,0.0142530957173,-0.00520403935213,-1.43689781351
1385572099142126672,0.789785405369,-0.211748581258,-0.457334708653,0.0137345587358,-0.00582800543418,-1.43797294912
1385572099152173251,0.792678837289,-0.212000752802,-0.455901551273,0.0137210056614,-0.005957504504,-1.43854189212
1385572099162049100,0.795606063227,-0.212331746644,-0.454691686744,0.0125514137141,-0.00596033134176,-1.43977516042
1385572099172020378,0.798514299127,-0.212550386346,-0.453411949685,0.0126800407075,-0.00681349423093,-1.44001277202
1385572099182062132,0.80145202526,-0.212839573172,-0.452136556072,0.0130023107331,-0.00751100171506,-1.4414502956
1385572099192059494,0.804431522882,-0.213057579009,-0.450917764104,0.0122604752089,-0.00721049409807,-1.44286495055
1385572099202117635,0.807113803797,-0.21335126867,-0.449632951741,0.0120182129716,-0.0086033454784,-1.44356270543
1385572099212043644,0.810133173302,-0.213669354294,-0.448631603831,0.0124157130214,-0.0081703750774,-1.44516503401
1385572099222069533,0.81290058732,-0.213936439225,-0.447342818331,0.0118505699621,-0.00928577701095,-1.44576446694
1385572099232046847,0.815788865421,-0.214348939378,-0.446209560358,0.0107667495696,-0.00945047233691,-1.4471258178
1385572099242026955,0.818551796848,-0.214752415926,-0.445064146837,0.0108416683108,-0.010803798552,-1.44766431282
1385572099252182577,0.821355321799,-0.215131250082,-0.444004839502,0.0105541132164,-0.0106843822488,-1.44835368848
1385572099262045711,0.824088477072,-0.215547172374,-0.443130164238,0.0112536616864,-0.0096730574337,-1.44951432446
1385572099272013871,0.82713978994,-0.215884771943,-0.442120825415,0.0109570131684,-0.0121930456664,-1.45027771146
1385572099282014727,0.829888736227,-0.216316265625,-0.441076272724,0.011339692251,-0.0119099695996,-1.4515017097
1385572099292037014,0.832688019298,-0.216788390653,-0.44012402264,0.0114371100252,-0.012579054297,-1.45247017044
1385572099302020609,0.835496492849,-0.217185893227,-0.439364541452,0.0109496706471,-0.0116340338101,-1.45320260907
1385572099312043631,0.838196248849,-0.21760647903,-0.438417837714,0.0109145439114,-0.0115797431617,-1.45448945935
1385572099322029484,0.841020228398,-0.218200632695,-0.437703403124,0.00986557062112,-0.0124912034534,-1.45533412876
1385572099332012745,0.843758223705,-0.218604197879,-0.436899422627,0.0086917350495,-0.0123603064687,-1.45661362003
1385572099342051684,0.846442920616,-0.219048531524,-0.435982413044,0.0083016861308,-0.0129839210069,-1.45734780868
1385572099352025083,0.849079461151,-0.219649160698,-0.435347712165,0.00790673927803,-0.011609969779,-1.45830700868
1385572099362079999,0.851810788342,-0.220257309936,-0.434555904663,0.00755682843509,-0.0127216043831,-1.45913922271
1385572099372193346,0.854581689942,-0.220804679151,-0.433867737919,0.00721939324548,-0.0122673986712,-1.45968942302
1385572099382283678,0.857212572079,-0.221332794548,-0.433174395893,0.00782335451948,-0.0139567170508,-1.46054572181
1385572099392058752,0.860095975471,-0.221912460313,-0.432770711092,0.00789435586111,-0.0126544168964,-1.46119141066
1385572099402027877,0.862749779321,-0.222486674069,-0.432252489992,0.00794388870084,-0.0127671573848,-1.46206772538
1385572099412074132,0.865387704108,-0.223060185037,-0.431739345862,0.00752208402742,-0.0109986494762,-1.46351909697
1385572099422017052,0.867846934368,-0.223705056439,-0.430976027434,0.00671631358426,-0.0128261829312,-1.4637767746
1385572099432019498,0.870429056956,-0.224417978708,-0.430546792668,0.00628050007466,-0.0119211711097,-1.46458089135
1385572099442030083,0.872826309296,-0.225267676323,-0.430294497042,0.00501295652589,-0.0137144679244,-1.46583592609
1385572099452030622,0.875559211978,-0.225869542487,-0.42982991371,0.00424718704403,-0.0138652634083,-1.46621869591
1385572099462034737,0.878116894629,-0.226472508336,-0.429295898369,0.00395002783239,-0.0132336185003,-1.4671142478
1385572099472012221,0.880852111326,-0.227311620569,-0.428801208348,0.00470919046184,-0.0125788844736,-1.46751713513
1385572099482170038,0.883333397852,-0.228113715494,-0.428770957715,0.00425013576715,-0.0157289033211,-1.4681864561
1385572099492038794,0.886089023797,-0.228776290849,-0.428375271712,0.00541861858445,-0.0149223673645,-1.46924251769
1385572099502119952,0.888519535402,-0.229789933443,-0.428108128345,0.00480516639039,-0.0160105910895,-1.46986455953
1385572099512051766,0.891126065697,-0.230554049369,-0.427808358589,0.00430090907709,-0.0188400583968,-1.47071098383
1385572099522062989,0.893422237729,-0.231577881528,-0.427814262465,0.0030297877399,-0.0203913390129,-1.47142404719
1385572099532019665,0.895700540539,-0.232333243632,-0.42770122433,0.00319003125624,-0.0216559642727,-1.47262117784
1385572099542026268,0.898400280781,-0.233335579847,-0.427531717102,0.00345176322421,-0.021722565101,-1.47359910534
1385572099552083244,0.900839809978,-0.234270738996,-0.427348038611,0.00275853199785,-0.0228507170486,-1.47389427708
1385572099562027548,0.903349009266,-0.235301695575,-0.427507552062,0.0031395816172,-0.0230019989622,-1.47482492055
1385572099572016452,0.905645574782,-0.236211413371,-0.427685924223,0.00362702976947,-0.0237423266503,-1.47632969464
1385572099582085121,0.907998182938,-0.237251705007,-0.427603118717,0.00278178531691,-0.024652160258,-1.47631953742
1385572099592109406,0.910515026387,-0.238270133041,-0.427800641895,0.00209673517563,-0.0243185405277,-1.47693900727
1385572099602071374,0.912755407983,-0.239358564211,-0.427915851558,0.000941055182008,-0.0241504297775,-1.4780539868
1385572099612026381,0.915008702929,-0.240301462619,-0.428349954348,0.000718637933705,-0.0232043250651,-1.47882300209
1385572099622050532,0.917452849412,-0.241475623308,-0.428426855283,-0.00084283317795,-0.0228959779085,-1.47975561458
1385572099632042548,0.919772312777,-0.242561490867,-0.428658885451,-0.00164329784421,-0.0230871452819,-1.4798870143
1385572099642149524,0.921906039667,-0.243746406361,-0.428956072345,-0.0019356278163,-0.0221746232646,-1.48078987887
1385572099652090611,0.924117743484,-0.244827212736,-0.429340953182,-0.00275388883463,-0.0192169295942,-1.48163484947
1385572099662073157,0.926353075207,-0.245954759905,-0.429634252418,-0.00354946668351,-0.0196060772428,-1.48240676146
1385572099672042268,0.928579623742,-0.247273351562,-0.430261429304,-0.00420053185023,-0.020177204935,-1.48288007804
1385572099682063915,0.930648372326,-0.248403075466,-0.430530645021,-0.00447568694633,-0.0194354661197,-1.48339123791
1385572099692146321,0.932890141867,-0.24963335467,-0.430995183551,-0.00499225864455,-0.0184970063866,-1.48406794775
1385572099702055754,0.935146968113,-0.250837374612,-0.431286633236,-0.00500687524011,-0.014983392197,-1.48529593359
