%time,field.header.seq,field.header.stamp,field.header.frame_id,field.child_frame_id,field.transform.translation.x,field.transform.translation.y,field.transform.translation.z,field.transform.rotation.x,field.transform.rotation.y,field.transform.rotation.z,field.transform.rotation.w
1385572091440611208,925769,1385572091440611208,/world,vicon/Archie/Archie,0.377712490982,0.320723897408,0.114912687311,0.00473104253448,0.00268350884481,0.613374118567,0.789773769309
1385572091449761336,925770,1385572091449761336,/world,vicon/Archie/Archie,0.377702322342,0.320726796532,0.114906429964,0.00472989649576,0.0026574088258,0.613374544724,0.789773533452
1385572091459512551,925771,1385572091459512551,/world,vicon/Archie/Archie,0.377679671198,0.320844245083,0.114906535684,0.0046532022115,0.00277193232568,0.613355224092,0.78978860031
1385572091469848034,925772,1385572091469848034,/world,vicon/Archie/Archie,0.377695462399,0.320723775708,0.11492497305,0.00470644272124,0.00269723530277,0.613378285069,0.789770633617
1385572091479772250,925773,1385572091479772250,/world,vicon/Archie/Archie,0.377698427682,0.320730067733,0.114918980865,0.00472242672404,0.00269126803298,0.613397248907,0.789755829859
1385572091489850086,925774,1385572091489850086,/world,vicon/Archie/Archie,0.377712550853,0.320724331898,0.114912199882,0.00472847793355,0.00266168272697,0.613382241268,0.789767550003
1385572091499802437,925775,1385572091499802437,/world,vicon/Archie/Archie,0.377692814223,0.320728469502,0.114924459908,0.00474335955087,0.00268685251177,0.613388790809,0.789762288713
1385572091509845770,925776,1385572091509845770,/world,vicon/Archie/Archie,0.377711703853,0.320721864022,0.114905283806,0.00470957243137,0.00267091552144,0.613378186833,0.789770780705
1385572091519893808,925777,1385572091519893808,/world,vicon/Archie/Archie,0.37769837781,0.320730086454,0.114905589629,0.00474347510773,0.00267873988932,0.613380201583,0.789768986541
1385572091529847703,925778,1385572091529847703,/world,vicon/Archie/Archie,0.377691536889,0.320733258135,0.114926508251,0.00473434038228,0.00267795773487,0.613378333272,0.78977049504
1385572091539890184,925779,1385572091539890184,/world,vicon/Archie/Archie,0.377707591291,0.320721618665,0.114911111734,0.00472915373551,0.00265714408064,0.613380041343,0.789769269833
1385572091549876146,925780,1385572091549876146,/world,vicon/Archie/Archie,0.377697092736,0.320738476673,0.114923945614,0.00471408336439,0.00268376792492,0.613377952458,0.78977089225
1385572091559625625,925781,1385572091559625625,/world,vicon/Archie/Archie,0.377796516118,0.320770601689,0.114808309962,0.00538684577501,0.00247228562996,0.6134652781,0.78969945059
1385572091569922267,925782,1385572091569922267,/world,vicon/Archie/Archie,0.377818765533,0.32065866796,0.114822664693,0.0054532849488,0.0024096203757,0.613494668319,0.789676356084
1385572091579828958,925783,1385572091579828958,/world,vicon/Archie/Archie,0.377794393677,0.320676361468,0.114837269038,0.00544988565003,0.00238164695812,0.613496845491,0.789674772978
1385572091590308920,925784,1385572091590308920,/world,vicon/Archie/Archie,0.377800427437,0.320669823503,0.114820177647,0.00544599423016,0.00238208445951,0.613497932651,0.789673953891
1385572091599925126,925785,1385572091599925126,/world,vicon/Archie/Archie,0.37779550619,0.320677974543,0.1148347557,0.00547113164403,0.00238904031723,0.613507265707,0.789666508173
1385572091609947101,925786,1385572091609947101,/world,vicon/Archie/Archie,0.377698643497,0.320734842988,0.114925258263,0.00473408243237,0.00269852187948,0.613376888909,0.789771548358
1385572091619846949,925787,1385572091619846949,/world,vicon/Archie/Archie,0.377709218628,0.320713823447,0.114911074789,0.00472155617464,0.00268788610451,0.613374247877,0.789773710766
1385572091629866918,925788,1385572091629866918,/world,vicon/Archie/Archie,0.377700294377,0.320735031756,0.114929643033,0.0047354543223,0.00266235899089,0.613378681884,0.789770270349
1385572091639850546,925789,1385572091639850546,/world,vicon/Archie/Archie,0.377697982371,0.320731095293,0.114914826946,0.00472738108323,0.00265657311608,0.613378216026,0.789770700008
1385572091649670779,925790,1385572091649670779,/world,vicon/Archie/Archie,0.377779819198,0.320721442547,0.114776086236,0.00539367209834,0.00244576062716,0.613484289788,0.789684717302
1385572091659989435,925791,1385572091659989435,/world,vicon/Archie/Archie,0.377809150229,0.320674459505,0.114817974927,0.00542730152946,0.0023785073072,0.613496707736,0.789675045001
1385572091669815139,925792,1385572091669815139,/world,vicon/Archie/Archie,0.377815123071,0.320668908932,0.114819092443,0.00542870570977,0.00240590172926,0.613485858707,0.789683380829
1385572091679874458,925793,1385572091679874458,/world,vicon/Archie/Archie,0.377705030396,0.320719412386,0.114910246491,0.00473724852701,0.00269013893536,0.613386580777,0.789764030677
1385572091689851112,925794,1385572091689851112,/world,vicon/Archie/Archie,0.377701368162,0.320721892069,0.114917879041,0.00473597747046,0.0026982915704,0.613387254412,0.789763487296
1385572091699748321,925795,1385572091699748321,/world,vicon/Archie/Archie,0.377700207689,0.320730301882,0.114907829162,0.00472891971148,0.00267315083399,0.613381950445,0.789767734496
1385572091709888932,925796,1385572091709888932,/world,vicon/Archie/Archie,0.377695446301,0.320722971811,0.114911775069,0.00473863303333,0.00269025028355,0.613370085732,0.789776832934
1385572091719959578,925797,1385572091719959578,/world,vicon/Archie/Archie,0.377702044507,0.320717029428,0.114902616163,0.00471758296154,0.00266221099422,0.613372363732,0.789775284783
1385572091729872841,925798,1385572091729872841,/world,vicon/Archie/Archie,0.377717169651,0.320722508121,0.114913975473,0.00473645892169,0.00268937584893,0.613376960818,0.789771509458
1385572091739632955,925799,1385572091739632955,/world,vicon/Archie/Archie,0.37768078513,0.320840667278,0.11492650485,0.00465303698921,0.00278133905878,0.613369556654,0.789777437237
1385572091749921527,925800,1385572091749921527,/world,vicon/Archie/Archie,0.377707739819,0.320716016682,0.114914261928,0.00472170709293,0.00268779228259,0.613362945657,0.789782487872
1385572091759874194,925801,1385572091759874194,/world,vicon/Archie/Archie,0.377706240695,0.320723381888,0.114907618301,0.00471688618013,0.00267275596726,0.613383709738,0.789766441417
1385572091769891884,925802,1385572091769891884,/world,vicon/Archie/Archie,0.377711376767,0.320716682195,0.11490929703,0.0047167986616,0.00266803260043,0.613383143484,0.7897668977
1385572091779782598,925803,1385572091779782598,/world,vicon/Archie/Archie,0.377702109719,0.320724097375,0.114921308467,0.00473160905069,0.00269302664171,0.613368003535,0.789778482692
1385572091789885514,925804,1385572091789885514,/world,vicon/Archie/Archie,0.377704233361,0.320726688879,0.114910181884,0.00472531972011,0.00268881724037,0.613376411064,0.789772005053
1385572091799861603,925805,1385572091799861603,/world,vicon/Archie/Archie,0.377701640344,0.320725645698,0.114922675344,0.00472165547277,0.00270815023847,0.613374180695,0.789773693122
1385572091809779442,925806,1385572091809779442,/world,vicon/Archie/Archie,0.377700405616,0.320733823855,0.114927946476,0.00473054636791,0.00268545093478,0.613384807024,0.789765464424
1385572091819836517,925807,1385572091819836517,/world,vicon/Archie/Archie,0.377703433653,0.320729690941,0.11491569798,0.00472310302974,0.00267910636443,0.613378532187,0.78977040394
1385572091830325859,925808,1385572091830325859,/world,vicon/Archie/Archie,0.377708295845,0.320723878106,0.114910998011,0.00471619094717,0.00268193271469,0.613381625231,0.789768033418
1385572091839793174,925809,1385572091839793174,/world,vicon/Archie/Archie,0.377699235132,0.320733251511,0.114923772361,0.00473297783257,0.00267700802848,0.61338609942,0.789764474756
1385572091850064719,925810,1385572091850064719,/world,vicon/Archie/Archie,0.377706706927,0.320729356043,0.114928233717,0.00473152060423,0.00268880023256,0.613371182843,0.789776028456
1385572091859837551,925811,1385572091859837551,/world,vicon/Archie/Archie,0.37770138817,0.320719798781,0.114912630814,0.00473643015787,0.00265574205008,0.613394245499,0.789758198977
1385572091869651848,925812,1385572091869651848,/world,vicon/Archie/Archie,0.377679086758,0.32084391678,0.114916933332,0.004656379975,0.00275256673588,0.613352715741,0.789790597307
1385572091879904383,925813,1385572091879904383,/world,vicon/Archie/Archie,0.377705458266,0.320730254257,0.11492968072,0.0047417101461,0.00266639527669,0.613383937863,0.789766137089
1385572091889854716,925814,1385572091889854716,/world,vicon/Archie/Archie,0.377706880105,0.320720481704,0.114921950212,0.00472085761988,0.00268987518244,0.613382000073,0.7897676874
1385572091899534251,925815,1385572091899534251,/world,vicon/Archie/Archie,0.377692485664,0.3208406259,0.114903962726,0.0046433027716,0.00275290590862,0.613347928847,0.789794390602
1385572091909947056,925816,1385572091909947056,/world,vicon/Archie/Archie,0.377707321008,0.320728163079,0.114910316308,0.0047331704492,0.00265134997358,0.613369329799,0.789777584326
1385572091919880321,925817,1385572091919880321,/world,vicon/Archie/Archie,0.377698119914,0.320734933175,0.114921749802,0.00470380471104,0.00272306762187,0.613383784581,0.789766289441
1385572091929836340,925818,1385572091929836340,/world,vicon/Archie/Archie,0.377713273392,0.320719857855,0.114908646849,0.00473152421654,0.00266409687978,0.613385551131,0.789764952964
1385572091939775200,925819,1385572091939775200,/world,vicon/Archie/Archie,0.377711118182,0.320723718752,0.114910868229,0.00473191662006,0.0026805295786,0.613385150645,0.789765206054
1385572091949782856,925820,1385572091949782856,/world,vicon/Archie/Archie,0.377707567791,0.320725448716,0.114909816525,0.00473776696667,0.00269416868159,0.613384070939,0.789765963142
1385572091959807162,925821,1385572091959807162,/world,vicon/Archie/Archie,0.377714819294,0.320721148092,0.114928938149,0.00473303019866,0.00268891841031,0.613372201682,0.789775227737
1385572091969513096,925822,1385572091969513096,/world,vicon/Archie/Archie,0.377690496504,0.320835175249,0.114906449343,0.0046632777383,0.00275460953415,0.613352089013,0.789791036206
1385572091979996187,925823,1385572091979996187,/world,vicon/Archie/Archie,0.377701610885,0.320729121864,0.114906999555,0.00473486014102,0.00268182424961,0.613389984707,0.789761429533
1385572091989751403,925824,1385572091989751403,/world,vicon/Archie/Archie,0.377701859053,0.320727884152,0.114918431808,0.0047291945077,0.00265751168457,0.61336500649,0.78978094505
1385572091999768981,925825,1385572091999768981,/world,vicon/Archie/Archie,0.377711142009,0.320727141346,0.114909993031,0.00472797788117,0.00265627229923,0.61337735409,0.789771366873
1385572092009763647,925826,1385572092009763647,/world,vicon/Archie/Archie,0.377703245445,0.320731083212,0.1149156294,0.004724195662,0.00268535751978,0.613381141872,0.789768349345
1385572092020001111,925827,1385572092020001111,/world,vicon/Archie/Archie,0.377698320864,0.32073195239,0.114927394823,0.0047373338594,0.00268515954617,0.613383734656,0.789766257601
1385572092029857276,925828,1385572092029857276,/world,vicon/Archie/Archie,0.377691112625,0.320738902093,0.114928554451,0.00473160570322,0.00266908759757,0.613375111522,0.789773043629
1385572092039805193,925829,1385572092039805193,/world,vicon/Archie/Archie,0.377704093854,0.320718369333,0.114908020586,0.00473496705564,0.00267812712546,0.613378174566,0.789770613969
1385572092049862061,925830,1385572092049862061,/world,vicon/Archie/Archie,0.37770537551,0.320728003399,0.114907764549,0.00471484776604,0.00268002343182,0.613388299641,0.789762864123
1385572092059876431,925831,1385572092059876431,/world,vicon/Archie/Archie,0.377702001144,0.320731616358,0.114926255334,0.00472652821573,0.00267851264923,0.613373862243,0.789774012372
1385572092069811449,925832,1385572092069811449,/world,vicon/Archie/Archie,0.37770553399,0.320722869354,0.114925690593,0.00473231990148,0.00270083020201,0.613382425614,0.789767250911
1385572092079860996,925833,1385572092079860996,/world,vicon/Archie/Archie,0.377700801396,0.320718614736,0.114908199129,0.00472786093828,0.00266083994763,0.613392714461,0.789759422298
1385572092089899227,925834,1385572092089899227,/world,vicon/Archie/Archie,0.37770798075,0.320721374075,0.114909885936,0.00472892866333,0.00267148029904,0.613372370608,0.789775180289
1385572092099851174,925835,1385572092099851174,/world,vicon/Archie/Archie,0.377722182437,0.320724937483,0.114909176875,0.00473423734415,0.00268712565689,0.613380092846,0.789769097935
1385572092109874024,925836,1385572092109874024,/world,vicon/Archie/Archie,0.377707690448,0.320718076322,0.114908081047,0.0047366735364,0.0026695302945,0.613381033682,0.78976841229
1385572092119905741,925837,1385572092119905741,/world,vicon/Archie/Archie,0.37769850941,0.320725918707,0.114922753225,0.00474229653443,0.00269731686501,0.613376910872,0.789771486137
1385572092129947007,925838,1385572092129947007,/world,vicon/Archie/Archie,0.377696999798,0.320727140786,0.114903090739,0.00471622831444,0.00266776794635,0.613381639454,0.789768070123
1385572092139649682,925839,1385572092139649682,/world,vicon/Archie/Archie,0.377678547504,0.32085045918,0.114920859868,0.00465883607556,0.00276898886465,0.613351102972,0.789791777895
1385572092149878982,925840,1385572092149878982,/world,vicon/Archie/Archie,0.377712724616,0.32072305659,0.114907613176,0.0047198795887,0.00265571608368,0.613382154095,0.789767689227
1385572092159843210,925841,1385572092159843210,/world,vicon/Archie/Archie,0.377704525301,0.32072946583,0.114926469741,0.00473246248599,0.00269299767339,0.613373305662,0.789774359842
1385572092169906629,925842,1385572092169906629,/world,vicon/Archie/Archie,0.377700531657,0.32072487674,0.114909355934,0.00473020554539,0.00266997250953,0.61337435726,0.789773634821
1385572092179831639,925843,1385572092179831639,/world,vicon/Archie/Archie,0.37770856739,0.32073776115,0.114908739437,0.00472484714345,0.00268293275697,0.613377124215,0.789771474024
1385572092189801353,925844,1385572092189801353,/world,vicon/Archie/Archie,0.377707146269,0.320725461705,0.114918728684,0.00471875011108,0.0026804100345,0.6133724817,0.789775124635
1385572092199812828,925845,1385572092199812828,/world,vicon/Archie/Archie,0.377712850463,0.320720102571,0.114909169735,0.00473596845373,0.00267337030974,0.613368982741,0.789777762858
1385572092209842195,925846,1385572092209842195,/world,vicon/Archie/Archie,0.377704491117,0.320720872604,0.114905526699,0.00474101931994,0.00266268234339,0.613389602585,0.789761754138
1385572092219865364,925847,1385572092219865364,/world,vicon/Archie/Archie,0.377702354813,0.320729568395,0.11492449055,0.00472949038574,0.00267423774243,0.613385126698,0.789765260517
1385572092229888461,925848,1385572092229888461,/world,vicon/Archie/Archie,0.377711729856,0.320719022293,0.114909346516,0.00472964310485,0.00268731154105,0.613391106603,0.789760570789
1385572092240108447,925849,1385572092240108447,/world,vicon/Archie/Archie,0.377698667067,0.320728713432,0.114909013796,0.00472783978654,0.00268609342252,0.613391589418,0.789760210737
1385572092249832095,925850,1385572092249832095,/world,vicon/Archie/Archie,0.377692597054,0.320732842841,0.114920628165,0.00472381220207,0.00267882237922,0.613376470886,0.789772001575
1385572092259957149,925851,1385572092259957149,/world,vicon/Archie/Archie,0.377698084421,0.32072439813,0.114905343305,0.00472257223266,0.0026480906533,0.613376038087,0.789772448765
1385572092269876940,925852,1385572092269876940,/world,vicon/Archie/Archie,0.377707573919,0.320726250187,0.114921710358,0.00472391423598,0.00267572366414,0.613374646691,0.789773428228
1385572092279851157,925853,1385572092279851157,/world,vicon/Archie/Archie,0.377705441896,0.320712245967,0.114913092021,0.00473294084555,0.00267861367886,0.613385619292,0.789764842435
1385572092289827936,925854,1385572092289827936,/world,vicon/Archie/Archie,0.377697284065,0.320728211339,0.114927093334,0.0047369238508,0.00268744022151,0.61337684674,0.789771601857
1385572092299845668,925855,1385572092299845668,/world,vicon/Archie/Archie,0.377696586415,0.320739781337,0.114918283325,0.00473220594133,0.00269291546418,0.613384770399,0.78976545751
1385572092309861086,925856,1385572092309861086,/world,vicon/Archie/Archie,0.377712343282,0.320719364075,0.114907816223,0.00473912773642,0.00269082587683,0.613376797225,0.789771615564
1385572092319766578,925857,1385572092319766578,/world,vicon/Archie/Archie,0.377713907404,0.320721803271,0.114912321461,0.00474313812876,0.00266353861891,0.613381792843,0.789767804112
1385572092329893483,925858,1385572092329893483,/world,vicon/Archie/Archie,0.377698363042,0.320727342392,0.114926457972,0.00473353586241,0.00268657286825,0.613383509788,0.789766450215
1385572092339889268,925859,1385572092339889268,/world,vicon/Archie/Archie,0.377695056865,0.320733602458,0.114903880802,0.00472236634403,0.00266132413771,0.613376850198,0.789771774788
1385572092349848594,925860,1385572092349848594,/world,vicon/Archie/Archie,0.377714982399,0.320722136893,0.114916253378,0.00473139142348,0.00268067716371,0.613365302714,0.789780623548
1385572092359854571,925861,1385572092359854571,/world,vicon/Archie/Archie,0.37770713102,0.320722630982,0.114912859173,0.00472416518108,0.00269054420125,0.613378508249,0.789770377296
1385572092369812344,925862,1385572092369812344,/world,vicon/Archie/Archie,0.377701776074,0.320732335002,0.114924854908,0.00473056260998,0.0026929948922,0.613392043521,0.789759818236
1385572092379768003,925863,1385572092379768003,/world,vicon/Archie/Archie,0.377707969212,0.320726028324,0.114920923963,0.00472174391871,0.00269923735468,0.613372098668,0.789775340098
1385572092389837550,925864,1385572092389837550,/world,vicon/Archie/Archie,0.377718449496,0.320724738118,0.114909562743,0.00472667673841,0.00266203741044,0.613383123464,0.789766874421
1385572092399994796,925865,1385572092399994796,/world,vicon/Archie/Archie,0.377672537201,0.320840148954,0.114893995965,0.00464384592273,0.00273346680566,0.613354464785,0.789789379128
1385572092410065873,925866,1385572092410065873,/world,vicon/Archie/Archie,0.377693755796,0.320720630908,0.114910481532,0.00471817762778,0.002654192513,0.613381439406,0.789768259589
1385572092419886795,925867,1385572092419886795,/world,vicon/Archie/Archie,0.377688553031,0.32073859187,0.114920587587,0.00471857283592,0.00265604460836,0.613369769661,0.789777314288
1385572092429851077,925868,1385572092429851077,/world,vicon/Archie/Archie,0.377701859887,0.320736927197,0.114917077789,0.00472353470572,0.00266721643524,0.613377190299,0.789771483783
1385572092439831389,925869,1385572092439831389,/world,vicon/Archie/Archie,0.377710624777,0.320723839597,0.114910771732,0.00471560256583,0.00267178621656,0.613366192458,0.789780057105
1385572092449862853,925870,1385572092449862853,/world,vicon/Archie/Archie,0.377707369444,0.320733046036,0.114930544067,0.00474159998092,0.00266143361516,0.613374604208,0.789773403524
1385572092459849931,925871,1385572092459849931,/world,vicon/Archie/Archie,0.377700836732,0.320727271831,0.114927455013,0.00472890883181,0.00267411949984,0.613381613478,0.789767992991
1385572092469910257,925872,1385572092469910257,/world,vicon/Archie/Archie,0.377705536686,0.32072018486,0.114917659518,0.00474009362191,0.00268263479484,0.613381029485,0.789768350626
1385572092479900718,925873,1385572092479900718,/world,vicon/Archie/Archie,0.377703468168,0.320732428829,0.114920962626,0.00471690567562,0.00265835488018,0.613373296857,0.789774577112
1385572092489655215,925874,1385572092489655215,/world,vicon/Archie/Archie,0.377683715237,0.320840728458,0.114903719454,0.00464661692262,0.00273884640561,0.613352621295,0.789790775853
1385572092500168177,925875,1385572092500168177,/world,vicon/Archie/Archie,0.377701995541,0.320728564085,0.114921000935,0.00471752464987,0.00266994003927,0.61337674196,0.789771858706
1385572092509855075,925876,1385572092509855075,/world,vicon/Archie/Archie,0.377698807961,0.320729912144,0.114928615287,0.00473368052214,0.00265365723667,0.613392268913,0.789759757654
1385572092519835376,925877,1385572092519835376,/world,vicon/Archie/Archie,0.377702031422,0.320726308793,0.114931179165,0.00472681314537,0.00269050316921,0.613383828664,0.78976622944
1385572092529926927,925878,1385572092529926927,/world,vicon/Archie/Archie,0.377702597804,0.320728740257,0.11492502283,0.00472443956069,0.00269531110769,0.613383702383,0.789766325327
1385572092539825975,925879,1385572092539825975,/world,vicon/Archie/Archie,0.377702740974,0.320725177274,0.114906173065,0.00471537550909,0.00267296502061,0.613374612391,0.789773515235
1385572092549796588,925880,1385572092549796588,/world,vicon/Archie/Archie,0.377696081982,0.320734746135,0.114926964206,0.00473753821683,0.00266704734081,0.613387234696,0.789763599378
1385572092559946129,925881,1385572092559946129,/world,vicon/Archie/Archie,0.377694886042,0.320718691029,0.11490797209,0.00471286236547,0.00266826741313,0.61339400567,0.789758484023
1385572092569860997,925882,1385572092569860997,/world,vicon/Archie/Archie,0.377695754662,0.320728035953,0.114909191336,0.00473929172684,0.00269008261491,0.613381265203,0.789768147033
1385572092579806544,925883,1385572092579806544,/world,vicon/Archie/Archie,0.377710759473,0.320719212806,0.114911477116,0.0047234583831,0.00266702730664,0.613380136474,0.789769196718
1385572092589797645,925884,1385572092589797645,/world,vicon/Archie/Archie,0.377702458877,0.320725514107,0.114909813599,0.00472760502054,0.00270472843312,0.613383978509,0.789766059731
1385572092599914815,925885,1385572092599914815,/world,vicon/Archie/Archie,0.377718006692,0.320723271971,0.11491147244,0.00471993985031,0.00268260616057,0.61337893402,0.789770098885
1385572092609924703,925886,1385572092609924703,/world,vicon/Archie/Archie,0.377694144258,0.320727211457,0.114923874703,0.00472442414685,0.00266858143963,0.613392240115,0.78975978516
1385572092619816496,925887,1385572092619816496,/world,vicon/Archie/Archie,0.377705613641,0.320725160716,0.114919843987,0.00471783226827,0.0026750366585,0.613369929437,0.789777130525
1385572092629862358,925888,1385572092629862358,/world,vicon/Archie/Archie,0.377698253119,0.320730106478,0.114928567664,0.00472592369425,0.00265678470392,0.613384041107,0.789766183915
1385572092639684942,925889,1385572092639684942,/world,vicon/Archie/Archie,0.377786791789,0.320773107945,0.11480738945,0.00538823454727,0.00247267123735,0.613494342338,0.789676860966
1385572092649963924,925890,1385572092649963924,/world,vicon/Archie/Archie,0.377672823613,0.320784092069,0.114874107879,0.0046840035009,0.00272414401684,0.613372710427,0.789775004197
1385572092659943021,925891,1385572092659943021,/world,vicon/Archie/Archie,0.377697009824,0.320723787426,0.114915430779,0.00472959341547,0.00267189542235,0.613367073484,0.789779288844
1385572092669632502,925892,1385572092669632502,/world,vicon/Archie/Archie,0.377805203076,0.320679410633,0.114832167404,0.00544617349212,0.00239546269298,0.613494595494,0.789676504812
1385572092679795979,925893,1385572092679795979,/world,vicon/Archie/Archie,0.377808980175,0.320671045157,0.114836758669,0.00545939828682,0.00239719650056,0.613497983331,0.789673776232
1385572092689794221,925894,1385572092689794221,/world,vicon/Archie/Archie,0.377813477278,0.320667905118,0.114820548455,0.00544777929281,0.00240252775396,0.613497702281,0.78967405862
1385572092699932885,925895,1385572092699932885,/world,vicon/Archie/Archie,0.377811669604,0.320675773935,0.114815052656,0.00542662425782,0.00237572623903,0.613497473928,0.789674462775
1385572092710034416,925896,1385572092710034416,/world,vicon/Archie/Archie,0.377811760425,0.320674782053,0.114825692465,0.00545190573933,0.0024067636036,0.61349560003,0.789675650478
1385572092719757271,925897,1385572092719757271,/world,vicon/Archie/Archie,0.377865990465,0.320680123543,0.114869541571,0.00556731300065,0.00237886381932,0.613430276053,0.789725675443
1385572092729936203,925898,1385572092729936203,/world,vicon/Archie/Archie,0.37780339076,0.320678145002,0.114830771676,0.00545760131406,0.00238630649199,0.613490813777,0.789679391615
1385572092739795237,925899,1385572092739795237,/world,vicon/Archie/Archie,0.377807986295,0.320669138253,0.114819339059,0.00544306870589,0.00237982900535,0.613485952097,0.789683288412
1385572092749917592,925900,1385572092749917592,/world,vicon/Archie/Archie,0.377710070031,0.320724020859,0.114923852906,0.00473043287582,0.00267479321897,0.613367590999,0.789778872089
1385572092759849715,925901,1385572092759849715,/world,vicon/Archie/Archie,0.377706917662,0.320728482994,0.114923365503,0.00472280207392,0.00267541441928,0.613376410044,0.789772066422
1385572092769809119,925902,1385572092769809119,/world,vicon/Archie/Archie,0.377691040871,0.320727436413,0.11492751837,0.00473227828626,0.00268424044561,0.61338743641,0.789763415999
1385572092779817807,925903,1385572092779817807,/world,vicon/Archie/Archie,0.377712330354,0.320730092143,0.114923175759,0.00473479663201,0.00269444552682,0.61336854136,0.789778041056
1385572092789914084,925904,1385572092789914084,/world,vicon/Archie/Archie,0.377708133968,0.320723581151,0.114909948408,0.00473204634279,0.00267603848651,0.613372361544,0.789775153224
1385572092799813577,925905,1385572092799813577,/world,vicon/Archie/Archie,0.377710459472,0.320724573575,0.114904263613,0.00474228817706,0.00268229940963,0.613384997442,0.789765256824
1385572092809806050,925906,1385572092809806050,/world,vicon/Archie/Archie,0.377693894047,0.320726073297,0.114916937797,0.00472902681145,0.00268170921349,0.613367308323,0.789779076591
1385572092819564591,925907,1385572092819564591,/world,vicon/Archie/Archie,0.377782421053,0.32077377582,0.114808414947,0.00538023507598,0.00246505096205,0.613478668751,0.78968911578
1385572092830035993,925908,1385572092830035993,/world,vicon/Archie/Archie,0.377696954661,0.32073332164,0.114931054871,0.0047398651989,0.0026803412564,0.613384241859,0.789765864854
1385572092839882974,925909,1385572092839882974,/world,vicon/Archie/Archie,0.377693051285,0.320730094123,0.114914756204,0.00472275084894,0.00268666309054,0.613385772412,0.78976475717
1385572092849987902,925910,1385572092849987902,/world,vicon/Archie/Archie,0.377706754622,0.320733534749,0.114932890092,0.00470770957717,0.00268728371476,0.613379352929,0.789769830632
1385572092859923865,925911,1385572092859923865,/world,vicon/Archie/Archie,0.377710526609,0.320714401257,0.114905212559,0.00472496397462,0.00265368673651,0.613369756492,0.789777294231
1385572092869854799,925912,1385572092869854799,/world,vicon/Archie/Archie,0.377704336687,0.320726612838,0.114918291919,0.00471991625381,0.00268604779243,0.613382674363,0.789767182358
1385572092879849223,925913,1385572092879849223,/world,vicon/Archie/Archie,0.377692247815,0.320723344459,0.114902567252,0.00471613479727,0.00267594027772,0.613384705987,0.789765661369
1385572092889843390,925914,1385572092889843390,/world,vicon/Archie/Archie,0.377709723929,0.320722749389,0.114905146169,0.00472423304926,0.0026640513859,0.613372538559,0.789775103048
1385572092899847363,925915,1385572092899847363,/world,vicon/Archie/Archie,0.377694838961,0.32072434599,0.114924869982,0.00473221085649,0.00266973868703,0.61336563466,0.789780397891
1385572092909832136,925916,1385572092909832136,/world,vicon/Archie/Archie,0.377701019529,0.320728645438,0.114930974769,0.00473195710593,0.00266076766078,0.613386514521,0.789764213358
1385572092919783089,925917,1385572092919783089,/world,vicon/Archie/Archie,0.377700192634,0.320730299409,0.114905753969,0.00472587114026,0.00268156382647,0.613369530421,0.789777370218
1385572092929806287,925918,1385572092929806287,/world,vicon/Archie/Archie,0.377697106117,0.320733419153,0.114933005824,0.00471982167001,0.00269733323031,0.613386453352,0.789764209446
1385572092939801917,925919,1385572092939801917,/world,vicon/Archie/Archie,0.377707635426,0.320716720514,0.114909194942,0.00473110698441,0.00266749868222,0.613368831197,0.789777929543
1385572092950056222,925920,1385572092950056222,/world,vicon/Archie/Archie,0.377704002461,0.320724148079,0.114908812271,0.00473431339766,0.00267231588082,0.613387993738,0.789763011379
1385572092959831391,925921,1385572092959831391,/world,vicon/Archie/Archie,0.377698866538,0.3207350414,0.114926109415,0.00473042692399,0.00266899303455,0.613376122724,0.789772265662
1385572092969904023,925922,1385572092969904023,/world,vicon/Archie/Archie,0.377703054187,0.320740606468,0.114927182497,0.00474426457195,0.00268564394065,0.613373243445,0.789774362395
1385572092979842071,925923,1385572092979842071,/world,vicon/Archie/Archie,0.377700408294,0.32072558801,0.114917145404,0.00470924881678,0.00266184958847,0.613386042015,0.789764712426
1385572092989854831,925924,1385572092989854831,/world,vicon/Archie/Archie,0.377693225236,0.320731051036,0.114922766813,0.00473704309754,0.00267967525649,0.613380393386,0.789768873008
1385572092999808505,925925,1385572092999808505,/world,vicon/Archie/Archie,0.377703294594,0.320713139296,0.114905174001,0.00471001473346,0.00267072579611,0.613379538478,0.789769728947
1385572093009760605,925926,1385572093009760605,/world,vicon/Archie/Archie,0.377697170815,0.320720431056,0.114914713075,0.00473476769132,0.00268953139838,0.613400783618,0.789753016488
1385572093019690392,925927,1385572093019690392,/world,vicon/Archie/Archie,0.377701558999,0.320718070735,0.114911527643,0.00473606967269,0.00267135728834,0.613387613002,0.789763299799
1385572093029789190,925928,1385572093029789190,/world,vicon/Archie/Archie,0.377705620127,0.320718910192,0.114909791226,0.00473417487744,0.00265414467088,0.613378507281,0.789770441274
1385572093039754285,925929,1385572093039754285,/world,vicon/Archie/Archie,0.37770729108,0.320721334591,0.114912291146,0.00470839069356,0.00267299041084,0.613384875483,0.789765585923
1385572093049738521,925930,1385572093049738521,/world,vicon/Archie/Archie,0.377702671058,0.320716018396,0.114912051542,0.00472421777944,0.00266761583182,0.613403319883,0.789751184075
1385572093059813951,925931,1385572093059813951,/world,vicon/Archie/Archie,0.37770535807,0.320733905202,0.114921763466,0.00473453640555,0.00269535823439,0.613370563638,0.789776468927
1385572093069714713,925932,1385572093069714713,/world,vicon/Archie/Archie,0.377701574493,0.320730326683,0.114918854608,0.0047252591343,0.00266627737114,0.613373817716,0.789774095949
1385572093079734137,925933,1385572093079734137,/world,vicon/Archie/Archie,0.377691088276,0.320738856688,0.114918235866,0.00472109952859,0.00266986681427,0.61339407692,0.78975837408
1385572093089747033,925934,1385572093089747033,/world,vicon/Archie/Archie,0.377712530993,0.320723447904,0.114910906843,0.00471456365859,0.00268134453773,0.613370915361,0.789776362947
1385572093099769300,925935,1385572093099769300,/world,vicon/Archie/Archie,0.377693022976,0.320728038452,0.114915915201,0.0047307971864,0.00265478767822,0.613379209176,0.789769914222
1385572093109689392,925936,1385572093109689392,/world,vicon/Archie/Archie,0.377690660319,0.320735685321,0.114927856731,0.00472511371149,0.00265585811873,0.613378617023,0.789770404546
1385572093119716151,925937,1385572093119716151,/world,vicon/Archie/Archie,0.377697633179,0.320720237243,0.114910325349,0.00471972893837,0.00266061036595,0.61338202063,0.789767777311
1385572093129821685,925938,1385572093129821685,/world,vicon/Archie/Archie,0.377711093437,0.32071958231,0.114911847439,0.00473763481917,0.00266868558723,0.613374213193,0.789773706528
1385572093139743447,925939,1385572093139743447,/world,vicon/Archie/Archie,0.377710076708,0.320725988434,0.114917402739,0.00472000674003,0.00268421023794,0.613377103396,0.789771514795
1385572093149831570,925940,1385572093149831570,/world,vicon/Archie/Archie,0.377699201731,0.32071537592,0.114907361019,0.00472748328347,0.00265223779027,0.6133910559,0.789760741667
1385572093159901650,925941,1385572093159901650,/world,vicon/Archie/Archie,0.377708277009,0.320731703028,0.114925899191,0.00473889893904,0.00268938591875,0.613368330918,0.789778197133
1385572093169813588,925942,1385572093169813588,/world,vicon/Archie/Archie,0.377702114898,0.320732193548,0.114924664861,0.0047257838147,0.00267957911614,0.613373226855,0.789774506679
1385572093179718174,925943,1385572093179718174,/world,vicon/Archie/Archie,0.377716475082,0.320723323254,0.114903982682,0.0047261809408,0.0026787729218,0.613358534157,0.789785917807
1385572093190216140,925944,1385572093190216140,/world,vicon/Archie/Archie,0.377703366097,0.320726546017,0.114921540171,0.00474324947114,0.0026572583815,0.613383688594,0.789766352239
1385572093199753469,925945,1385572093199753469,/world,vicon/Archie/Archie,0.377703082633,0.320721195193,0.114910251882,0.00472836625329,0.00267123326863,0.613386547696,0.789764173771
1385572093209845119,925946,1385572093209845119,/world,vicon/Archie/Archie,0.377723445149,0.320720691947,0.114910563466,0.00472778621969,0.00268483082447,0.613375731798,0.789772531405
1385572093219890846,925947,1385572093219890846,/world,vicon/Archie/Archie,0.377692347012,0.320730087315,0.114905364239,0.00471698561849,0.00269609140605,0.613388228498,0.789762851923
1385572093229820805,925948,1385572093229820805,/world,vicon/Archie/Archie,0.377703733288,0.320720971369,0.114913092357,0.00473885730922,0.0026997247373,0.613374211586,0.789773594949
1385572093239916842,925949,1385572093239916842,/world,vicon/Archie/Archie,0.377701369263,0.320726493679,0.114926029161,0.00473600260313,0.00268773119241,0.613374800591,0.789773195532
1385572093250240069,925950,1385572093250240069,/world,vicon/Archie/Archie,0.377710913874,0.320718888246,0.114907681729,0.00472273686138,0.00269052800078,0.613373670173,0.789774143382
1385572093259874736,925951,1385572093259874736,/world,vicon/Archie/Archie,0.377700409993,0.320733815001,0.114923270908,0.00473688581259,0.00267977112254,0.613392170299,0.789759726851
1385572093269831333,925952,1385572093269831333,/world,vicon/Archie/Archie,0.377706747831,0.320725085732,0.114911229093,0.00472467401337,0.00266905434337,0.613379236404,0.789769881644
1385572093279841483,925953,1385572093279841483,/world,vicon/Archie/Archie,0.377714759436,0.320719627494,0.114910451797,0.00473558492903,0.00268636966302,0.613364578181,0.789781141764
1385572093289817541,925954,1385572093289817541,/world,vicon/Archie/Archie,0.377701490854,0.320728149499,0.114916457356,0.00473244336143,0.00265918103098,0.613374747542,0.789773354713
1385572093299655746,925955,1385572093299655746,/world,vicon/Archie/Archie,0.377773417472,0.320729719305,0.114792197808,0.00539754994415,0.00241872657192,0.613478053938,0.789689618491
1385572093309675229,925956,1385572093309675229,/world,vicon/Archie/Archie,0.377675644326,0.32084555616,0.114915395598,0.00467521319423,0.00277120585246,0.613350721944,0.789791969249
1385572093319855308,925957,1385572093319855308,/world,vicon/Archie/Archie,0.377706533203,0.320733591692,0.114926717937,0.00472718805286,0.0026777802745,0.613374115553,0.789773814174
1385572093329599508,925958,1385572093329599508,/world,vicon/Archie/Archie,0.377803135901,0.320678973616,0.114829064905,0.00544787166499,0.00238250791642,0.613488639928,0.789681159095
1385572093339817713,925959,1385572093339817713,/world,vicon/Archie/Archie,0.377813647705,0.320669295112,0.114820477572,0.00545190796714,0.00236948127805,0.613485704627,0.789683450806
1385572093349860032,925960,1385572093349860032,/world,vicon/Archie/Archie,0.377813532135,0.320674718321,0.114833637088,0.00545197554232,0.00239553747352,0.613496875078,0.78967469355
1385572093359905764,925961,1385572093359905764,/world,vicon/Archie/Archie,0.377809504391,0.320677977968,0.114822132427,0.00545741741382,0.00238725628214,0.613488980551,0.789680814219
1385572093370250303,925962,1385572093370250303,/world,vicon/Archie/Archie,0.377813570945,0.320673140881,0.114831567439,0.00545422061466,0.00236673806486,0.613504345765,0.789668960866
1385572093379891305,925963,1385572093379891305,/world,vicon/Archie/Archie,0.377803863315,0.320683689429,0.114829751597,0.00545556587343,0.00239407081526,0.613503726661,0.789669350171
1385572093389794007,925964,1385572093389794007,/world,vicon/Archie/Archie,0.377815367372,0.320676596052,0.114831747744,0.00545880728322,0.00238712257942,0.613490618449,0.78967953256
1385572093399748137,925965,1385572093399748137,/world,vicon/Archie/Archie,0.377808887295,0.320670371598,0.114845061976,0.00546519531229,0.00242212093255,0.613505409892,0.789667890321
1385572093409836093,925966,1385572093409836093,/world,vicon/Archie/Archie,0.377804927541,0.320676694394,0.114834451618,0.00546654120517,0.0023833743929,0.613497351463,0.789674259554
1385572093419870861,925967,1385572093419870861,/world,vicon/Archie/Archie,0.377694291436,0.320730495252,0.114930090119,0.00472260487833,0.00267424444513,0.613376957624,0.789771646285
1385572093429778255,925968,1385572093429778255,/world,vicon/Archie/Archie,0.377711488054,0.320732203642,0.114928547532,0.00471324524139,0.00268173678703,0.613378487848,0.78977048834
1385572093439857914,925969,1385572093439857914,/world,vicon/Archie/Archie,0.37769773643,0.320732224244,0.114923839229,0.0047341582368,0.00269726944541,0.613374566946,0.789773355531
1385572093449894553,925970,1385572093449894553,/world,vicon/Archie/Archie,0.377710822444,0.320723430298,0.114918585304,0.00472896745714,0.00266751375638,0.613369613571,0.789777334686
1385572093459851529,925971,1385572093459851529,/world,vicon/Archie/Archie,0.377708586911,0.320721353007,0.114918785458,0.00472544509653,0.00267748661754,0.613384158181,0.789766025938
1385572093469839794,925972,1385572093469839794,/world,vicon/Archie/Archie,0.377712089078,0.32073178354,0.114910406876,0.00472625435641,0.00269033557407,0.613374855521,0.7897732024
1385572093479867748,925973,1385572093479867748,/world,vicon/Archie/Archie,0.377701938012,0.320726462403,0.114914148749,0.00473087414232,0.00270216918326,0.613384428516,0.78976569941
1385572093489862143,925974,1385572093489862143,/world,vicon/Archie/Archie,0.377689984385,0.320726404302,0.114910907806,0.00473216099456,0.00267000973623,0.613385716403,0.78976480082
1385572093499834656,925975,1385572093499834656,/world,vicon/Archie/Archie,0.377701577149,0.320733772994,0.114920745297,0.00473291152073,0.00266090170333,0.613370048093,0.7897769959
1385572093509909618,925976,1385572093509909618,/world,vicon/Archie/Archie,0.377703231482,0.320728210398,0.114924990251,0.00473082118098,0.00265577666347,0.61338951579,0.789761905957
1385572093519979768,925977,1385572093519979768,/world,vicon/Archie/Archie,0.377695246799,0.320721264131,0.114912454889,0.00473457934043,0.00269609088585,0.613382599609,0.789767118428
1385572093529869547,925978,1385572093529869547,/world,vicon/Archie/Archie,0.377702483257,0.32072196089,0.114905523341,0.00475164333771,0.00267209146782,0.613380502043,0.789768726607
1385572093539782777,925979,1385572093539782777,/world,vicon/Archie/Archie,0.377713129733,0.320727255609,0.114905532068,0.00474104175144,0.00270186653536,0.613369759537,0.789777032159
1385572093550272062,925980,1385572093550272062,/world,vicon/Archie/Archie,0.377705864503,0.320712945815,0.114910012491,0.00472572135718,0.00268040994581,0.613379825874,0.789769379104
1385572093560030227,925981,1385572093560030227,/world,vicon/Archie/Archie,0.377704347111,0.320730116839,0.114919285067,0.00472247609093,0.00267502829466,0.613381700605,0.789767960737
1385572093569988165,925982,1385572093569988165,/world,vicon/Archie/Archie,0.377703464807,0.320737130139,0.114918542195,0.00473250492922,0.00266176633007,0.613371834909,0.789775607712
1385572093580441501,925983,1385572093580441501,/world,vicon/Archie/Archie,0.377701695287,0.320731244275,0.114932267698,0.00473799257846,0.00269627168581,0.613383723817,0.789766224209
1385572093589855945,925984,1385572093589855945,/world,vicon/Archie/Archie,0.377709115445,0.320730936162,0.114934486792,0.00473933749901,0.0026831568183,0.613381169515,0.789768244635
1385572093599852543,925985,1385572093599852543,/world,vicon/Archie/Archie,0.377720020441,0.320739447449,0.114922306013,0.00471679614136,0.00266686456839,0.613366022479,0.789780198622
1385572093610339054,925986,1385572093610339054,/world,vicon/Archie/Archie,0.377699795893,0.320729932011,0.114930846222,0.00474242604942,0.00269146564113,0.613375682769,0.789772459127
1385572093619933934,925987,1385572093619933934,/world,vicon/Archie/Archie,0.377711132794,0.320731829298,0.114923352075,0.00472481459676,0.00266180861698,0.613372814402,0.789774892899
1385572093629833104,925988,1385572093629833104,/world,vicon/Archie/Archie,0.377705106005,0.320728822854,0.114916596047,0.00472817681464,0.00267902974675,0.613387015075,0.789763785496
1385572093639867932,925989,1385572093639867932,/world,vicon/Archie/Archie,0.377710389666,0.320728204516,0.114923691996,0.00471918138064,0.00267833179954,0.613363433594,0.789782156165
1385572093650003262,925990,1385572093650003262,/world,vicon/Archie/Archie,0.377709209022,0.320717869783,0.114911603656,0.00472837506869,0.00267491663329,0.61338699094,0.789763816996
1385572093659886881,925991,1385572093659886881,/world,vicon/Archie/Archie,0.377708635635,0.320727486727,0.114930333348,0.00472778967684,0.00266104773288,0.613369843685,0.789777184836
1385572093669876003,925992,1385572093669876003,/world,vicon/Archie/Archie,0.377688695545,0.320734673498,0.114922165963,0.00474011316049,0.00266866678774,0.613381562169,0.789767984117
1385572093679962305,925993,1385572093679962305,/world,vicon/Archie/Archie,0.377702394189,0.320729028542,0.11492206614,0.00473445529702,0.0026781024106,0.613375073959,0.789773025208
1385572093689851263,925994,1385572093689851263,/world,vicon/Archie/Archie,0.377699073537,0.320727528379,0.114926751785,0.00473205872389,0.00268340383068,0.6133891151,0.789762116362
1385572093699925487,925995,1385572093699925487,/world,vicon/Archie/Archie,0.377714485797,0.32072138009,0.114918904326,0.00472675022069,0.00268407507913,0.613377649204,0.78977105102
1385572093710147226,925996,1385572093710147226,/world,vicon/Archie/Archie,0.377706399486,0.320727211827,0.114924679242,0.0047367203967,0.00266903926855,0.613380830557,0.789768571427
1385572093719829693,925997,1385572093719829693,/world,vicon/Archie/Archie,0.377706563251,0.320714947824,0.114917997188,0.00473471292167,0.00270346602056,0.613400141476,0.78975346799
1385572093730051515,925998,1385572093730051515,/world,vicon/Archie/Archie,0.377710407118,0.320731364806,0.11492361421,0.0047289482528,0.00266987639501,0.613378572912,0.789770368588
1385572093739839671,925999,1385572093739839671,/world,vicon/Archie/Archie,0.377699808466,0.320720097692,0.114910653313,0.00471819380221,0.00269383982842,0.613381081099,0.789768403536
1385572093749902961,926000,1385572093749902961,/world,vicon/Archie/Archie,0.377699672223,0.320731743174,0.114933442875,0.00474402927343,0.00264894037389,0.613381159926,0.789768339419
1385572093759954624,926001,1385572093759954624,/world,vicon/Archie/Archie,0.377703171532,0.32071457092,0.1149051657,0.00472118087558,0.00264407393167,0.613381315558,0.78976837177
1385572093769875342,926002,1385572093769875342,/world,vicon/Archie/Archie,0.3777068358,0.320726926728,0.114921503629,0.00474363074697,0.00268199399512,0.613386231379,0.789764291438
1385572093779852823,926003,1385572093779852823,/world,vicon/Archie/Archie,0.377709225293,0.320726894819,0.114909194588,0.0047055138246,0.0026663333133,0.613378138383,0.789770858009
1385572093789806804,926004,1385572093789806804,/world,vicon/Archie/Archie,0.377704771727,0.320721699103,0.114910531015,0.00474027090939,0.00266815656124,0.613356124262,0.789787740854
1385572093799917740,926005,1385572093799917740,/world,vicon/Archie/Archie,0.377700708001,0.320728514077,0.114926305873,0.00472668427114,0.00270546285251,0.613384027783,0.789766024457
1385572093809877627,926006,1385572093809877627,/world,vicon/Archie/Archie,0.37770985622,0.320721375643,0.114909727164,0.00473778914959,0.00264605874731,0.613370960418,0.789776307977
1385572093819816900,926007,1385572093819816900,/world,vicon/Archie/Archie,0.377701449589,0.320724883163,0.114905728025,0.00471506589434,0.00270134376477,0.613385119187,0.78976526035
1385572093829706845,926008,1385572093829706845,/world,vicon/Archie/Archie,0.377677145055,0.320845404968,0.114925343352,0.00466061190782,0.00277914174316,0.613364488812,0.789781336151
1385572093840030524,926009,1385572093840030524,/world,vicon/Archie/Archie,0.37771120333,0.320719196343,0.114910249302,0.00471578516252,0.00268094024922,0.613369091211,0.789777773729
1385572093849979082,926010,1385572093849979082,/world,vicon/Archie/Archie,0.377710096694,0.3207188694,0.114915457766,0.00471421176641,0.00268881794892,0.613373169945,0.789774588637
1385572093859977108,926011,1385572093859977108,/world,vicon/Archie/Archie,0.37771170535,0.320733952738,0.114923987081,0.00472597264635,0.0026787434307,0.613368855644,0.789777903237
1385572093869892198,926012,1385572093869892198,/world,vicon/Archie/Archie,0.377700523513,0.320725359373,0.114929367496,0.00472977939162,0.00267318257504,0.613390850823,0.789760816582
1385572093879885577,926013,1385572093879885577,/world,vicon/Archie/Archie,0.377704782634,0.320721397605,0.114913144,0.00472551845728,0.0026795664508,0.61337908899,0.789769955486
1385572093889833637,926014,1385572093889833637,/world,vicon/Archie/Archie,0.377695763817,0.320725208238,0.114921927845,0.00472560341454,0.00268972042632,0.613395318924,0.789757315128
1385572093899580235,926015,1385572093899580235,/world,vicon/Archie/Archie,0.377703711114,0.320725959153,0.114908305053,0.00473543960211,0.00267260999238,0.613354400815,0.789789093219
1385572093909970603,926016,1385572093909970603,/world,vicon/Archie/Archie,0.377703726193,0.320731561876,0.114924284788,0.00474345026957,0.00268696324483,0.613375517386,0.789772596751
1385572093919877690,926017,1385572093919877690,/world,vicon/Archie/Archie,0.377695847984,0.32073193997,0.114921172762,0.0047349245549,0.00268137024581,0.613365528172,0.789780424924
1385572093929917721,926018,1385572093929917721,/world,vicon/Archie/Archie,0.377694791844,0.320735625717,0.114930332747,0.00471462586112,0.00268009330759,0.613387781161,0.789763267901
1385572093939693780,926019,1385572093939693780,/world,vicon/Archie/Archie,0.377668655136,0.320857782611,0.114916749286,0.00462909059975,0.00278264221214,0.613359206612,0.789785611471
1385572093949973631,926020,1385572093949973631,/world,vicon/Archie/Archie,0.377703582255,0.320721235758,0.114913696296,0.00473475816802,0.00266877720577,0.613381864258,0.789767781245
1385572093959898409,926021,1385572093959898409,/world,vicon/Archie/Archie,0.377703927217,0.320722449063,0.114910036114,0.00473354559528,0.00270249275206,0.613394863424,0.789757577744
1385572093969934800,926022,1385572093969934800,/world,vicon/Archie/Archie,0.377697078257,0.320728188555,0.114924625091,0.00473854103552,0.00268120284869,0.613386590996,0.789764045374
1385572093979861504,926023,1385572093979861504,/world,vicon/Archie/Archie,0.377700235185,0.320723487982,0.114906357924,0.00472377990499,0.0026985691204,0.613390761405,0.789760835602
1385572093989767447,926024,1385572093989767447,/world,vicon/Archie/Archie,0.377691965622,0.320725049973,0.114912580002,0.00473066098081,0.00266109952202,0.61338452568,0.789765764675
1385572094000086381,926025,1385572094000086381,/world,vicon/Archie/Archie,0.377698203005,0.320725971767,0.114923434097,0.00472855385082,0.00267814592755,0.613373364594,0.789774387987
1385572094009999622,926026,1385572094009999622,/world,vicon/Archie/Archie,0.377708500238,0.320726652389,0.114909983002,0.0047237770653,0.00265706358368,0.613384237003,0.789766043673
1385572094019850209,926027,1385572094019850209,/world,vicon/Archie/Archie,0.377696566612,0.320724989795,0.114926806184,0.0047453901861,0.00268887886517,0.613387493692,0.789763277055
1385572094030279266,926028,1385572094030279266,/world,vicon/Archie/Archie,0.377709739368,0.320710763312,0.114912836262,0.00473480074498,0.00266743661296,0.61339141792,0.789760365469
1385572094039874193,926029,1385572094039874193,/world,vicon/Archie/Archie,0.377691704589,0.320730746473,0.114926239447,0.00473865900905,0.00267696017377,0.613374258723,0.78977363702
1385572094049733374,926030,1385572094049733374,/world,vicon/Archie/Archie,0.377772315638,0.320730296534,0.114783212697,0.00540056076996,0.00242379813215,0.613488853665,0.789681192365
1385572094059961655,926031,1385572094059961655,/world,vicon/Archie/Archie,0.377800460012,0.320665346812,0.114817431423,0.00544531264102,0.00239177246298,0.613493274878,0.789677547911
1385572094069619716,926032,1385572094069619716,/world,vicon/Archie/Archie,0.377804488485,0.320672314385,0.114836309596,0.00546228474415,0.00237932588468,0.613510388963,0.78966417222
1385572094079945313,926033,1385572094079945313,/world,vicon/Archie/Archie,0.377805892615,0.320665525534,0.114815616688,0.00544975501609,0.00238118972772,0.613501008542,0.789671540973
1385572094089953698,926034,1385572094089953698,/world,vicon/Archie/Archie,0.377805297445,0.320674028461,0.114821883798,0.00545015723516,0.00238002026637,0.613501382631,0.789671251091
1385572094099886058,926035,1385572094099886058,/world,vicon/Archie/Archie,0.377808122768,0.32067786733,0.114821442656,0.00545296432806,0.00237285407463,0.613491115284,0.789679229948
1385572094109946680,926036,1385572094109946680,/world,vicon/Archie/Archie,0.377703912353,0.320725695573,0.114910866181,0.00473763301997,0.00266253867414,0.613381484241,0.789768080206
1385572094120095646,926037,1385572094120095646,/world,vicon/Archie/Archie,0.377702611461,0.320714086813,0.114909658855,0.0047320898624,0.00267400852413,0.613385570242,0.789764901235
1385572094129997716,926038,1385572094129997716,/world,vicon/Archie/Archie,0.377695403511,0.320727866861,0.11490697866,0.00472470808937,0.00267431641312,0.613384359022,0.789765885103
1385572094139888167,926039,1385572094139888167,/world,vicon/Archie/Archie,0.377690998997,0.320733003969,0.114915282916,0.00474362472215,0.0026807675833,0.613375662291,0.789772504218
1385572094149921630,926040,1385572094149921630,/world,vicon/Archie/Archie,0.377698109201,0.320721301202,0.114925760284,0.00474821057864,0.0026535057499,0.613371025754,0.789776169664
1385572094159877567,926041,1385572094159877567,/world,vicon/Archie/Archie,0.377696290121,0.320727169196,0.11492031298,0.00472935929256,0.00267692598849,0.613387569599,0.789763354866
1385572094169679624,926042,1385572094169679624,/world,vicon/Archie/Archie,0.377768840204,0.320740531397,0.114798078393,0.00540165551031,0.00241339107435,0.613487450931,0.789682306508
1385572094179816409,926043,1385572094179816409,/world,vicon/Archie/Archie,0.377681002729,0.320842935663,0.114905312432,0.00464211256763,0.00276320453504,0.613362032674,0.789783408515
1385572094189911252,926044,1385572094189911252,/world,vicon/Archie/Archie,0.377699032076,0.320715688918,0.114907474681,0.00471865183587,0.00267903140611,0.613376479026,0.789772025393
1385572094199967769,926045,1385572094199967769,/world,vicon/Archie/Archie,0.377801942793,0.320675960007,0.114812013763,0.00544289729408,0.00240492691383,0.613502824629,0.789670105404
1385572094210015120,926046,1385572094210015120,/world,vicon/Archie/Archie,0.377710234024,0.320719928812,0.114925845366,0.00474358218921,0.00264064388081,0.613382925508,0.789766998629
1385572094219847293,926047,1385572094219847293,/world,vicon/Archie/Archie,0.377709047594,0.320724458288,0.11490795329,0.00472742287501,0.00266369372468,0.613386589085,0.789764172737
1385572094231755181,926048,1385572094231755181,/world,vicon/Archie/Archie,0.377704977303,0.320724601697,0.114909038343,0.00472090846667,0.00266415867865,0.61337628213,0.789772215137
1385572094239851137,926049,1385572094239851137,/world,vicon/Archie/Archie,0.377700760035,0.320731914971,0.114922154916,0.00472989068741,0.00268656255388,0.613376226023,0.789772129076
1385572094249636594,926050,1385572094249636594,/world,vicon/Archie/Archie,0.377670859878,0.320844091398,0.114909233369,0.00463509205204,0.00273729100192,0.61334957786,0.789793212492
1385572094260071495,926051,1385572094260071495,/world,vicon/Archie/Archie,0.377697265263,0.320735923454,0.114915258582,0.00473877677178,0.00266887586169,0.61337306268,0.789774592574
1385572094269657763,926052,1385572094269657763,/world,vicon/Archie/Archie,0.377799578495,0.320764160412,0.114809950084,0.00538750694966,0.00249149945337,0.613471811636,0.789694310178
1385572094280138659,926053,1385572094280138659,/world,vicon/Archie/Archie,0.377688298767,0.320726683961,0.11492194814,0.0047173796299,0.00268268760368,0.613380967075,0.789768534918
1385572094289921894,926054,1385572094289921894,/world,vicon/Archie/Archie,0.377705448307,0.320716086491,0.114907606468,0.00473829511636,0.00268249245868,0.613378635299,0.789770221363
1385572094299901737,926055,1385572094299901737,/world,vicon/Archie/Archie,0.377702477161,0.320732066861,0.114928763138,0.00473809047514,0.00267784065326,0.613375452751,0.789772710108
1385572094309857238,926056,1385572094309857238,/world,vicon/Archie/Archie,0.37766801162,0.320852205756,0.114916964747,0.00465787600042,0.00275120668422,0.613359523535,0.789785306233
1385572094320783344,926057,1385572094320783344,/world,vicon/Archie/Archie,0.377708455434,0.320717702478,0.114908631805,0.00472937293358,0.00268403218904,0.613388828371,0.78976235301
1385572094329876801,926058,1385572094329876801,/world,vicon/Archie/Archie,0.377702843929,0.320729349438,0.114911186284,0.00473250980984,0.00270080814401,0.613380534999,0.789768718215
1385572094339858276,926059,1385572094339858276,/world,vicon/Archie/Archie,0.377704492028,0.32073183519,0.114916407681,0.00473681843492,0.00265934087356,0.613383910885,0.789766211182
1385572094349853678,926060,1385572094349853678,/world,vicon/Archie/Archie,0.377709084807,0.320727259013,0.114911114636,0.00470689490438,0.00267552904051,0.613362003927,0.789783349295
1385572094359914363,926061,1385572094359914363,/world,vicon/Archie/Archie,0.377703632796,0.32072298249,0.114912410183,0.00473300235812,0.00267559790827,0.613374875225,0.789773196752
1385572094370544462,926062,1385572094370544462,/world,vicon/Archie/Archie,0.377698118691,0.320725700845,0.114928178763,0.0047409002074,0.00267678265729,0.613374290166,0.789773599751
1385572094379910070,926063,1385572094379910070,/world,vicon/Archie/Archie,0.377701278401,0.320721005328,0.114910452399,0.00473484682848,0.00269635882747,0.613379681634,0.789769382183
1385572094389947083,926064,1385572094389947083,/world,vicon/Archie/Archie,0.377699654806,0.320730753047,0.114906731642,0.00473207158583,0.00269569931632,0.613381184058,0.789768234197
1385572094400921563,926065,1385572094400921563,/world,vicon/Archie/Archie,0.377702757976,0.320733874916,0.114924044574,0.00473538999364,0.00270574535798,0.61338776856,0.789763065992
1385572094410068639,926066,1385572094410068639,/world,vicon/Archie/Archie,0.377698985476,0.32073127079,0.114912404364,0.00471989606927,0.00268234221596,0.613387838777,0.789763184038
1385572094420134287,926067,1385572094420134287,/world,vicon/Archie/Archie,0.377705867449,0.320728294944,0.114927308442,0.00474647351736,0.00266569253726,0.61336884375,0.789777833691
1385572094429941368,926068,1385572094429941368,/world,vicon/Archie/Archie,0.37769538543,0.3207264302,0.114906174426,0.00471444908795,0.00265173285173,0.613386578764,0.789764298557
1385572094439992318,926069,1385572094439992318,/world,vicon/Archie/Archie,0.377705376453,0.320722109915,0.114916617999,0.00472767271481,0.00265509948905,0.613389924056,0.789761609996
1385572094450053885,926070,1385572094450053885,/world,vicon/Archie/Archie,0.377704850714,0.320714483268,0.114906537644,0.00471570031855,0.00267680663415,0.613381540194,0.789768119783
1385572094459928235,926071,1385572094459928235,/world,vicon/Archie/Archie,0.377706679346,0.320722322092,0.114911137454,0.00474230546729,0.00264630798925,0.61337119763,0.789776095809
1385572094469886973,926072,1385572094469886973,/world,vicon/Archie/Archie,0.377701564414,0.320725589454,0.114909727766,0.00472876347016,0.00266048425682,0.613384663175,0.789765671323
1385572094479980358,926073,1385572094479980358,/world,vicon/Archie/Archie,0.377713432325,0.320722523412,0.114915203792,0.00472349103531,0.00267714661303,0.613372380332,0.78977518609
1385572094489896455,926074,1385572094489896455,/world,vicon/Archie/Archie,0.377709916481,0.320720094403,0.114904321042,0.00472395154525,0.00266029335132,0.613367626784,0.789778932066
1385572094499938134,926075,1385572094499938134,/world,vicon/Archie/Archie,0.377718507334,0.320722014565,0.114916401003,0.00470966650232,0.002672900575,0.613364659164,0.789781279553
1385572094510214360,926076,1385572094510214360,/world,vicon/Archie/Archie,0.377705039596,0.320731283271,0.114920896258,0.00473508344536,0.00266171616329,0.613355427147,0.789788335088
1385572094520021382,926077,1385572094520021382,/world,vicon/Archie/Archie,0.377704948212,0.3207283239,0.114911179035,0.00473822120431,0.00267309880843,0.61337647262,0.789771933307
1385572094529866939,926078,1385572094529866939,/world,vicon/Archie/Archie,0.377697820346,0.320729796103,0.114910714047,0.00472728885316,0.00269181070671,0.613388150976,0.78976286513
1385572094539885583,926079,1385572094539885583,/world,vicon/Archie/Archie,0.377699661178,0.320728458719,0.114909790826,0.00471787912357,0.00267923930307,0.61337039501,0.789776754418
1385572094549954688,926080,1385572094549954688,/world,vicon/Archie/Archie,0.377703050238,0.320720369918,0.114903793031,0.00473275275512,0.0026507844887,0.613365958841,0.789780206721
1385572094560006618,926081,1385572094560006618,/world,vicon/Archie/Archie,0.377692262382,0.320716197092,0.114909913176,0.00472000620053,0.00268438338061,0.613386991101,0.789763834811
1385572094570477604,926082,1385572094570477604,/world,vicon/Archie/Archie,0.377701380684,0.320719833739,0.114911224371,0.00473554465097,0.00266039948852,0.613372250902,0.78977527102
1385572094579998468,926083,1385572094579998468,/world,vicon/Archie/Archie,0.377712593404,0.320721145423,0.114909231687,0.00473070839829,0.00265837219295,0.613382339815,0.789767471259
1385572094589996901,926084,1385572094589996901,/world,vicon/Archie/Archie,0.377709276651,0.320724982243,0.114909232769,0.00474142814282,0.0026777265737,0.613381840858,0.789767729111
1385572094599885967,926085,1385572094599885967,/world,vicon/Archie/Archie,0.377705179815,0.320722808475,0.114899095706,0.0047201835811,0.00265985739713,0.613391340076,0.78976053899
1385572094610019400,926086,1385572094610019400,/world,vicon/Archie/Archie,0.377704110042,0.320724367502,0.114907274348,0.0047372101428,0.00267859572882,0.613381513516,0.789768005709
1385572094621386886,926087,1385572094621386886,/world,vicon/Archie/Archie,0.377693335607,0.32073022735,0.114919978418,0.00473261459935,0.00267115614506,0.613391423496,0.78976036167
1385572094629942541,926088,1385572094629942541,/world,vicon/Archie/Archie,0.377695187064,0.320731101392,0.114924540185,0.00472844921215,0.00268797374604,0.613374165271,0.789773733384
1385572094639962458,926089,1385572094639962458,/world,vicon/Archie/Archie,0.377691832265,0.320735965249,0.114924803032,0.00473567403049,0.00268479456303,0.613388320016,0.789762707487
1385572094650046797,926090,1385572094650046797,/world,vicon/Archie/Archie,0.377718823736,0.320719147759,0.11490851697,0.00473471564473,0.00265791274211,0.61338653744,0.789764188638
1385572094659914140,926091,1385572094659914140,/world,vicon/Archie/Archie,0.377693914307,0.320731445114,0.114920305454,0.00473377645975,0.00266666164686,0.613381498166,0.789768078605
1385572094669922126,926092,1385572094669922126,/world,vicon/Archie/Archie,0.377696738705,0.320720099695,0.114909984698,0.00474158895038,0.00268462075199,0.613376415904,0.789771918061
1385572094680354039,926093,1385572094680354039,/world,vicon/Archie/Archie,0.377698523504,0.320719735557,0.114904628132,0.00472279851052,0.00267024539288,0.613384760969,0.789765598121
1385572094689878569,926094,1385572094689878569,/world,vicon/Archie/Archie,0.377696096711,0.320733263639,0.114923640622,0.00473869319609,0.00267200446331,0.613371751324,0.789775600951
1385572094699949524,926095,1385572094699949524,/world,vicon/Archie/Archie,0.377695510581,0.320727454946,0.114898806561,0.00473039605323,0.0026633768345,0.613385069729,0.78976533604
