%time,field.linear.x,field.linear.y,field.linear.z,field.angular.x,field.angular.y,field.angular.z
1385572931199506431,-0.0,0.0,0.0,1.0,0.0,0.0
1385572931239438043,-0.0,0.0,2.6667734601e-08,1.0,0.0,0.104479364115
1385572931292516211,0.495254261236,-0.0643628502138,-0.00982199878106,1.0,0.0,0.026274090392
1385572931339577851,0.393489305005,-0.0510407388106,-0.0116348151633,1.0,0.0,0.0672054171293
1385572931390681250,0.491968482165,-0.0638500774952,-0.0119654394432,1.0,0.0,0.0545446451599
1385572931439447168,0.497006601023,-0.0644460061066,-0.0118912920194,1.0,0.0,0.065021575481
1385572931489534241,0.519668626677,-0.0673183610104,-0.0114850238088,1.0,0.0,0.0646258847067
1385572931538611788,0.52070373226,-0.0674470265795,-0.010977850963,1.0,0.0,0.0684927015238
1385572931588487190,0.516503055788,-0.0668242592008,-0.0102194671036,1.0,0.0,0.0699512493357
1385572931639468799,0.502726359014,-0.0649784503583,-0.00935223757802,1.0,0.0,0.0719985622376
1385572931689494594,0.482595840501,-0.0622856686742,-0.00830459699822,1.0,0.0,0.0733452258701
1385572931740430191,0.456417480555,-0.0588649368379,-0.00718258913811,1.0,0.0,0.0745912733846
1385572931789515509,0.425435713137,-0.0546873071803,-0.0057932358829,1.0,0.0,0.0755195488875
1385572931839461069,0.390444752227,-0.0505056652657,-0.0044149100661,1.0,0.0,0.0761802866653
1385572931889473089,0.352425741788,-0.04521146974,-0.00296158001129,1.0,0.0,0.076704645404
1385572931939558786,0.312049278242,-0.0398049945419,-0.00120962535325,1.0,0.0,0.0770104209189
1385572931989529021,0.269934504398,-0.0347580798892,0.000523644948533,1.0,0.0,0.0770748126431
1385572932039512477,0.22693319208,-0.0287145990228,0.00235672636334,1.0,0.0,0.0770691606712
1385572932088574481,0.183370507527,-0.0232177199521,0.00430689684487,1.0,0.0,0.0768481174968
1385572932138583433,0.139891738737,-0.0174859555323,0.00634160307094,1.0,0.0,0.0765184129813
1385572932189484772,0.0969127716493,-0.0118724746598,0.00836808076258,1.0,0.0,0.0760591798995
1385572932239513582,0.0548653377088,-0.00638419891608,0.0104115207923,1.0,0.0,0.0754914935289
1385572932288482676,0.0139174588138,-0.00116465734585,0.0126071472711,1.0,0.0,0.0748060933595
1385572932338491673,-0.0254374734274,0.00406016825862,0.0148708774958,1.0,0.0,0.0740724034797
1385572932388529603,-0.0630429525789,0.00898533282439,0.0171816017289,1.0,0.0,0.0734591783132
1385572932439515840,-0.0984055819408,0.0138687354149,0.0195804817169,1.0,0.0,0.0728262482749
1385572932488548092,-0.130775684315,0.0179524533209,0.021913563807,1.0,0.0,0.0722169343571
1385572932538465955,-0.15976299123,0.0214722742301,0.0242311938835,1.0,0.0,0.0715986634818
1385572932588583439,-0.184959661133,0.0247047565871,0.0267262666278,1.0,0.0,0.0710348679493
1385572932639512747,-0.205704802058,0.0274093127025,0.0290971923568,1.0,0.0,0.0705229997101
1385572932689585656,-0.222131217525,0.0297071128267,0.0316210058539,1.0,0.0,0.0700621410395
1385572932738700236,-0.233750878346,0.0309848340178,0.0341004055524,1.0,0.0,0.0696059665296
1385572932788534836,-0.240681767973,0.0316582808424,0.0366325155499,1.0,0.0,0.0691958267531
1385572932838636170,-0.242729090584,0.0320064790522,0.0391567673211,1.0,0.0,0.0688589776135
1385572932889523317,-0.240165316894,0.031484723403,0.0416765996632,1.0,0.0,0.0685296701172
1385572932939460317,-0.232991972746,0.0305480587642,0.0441355328189,1.0,0.0,0.0682527068563
1385572932988529824,-0.221847491022,0.0285421278549,0.0467918954183,1.0,0.0,0.0679548427703
1385572933038642393,-0.206887004844,0.024639047739,0.0495716308785,1.0,0.0,0.0674557190268
1385572933088547477,-0.187838837176,0.0206680507376,0.0520294385719,1.0,0.0,0.0670800417953
1385572933139610793,-0.165451231703,0.0180868726133,0.0543436497816,1.0,0.0,0.0667978484171
1385572933189437688,-0.140512028829,0.0144363115664,0.0567139705063,1.0,0.0,0.0665427575451
1385572933239665474,-0.113724177458,0.00960054120342,0.0593117169721,1.0,0.0,0.0661889194973
1385572933289479173,-0.0848690526918,0.00515757753863,0.0618000530735,1.0,0.0,0.0658894085091
1385572933339550233,-0.0549147575484,0.000705719692508,0.0643720374911,1.0,0.0,0.065619674273
1385572933388502581,-0.024092112466,-0.00387918736138,0.0669339167578,1.0,0.0,0.0653404239865
1385572933438539222,0.00712005361552,-0.00869023033855,0.0693136705796,1.0,0.0,0.0650512005787
1385572933488490662,0.0379507906847,-0.0127215311204,0.0717898247242,1.0,0.0,0.0648144215473
1385572933539472196,0.0678416203212,-0.0182869065308,0.0744475049638,1.0,0.0,0.0644014576612
1385572933589593025,0.0968145452365,-0.0233954845052,0.0770329744396,1.0,0.0,0.0640106218196
1385572933638614269,0.124349592655,-0.0300169890182,0.079426508624,1.0,0.0,0.0633401420585
1385572933689667874,0.149591525378,-0.0367653656466,0.0819214457732,1.0,0.0,0.0625801146167
1385572933738438112,0.172766174844,-0.0435697614447,0.0844358683004,1.0,0.0,0.0616874908496
1385572933788554785,0.193028952157,-0.0511719388344,0.086985091679,1.0,0.0,0.0606195933878
1385572933839495272,0.211157772529,-0.0582603367085,0.0890085134498,1.0,0.0,0.0592982225557
1385572933889520723,0.226018756897,-0.0658393312681,0.0908291182423,1.0,0.0,0.0578704098363
1385572933938847816,0.237617906085,-0.0731933681478,0.0927632768396,1.0,0.0,0.0561941198356
1385572933988794322,0.246272420513,-0.080400527098,0.0944292992204,1.0,0.0,0.0542719540286
1385572934038572689,0.252433302014,-0.0879561608311,0.0955475741992,1.0,0.0,0.05217591447
1385572934088457880,0.256880553773,-0.0927664946155,0.095909674855,1.0,0.0,0.0500290628735
1385572934138528674,0.256551444452,-0.0974158983924,0.0968923574547,1.0,0.0,0.0477095553708
1385572934189558743,0.251836564559,-0.103222619731,0.0988188059779,1.0,0.0,0.0450882373825
1385572934238495756,0.244111713493,-0.109999199981,0.100554016254,1.0,0.0,0.0421202157536
1385572934288482299,0.23295162594,-0.115003859909,0.102536917154,1.0,0.0,0.0389753596707
1385572934338566436,0.219404414473,-0.11866033684,0.104527091173,1.0,0.0,0.0357603865432
1385572934388456575,0.204148032087,-0.12058437615,0.106223100456,1.0,0.0,0.0324974154618
1385572934439536226,0.187101632224,-0.118760653223,0.108130409127,1.0,0.0,0.0293373439734
1385572934488596295,0.167836234903,-0.115594436135,0.110442490456,1.0,0.0,0.0264540286427
1385572934538440104,0.146297753215,-0.112912710499,0.112919316163,1.0,0.0,0.0234442486277
1385572934588764494,0.122583672746,-0.107584190463,0.116033856083,1.0,0.0,0.0206537032258
1385572934639443788,0.0983738842916,-0.0998552455237,0.119269492842,1.0,0.0,0.0180060505683
1385572934688616930,0.072951529593,-0.0907142032444,0.122561456515,1.0,0.0,0.015536468198
1385572934739471642,0.0491549702282,-0.0808534576978,0.124762739074,1.0,0.0,0.0132452841732
1385572934789535121,0.024030507087,-0.0704432279575,0.126703520724,1.0,0.0,0.0111417675524
1385572934838545444,-0.00109806684339,-0.0579881693588,0.128757168508,1.0,0.0,0.00917368687715
1385572934888501616,-0.0250150929735,-0.0452807494254,0.130150770389,1.0,0.0,0.0073533323026
1385572934939441372,-0.0482541378449,-0.0338641434222,0.130547771519,1.0,0.0,0.00564597924305
1385572934988480336,-0.0713455722773,-0.0211948366214,0.130749168941,1.0,0.0,0.00406176361938
1385572935039454881,-0.0934575892877,-0.00895739704461,0.130909966006,1.0,0.0,0.00257924340047
1385572935088494260,-0.114571182295,0.00381407956869,0.13111471183,1.0,0.0,0.00120563265199
1385572935138582648,-0.134031047949,0.0162211837716,0.131155759796,1.0,0.0,-4.09689178974e-05
1385572935189517044,-0.152377269614,0.0287707808374,0.131297899771,1.0,0.0,-0.0012182409996
1385572935238472378,-0.169451970427,0.0408327659408,0.131592835893,1.0,0.0,-0.00229760197952
1385572935288576550,-0.184497555354,0.0525117575802,0.131792587801,1.0,0.0,-0.0032841227914
1385572935338435618,-0.197975598976,0.0642191661314,0.132078419434,1.0,0.0,-0.00418985026498
1385572935388432714,-0.209305893849,0.0751188445865,0.132298849276,1.0,0.0,-0.00501874138342
1385572935439505578,-0.218830848821,0.0848995153542,0.132462576045,1.0,0.0,-0.0058230769946
1385572935488449036,-0.22630913635,0.0941256212891,0.132622721376,1.0,0.0,-0.00654640089965
1385572935538502252,-0.231649265388,0.102495792272,0.132802056188,1.0,0.0,-0.00724895869651
1385572935589586936,-0.234715965493,0.111412187493,0.13315668835,1.0,0.0,-0.0078924531892
1385572935639515870,-0.235700045448,0.119005245222,0.13358435768,1.0,0.0,-0.00852093687664
1385572935688716413,-0.234613788141,0.125427162311,0.134070611083,1.0,0.0,-0.00909291581963
1385572935739435077,-0.231789094504,0.130818645745,0.134720817325,1.0,0.0,-0.00971966579375
1385572935790533489,-0.227249407141,0.134755762367,0.1355800708,1.0,0.0,-0.0101443851222
1385572935838588660,-0.22103723903,0.137389362984,0.136595319051,1.0,0.0,-0.0107167489322
1385572935889532678,-0.212644604509,0.13859769577,0.137658450339,1.0,0.0,-0.0110625716494
1385572935939431546,-0.203004008764,0.138050703865,0.13886683105,1.0,0.0,-0.0114849027086
1385572935988486427,-0.19174236448,0.138126674178,0.140325073621,1.0,0.0,-0.0118368041767
1385572936038540736,-0.178279712344,0.136919649178,0.141853906403,1.0,0.0,-0.0120009543541
1385572936089537692,-0.165015792462,0.135211098919,0.143581570981,1.0,0.0,-0.0122416349367
1385572936138494010,-0.149053408539,0.133703519428,0.1453809496,1.0,0.0,-0.0123484209679
1385572936188694475,-0.13190130469,0.130585202491,0.147179586687,1.0,0.0,-0.0123792199876
1385572936238589717,-0.11326228407,0.126870514999,0.149004105519,1.0,0.0,-0.0123200950575
1385572936288525523,-0.0944691870695,0.122609456696,0.15005898893,1.0,0.0,-0.0121383865713
1385572936338507732,-0.0741371450882,0.117069811063,0.150698779654,1.0,0.0,-0.0119476351897
1385572936388897092,-0.0548869344651,0.110598333162,0.151181248778,1.0,0.0,-0.0117906859221
1385572936438518060,-0.0348629065024,0.102961591322,0.151541491657,1.0,0.0,-0.0115321578854
1385572936489679059,-0.0158163543411,0.0952363382376,0.151766212079,1.0,0.0,-0.0112495049038
1385572936539294837,0.00250478550709,0.0867937711977,0.151839322639,1.0,0.0,-0.0109325236665
1385572936588740521,0.0214967535199,0.0779499666361,0.151731793792,1.0,0.0,-0.010639493846
1385572936638573113,0.0388269920852,0.068613582281,0.151470163163,1.0,0.0,-0.0103028219111
1385572936688694109,0.0548903286338,0.0597383002115,0.150973228247,1.0,0.0,-0.00997705730371
1385572936738593878,0.0700260666964,0.0496409886924,0.150381915627,1.0,0.0,-0.00953407455421
1385572936788926864,0.0839758747692,0.0399245628462,0.149598100363,1.0,0.0,-0.00910923170945
1385572936839007695,0.0964092998882,0.0302584451398,0.148657196187,1.0,0.0,-0.00855850016872
1385572936889280444,0.106933857947,0.0218778174799,0.147430556433,1.0,0.0,-0.00800313120061
1385572936938842167,0.116928097336,0.0142841418121,0.145921893038,1.0,0.0,-0.0073678061059
1385572936988980310,0.125265852855,0.00686059843856,0.144224058185,1.0,0.0,-0.00666564747861
1385572937039321733,0.131908594924,0.000324051287539,0.142316172718,1.0,0.0,-0.00588538287932
1385572937089053756,0.137263521123,-0.00539350022864,0.140245308921,1.0,0.0,-0.00506724107404
1385572937139319089,0.140863326527,-0.0106407594223,0.138060587899,1.0,0.0,-0.00422010775781
1385572937189183150,0.143700538824,-0.0154735427125,0.135783085103,1.0,0.0,-0.00336149303233
1385572937239481660,0.144352254589,-0.0198110880403,0.133520225494,1.0,0.0,-0.00246360198763
1385572937289305044,0.142628132618,-0.0239976794079,0.131475132946,1.0,0.0,-0.00160436472898
1385572937339370557,0.141932878623,-0.0268835426785,0.129151222668,1.0,0.0,-0.00064196020302
1385572937389295131,0.137458113886,-0.0296640046373,0.126944070312,1.0,0.0,0.000300617092358
1385572937439269655,0.131987501053,-0.0316093404276,0.12485542283,1.0,0.0,0.00130694217268
1385572937489214751,0.124802982965,-0.0326348805168,0.122754065323,1.0,0.0,0.00232608209476
1385572937539251552,0.116161893638,-0.033449996977,0.120751823925,1.0,0.0,0.00335258765419
1385572937590392371,0.106401386749,-0.0333032050282,0.118754081932,1.0,0.0,0.00441494091369
1385572937639367906,0.0950043698376,-0.0329895144406,0.116843613416,1.0,0.0,0.00542495420844
1385572937689195049,0.0825042538838,-0.0320230051172,0.114977889291,1.0,0.0,0.00646001109246
1385572937739235358,0.0687496036081,-0.0306069731525,0.113114041793,1.0,0.0,0.00748738034538
1385572937789296727,0.0541344408607,-0.0287715749039,0.111244885184,1.0,0.0,0.00848940310841
1385572937839275039,0.0387711225824,-0.0261239790546,0.109277609022,1.0,0.0,0.0094864143288
1385572937889186317,0.0225657468183,-0.0233149655163,0.107288820427,1.0,0.0,0.0104674797519
1385572937938456658,0.006556292905,-0.0199474196918,0.105380446773,1.0,0.0,0.0112996636943
1385572937989276248,-0.0105601413948,-0.0167310907764,0.103057352185,1.0,0.0,0.0122307782844
1385572938040487775,-0.0275288127304,-0.0127111194031,0.100720520736,1.0,0.0,0.0130436257802
1385572938089568523,-0.0444429019544,-0.0090718988916,0.0983681857767,1.0,0.0,0.0137882415011
1385572938140296874,-0.0612925338382,-0.00515620863127,0.0959698454657,1.0,0.0,0.0145865125364
1385572938191262819,-0.0777261608814,-0.000802005782349,0.093489135916,1.0,0.0,0.015198572862
1385572938240216848,-0.0940710132555,0.00344902682093,0.0909827566467,1.0,0.0,0.0159116093888
1385572938289494773,-0.10960994679,0.00760762493234,0.0885396642098,1.0,0.0,0.0164127429122
1385572938339442654,-0.124548147001,0.0121927857408,0.0860660467192,1.0,0.0,0.0169544041934
1385572938389306890,-0.138722495356,0.0164244163725,0.0836714117395,1.0,0.0,0.0174683612066
1385572938440297984,-0.151703544263,0.0206954268325,0.0813784373382,1.0,0.0,0.0178813999447
1385572938488704269,-0.16392804107,0.0249946932661,0.0791916791526,1.0,0.0,0.0183132001402
1385572938540253288,-0.174732660565,0.0290448750161,0.0771568616682,1.0,0.0,0.0186652759638
1385572938589259546,-0.184525285263,0.0331876753434,0.0752103165615,1.0,0.0,0.0190250784667
1385572938638382383,-0.192831634796,0.0371324646071,0.0734076555268,1.0,0.0,0.0193551124
1385572938689278954,-0.199855420375,0.0409336963262,0.0716896956042,1.0,0.0,0.0196103519003
1385572938739268803,-0.205143385261,0.0445769535075,0.0701132529216,1.0,0.0,0.0199032310042
1385572938790293362,-0.208578229038,0.048322584316,0.0686382415496,1.0,0.0,0.0200898242764
1385572938839465558,-0.210739009124,0.051591998447,0.0672748962132,1.0,0.0,0.0203038186207
1385572938889475994,-0.211287247838,0.0547033378218,0.0660028450582,1.0,0.0,0.0205427172055
1385572938939635674,-0.21000037097,0.0576504711936,0.0648157061676,1.0,0.0,0.0206083940592
1385572938989579357,-0.207512182349,0.0598564963904,0.0637437867123,1.0,0.0,0.0207871880411
1385572939038443425,-0.202982575286,0.0621119537304,0.062784357054,1.0,0.0,0.020870607071
1385572939089465208,-0.197051924095,0.0638954471807,0.0619514026016,1.0,0.0,0.020918581706
1385572939139399956,-0.189789839179,0.0655530963673,0.0610922346982,1.0,0.0,0.0209540400791
1385572939189420964,-0.180880779155,0.0666513403997,0.0603930984001,1.0,0.0,0.0209914373462
1385572939239485003,-0.170584364701,0.0676022581302,0.0599050084822,1.0,0.0,0.0208904289312
1385572939288572758,-0.158757130101,0.068498165255,0.0594027546882,1.0,0.0,0.0207907718305
1385572939338656149,-0.14416968569,0.0673071981452,0.0592345317276,1.0,0.0,0.0207347626875
1385572939389481610,-0.132888776579,0.0682351145383,0.058964037036,1.0,0.0,0.0205294686168
1385572939438543142,-0.117549886376,0.0670395070609,0.0588572338682,1.0,0.0,0.0203568856944
1385572939489439224,-0.103292589735,0.0657433103126,0.0586280553615,1.0,0.0,0.0202930403551
1385572939538696404,-0.0871788993217,0.0646744534833,0.0584924935753,1.0,0.0,0.0200001570052
1385572939588599203,-0.0718834077821,0.0620871978323,0.0582304541314,1.0,0.0,0.0198849510666
1385572939638507406,-0.05444454782,0.0606624237595,0.0584563436228,1.0,0.0,0.0195832093095
1385572939690452340,-0.0383985557347,0.0577416985361,0.0585775722228,1.0,0.0,0.0194238670583
1385572939739467737,-0.0220963174714,0.0550732126308,0.0584418718168,1.0,0.0,0.0192061950615
1385572939788507094,-0.00542574265331,0.0515268375795,0.0583894053704,1.0,0.0,0.0189816653888
1385572939839498357,0.00963302169821,0.0487077070346,0.0582097077088,1.0,0.0,0.0188029950143
1385572939889396755,0.0252962844504,0.0451351531792,0.0579635749918,1.0,0.0,0.0185196455164
1385572939939424815,0.0399260227678,0.0413725707632,0.0577711034175,1.0,0.0,0.0183112373506
1385572939988514123,0.0533596070312,0.0371146220469,0.0574400597341,1.0,0.0,0.0181775059607
1385572940039442659,0.0662736593399,0.0334122773257,0.0568150953704,1.0,0.0,0.0179463448934
1385572940089434052,0.0778841877537,0.0294245179939,0.0559679756768,1.0,0.0,0.0177782766685
1385572940138753260,0.0885490550984,0.0258036258917,0.0554243652128,1.0,0.0,0.0174454948056
1385572940188652365,0.0982726609138,0.0214520459464,0.0544823200393,1.0,0.0,0.0173704395599
1385572940240462011,0.106246684524,0.0175723750563,0.0534981004928,1.0,0.0,0.017166554542
1385572940289503372,0.113155015553,0.0137206678041,0.0523870007615,1.0,0.0,0.0170135366391
1385572940339384535,0.118864931079,0.0105456349423,0.0511088417798,1.0,0.0,0.016734567205
1385572940389412599,0.122783676941,0.00682268162304,0.049864692995,1.0,0.0,0.0165897039284
1385572940438500942,0.125512296936,0.00387642995893,0.048437579353,1.0,0.0,0.0163055010463
1385572940489581765,0.126199506502,0.000376318405778,0.0469441577041,1.0,0.0,0.0161792026327
1385572940538611655,0.125868502821,-0.00236345345667,0.0453880448618,1.0,0.0,0.0159426185756
1385572940588539919,0.123787467655,-0.00519670063983,0.0438400892174,1.0,0.0,0.015783523379
1385572940639461859,0.120368400727,-0.0076495235505,0.0423151609134,1.0,0.0,0.015575427051
1385572940689470823,0.115449525478,-0.00995468423222,0.0408055597084,1.0,0.0,0.0153965433239
1385572940738619788,0.109270759962,-0.0118869099521,0.0393788571737,1.0,0.0,0.0151679129204
1385572940788479599,0.101400485683,-0.0138474781924,0.037864249106,1.0,0.0,0.0150683374373
1385572940838621814,0.0926381116818,-0.0153054287365,0.0363658441937,1.0,0.0,0.0148841640525
1385572940888460121,0.0824020785665,-0.0166364929949,0.0347968098229,1.0,0.0,0.0147617397601
1385572940939500700,0.0713642830655,-0.0174170061123,0.0331854849428,1.0,0.0,0.0146140330747
1385572940988582260,0.0593936993407,-0.0178490002311,0.0315584089424,1.0,0.0,0.0144678637511
1385572941039585758,0.0465471009718,-0.018049100653,0.0299536714475,1.0,0.0,0.0142482483842
1385572941088570481,0.0327293496308,-0.0181750811492,0.0285500976725,1.0,0.0,0.0141601565124
1385572941139467230,0.0183918070412,-0.0177534766331,0.0271630576218,1.0,0.0,0.0140261057054
1385572941190398920,0.00381167856125,-0.0170489450193,0.025843006505,1.0,0.0,0.0138169632004
1385572941239477592,-0.0115631314267,-0.0161608430786,0.0245606625207,1.0,0.0,0.0137307302746
1385572941289460445,-0.0267528213454,-0.0147808240389,0.0233915214786,1.0,0.0,0.01351999911
1385572941338454067,-0.0422147557469,-0.0131302137014,0.0222480498134,1.0,0.0,0.0133584515095
1385572941389452306,-0.0576167686258,-0.0111636989151,0.0212677180352,1.0,0.0,0.0131530868096
1385572941438798285,-0.0730307229277,-0.00917711520577,0.0202693771425,1.0,0.0,0.0129391133359
1385572941488534572,-0.0879850774287,-0.00682502496934,0.0195744951421,1.0,0.0,0.0128489156342
1385572941539433524,-0.102604012633,-0.00441288423651,0.0188616601293,1.0,0.0,0.0126801017886
1385572941589476289,-0.116348710937,-0.00129225023837,0.0182631294134,1.0,0.0,0.0124980635085
1385572941639671679,-0.129536001317,0.00163507895925,0.0177032290538,1.0,0.0,0.0122878326962
1385572941688662748,-0.14179905179,0.00484082366415,0.0173522705226,1.0,0.0,0.012128073382
1385572941738672413,-0.15294642166,0.00834896297942,0.0169845610281,1.0,0.0,0.0118393340963
1385572941788492300,-0.163130374373,0.0118458615294,0.0167892719462,1.0,0.0,0.011627080579
1385572941838620515,-0.172316955765,0.0152066776187,0.0166245644181,1.0,0.0,0.0114104617841
1385572941889470499,-0.179553728317,0.0191803110336,0.0169498248991,1.0,0.0,0.0111032058182
1385572941938766427,-0.185853558144,0.0230518760354,0.0171417114049,1.0,0.0,0.0108302734756
1385572941988615309,-0.190622235642,0.0266223290975,0.0174773338838,1.0,0.0,0.0105658121297
1385572942039474252,-0.193771473585,0.030577259092,0.0180879305583,1.0,0.0,0.0102147506413
1385572942088642993,-0.195705874552,0.0337444544989,0.0187723662593,1.0,0.0,0.0100244735207
1385572942139498443,-0.195609228651,0.037449435104,0.0196442542623,1.0,0.0,0.00967200663706
1385572942188613764,-0.194055842622,0.0407532372759,0.0206587862538,1.0,0.0,0.0093668659861
1385572942238636001,-0.191241866944,0.0434736963727,0.0219457556108,1.0,0.0,0.00913599027154
1385572942288906237,-0.186569004328,0.046435676363,0.0229958011442,1.0,0.0,0.0088262842123
1385572942339473188,-0.180401405374,0.0491217231538,0.0242022794017,1.0,0.0,0.008505462876
1385572942388485300,-0.173100046384,0.0508663813537,0.0254710140114,1.0,0.0,0.00831478209014
1385572942438600337,-0.164296161155,0.052572479433,0.0267480674516,1.0,0.0,0.00807248288765
1385572942488765290,-0.154151784882,0.0539224228914,0.0281140972449,1.0,0.0,0.00783581131337
1385572942538687287,-0.142579282287,0.0553183042719,0.0295098623714,1.0,0.0,0.00752698749527
1385572942588778359,-0.130327870214,0.0556355951304,0.0309268374658,1.0,0.0,0.00735602792688
1385572942638632042,-0.117159349479,0.0555831728158,0.0323973219365,1.0,0.0,0.00717180529704
1385572942688734918,-0.10303605878,0.0552542811375,0.0338845889685,1.0,0.0,0.00699781238913
1385572942738492862,-0.0883200474518,0.0545387739897,0.0352197906287,1.0,0.0,0.00681886210527
1385572942789782304,-0.0730943591149,0.0532809616291,0.0365236015515,1.0,0.0,0.00667755172157
1385572942838658127,-0.0574709870662,0.0517501582353,0.0377563720924,1.0,0.0,0.00653303997931
1385572942889187179,-0.0416447502841,0.0497957195813,0.0389434392609,1.0,0.0,0.00638832919409
1385572942938925721,-0.025815436078,0.047322043425,0.0400403682215,1.0,0.0,0.00630242540735
1385572942989428429,-0.00948020400601,0.045465811304,0.0410403905444,1.0,0.0,0.00606892575847
1385572943039513019,0.00562619872123,0.0419315419529,0.0418903064576,1.0,0.0,0.00603606283847
1385572943089277998,0.021163678599,0.0392993795573,0.0424489587192,1.0,0.0,0.00583938273993
1385572943139335516,0.0354890809887,0.0352973222034,0.0429920746102,1.0,0.0,0.00583637846833
1385572943189143280,0.0495722360305,0.0318804122134,0.043276940383,1.0,0.0,0.00572116173977
1385572943239926854,0.0629569583325,0.0284427657863,0.0433716911391,1.0,0.0,0.00558464290292
1385572943289463909,0.0753341082735,0.0245192264068,0.0433341922548,1.0,0.0,0.00549598739137
1385572943339426093,0.0865055313741,0.0206317066319,0.0429497354708,1.0,0.0,0.00542427676933
1385572943389441031,0.0965429444272,0.0164724244526,0.0422836513516,1.0,0.0,0.00539860877935
1385572943439262764,0.104327028095,0.0129737247701,0.0417567735741,1.0,0.0,0.00528381774208
1385572943489285341,0.113739410556,0.00916518200995,0.0406059161646,1.0,0.0,0.00519360396369
1385572943539414384,0.119519253764,0.00527720655764,0.0394918734888,1.0,0.0,0.00515833456249
1385572943589443296,0.1248069793,0.00158087109967,0.0382408717297,1.0,0.0,0.00512258702647
1385572943639013751,0.128475127208,-0.00190167453487,0.0369362848065,1.0,0.0,0.00506835904716
1385572943689791016,0.129211873601,-0.00466342736205,0.0357749532642,1.0,0.0,0.00496241799084
1385572943739663325,0.13212660698,-0.00816079729927,0.0339701796319,1.0,0.0,0.00491834456907
1385572943789666235,0.130604617885,-0.0112765164281,0.0322702076356,1.0,0.0,0.00493075478189
1385572943838581726,0.129015569042,-0.0137479377715,0.0303175582497,1.0,0.0,0.00479497342474
1385572943888702875,0.125900539038,-0.015992577486,0.0287716423131,1.0,0.0,0.00473779953702
1385572943939693280,0.11947012199,-0.0176755888998,0.0272532153978,1.0,0.0,0.00463440657654
1385572943989657492,0.115847018056,-0.0200777389057,0.0253939050029,1.0,0.0,0.00456091897149
1385572944040434935,0.108026125165,-0.0213864098856,0.0236414380273,1.0,0.0,0.00446678529934
1385572944089737518,0.100428760881,-0.0225684986863,0.022115716138,1.0,0.0,0.00427267460671
1385572944139589709,0.0912643902667,-0.0233887454868,0.0204185479273,1.0,0.0,0.0040795254565
1385572944189603734,0.0808755743225,-0.0244566125725,0.0189839204806,1.0,0.0,0.00404493469138
1385572944238504657,0.069673257047,-0.0249486431853,0.0173202393115,1.0,0.0,0.0039285469396
1385572944288653438,0.0566370411697,-0.0244461504035,0.0158448118029,1.0,0.0,0.003792499543
1385572944339569961,0.0456920509305,-0.0251157293769,0.0144352283986,1.0,0.0,0.00363820428569
1385572944389567464,0.0320698938663,-0.0245206392949,0.0130752765556,1.0,0.0,0.0035258134474
1385572944439520227,0.0187662019761,-0.0240049170048,0.0118769498377,1.0,0.0,0.00340739013672
1385572944489506720,0.00496291515179,-0.0229942840728,0.0107593254519,1.0,0.0,0.0032254879593
1385572944539454774,-0.00924227312369,-0.0220716164666,0.00970990469981,1.0,0.0,0.00313620963534
1385572944590572506,-0.0232934750031,-0.0207141070081,0.00876353087491,1.0,0.0,0.00301810404175
1385572944639466148,-0.0374435210254,-0.0192754086569,0.00792342258945,1.0,0.0,0.00291058556746
1385572944688673956,-0.0513881656563,-0.0175140321997,0.00712735100637,1.0,0.0,0.00274907035226
1385572944739530812,-0.0650787503509,-0.0156794198109,0.00638631928669,1.0,0.0,0.00257198914587
1385572944789044798,-0.0784068818955,-0.0137160339144,0.00569807309906,1.0,0.0,0.00241371105273
1385572944838523696,-0.0912267643007,-0.0116638906346,0.00510887558734,1.0,0.0,0.0022926361873
1385572944888658199,-0.103596753897,-0.00972589795492,0.00446129179845,1.0,0.0,0.0021521369274
1385572944940903472,-0.115067432275,-0.00751926392723,0.00396183685923,1.0,0.0,0.00204961972298
1385572944990616399,-0.125815699473,-0.00529127913851,0.00340194164267,1.0,0.0,0.00188554837664
1385572945038715634,-0.135626500207,-0.00297139095398,0.00285684906371,1.0,0.0,0.0017209863748
1385572945088545910,-0.144332218191,-0.000511233803618,0.00253644106894,1.0,0.0,0.00156193631192
1385572945139656015,-0.152111940698,0.00187407783509,0.00235547958277,1.0,0.0,0.0014235831828
1385572945189643872,-0.158671499327,0.00431957738178,0.00219248330569,1.0,0.0,0.00127162627666
1385572945239629160,-0.1640525968,0.0066978058519,0.00231836501707,1.0,0.0,0.00115656266844
1385572945290599756,-0.168093073104,0.00929249232528,0.00278465707663,1.0,0.0,0.0010277935186
1385572945338566404,-0.170710075903,0.0118362438333,0.00312463526278,1.0,0.0,0.00087773149905
1385572945388718045,-0.171967560014,0.0144145609986,0.00355111562452,1.0,0.0,0.000752360529621
1385572945438607125,-0.171916056238,0.0164614923749,0.00418398444829,1.0,0.0,0.000733267456376
1385572945489688187,-0.170299442586,0.0190228854086,0.0049132877142,1.0,0.0,0.000603149611814
1385572945538534472,-0.167197864244,0.02160701442,0.00557620571541,1.0,0.0,0.000459470602721
1385572945588726892,-0.162950972832,0.0234052820167,0.00633479756211,1.0,0.0,0.000423423602609
1385572945638532480,-0.157142766379,0.025770537332,0.00721301978724,1.0,0.0,0.000261832812329
1385572945688889945,-0.15006255888,0.0277913511405,0.00820971353808,1.0,0.0,0.000140600859054
1385572945738542688,-0.141842950936,0.0294414106829,0.00918077641228,1.0,0.0,6.50895786103e-05
1385572945788576078,-0.132371080842,0.0309413824492,0.010429101133,1.0,0.0,-4.82037441821e-05
1385572945838818208,-0.121967781267,0.032073676983,0.0115276809103,1.0,0.0,-0.000116244152717
1385572945888596492,-0.110663088304,0.0327911065225,0.0126400577074,1.0,0.0,-0.000130548286559
1385572945938716851,-0.0984423989257,0.0336223643348,0.0137241800458,1.0,0.0,-0.000212104470019
1385572945988611438,-0.0855623431143,0.0339683632783,0.0147874001534,1.0,0.0,-0.000248002215635
1385572946038523234,-0.0720202168223,0.0339301996356,0.0158934675921,1.0,0.0,-0.000262231379924
1385572946088597812,-0.0581094107913,0.0341020425449,0.0167551883779,1.0,0.0,-0.000329803324176
1385572946138517866,-0.0437389558635,0.0339113594259,0.0176433617032,1.0,0.0,-0.000396114906283
1385572946188573742,-0.0293589387734,0.0335547683592,0.0183491821946,1.0,0.0,-0.000473880385398
1385572946239544595,-0.0148316031751,0.032770880918,0.0191628825931,1.0,0.0,-0.000539304199115
1385572946288565705,-0.000445724620101,0.0317932187718,0.0199503855436,1.0,0.0,-0.000608206150218
1385572946338809287,0.0138321517112,0.0307710086605,0.0206735823364,1.0,0.0,-0.000711746206833
1385572946389546637,0.0277307814074,0.0293093424084,0.0212622401528,1.0,0.0,-0.000774659014176
1385572946439564932,0.0409220802404,0.0277013299421,0.0216141511668,1.0,0.0,-0.000841940225639
1385572946489562088,0.0537746825408,0.0258746707719,0.0219392889041,1.0,0.0,-0.000888880715849
1385572946539620766,0.0659455849366,0.0242280661527,0.0221367480171,1.0,0.0,-0.00100626430296
1385572946588549043,0.0772445030889,0.0223064796417,0.0221783797963,1.0,0.0,-0.00110871299071
1385572946638845837,0.0875946937602,0.0200284032558,0.0220993693791,1.0,0.0,-0.00117007880332
1385572946688994953,0.096871616636,0.017714094275,0.0217508485298,1.0,0.0,-0.00122274869719
1385572946738911288,0.105345503307,0.0155027135961,0.0213625383665,1.0,0.0,-0.00130406142608
1385572946788887754,0.112509379376,0.013177140319,0.020788031951,1.0,0.0,-0.0013653409435
1385572946838904729,0.118616230705,0.010753473687,0.0202077296787,1.0,0.0,-0.00140995739149
1385572946888889829,0.12328185949,0.00801654853234,0.0195770297075,1.0,0.0,-0.00136882501746
1385572946938825360,0.126883929326,0.005528508634,0.0188567341462,1.0,0.0,-0.00138191168757
1385572946988842075,0.129142415054,0.00299182708163,0.0180624272921,1.0,0.0,-0.00133450670434
1385572947038839925,0.130284136903,0.000635186572599,0.0172684526952,1.0,0.0,-0.00131417586595
1385572947088885368,0.129766795969,-0.00175710102216,0.0163247603128,1.0,0.0,-0.00121964391018
1385572947138862292,0.1283000928,-0.00411329883325,0.0154620690514,1.0,0.0,-0.00114162981275
1385572947188884834,0.125329712483,-0.00657905080524,0.0147451981642,1.0,0.0,-0.000960935569773
1385572947238783036,0.121356135692,-0.0088416551771,0.0140089189803,1.0,0.0,-0.000808495458886
1385572947288887625,0.115945055147,-0.0111059502707,0.0131836734081,1.0,0.0,-0.000560032232209
1385572947339066512,0.109687503283,-0.0132143656032,0.0124180704948,1.0,0.0,-0.000348771683705
1385572947388963045,0.102288079292,-0.0152538412346,0.0116456110929,1.0,0.0,-0.000108480240936
1385572947439804981,0.0936247634619,-0.0175999164682,0.010832753815,1.0,0.0,0.000238836618667
1385572947489871366,0.0843806074819,-0.0194482474421,0.0101254395348,1.0,0.0,0.000526395319465
1385572947539964105,0.0740618876169,-0.0215698926417,0.00940958683078,1.0,0.0,0.000856974730569
1385572947588789253,0.063144659008,-0.023444635696,0.00879645955412,1.0,0.0,0.00117261458825
1385572947638831282,0.0515962567089,-0.0252454087383,0.00815385797707,1.0,0.0,0.00148281354662
1385572947688873520,0.0392480413337,-0.0272565945088,0.00759112188202,1.0,0.0,0.00184757421801
1385572947738847554,0.0266842140768,-0.0289601397647,0.00704775208753,1.0,0.0,0.00213506555271
1385572947788839305,0.0137486661703,-0.0305848945014,0.00649817441026,1.0,0.0,0.00241045938571
1385572947838844402,0.000433431399378,-0.0322754216349,0.00600156126341,1.0,0.0,0.00274437851486
1385572947889035174,-0.0128359142552,-0.0336403260987,0.0054761858585,1.0,0.0,0.00301548635228
1385572947938961505,-0.0260301549069,-0.0348940503341,0.00494143361496,1.0,0.0,0.0032170310941
1385572947988816960,-0.039319147142,-0.03610784455,0.00445333508038,1.0,0.0,0.00355527699886
1385572948038922051,-0.0521598807695,-0.0369497161812,0.00407748740282,1.0,0.0,0.00378417927022
1385572948088854790,-0.0647846147935,-0.0377823985759,0.00374639169759,1.0,0.0,0.0041159964132
1385572948139910668,-0.0767227015533,-0.0380686033371,0.00346991002338,1.0,0.0,0.00428850684065
1385572948188864825,-0.0882623091482,-0.0383711313725,0.0032283675157,1.0,0.0,0.00460030529338
1385572948238840088,-0.098959682641,-0.0381767872785,0.00305177890169,1.0,0.0,0.00484652017571
1385572948289049223,-0.108983866205,-0.0378315960586,0.00287632159572,1.0,0.0,0.00512655869771
1385572948338796737,-0.11801579276,-0.037047318734,0.00279719314669,1.0,0.0,0.00543208725665
1385572948388793934,-0.125044517267,-0.0353320388773,0.0026966224296,1.0,0.0,0.00571351069298
1385572948440000856,-0.13343028596,-0.034739056026,0.00271208741429,1.0,0.0,0.00612879034874
1385572948490000810,-0.13903767344,-0.0325780556968,0.0027152973378,1.0,0.0,0.00643797357827
1385572948540035893,-0.144077020987,-0.0302275674704,0.00273777285428,1.0,0.0,0.0067115577972
1385572948588922957,-0.147755076325,-0.0277497527584,0.0028017801922,1.0,0.0,0.00713335093566
1385572948638877420,-0.150326502072,-0.0245079120681,0.00293676827346,1.0,0.0,0.00745647301541
1385572948689870179,-0.151460271946,-0.0211611516972,0.00316625083461,1.0,0.0,0.00788353162041
1385572948739846155,-0.151411792619,-0.0170675813802,0.00345289697322,1.0,0.0,0.00821935717762
1385572948790124960,-0.150036859804,-0.012794875713,0.00390032053781,1.0,0.0,0.00860558129348
1385572948839013736,-0.147336000164,-0.0081722758973,0.0043352473762,1.0,0.0,0.00899335177946
1385572948889638699,-0.14338226811,-0.00315757605083,0.00494062215985,1.0,0.0,0.00939090571833
1385572948939284138,-0.138283183489,0.00216242871128,0.0054770849815,1.0,0.0,0.00972907183283
1385572948989322547,-0.1319058469,0.00779260688345,0.00607073321099,1.0,0.0,0.0100722033691
1385572949039135226,-0.124439269708,0.0136635138042,0.00657994056236,1.0,0.0,0.010344042339
1385572949089768913,-0.115918322598,0.0197818818063,0.00716862982616,1.0,0.0,0.0105962013599
1385572949139845048,-0.105460420338,0.0253515913393,0.00767024095772,1.0,0.0,0.0108384428318
1385572949189755501,-0.0961571241079,0.0323353837116,0.00858518656224,1.0,0.0,0.0110370733717
1385572949239777174,-0.0845361120402,0.0388244348712,0.00927678852746,1.0,0.0,0.011120379157
1385572949289448026,-0.0728309628935,0.0451255717057,0.0100141988558,1.0,0.0,0.0112697230089
1385572949339591734,-0.0603554842801,0.0515591392426,0.010642116965,1.0,0.0,0.0113218048663
1385572949389514247,-0.0475667451672,0.0575321569172,0.011335469876,1.0,0.0,0.0113985852345
1385572949439442282,-0.0342923986493,0.0636273080881,0.0120188378478,1.0,0.0,0.011395460711
1385572949489652638,-0.0207719344379,0.069186537624,0.0127522266795,1.0,0.0,0.0114190932235
1385572949539453678,-0.00725614077158,0.0744249998547,0.0132347854806,1.0,0.0,0.0114283142559
1385572949589086332,0.00636701963784,0.0794020139418,0.0137187062986,1.0,0.0,0.0113911502585
1385572949639092561,0.0197266424828,0.0836595934156,0.0141621002372,1.0,0.0,0.0114396563575
1385572949689051563,0.0328458567514,0.0875798447432,0.0146644647483,1.0,0.0,0.0114487264239
1385572949739918173,0.0446716994061,0.0891729810413,0.0150071765626,1.0,0.0,0.0115925297064
1385572949789941420,0.0582267693936,0.0941115211189,0.0152867233,1.0,0.0,0.0115709971454
1385572949840015801,0.069425329057,0.0952809113416,0.0155593736859,1.0,0.0,0.0117711322069
1385572949889047374,0.0795128313597,0.09583356469,0.0157679078196,1.0,0.0,0.0118813791871
1385572949939143387,0.0898392291925,0.0967267378458,0.0158534443253,1.0,0.0,0.0121164117329
1385572949989151005,0.100370149846,0.0978801817303,0.0157909190817,1.0,0.0,0.0123932896876
1385572950040042006,0.108405046617,0.0969831690513,0.0156120042841,1.0,0.0,0.0127155124071
1385572950089054845,0.116167975833,0.0957784778143,0.0153658370884,1.0,0.0,0.0130866332325
1385572950138907571,0.122054077954,0.0933583966185,0.0150439912939,1.0,0.0,0.013576849873
1385572950189020034,0.12739048999,0.090622117751,0.0147193102501,1.0,0.0,0.0141013816186
1385572950238998345,0.131111765416,0.0867449526182,0.0143027177582,1.0,0.0,0.0147262281169
1385572950289004791,0.133758293093,0.0822788356286,0.0138700461942,1.0,0.0,0.0153802867251
1385572950339010185,0.135227222298,0.077037569243,0.0134239787838,1.0,0.0,0.0161062670683
1385572950389022978,0.13532037723,0.0710260871507,0.0129297252058,1.0,0.0,0.0168616729097
1385572950439126234,0.13461639926,0.0644479907253,0.012325138109,1.0,0.0,0.017590454531
1385572950488916100,0.132251800741,0.0569165461228,0.0116752269233,1.0,0.0,0.0184190677762
1385572950539143381,0.127145599604,0.0486781301789,0.0110552706276,1.0,0.0,0.0191496586749
1385572950588915386,0.123070724938,0.0401192901397,0.0102730877828,1.0,0.0,0.0200214468574
1385572950639026425,0.119371966235,0.0311179364729,0.00939068208437,1.0,0.0,0.0208964188053
1385572950689012763,0.112708302455,0.0213765398996,0.00848300931678,1.0,0.0,0.0217623312435
1385572950740019254,0.103961010914,0.0115820466113,0.00764042560821,1.0,0.0,0.0226242411632
1385572950789958606,0.0965016049433,0.00136911335172,0.00670027007416,1.0,0.0,0.0234988757804
1385572950839965309,0.0895969989082,-0.00966307757016,0.00559284778495,1.0,0.0,0.0243713819813
1385572950889013389,0.0800929064627,-0.0201756520354,0.00455130500674,1.0,0.0,0.0251947039871
1385572950938968211,0.0708283364981,-0.0309669639672,0.00358647913909,1.0,0.0,0.0259788451244
1385572950988940861,0.0608747322139,-0.0415628648321,0.00263705385974,1.0,0.0,0.0266924271625
1385572951038925267,0.0505873283217,-0.0521185960234,0.001764902854,1.0,0.0,0.0273699022045
1385572951088932903,0.0398104954471,-0.0623143493983,0.000876452378811,1.0,0.0,0.0280163353963
1385572951139013946,0.028858916619,-0.0722048488208,4.15200761011e-05,1.0,0.0,0.0286022297256
1385572951189032855,0.0178351519756,-0.0817242082945,-0.000779469014275,1.0,0.0,0.029088770711
1385572951239064632,0.00659587321858,-0.0906680020301,-0.00159339300786,1.0,0.0,0.0295473421959
1385572951289026809,-0.0051067324092,-0.0973424184314,-0.00227738270949,1.0,0.0,0.0299202584522
1385572951339990462,-0.0156738077224,-0.106985516688,-0.0029739157397,1.0,0.0,0.0302187268521
1385572951389038826,-0.0270600186013,-0.11330244195,-0.00356412750918,1.0,0.0,0.0304825568622
1385572951439223734,-0.0378216151064,-0.119659934516,-0.00408266252212,1.0,0.0,0.0306580312727
1385572951489016148,-0.0483713464751,-0.122719591522,-0.00448810975157,1.0,0.0,0.0307791162316
1385572951539064974,-0.0589214122752,-0.12936572056,-0.00482831847311,1.0,0.0,0.0307594134806
1385572951589019504,-0.0683348938606,-0.129589104513,-0.00505897617779,1.0,0.0,0.0307445884831
1385572951638980991,-0.0786066110048,-0.134432777604,-0.00517066781377,1.0,0.0,0.0306203802449
1385572951689100031,-0.0875252429449,-0.134289705694,-0.00519291928547,1.0,0.0,0.0305229137969
1385572951739009551,-0.0962055007118,-0.13428241318,-0.00514325455918,1.0,0.0,0.0303331237069
1385572951790006701,-0.10412399384,-0.132523423435,-0.00497513620015,1.0,0.0,0.0301319506999
1385572951838980366,-0.110100770347,-0.127894234657,-0.00479027317897,1.0,0.0,0.0299676342552
1385572951889126557,-0.118288532052,-0.125737866569,-0.00441052483725,1.0,0.0,0.0297877689996
1385572951938919313,-0.123455525975,-0.119552136686,-0.00397952308193,1.0,0.0,0.0295736328918
1385572951989169000,-0.126850663304,-0.111677596154,-0.00354818559831,1.0,0.0,0.0294345881765
1385572952039187824,-0.130971777331,-0.104049677865,-0.00298449508016,1.0,0.0,0.0291999689489
1385572952089007428,-0.135261820594,-0.0960110663303,-0.00227464983817,1.0,0.0,0.0290508527412
1385572952139000812,-0.134990385405,-0.0845293588157,-0.00162764772852,1.0,0.0,0.0288760714381
1385572952189065946,-0.138062898609,-0.0748371421954,-0.000716483201506,1.0,0.0,0.0287995634437
1385572952239080958,-0.135177297221,-0.0616292943968,0.000159673326187,1.0,0.0,0.0286821101329
1385572952290194161,-0.136249053715,-0.0497283651209,0.00117825548859,1.0,0.0,0.0285601404701
1385572952339225145,-0.131165874273,-0.0354334638973,0.0021123441137,1.0,0.0,0.0284358021702
1385572952389073190,-0.128219287274,-0.0216494693397,0.00310291885567,1.0,0.0,0.0283477391793
1385572952439071544,-0.122922739528,-0.00698494231531,0.00412077500993,1.0,0.0,0.0282658203413
1385572952490008371,-0.118550973052,0.00811868883456,0.00522172460781,1.0,0.0,0.0282005429095
1385572952539007702,-0.10986928754,0.0229674058912,0.00620178559281,1.0,0.0,0.0281258365209
1385572952588919441,-0.103736085199,0.0387635848865,0.00718083726829,1.0,0.0,0.0280927558434
1385572952639148825,-0.0944876200693,0.0541151595987,0.00795724275741,1.0,0.0,0.0279639728061
1385572952688950638,-0.0850784533697,0.0694615598947,0.00869469887653,1.0,0.0,0.0278617815029
1385572952738979143,-0.0746450191043,0.0844319131347,0.00936225641294,1.0,0.0,0.0277298641645
1385572952789107715,-0.063578436754,0.0989106864934,0.00994321755641,1.0,0.0,0.027631707365
1385572952839004200,-0.0513923383082,0.111248503921,0.010457111055,1.0,0.0,0.0275260554198
1385572952888955025,-0.039939116404,0.126162396559,0.0108621630483,1.0,0.0,0.0274800661692
1385572952940009994,-0.0272230499714,0.137948285418,0.0111864212222,1.0,0.0,0.0273387417865
1385572952989176345,-0.0145046127478,0.147435130806,0.0114555760714,1.0,0.0,0.0272879742844
1385572953040041662,-0.00171011755287,0.159966241088,0.0116531935091,1.0,0.0,0.0272259620581
1385572953089179714,0.0109070688523,0.165839006226,0.0118362643086,1.0,0.0,0.0272135948255
1385572953139985396,0.0240240100223,0.176552744159,0.011942601009,1.0,0.0,0.0271785023199
1385572953189002629,0.0358347974579,0.17933690685,0.012010677967,1.0,0.0,0.0271760306038
1385572953240023679,0.0488287859605,0.187302278656,0.012042372633,1.0,0.0,0.027271696292
1385572953289013482,0.0594403767196,0.187084732413,0.012024069492,1.0,0.0,0.0272814270974
1385572953338918697,0.0719046868574,0.191847981122,0.0120215595111,1.0,0.0,0.027457172179
1385572953389073815,0.0820882784082,0.190631367711,0.0120314201299,1.0,0.0,0.0275783831544
1385572953440014073,0.0919693007392,0.189287258226,0.012003601678,1.0,0.0,0.0277340951691
1385572953488996022,0.0994070283565,0.183302896116,0.0120847676201,1.0,0.0,0.0279679249577
1385572953539179170,0.109049113657,0.180687072591,0.0122853742516,1.0,0.0,0.0282394085315
1385572953590024681,0.115420214379,0.172898459429,0.0124558096113,1.0,0.0,0.0284761821463
1385572953639031716,0.120065708484,0.162921959562,0.0127386844675,1.0,0.0,0.0287125806816
1385572953689266534,0.125240436952,0.153274618957,0.0130891917078,1.0,0.0,0.0289607587468
1385572953739145733,0.130073133325,0.142606181726,0.0134420400317,1.0,0.0,0.0293952479755
1385572953788973246,0.132453779075,0.129157260818,0.013789916189,1.0,0.0,0.0296566999285
1385572953838989076,0.133996339196,0.1148199701,0.0140177688885,1.0,0.0,0.0300363309788
1385572953889010002,0.132212426067,0.0981766735972,0.0142049923726,1.0,0.0,0.0304001111944
1385572953939228871,0.131843639081,0.0818093867456,0.0142683032857,1.0,0.0,0.0307579857466
1385572953989095489,0.131268981112,0.0645802474678,0.0143823424757,1.0,0.0,0.031140633755
1385572954039014377,0.127823088739,0.0459815723377,0.014349757171,1.0,0.0,0.0314685027297
1385572954089237550,0.124047680699,0.0270768585339,0.0142175006846,1.0,0.0,0.031776893532
1385572954139139033,0.117150219323,0.00797188457619,0.0140238826152,1.0,0.0,0.0320761451806
1385572954188989034,0.11357001026,-0.0120381803438,0.0138309521428,1.0,0.0,0.032276472166
1385572954239034107,0.106018959353,-0.0315314235415,0.0134946495015,1.0,0.0,0.0324845772887
1385572954289040083,0.0988140283511,-0.0510360622134,0.0131750442183,1.0,0.0,0.0326084423975
1385572954339981341,0.0889611401111,-0.0689975081232,0.012804713126,1.0,0.0,0.0326925934919
1385572954390167065,0.0804987746115,-0.0875396322366,0.0124157223019,1.0,0.0,0.0326699924966
1385572954438964144,0.0705273587177,-0.105111262313,0.0119977625959,1.0,0.0,0.0326938814516
1385572954489186491,0.0616597922422,-0.123590623618,0.0115057001729,1.0,0.0,0.03256424927
1385572954539112755,0.0505146693539,-0.139088131676,0.0109731515019,1.0,0.0,0.0324974797148
1385572954589967391,0.0388184471574,-0.152024573243,0.0104451283878,1.0,0.0,0.0323490623351
1385572954639083266,0.0283248467085,-0.167966410722,0.00969586684738,1.0,0.0,0.0321739857079
1385572954689045231,0.0159672698473,-0.176753128871,0.0090152305049,1.0,0.0,0.0319451061193
1385572954739132757,0.00497061003739,-0.190346983259,0.00814892944352,1.0,0.0,0.0316845036192
1385572954788997505,-0.0069282166869,-0.198030538482,0.00730710753206,1.0,0.0,0.0313836109894
1385572954839010920,-0.018524458833,-0.202743403385,0.00654257236838,1.0,0.0,0.0310814917493
1385572954888955546,-0.0298457808858,-0.210903105221,0.00576886905735,1.0,0.0,0.0306811634783
1385572954939073052,-0.0408283339989,-0.210170361962,0.00515912117655,1.0,0.0,0.0303695703221
1385572954989316524,-0.0518890322121,-0.214806284289,0.00459353445243,1.0,0.0,0.0299890949352
1385572955039581344,-0.0615912466626,-0.20987352115,0.00414438404763,1.0,0.0,0.0296800301107
1385572955089963738,-0.0713440312687,-0.207788350539,0.0038674881574,1.0,0.0,0.029383646366
1385572955139742233,-0.0801902322376,-0.201936844622,0.00368764379892,1.0,0.0,0.0290392668851
1385572955189615311,-0.0893464528222,-0.197190443883,0.00366660159617,1.0,0.0,0.0287879395541
1385572955240129963,-0.0966468552596,-0.187235087009,0.00370454453806,1.0,0.0,0.0285310500645
1385572955289918290,-0.102333910849,-0.174581002157,0.00375930304662,1.0,0.0,0.0282719586201
1385572955339630420,-0.108131066627,-0.16228967271,0.00395233704642,1.0,0.0,0.0280125643357
1385572955389291056,-0.112603090219,-0.147628620155,0.00420465190158,1.0,0.0,0.0278012139162
1385572955439698367,-0.116105591161,-0.131908140959,0.00448930746825,1.0,0.0,0.0276302939188
1385572955490195427,-0.118554197874,-0.114726001111,0.00482274184173,1.0,0.0,0.0274585077011
1385572955539768082,-0.121296216635,-0.0976378215769,0.00522887538119,1.0,0.0,0.0272963766627
1385572955589348037,-0.119874540227,-0.0769738597886,0.00559887693435,1.0,0.0,0.0271896739649
1385572955639415072,-0.119575129155,-0.0574845267096,0.00597807816649,1.0,0.0,0.0270684272243
1385572955689520374,-0.117355470183,-0.036571859561,0.00633760359368,1.0,0.0,0.0269967653423
1385572955739340879,-0.11437240844,-0.0155649815933,0.00661242304933,1.0,0.0,0.0269175091044
1385572955789497642,-0.111653571845,0.00580556926964,0.00677225258402,1.0,0.0,0.0267339408024
1385572955840693502,-0.105103986146,0.0270843670643,0.00686014050561,1.0,0.0,0.0266429744317
1385572955889595740,-0.100750264682,0.0489262112984,0.0067985832729,1.0,0.0,0.0264934178714
1385572955939582558,-0.0935411932074,0.0700722777347,0.00665732534674,1.0,0.0,0.0262840465881
1385572955988870760,-0.0850190462288,0.0897397131491,0.00648892522225,1.0,0.0,0.0260917234064
1385572956039428826,-0.077733033847,0.110997147949,0.00613264740414,1.0,0.0,0.025885330906
1385572956089721274,-0.0673249448079,0.12814350418,0.00571828854605,1.0,0.0,0.0257299654839
1385572956139549586,-0.05878340194,0.148277862198,0.00508646637214,1.0,0.0,0.0254461226247
1385572956189618944,-0.047504691091,0.162549817007,0.00450745652972,1.0,0.0,0.0252556898069
1385572956239565322,-0.0372054152148,0.178725691679,0.00382129881132,1.0,0.0,0.0249619742223
1385572956289520105,-0.026004539221,0.192190911391,0.00313067875859,1.0,0.0,0.0247236432656
1385572956340537238,-0.0147903662535,0.204678253012,0.00235921589292,1.0,0.0,0.024405062302
1385572956388544161,-0.00343019458758,0.217909532938,0.00146164983598,1.0,0.0,0.0240427889575
1385572956439666332,0.00811465579,0.223613178857,0.000677479382936,1.0,0.0,0.0237597626199
1385572956489567257,0.019510923829,0.231762261257,-0.000151699504443,1.0,0.0,0.0234184846732
1385572956539523212,0.0308666934375,0.236449989848,-0.000962898976638,1.0,0.0,0.0230041286737
1385572956589536966,0.0419528389533,0.239691720546,-0.00169774159569,1.0,0.0,0.0226951712031
1385572956640594038,0.0526616288365,0.240678333918,-0.00235644321461,1.0,0.0,0.0223856898975
1385572956689469818,0.0629496279582,0.239849967948,-0.00293242087799,1.0,0.0,0.0220934781047
1385572956739603964,0.0727471079702,0.236832687191,-0.00338018355855,1.0,0.0,0.0218203398303
1385572956789472692,0.0819266654476,0.231995665846,-0.00369300311614,1.0,0.0,0.0215593755915
1385572956839593085,0.0901700995508,0.224944024315,-0.0038939693195,1.0,0.0,0.0214392039625
1385572956889579277,0.0977731808636,0.216110277391,-0.00396492245299,1.0,0.0,0.0212749760004
1385572956939724821,0.104515103445,0.205376992462,-0.00392600400639,1.0,0.0,0.0212044642719
1385572956989644085,0.110158085615,0.19276479719,-0.00372127007326,1.0,0.0,0.0211672984338
1385572957038559764,0.115084572312,0.178535462981,-0.0032888432657,1.0,0.0,0.021117144625
1385572957088599227,0.118745001015,0.162606738964,-0.00271190168711,1.0,0.0,0.0211325191123
1385572957138863517,0.12132725755,0.145147222994,-0.00200590460248,1.0,0.0,0.021191948437
1385572957188640499,0.122847021824,0.126382004571,-0.00118582899786,1.0,0.0,0.0212241701134
1385572957238515994,0.123158448051,0.106172616512,-0.000395460233638,1.0,0.0,0.0213400973051
1385572957288635798,0.122546202584,0.0851458446028,0.00048979642036,1.0,0.0,0.0214261998051
1385572957338578878,0.120753135715,0.0630915164716,0.00132081833731,1.0,0.0,0.0215488863111
1385572957389572618,0.119485595966,0.0407467093183,0.00209135409013,1.0,0.0,0.0216618026849
1385572957438609517,0.115264545768,0.0172436707142,0.00272937105733,1.0,0.0,0.021802043034
1385572957488711600,0.109473106275,-0.00596649744453,0.00323786457657,1.0,0.0,0.0218974050945
1385572957539531512,0.105568192392,-0.0301311904717,0.00380023719213,1.0,0.0,0.0220081917859
1385572957589055130,0.0984151680607,-0.0535021803607,0.00418302200107,1.0,0.0,0.0221648920911
1385572957638569313,0.0914946657321,-0.0766267566379,0.00442985801025,1.0,0.0,0.0222650996508
1385572957688559782,0.083429742808,-0.0990471742812,0.00451342423683,1.0,0.0,0.0223856304292
1385572957738692873,0.0748369717151,-0.120595804784,0.00441737916632,1.0,0.0,0.0225086990929
1385572957789565907,0.0648306187383,-0.139267106759,0.00427895162266,1.0,0.0,0.0225656160503
1385572957839498021,0.0564357214556,-0.160841037879,0.00400764632066,1.0,0.0,0.0226251519683
1385572957889561330,0.04601118968,-0.177742864928,0.00356362420858,1.0,0.0,0.0227155073233
1385572957939562805,0.0359191698662,-0.194125774748,0.00301961334647,1.0,0.0,0.0227445254308
1385572957989666739,0.0247912756663,-0.205668022895,0.00251246639743,1.0,0.0,0.0228142043556
1385572958038671291,0.0148712859444,-0.22105556047,0.0017236982972,1.0,0.0,0.0227841717884
1385572958089626735,0.00404865862422,-0.230230968848,0.000923642598127,1.0,0.0,0.0227329318597
1385572958138714296,-0.00677603817417,-0.235604514203,0.000226896452522,1.0,0.0,0.0227577875204
1385572958189544234,-0.0171161731469,-0.241767611486,-0.00049801582254,1.0,0.0,0.022661203832
1385572958239487292,-0.0274541589174,-0.244526738219,-0.00106422968067,1.0,0.0,0.0227002520095
1385572958288656108,-0.0373749390776,-0.245317861432,-0.00163915128461,1.0,0.0,0.0226783783647
1385572958338502186,-0.046959923877,-0.243978515862,-0.0021082071774,1.0,0.0,0.0226346119423
1385572958389464019,-0.0561046625871,-0.24026014913,-0.00248526683085,1.0,0.0,0.0226117387335
1385572958438529943,-0.0646711035254,-0.234473447814,-0.00280638471594,1.0,0.0,0.0225431784686
1385572958488564202,-0.0726413376608,-0.226525011197,-0.00299479648779,1.0,0.0,0.0224571892313
1385572958538528433,-0.0799655409665,-0.216440270108,-0.00302716377075,1.0,0.0,0.0223834824193
1385572958588702393,-0.0866122583323,-0.20436384871,-0.00285787633033,1.0,0.0,0.0223164832291
1385572958639530967,-0.0924424005471,-0.190482652169,-0.0025343774688,1.0,0.0,0.0221637086256
1385572958689508306,-0.097508192566,-0.174745758379,-0.00208925849473,1.0,0.0,0.0220618297242
1385572958738649100,-0.101667258885,-0.157417845982,-0.00150616666224,1.0,0.0,0.0219347225846
1385572958788648838,-0.104829688775,-0.138507597039,-0.000812310601171,1.0,0.0,0.0218613271789
1385572958839547577,-0.107095637297,-0.118415356184,-1.37573689532e-05,1.0,0.0,0.0217478320936
1385572958888625188,-0.108373044432,-0.0971220375336,0.000853811800957,1.0,0.0,0.0216572913568
1385572958938730403,-0.108690842662,-0.074952983708,0.00173336211373,1.0,0.0,0.0215387406248
1385572958988652499,-0.108022377553,-0.0520707692536,0.00262291315823,1.0,0.0,0.0213994291159
1385572959038539859,-0.107623310513,-0.029194532352,0.00351465630452,1.0,0.0,0.021284831199
1385572959088564042,-0.103303349329,-0.00491972003623,0.00420487399483,1.0,0.0,0.0211682795685
1385572959138711417,-0.100150424052,0.0185222169484,0.00484363087057,1.0,0.0,0.0210596011573
1385572959188767595,-0.0953187184875,0.0421742203521,0.0053475744591,1.0,0.0,0.0209266498604
1385572959238849592,-0.0913544883793,0.0657630274205,0.00568920347837,1.0,0.0,0.0206380409527
1385572959288728583,-0.0835509492655,0.0876617400349,0.00594715452418,1.0,0.0,0.0204754769574
1385572959339673784,-0.0781495414933,0.110696314863,0.00606667650884,1.0,0.0,0.0202117416685
1385572959388734144,-0.0690435257141,0.129921870711,0.00607057470689,1.0,0.0,0.0199935847093
1385572959438522993,-0.0623068996048,0.151579910627,0.00582910302574,1.0,0.0,0.0195977153685
1385572959488639597,-0.0523151445026,0.167571692943,0.00556609831201,1.0,0.0,0.0192734741366
1385572959539917268,-0.0435492827388,0.184929384849,0.00512321610517,1.0,0.0,0.01897252314
1385572959589544868,-0.0344524523901,0.201895906859,0.00446564151443,1.0,0.0,0.0185175729867
1385572959638752727,-0.0239844603855,0.212535312153,0.00388057466717,1.0,0.0,0.0182298440162
1385572959688659972,-0.0141985181983,0.224801552111,0.00316418265918,1.0,0.0,0.0178067095552
1385572959739838529,-0.00399665019584,0.233925151722,0.00242556440088,1.0,0.0,0.017383283413
1385572959789447532,0.00615608126821,0.241487430741,0.00164701930785,1.0,0.0,0.0169484092372
1385572959839507781,0.0162819068845,0.24681385398,0.000875887402578,1.0,0.0,0.0165132655923
1385572959888774735,0.0265683922816,0.25306586054,8.07927212389e-05,1.0,0.0,0.016031195157
1385572959938787572,0.0361487221647,0.250548180454,-0.000534993550434,1.0,0.0,0.0155852123828
1385572959989540364,0.045859444428,0.250741990224,-0.00112889995561,1.0,0.0,0.0151015271516
1385572960039520495,0.0549738096954,0.246933337617,-0.00167453723116,1.0,0.0,0.0147136682529
1385572960089519844,0.063784229691,0.241781958603,-0.0021367281319,1.0,0.0,0.0143085177535
1385572960139581593,0.0720905196276,0.234271116109,-0.00250403887518,1.0,0.0,0.0139291177216
1385572960189499690,0.0797935288267,0.224874293528,-0.00275973870219,1.0,0.0,0.0135759248222
1385572960238825919,0.086784174232,0.213480001241,-0.00288363679742,1.0,0.0,0.0132896515022
1385572960288581040,0.0930553068683,0.200311741248,-0.00286932868215,1.0,0.0,0.0130640535865
1385572960340681328,0.0985090120194,0.185469203922,-0.0027542674198,1.0,0.0,0.0129083471541
1385572960388624018,0.103184744195,0.169122125826,-0.00243193620619,1.0,0.0,0.0127865120145
1385572960439670756,0.106800373859,0.15140298341,-0.00202165672416,1.0,0.0,0.0127661489492
1385572960489449857,0.109538875841,0.132260850942,-0.00148974023637,1.0,0.0,0.0128018795995
1385572960539538322,0.111160342197,0.112184050955,-0.000850900055334,1.0,0.0,0.0129290290973
1385572960588641518,0.111741015083,0.0911173564799,-0.00013951088027,1.0,0.0,0.013130757803
1385572960639435035,0.111101007815,0.0693326444822,0.000599767057761,1.0,0.0,0.0134619760175
1385572960689540242,0.109690492218,0.0470662171869,0.00130609116977,1.0,0.0,0.0137603101818
1385572960739527170,0.107020281779,0.0244816533072,0.00202832146813,1.0,0.0,0.0141936049719
1385572960788545137,0.103595197754,0.00169640070276,0.00262779892574,1.0,0.0,0.0145751360417
1385572960838568785,0.0989815690433,-0.0209834241806,0.00314277814136,1.0,0.0,0.0151125443847
1385572960888781228,0.0936953269529,-0.0434405854939,0.00356561340633,1.0,0.0,0.0155967933751
1385572960938840498,0.0875295243159,-0.0654437891724,0.00386402486575,1.0,0.0,0.0161090191809
1385572960988625581,0.080582498612,-0.0867707793144,0.00407094432462,1.0,0.0,0.0166511195593
1385572961039511778,0.073131986692,-0.107278905563,0.0041334016668,1.0,0.0,0.0171296277608
1385572961088703470,0.0651353423298,-0.126700908465,0.00393821920142,1.0,0.0,0.0175910809266
1385572961139763441,0.0563620522922,-0.144943913517,0.00363919478819,1.0,0.0,0.0181304119535
1385572961188627113,0.047589011566,-0.161950077251,0.0031667636082,1.0,0.0,0.0185033103967
1385572961238826865,0.0380588070973,-0.177283051367,0.00256438237499,1.0,0.0,0.018973116621
1385572961288659187,0.0289663363453,-0.193301776847,0.00181950600364,1.0,0.0,0.0193713706186
1385572961339010108,0.0187614303225,-0.202518732951,0.00112643896238,1.0,0.0,0.0196868811321
1385572961389281267,0.00904608525896,-0.213432106003,0.00036797353188,1.0,0.0,0.0200374462687
1385572961439205740,-0.000943604006119,-0.221057658884,-0.000482656094532,1.0,0.0,0.0203159052188
1385572961489041141,-0.0108503608497,-0.22999091256,-0.00131520901046,1.0,0.0,0.0205777872938
1385572961539044195,-0.0207330577401,-0.230309683522,-0.00200196778074,1.0,0.0,0.0208422729615
1385572961589072248,-0.0303451875443,-0.23323015893,-0.00272872762154,1.0,0.0,0.0209808074586
1385572961639638078,-0.0399899656274,-0.23203216506,-0.0033904702423,1.0,0.0,0.0211945379508
1385572961689572119,-0.0491345968763,-0.229532949513,-0.00393051026706,1.0,0.0,0.0212435197991
1385572961738772384,-0.0581704756434,-0.224366078492,-0.00431225070229,1.0,0.0,0.0213830346803
1385572961788884127,-0.0664869826211,-0.217352586557,-0.00465529425168,1.0,0.0,0.0214290130027
1385572961839177119,-0.0743837083159,-0.208251420697,-0.00486575990686,1.0,0.0,0.0214076715587
1385572961889317771,-0.0816270627869,-0.197147259857,-0.00493642991839,1.0,0.0,0.0214063155265
1385572961939023419,-0.0881846526751,-0.184262831381,-0.00486461958906,1.0,0.0,0.0213015809844
1385572961989360223,-0.0939705756712,-0.16964411941,-0.00462702301404,1.0,0.0,0.0212338977165
1385572962040207551,-0.0988892343711,-0.153512085393,-0.00426330744202,1.0,0.0,0.0210787741844
1385572962089035057,-0.102932547215,-0.135956285172,-0.00376690203553,1.0,0.0,0.0209711741419
1385572962139718305,-0.1059631852,-0.117111868817,-0.00315800612545,1.0,0.0,0.0207880013271
1385572962190152940,-0.107918511298,-0.0971175286167,-0.00244903736278,1.0,0.0,0.02074343854
1385572962239771045,-0.109068449468,-0.0765345027021,-0.00168188460304,1.0,0.0,0.0204327282861
1385572962289651638,-0.10901874329,-0.0550500790328,-0.000902498859251,1.0,0.0,0.0202597842857
1385572962339768068,-0.107973983222,-0.0331105866025,-0.000147240156816,1.0,0.0,0.0200026368203
1385572962389708067,-0.10583458785,-0.0109432119525,0.000559654051954,1.0,0.0,0.0197812948093
1385572962439202476,-0.102676145004,0.0113221332763,0.00119617476513,1.0,0.0,0.0195748372227
1385572962488675383,-0.0987014512688,0.0333130988789,0.00167109408284,1.0,0.0,0.0192699742422
1385572962539197398,-0.093717659604,0.0550353474194,0.00209664521134,1.0,0.0,0.0190070319852
1385572962588624354,-0.0879120859901,0.0761852653367,0.00244959612519,1.0,0.0,0.0186985554928
1385572962639703546,-0.081290811776,0.0966192013999,0.00267933426948,1.0,0.0,0.0183944951334
1385572962689642623,-0.0739654400688,0.116100122807,0.00276594516019,1.0,0.0,0.0180600672172
1385572962739635087,-0.0660515514662,0.134455255151,0.00271124295211,1.0,0.0,0.0176971673187
1385572962789730625,-0.0576301374578,0.151560988409,0.00250956563721,1.0,0.0,0.0172089850638
1385572962839635673,-0.0486681624508,0.167208084176,0.0021768510545,1.0,0.0,0.0167918470573
1385572962889803987,-0.0392603992235,0.181250961578,0.00175762175438,1.0,0.0,0.0163810777538
1385572962938950137,-0.0296756759854,0.193799020106,0.00124620815702,1.0,0.0,0.0158445294406
1385572962989494635,-0.0198234952812,0.204433114641,0.00066709940842,1.0,0.0,0.0154016002071
1385572963039474303,-0.00993496851322,0.213354029445,3.56256317994e-05,1.0,0.0,0.0148780274935
1385572963089681139,1.0175276228e-05,0.22023518671,-0.000599144590177,1.0,0.0,0.0143695279814
1385572963139585893,0.0099021818511,0.225423805396,-0.00125613871708,1.0,0.0,0.0137569051927
1385572963189566579,0.0196757833257,0.228428169787,-0.00188818769219,1.0,0.0,0.0132162711421
1385572963239475880,0.0293219343263,0.229674933286,-0.00252285440476,1.0,0.0,0.0125471214759
1385572963289563743,0.038717725204,0.228870990567,-0.00310655291898,1.0,0.0,0.0118710225042
1385572963339691720,0.0477416352903,0.226202799878,-0.00362763086395,1.0,0.0,0.0111906114612
1385572963389552670,0.0565015721806,0.221567064674,-0.00404792641839,1.0,0.0,0.0105110501521
