%time,field.linear.x,field.linear.y,field.linear.z,field.angular.x,field.angular.y,field.angular.z
1385572930398167194,0.0,0.0,0.0,0.0,0.0,0.0
1385572930398190392,-0.545052066939,1.0685343634,-0.103795957044,0.0111509697114,0.00900522605602,-1.22725650271
1385572930408249948,-0.545099094988,1.06852623706,-0.103693857328,0.0107385081883,0.0093630978631,-1.22724470058
1385572930418454391,-0.545074469884,1.06852360101,-0.103836132143,0.0107986919472,0.00953734482962,-1.22737807166
1385572930428118640,-0.545090686261,1.0685236637,-0.103777491403,0.0110151297836,0.00892361640635,-1.22733793
1385572930438279256,-0.545058493863,1.06854158992,-0.103798209678,0.0110855985104,0.00918122358341,-1.22727002613
1385572930448151114,-0.545040188555,1.06856388057,-0.103766160987,0.0110060410277,0.00952748545587,-1.2273493445
1385572930459620368,-0.545040188555,1.06856388057,-0.103766160987,0.0110060410277,0.00952748545587,-1.2273493445
1385572930468239678,-0.545131986199,1.0685598877,-0.10375417168,0.0112743018532,0.00980245489366,-1.22728396611
1385572930478220467,-0.54506516224,1.06859246358,-0.103713804111,0.0109694479216,0.00997137850509,-1.22732356694
1385572930491010924,-0.545081544444,1.06857370566,-0.103742582978,0.0110048500659,0.00944384387189,-1.22718102899
1385572930498086400,-0.545073084978,1.06856997317,-0.103756257214,0.0110366998256,0.00956003546003,-1.22722106965
1385572930508144769,-0.545035603538,1.06853966479,-0.103772463523,0.0110961419947,0.00902053453584,-1.22724026892
1385572930518302083,-0.545066014222,1.0685347841,-0.103766713657,0.0113451576373,0.0088388409792,-1.22728994097
1385572930528232928,-0.545102462626,1.06853010078,-0.103700735226,0.0110658188118,0.00941406461777,-1.22720307138
1385572930538308893,-0.545052406153,1.06853956182,-0.103791220091,0.0110791938721,0.00915104931114,-1.2272682337
1385572930548097912,-0.545034774497,1.06852473614,-0.103744723169,0.0113262610713,0.00881412954669,-1.22727660725
1385572930558721018,-0.545034774497,1.06852473614,-0.103744723169,0.0113262610713,0.00881412954669,-1.22727660725
1385572930568122594,-0.545043439982,1.06854131935,-0.103809550399,0.0111138600972,0.00908275104749,-1.22727737104
1385572930578295281,-0.54504281299,1.06854166928,-0.103796038192,0.0111162637367,0.00910374515722,-1.22727006977
1385572930588550013,-0.545080548763,1.0685703584,-0.103751898164,0.0110472465118,0.00951737876546,-1.22727395687
1385572930598333395,-0.545039802509,1.06853991304,-0.103792919637,0.0111070180938,0.00898962551801,-1.22722942867
1385572930608221105,-0.545080198461,1.06851201124,-0.103811888447,0.0108455602408,0.00867569871328,-1.22719168812
1385572930618376924,-0.545031440181,1.06853415964,-0.103780580351,0.011131868047,0.00906935159899,-1.22726413073
1385572930628161586,-0.545092161244,1.06850585926,-0.103811114426,0.0110889590314,0.00859598361999,-1.22726598508
1385572930639274492,-0.545045759253,1.06854159981,-0.103792259079,0.0111334761352,0.00902280366534,-1.22724015032
1385572930648151195,-0.545094099857,1.06850064688,-0.103806442322,0.0110725203658,0.00863086948272,-1.22726814645
1385572930658153761,-0.545090167686,1.06854612094,-0.103772969222,0.010803522157,0.0090828897797,-1.22711769662
1385572930668190951,-0.545066147371,1.06851206298,-0.103810452772,0.0108886163588,0.00865233786835,-1.22722657162
1385572930678144726,-0.545095458824,1.06850869077,-0.103797614397,0.0110893079654,0.00863274723133,-1.227281964
1385572930691417096,-0.545103727206,1.06856339724,-0.103717510654,0.0112800550465,0.0093862494336,-1.22727475424
1385572930698171043,-0.545038449435,1.06852434975,-0.103746924538,0.0113406207427,0.00878124357267,-1.22728486411
1385572930708123580,-0.545117387316,1.06853912485,-0.103753166705,0.0110332752336,0.0089676512987,-1.22716802847
1385572930718164431,-0.54501331242,1.06855933903,-0.103750024715,0.0110146102297,0.00932548640697,-1.22730428396
1385572930728395031,-0.545116768506,1.0685386772,-0.103703936071,0.0110233707042,0.00942442894072,-1.22720920925
1385572930738342470,-0.545092574894,1.06851858203,-0.10383428231,0.0108028760227,0.00879437585013,-1.22727189485
1385572930748155964,-0.545061427096,1.06853036401,-0.103801691318,0.0107690505131,0.00911676376011,-1.2273278066
1385572930758193611,-0.545086529749,1.06857054626,-0.103746518987,0.0110530445978,0.00956954133223,-1.22723664859
1385572930768076317,-0.545041743777,1.06853337761,-0.103759162663,0.0113157323535,0.00880393096107,-1.22726405721
1385572930778184079,-0.545081189628,1.06852818201,-0.103773253979,0.0110464700945,0.00900081912834,-1.22735783705
1385572930788349711,-0.545050188971,1.06854426919,-0.103790846195,0.0111476033932,0.00910622188151,-1.22726987388
1385572930798305483,-0.545126190376,1.06855382489,-0.103786543597,0.0107876273361,0.00922525258275,-1.22719538777
1385572930808160386,-0.545095104323,1.06850789606,-0.103794114476,0.0110446881858,0.0086687250272,-1.227296871
1385572930818100037,-0.54508364442,1.06851278503,-0.103833289626,0.0108195133628,0.00875657322155,-1.22724207199
1385572930828189519,-0.545070637341,1.06853170541,-0.103765180313,0.0113205481054,0.00895596900196,-1.22729244065
1385572930838294721,-0.545040126504,1.06853905083,-0.103781894438,0.0110823717826,0.00898053283028,-1.22722856824
1385572930848094165,-0.545020090584,1.06856123475,-0.103776109008,0.0110108864316,0.00951281220628,-1.22734943369
1385572930858220225,-0.54511524066,1.06854368697,-0.103787531646,0.0108365026452,0.00914190586083,-1.22714513698
1385572930868137193,-0.545070728632,1.0685294207,-0.103835604837,0.0111183411973,0.00944795160578,-1.22734598321
1385572930878097107,-0.545068740959,1.06851760768,-0.103827338658,0.0108193056015,0.00866130704159,-1.22719886052
1385572930888306805,-0.545089637772,1.06856845578,-0.103751894947,0.0110595667744,0.00954722270093,-1.22724831935
1385572930898308334,-0.545120298281,1.06849742577,-0.103809108955,0.0110596077716,0.0084835045349,-1.22709288754
1385572930908199535,-0.545088345095,1.06855827898,-0.10374685704,0.011068428403,0.00933140907731,-1.22731821272
1385572930918255626,-0.54506750072,1.06852005259,-0.103764965401,0.0113512060456,0.0089091005765,-1.22738163029
1385572930928190372,-0.545072654267,1.06852200337,-0.103801984438,0.0109925529312,0.00853251393051,-1.22687714112
1385572930938211523,-0.545071181491,1.06849814661,-0.10381283671,0.0107759347201,0.00861925547625,-1.22706043435
1385572930948080987,-0.545011702344,1.06855865372,-0.103749678353,0.0110095351097,0.00927894404196,-1.22768330444
1385572930958204557,-0.545022520026,1.06848258418,-0.103842134504,0.011045192805,0.009651307672,-1.22775302538
1385572930968100644,-0.545040772042,1.06856510819,-0.103785247842,0.0112681722068,0.00881217535057,-1.22628323502
1385572930978116809,-0.545049986447,1.06851110857,-0.103821863628,0.0107318023391,0.00847026819747,-1.22665885583
1385572930988211444,-0.544984201007,1.06854358798,-0.103756086646,0.0109958557062,0.00937899171179,-1.22789763795
1385572930998084494,-0.545059759205,1.0685332678,-0.103787373264,0.0112340297931,0.00917738436265,-1.22732132791
1385572931008199974,-0.545057667554,1.06850386265,-0.10382654769,0.0109372916265,0.00859285011543,-1.22644558423
1385572931018178832,-0.545078088715,1.06852013835,-0.103864631817,0.0106309611373,0.00817031410575,-1.22675248607
1385572931028156089,-0.544970952527,1.06850200291,-0.103829041561,0.0109861214069,0.0093104850203,-1.22789927228
1385572931038521983,-0.545060506012,1.06845954041,-0.103882498857,0.0104775676074,0.00994345790998,-1.22737070258
1385572931048123977,-0.545039273937,1.06850881993,-0.10383067717,0.0106816345188,0.00976448819982,-1.22636507928
1385572931058177152,-0.545039273937,1.06850881993,-0.10383067717,0.0106816345188,0.00976448819982,-1.22636507928
1385572931068124522,-0.544947910428,1.06848674671,-0.103804786456,0.0112291234061,0.00914826433472,-1.22784093601
1385572931078122370,-0.544920865676,1.06851406073,-0.10377079918,0.0109896762487,0.00953534138911,-1.2276471474
1385572931088377260,-0.545009520341,1.06849739032,-0.103894719912,0.0107321081609,0.00883225376307,-1.22694883032
1385572931098128746,-0.544970354538,1.06849714427,-0.103894352388,0.0104283381634,0.0088124302692,-1.2271766655
1385572931108142972,-0.544938086003,1.06851138773,-0.10381439542,0.0108448602705,0.00927861500333,-1.22763253001
1385572931118185765,-0.544987373153,1.068491935,-0.103860346965,0.0104310246447,0.00884010563466,-1.22706523032
1385572931128117573,-0.545003544215,1.06849504341,-0.103907195723,0.0102905078831,0.00941431913378,-1.22711707717
1385572931138360630,-0.545021664548,1.06845476023,-0.103930358746,0.0101949289401,0.00909509315631,-1.22779777555
1385572931148120678,-0.54505735068,1.0685730763,-0.103680039843,0.0111300495434,0.00976520097693,-1.22732830731
1385572931158233893,-0.545031060618,1.06848214184,-0.103884351538,0.010934563179,0.0086546055622,-1.22693831107
1385572931168085981,-0.545020355566,1.06850656613,-0.103809585806,0.0107574757871,0.00914858814499,-1.22726643503
1385572931178111649,-0.544987473515,1.06847329941,-0.103869086188,0.0106010373208,0.00889127643057,-1.22758503177
1385572931188500783,-0.544997537945,1.06849841605,-0.103897819851,0.0103199442427,0.00916616310417,-1.227230089
1385572931198127621,-0.545011194459,1.06849016756,-0.103849446837,0.0106829846398,0.00875324245608,-1.22706524861
1385572931208070529,-0.544944953051,1.06849639216,-0.10383254811,0.0103544341946,0.0091515919665,-1.22746871292
1385572931218333856,-0.545027543139,1.06855307541,-0.103831379295,0.0112813577001,0.00895154149414,-1.22737170586
1385572931228276809,-0.545012552776,1.06848123943,-0.103928546454,0.0105882673733,0.00931721271772,-1.22726735463
1385572931238439382,-0.545040014274,1.06845947878,-0.103869114056,0.0109387832072,0.0090325773726,-1.2272986833
1385572931248242308,-0.544945543221,1.06848448446,-0.103880419197,0.0104107789764,0.00882884645216,-1.22738160639
1385572931258088407,-0.544997164182,1.06852740511,-0.103820573899,0.0103565408969,0.0103167156568,-1.22736316196
1385572931268047616,-0.545108472323,1.06856852907,-0.103820369473,0.0108664128988,0.00951421678668,-1.22719761771
1385572931278092680,-0.54499422889,1.06849132213,-0.10388983286,0.010566014907,0.00886801616276,-1.22726401812
1385572931288425668,-0.544996151483,1.06848539369,-0.103844105617,0.0108175140085,0.00878784241125,-1.22736289378
1385572931298173284,-0.545025306328,1.06849469868,-0.103875858224,0.0103789494489,0.00931467315224,-1.22712463399
1385572931308133577,-0.545017270975,1.06849530968,-0.103763408792,0.0105869082422,0.00938994229848,-1.22711038743
1385572931318250827,-0.545078903763,1.06855975523,-0.103811070511,0.0107658144513,0.00903471595374,-1.22703578934
1385572931328147977,-0.544981444056,1.06848032142,-0.103863031691,0.0105714288288,0.00884105398227,-1.22721662534
1385572931338330570,-0.544989860512,1.06849575323,-0.103816885909,0.0106980418757,0.0092996137946,-1.22729657116
1385572931348157097,-0.545030550498,1.06850269096,-0.103828662685,0.0104773430087,0.00932347744792,-1.22730293208
1385572931358284835,-0.545065399032,1.06852843449,-0.103858508827,0.0107822626897,0.0086136834005,-1.22716139607
1385572931368183903,-0.54501766231,1.06848001026,-0.10390314199,0.010565283388,0.00938714863807,-1.227198556
1385572931378109831,-0.545006139136,1.06848079907,-0.103841294017,0.0107606238476,0.00883320817982,-1.22733619851
1385572931388175295,-0.54508740152,1.06854879783,-0.103771564226,0.0111447680272,0.0101433948132,-1.22725428098
1385572931398063272,-0.545067725683,1.06851155538,-0.10386721051,0.0107658731053,0.00858303045614,-1.22708579653
1385572931408112256,-0.54498741137,1.06849704074,-0.10382231984,0.0106661558961,0.00926944681043,-1.22725858292
1385572931418457617,-0.54495445228,1.06850616034,-0.10382079942,0.010774381621,0.00930787352413,-1.22735524152
1385572931428245947,-0.545043553679,1.06850909685,-0.103872120505,0.0105823100749,0.00973791194992,-1.22745346913
1385572931438301684,-0.545043553679,1.06850909685,-0.103872120505,0.0105823100749,0.00973791194992,-1.22745346913
1385572931448242249,-0.545019316869,1.06845851202,-0.103864842647,0.0108059589459,0.00918689466876,-1.22724794036
1385572931458112966,-0.544991637261,1.06848645649,-0.103844562524,0.0108633255807,0.0085166348484,-1.22739806205
1385572931468318890,-0.544989368442,1.06847847427,-0.103881427161,0.01041252316,0.00891243601822,-1.22742900251
1385572931478170448,-0.545020297647,1.06851773834,-0.103811050514,0.0106815961826,0.00972505968566,-1.22711212971
1385572931488146857,-0.545064673636,1.06850324805,-0.103874916047,0.0107051476936,0.00955309613963,-1.22728711176
1385572931498241026,-0.54503400596,1.06849736869,-0.103858460619,0.0106994047219,0.00933878235166,-1.22709862642
1385572931508242344,-0.544957119559,1.06850356873,-0.103880349599,0.0114257841803,0.00952286199313,-1.22729770237
1385572931518239148,-0.545074162508,1.06854204243,-0.103929513485,0.0116051748325,0.0086913701611,-1.22705393408
1385572931528263723,-0.544978301447,1.06854807312,-0.103850561919,0.0116485120889,0.00915668013303,-1.22732709094
1385572931538815272,-0.54498438591,1.0685621552,-0.103786057308,0.011341862558,0.00956812451528,-1.22728095805
1385572931548313309,-0.545004504979,1.06851485917,-0.103929310705,0.0105261652069,0.00893855283269,-1.22677288989
1385572931558309163,-0.545064107117,1.0685877488,-0.103815140691,0.0104088489581,0.00931343763281,-1.22684558115
1385572931568309862,-0.545055578612,1.06852764439,-0.103876059109,0.010700666656,0.00880827916237,-1.22748562987
1385572931578081313,-0.544999701204,1.06854947958,-0.103963058038,0.0109100201961,0.00972821062504,-1.22705266801
1385572931588119143,-0.544965611691,1.06854560741,-0.103860783397,0.0116785942432,0.00896885792125,-1.22674825445
1385572931598088283,-0.544986876772,1.06852972279,-0.10378876603,0.0120002939766,0.00938005844301,-1.22746858791
1385572931608143711,-0.545024500903,1.06856671173,-0.103910128095,0.011325602294,0.00973537408834,-1.22697568459
1385572931618251248,-0.545003900359,1.06855467068,-0.103892333144,0.0112387594696,0.00908364069284,-1.22697526469
1385572931628132769,-0.545010272349,1.06849320155,-0.103872984796,0.0107846231719,0.00843680972576,-1.22755645776
1385572931638303559,-0.544980357329,1.06859309213,-0.103879490275,0.0111739304399,0.00933801324143,-1.22683873495
1385572931648101159,-0.544979059549,1.06853760991,-0.103866876489,0.0114238454708,0.00927220931885,-1.22754808155
1385572931658222232,-0.544992434916,1.06858781499,-0.103874398549,0.0118669580153,0.00897376546516,-1.22774588123
1385572931668357108,-0.545093660621,1.06857486941,-0.103919470562,0.0114451497097,0.00991214432324,-1.22696960534
1385572931678245022,-0.544996818189,1.06853586572,-0.103992126619,0.0109600819175,0.00904692601091,-1.22769512523
1385572931688267066,-0.545005141507,1.06863344785,-0.103878323981,0.0106023524107,0.00989003773236,-1.2273916873
1385572931698316143,-0.545078131321,1.06859731421,-0.103879907801,0.0113234933427,0.010573447767,-1.22703022151
1385572931708248092,-0.545079222841,1.06856913483,-0.103909657997,0.0112088057095,0.00853706503744,-1.22746178066
1385572931718438120,-0.54498419866,1.06859237172,-0.103910377801,0.0115335999938,0.00933515266606,-1.22738777981
1385572931728092419,-0.545055555869,1.06866136304,-0.103847149969,0.0116090734754,0.00964799601813,-1.22740869142
1385572931738241559,-0.544971501345,1.06856560912,-0.103889479592,0.0113925941015,0.00908718896074,-1.22765584134
1385572931748077486,-0.545008397637,1.0685798798,-0.103873412108,0.0114802647033,0.00903215755346,-1.22727568377
1385572931758149499,-0.545111255045,1.06858002159,-0.103867207005,0.0112341880725,0.00922969878484,-1.22746660129
1385572931768147654,-0.54497390095,1.06854675415,-0.103824792884,0.0114934493929,0.00893030716481,-1.22771164031
1385572931778117211,-0.54513741414,1.06858500835,-0.103895690606,0.0115138061176,0.00934649908864,-1.22718253836
1385572931788229142,-0.545065506869,1.06861114321,-0.103855074097,0.0110718613763,0.00980681188182,-1.22745856226
1385572931798149257,-0.545012426026,1.06859223381,-0.103891433719,0.0115162419802,0.00908146797708,-1.2279132839
1385572931808083633,-0.545012371311,1.0685922449,-0.103868824132,0.0114192026461,0.0091171925209,-1.22729580598
1385572931818286988,-0.545063127882,1.06854344072,-0.10390403016,0.0110347314132,0.00873797530943,-1.22765358309
1385572931828133976,-0.545003926951,1.06857092173,-0.103854584886,0.0117794703899,0.00888157862625,-1.22761665283
1385572931838434394,-0.545006338038,1.06857995574,-0.103917858275,0.0116271884632,0.00904620576199,-1.2271386275
1385572931848238493,-0.545100064905,1.06857045799,-0.1039025486,0.0112875704458,0.00858333360904,-1.22748144677
1385572931858151632,-0.545063624153,1.06862589439,-0.10381201986,0.0107811187535,0.0106468693725,-1.22766056684
1385572931868296362,-0.5451264242,1.06859137069,-0.103894042747,0.0108059862424,0.00937135737147,-1.22732174381
1385572931878082951,-0.545040523326,1.0685586229,-0.103951245703,0.011156215558,0.00909281322667,-1.22782578104
1385572931888399684,-0.545018979373,1.06858870756,-0.103905087895,0.0117691303195,0.00912925212033,-1.22747742994
1385572931898299742,-0.545062047811,1.0686188115,-0.103781987132,0.0120800183335,0.00944263612216,-1.22746181501
1385572931908157629,-0.545036633788,1.06855907169,-0.103843796662,0.0115499910704,0.00891918177255,-1.22774822647
1385572931918286255,-0.545120842396,1.06862101895,-0.103853342102,0.011522577189,0.00890355111834,-1.22733619269
1385572931928154172,-0.54504797897,1.06857483995,-0.103906810965,0.0110643628196,0.0089791273019,-1.22771954278
1385572931938178043,-0.545071321658,1.06856356044,-0.103883611132,0.0111100656001,0.00863881000937,-1.22785514032
1385572931948246949,-0.545019197062,1.06859238971,-0.103844715795,0.011295504489,0.00934047220642,-1.22733093306
1385572931958114073,-0.54510180134,1.06858692226,-0.103897557198,0.0110887976041,0.00880089048756,-1.22772721466
1385572931968265479,-0.545129734231,1.06856533339,-0.103886787282,0.0111271233476,0.0089730382556,-1.22781017173
1385572931978192992,-0.545076412026,1.06860235914,-0.103921361099,0.0113830150129,0.0090849580296,-1.2275652035
1385572931988180370,-0.545125640507,1.06857557444,-0.103867519406,0.0107515452999,0.00846188054492,-1.22758349456
1385572931998210957,-0.545055750322,1.06859074082,-0.103859838092,0.0112615052003,0.00904199472281,-1.22776401417
1385572932008107864,-0.545034604989,1.06857372006,-0.103866797238,0.0114216424439,0.00902995492225,-1.22767047068
1385572932018185810,-0.545159982215,1.06852399478,-0.103996141754,0.0108852410141,0.00927050230589,-1.2279770541
1385572932028146438,-0.54509682986,1.06856113898,-0.103890123736,0.0106180230034,0.00903165136777,-1.22773916248
1385572932038341711,-0.5451196221,1.06854463111,-0.10384457767,0.0108616607288,0.00845944881526,-1.22778312402
1385572932048113877,-0.545070390069,1.06857144217,-0.103824411621,0.0107597499961,0.00894756963299,-1.22809674331
1385572932058127014,-0.545133438816,1.06857566112,-0.103890489962,0.0107602712102,0.00842615757897,-1.2273711314
1385572932068221638,-0.545094884346,1.06858755203,-0.103881933632,0.0112134042245,0.00897537600141,-1.22768479218
1385572932078113841,-0.545042075707,1.06857295288,-0.103846494558,0.0113439265267,0.00906975576599,-1.22795636722
1385572932088315286,-0.545042075707,1.06857295288,-0.103846494558,0.0113439265267,0.00906975576599,-1.22795636722
1385572932098228379,-0.545061243207,1.06857969967,-0.10395672474,0.0107540522702,0.00925299847652,-1.22799077509
1385572932108044158,-0.545094476843,1.06855465488,-0.103978381241,0.0106807549883,0.00875926354955,-1.22798733732
1385572932118213657,-0.545087845428,1.06856773574,-0.103882882663,0.0113460819882,0.00862093353505,-1.22773343802
1385572932128054829,-0.545076690205,1.06865100772,-0.103887185925,0.0115328621358,0.00910400902904,-1.22815698947
1385572932138300943,-0.54506119291,1.06851658672,-0.104042937964,0.0113227434543,0.00758012630207,-1.22889043553
1385572932148071543,-0.545003477337,1.0684995997,-0.104464405408,0.0109053290574,0.0052302553378,-1.2302879562
1385572932158082816,-0.544993094914,1.06844642238,-0.104499503237,0.0103035592155,0.00454940946295,-1.23183515147
1385572932168065218,-0.54495037053,1.06861184374,-0.104428926565,0.0112286905924,0.00325674969922,-1.23254472093
1385572932178192070,-0.544853713379,1.06858666669,-0.104667182055,0.0117768562238,0.00280850852622,-1.23273930592
1385572932188164914,-0.544868273082,1.06881376783,-0.104559238927,0.0124871530209,0.00538985031748,-1.23338785358
1385572932198091557,-0.544962053818,1.06900809167,-0.104192702585,0.0125034057901,0.00968522533528,-1.23317860343
1385572932208062931,-0.545060880156,1.06931777124,-0.103607482553,0.0114205849046,0.0121524386296,-1.23359275277
1385572932218083612,-0.545100550759,1.06926024973,-0.103619810742,0.0098544977714,0.0110506121172,-1.23502376245
1385572932228039360,-0.545036943719,1.06926835102,-0.104028077171,0.00837510864996,0.00787512731195,-1.23445202888
1385572932238245603,-0.545045347897,1.06913799724,-0.104268425208,0.00831450682138,0.00646087328223,-1.23606355049
1385572932248093469,-0.545032633543,1.06920590968,-0.104289066766,0.00938480917135,0.00701111043018,-1.2355109843
1385572932258081717,-0.54493574921,1.06931478218,-0.10419782224,0.0112790045998,0.00713535420211,-1.23631528774
1385572932268316278,-0.544984561976,1.06941544765,-0.103834496229,0.0131378489353,0.0098962860142,-1.23597776845
1385572932278064696,-0.544978634177,1.0695100316,-0.103761649543,0.0129603666454,0.0114015780159,-1.23603746109
1385572932288110981,-0.54488327718,1.06946455584,-0.103957924484,0.0112394370197,0.00911256060488,-1.23621071449
1385572932298055506,-0.544907882671,1.06939806781,-0.104173821866,0.0101810236265,0.00818041811542,-1.23625591843
1385572932308092466,-0.544813768937,1.06946866161,-0.104175229932,0.00991768976794,0.00823299881868,-1.23597571989
1385572932318082099,-0.544609843899,1.06956610406,-0.104074066855,0.010768805295,0.00978437918165,-1.23632042996
1385572932328151610,-0.544653178125,1.06957105902,-0.103853740909,0.0115241963355,0.0101712578013,-1.23620867637
1385572932338335432,-0.544760451806,1.06963547111,-0.103862508243,0.011434654409,0.0102680531894,-1.23627722898
1385572932348094191,-0.544601177857,1.06955537277,-0.104052940454,0.0111595730134,0.00928650651203,-1.23592181407
1385572932358091944,-0.544790716692,1.06955097725,-0.104078905519,0.0113624759495,0.00896037709263,-1.23746190919
1385572932368160483,-0.544755560093,1.06955796822,-0.103944609336,0.0115399503054,0.00995077904607,-1.23664760789
1385572932378074211,-0.544613408603,1.06965571498,-0.103891771367,0.0117549635794,0.0104392430192,-1.2379058953
1385572932388269259,-0.544812506507,1.06950322571,-0.103848501811,0.0106095071195,0.00918384808865,-1.23855685966
1385572932398095798,-0.54481367141,1.06952242235,-0.104048492517,0.00974895559033,0.00884992013225,-1.23862878102
1385572932408197201,-0.544763428737,1.06950247038,-0.103920888078,0.010551574653,0.00909360128197,-1.23950737189
1385572932418299379,-0.54467154451,1.06952079221,-0.103793741571,0.0107055024934,0.00933079576349,-1.2393666659
1385572932428062917,-0.54475949883,1.0694779296,-0.103847893134,0.011184798559,0.00930351591246,-1.24027694949
1385572932438081919,-0.5446970782,1.06947122963,-0.103892944631,0.0107143727957,0.00962648396265,-1.24044937733
1385572932448322423,-0.544691855768,1.0695301954,-0.104018220888,0.0103195511551,0.00951238118689,-1.2413761728
1385572932458194170,-0.54465178528,1.06946696498,-0.103976740206,0.0104147858508,0.00996408303537,-1.24057895313
1385572932468130248,-0.544676514953,1.06956041045,-0.103817200989,0.010925740195,0.00967986419204,-1.24166934997
1385572932478138662,-0.544633750601,1.06947032825,-0.103827090567,0.0106401105008,0.0100886970558,-1.24099871864
1385572932488246377,-0.54460064233,1.06952379696,-0.103923681754,0.0103355118636,0.00904551945198,-1.24150247245
1385572932498141426,-0.544624144067,1.06950896828,-0.104003986389,0.0108186014739,0.0091322180821,-1.24170444804
1385572932508133790,-0.544679894972,1.06952337132,-0.103957458505,0.0108285928513,0.010048568262,-1.24130526817
1385572932518123884,-0.544678859782,1.06952446003,-0.103812146717,0.0105984636528,0.00941328080609,-1.24246395934
1385572932528088849,-0.544753528905,1.0695352951,-0.103793681279,0.0108633905445,0.00922373844515,-1.24148336429
1385572932538287512,-0.544683808654,1.06962701091,-0.103968767751,0.0110545336419,0.0088892064451,-1.24286320515
1385572932548147371,-0.544632036844,1.06959035767,-0.103942785585,0.0113194560553,0.0100159768289,-1.24260004906
1385572932558157569,-0.544685264217,1.06977179964,-0.103850821567,0.0118264551191,0.0097426452293,-1.24263663687
1385572932568091391,-0.544645044403,1.06961836428,-0.103951857119,0.0115255867159,0.00829099487147,-1.24391335361
1385572932578047535,-0.544731549977,1.06980766132,-0.1040437612,0.0115358582565,0.00844823686569,-1.24330159329
1385572932588067997,-0.544696217886,1.06976185324,-0.104003327203,0.0107789654019,0.010253840275,-1.24460472041
1385572932598115309,-0.544645276066,1.06977247641,-0.103873472797,0.0112458054128,0.0100603566897,-1.24390937327
1385572932608142740,-0.544559104388,1.06980048103,-0.10395684628,0.0116069245997,0.00848441680242,-1.24420183887
1385572932618298003,-0.544596652969,1.06975525188,-0.104034967147,0.0128115456634,0.0080992746176,-1.24526252967
1385572932628143051,-0.544624910985,1.06988739882,-0.103972941755,0.0125340284846,0.00942249127409,-1.2451032088
1385572932638157089,-0.544537413988,1.06982423496,-0.103956986763,0.0119004548084,0.0105747667482,-1.24557600998
1385572932648302348,-0.544771428132,1.06999024867,-0.104047562096,0.0119125261752,0.00964551879749,-1.24586419089
1385572932658111700,-0.544696095335,1.06985641015,-0.104159575068,0.0116227054439,0.00936277130297,-1.24646428456
1385572932668085917,-0.544809090793,1.06997572991,-0.104033443197,0.0125071761923,0.00914616341234,-1.24720365355
1385572932678121456,-0.54482684318,1.07000489222,-0.103926473795,0.0120819706905,0.0104632958476,-1.24800664622
1385572932688258974,-0.544917001912,1.07004453928,-0.104146875865,0.0127122756972,0.00920002272391,-1.24915401455
1385572932698148561,-0.545071970447,1.07010551938,-0.104226515077,0.0126877672817,0.00904124210256,-1.24928798899
1385572932708196493,-0.545156789042,1.07011356915,-0.104068772277,0.0127821284946,0.00951412714505,-1.2503361971
1385572932718301297,-0.545329555598,1.07022893718,-0.103945792145,0.0122315596289,0.0096728266538,-1.25064771416
1385572932728172509,-0.545282739505,1.07027686849,-0.103926470707,0.0115451336688,0.0100297294278,-1.2519334749
1385572932738257593,-0.545401924799,1.07037883445,-0.104295071491,0.0119585368655,0.00871412105927,-1.25259650056
1385572932748228284,-0.545619454613,1.07044483631,-0.104222825779,0.0118238578581,0.0104627984178,-1.25413944242
1385572932758184166,-0.545567834606,1.07051489293,-0.103926363876,0.0128862923291,0.00869999537642,-1.25469204752
1385572932768116356,-0.545559909727,1.07081230696,-0.104019956782,0.0134947236134,0.00925022355251,-1.2565055615
1385572932778170725,-0.545924508538,1.07063950479,-0.104219907738,0.0128221513529,0.00887038907937,-1.25768340625
1385572932788405844,-0.546160758996,1.07099083175,-0.104121774052,0.0123138895901,0.0103534288809,-1.25925837645
1385572932798104780,-0.546185203135,1.07097428589,-0.104088353684,0.012136363104,0.00997411304874,-1.26048947201
1385572932808227098,-0.546509046316,1.07123320227,-0.10394307342,0.0120846252866,0.00922445106285,-1.26226862227
1385572932818322970,-0.546648243531,1.07125688488,-0.103938422973,0.0120043474393,0.00926517375189,-1.26398567182
1385572932828168695,-0.546784338952,1.07157912679,-0.103971394355,0.0116270817242,0.0106609309275,-1.26570400215
1385572932838551586,-0.546928074272,1.07171192187,-0.104336679451,0.0107237408236,0.00999641099791,-1.26682672564
1385572932848185473,-0.54734030292,1.07185116548,-0.104316027759,0.00916035869283,0.00989525142697,-1.26794445763
1385572932858075700,-0.547548897415,1.07200312963,-0.104100818532,0.00831303718155,0.0105897319997,-1.26914787601
1385572932868158171,-0.54793551496,1.07211817688,-0.103960940936,0.00836734614626,0.00984476299917,-1.270655787
1385572932878156485,-0.548239710312,1.07232354751,-0.104146731942,0.00852542319534,0.00905622738645,-1.27205217918
1385572932888231149,-0.548135142081,1.07254548782,-0.104254787728,0.00919887946601,0.00985967072606,-1.27445558997
1385572932898125387,-0.548445194315,1.0727693734,-0.104235191406,0.0100858841559,0.010288219528,-1.27565473634
1385572932908118625,-0.548634056578,1.07290380379,-0.104174502639,0.00915397068359,0.0120100282449,-1.27813600061
1385572932918203216,-0.549186943898,1.07290320499,-0.104427704444,0.0082128814211,0.0106869072302,-1.27979329793
1385572932928155593,-0.549474020854,1.07294463896,-0.104249257594,0.00698856273252,0.00963597352254,-1.28192988645
1385572932938243259,-0.549904895011,1.07301591722,-0.103943333284,0.00651914494149,0.00941397715398,-1.28328135041
1385572932948530121,-0.550058954912,1.07311019614,-0.104033365003,0.00682413726174,0.00936192433235,-1.28547489773
1385572932958065685,-0.55043320608,1.07318689174,-0.104175326723,0.00783282994859,0.00943472945092,-1.2874195051
1385572932968053070,-0.550409010913,1.07337008198,-0.104368262985,0.00842082073046,0.0105390305327,-1.28954974124
1385572932978080594,-0.550819479022,1.07349472594,-0.104365318254,0.00927704912046,0.0112309337367,-1.29234432638
1385572932988172424,-0.551050818214,1.07371916654,-0.104507462764,0.00914166795887,0.0140514934946,-1.29441900278
1385572932998117592,-0.551308468639,1.07376585288,-0.104771825643,0.00986412373862,0.0139313069981,-1.29676547379
1385572933008148420,-0.551501898699,1.07393413245,-0.105110484346,0.00947106036412,0.0141884956719,-1.29849563613
1385572933018123405,-0.551716753035,1.07407377462,-0.104885776589,0.00820226112275,0.0147642351437,-1.30015115766
1385572933028132846,-0.552151103338,1.07434455151,-0.10512488768,0.00703841011798,0.016658919976,-1.30292457663
1385572933038220528,-0.552343022256,1.07446414993,-0.105284662249,0.00707008508937,0.0181097157376,-1.30534169473
1385572933048160158,-0.552704288459,1.07467754224,-0.105166782085,0.0063361396087,0.0188566281567,-1.30756952323
1385572933058077857,-0.552678054087,1.07487042703,-0.105441036347,0.00721501433312,0.0184409354095,-1.3101811003
1385572933068091259,-0.552824993995,1.0750776272,-0.105695057077,0.00707110777479,0.0180703297357,-1.31242282959
1385572933078154940,-0.553347696966,1.07525523466,-0.105691122009,0.00636326762235,0.0184028775375,-1.31513571476
1385572933088289578,-0.553688772931,1.07552236107,-0.105565781805,0.0064697189624,0.0210080896132,-1.31765679411
1385572933098092569,-0.553887492936,1.07576249397,-0.105570115994,0.00740358856827,0.0226640408151,-1.3205495529
1385572933108088890,-0.55391683493,1.07611419326,-0.105824309391,0.00870472397413,0.0242146737634,-1.3235552352
1385572933118116740,-0.55416637916,1.07627381338,-0.106149023065,0.00872772975407,0.0246294005928,-1.32639251205
1385572933128133814,-0.554528796835,1.07669479182,-0.106213651828,0.00877569892001,0.0251270752989,-1.32935367025
1385572933138295541,-0.554673605787,1.07696656567,-0.106303826446,0.00850149997816,0.0264435156025,-1.33192865416
1385572933148121530,-0.554947243513,1.07749865676,-0.106485704499,0.00858893866849,0.0264644256881,-1.33430797731
1385572933158210372,-0.555224237631,1.07781910426,-0.106829326682,0.00846817104076,0.0258837903541,-1.33676150921
1385572933168143309,-0.555613808945,1.07842735351,-0.107085085963,0.00786301301782,0.0285721952728,-1.34023348509
1385572933178089161,-0.555871459446,1.07902082241,-0.107246785117,0.00761401178966,0.0311435194208,-1.3424823384
1385572933188173677,-0.556373223696,1.07954749787,-0.107655637362,0.00688141062127,0.0344801547659,-1.34648490608
1385572933198094097,-0.556548751131,1.08027323025,-0.107961169272,0.00743646084402,0.0365863676578,-1.34911815636
1385572933208102012,-0.55674055346,1.08108301372,-0.108390789161,0.00779249402731,0.0407497693176,-1.35194054686
1385572933218216452,-0.557113213926,1.08184316223,-0.108811672739,0.0087334030332,0.0428842159084,-1.35399817651
1385572933228085857,-0.557548675331,1.0827092014,-0.109153020994,0.0090142038649,0.0445743089207,-1.35686188228
1385572933238376409,-0.557658474824,1.08371872007,-0.109796026625,0.0101690384946,0.0480073385289,-1.35928330942
1385572933248256271,-0.557576051446,1.08466283755,-0.110459488602,0.0125479090717,0.0491329017505,-1.36253752778
1385572933258088867,-0.55780827274,1.08557645766,-0.110943948539,0.0135598748104,0.050898299,-1.36507596192
1385572933268096826,-0.557884686087,1.08662044555,-0.111410255505,0.013792250533,0.0540016582133,-1.36745356075
1385572933278162897,-0.558108610307,1.08763529992,-0.112237320283,0.0139212283471,0.0526746959233,-1.37028458974
1385572933288141452,-0.558228055159,1.08862949612,-0.112777521431,0.0130858935391,0.0526363611602,-1.37257825389
1385572933298114662,-0.558343573979,1.08964420319,-0.113271195659,0.0128451640852,0.051608786372,-1.37614454772
1385572933308434368,-0.558343573979,1.08964420319,-0.113271195659,0.0128451640852,0.051608786372,-1.37614454772
1385572933318307318,-0.558399785047,1.09193506937,-0.114966013362,0.0113950491242,0.0490679390279,-1.38209317105
1385572933328147400,-0.558613747113,1.093062302,-0.115706948412,0.0115575958308,0.0487588820011,-1.38535205892
1385572933338312838,-0.55861653494,1.09426401267,-0.11651560151,0.0113103792732,0.0475268804112,-1.38917972319
1385572933348096651,-0.558739423843,1.09544232585,-0.117403174782,0.0096878559792,0.0470359574712,-1.39353779478
1385572933358112003,-0.558987408653,1.09673320881,-0.118817810825,0.00942876611035,0.0465219783404,-1.39779058436
1385572933368126655,-0.55906018736,1.09798274979,-0.120065987115,0.00894087202549,0.0462837295693,-1.40174581025
1385572933378090353,-0.559286525247,1.09929865954,-0.121388995546,0.00852235738044,0.045290724192,-1.4052676149
1385572933388188485,-0.559390007318,1.10054769496,-0.122640372803,0.00801641379187,0.0436103923189,-1.40934361473
1385572933398105439,-0.559371142063,1.10199384523,-0.124490955316,0.00784947005983,0.0427053907684,-1.41309667066
1385572933408081174,-0.559464526225,1.10341753945,-0.126071360509,0.00697562585836,0.0410755380054,-1.41750403759
1385572933418093216,-0.559530323567,1.10481900807,-0.12762594013,0.0080547511354,0.0409659653268,-1.42132001919
1385572933428135851,-0.559522650183,1.10620951458,-0.129279535328,0.0083420535837,0.038413812142,-1.42586276582
1385572933438509283,-0.559867013309,1.10772235567,-0.130906933015,0.00908748468945,0.036770872567,-1.42954323084
1385572933448170893,-0.559848937117,1.10918160562,-0.132787394055,0.0102816624439,0.0341134797482,-1.43329173149
1385572933458106897,-0.559906430846,1.11068774691,-0.13478781236,0.0105946528751,0.0328561345313,-1.43658041594
1385572933468140727,-0.559947769813,1.11227578623,-0.136920500191,0.0111628200258,0.0320014240672,-1.44062497888
1385572933478166554,-0.560055502654,1.11388163088,-0.139090028123,0.0119533912997,0.0300923350919,-1.44414558824
1385572933488206329,-0.56037041589,1.11535104314,-0.141264464109,0.0109998186839,0.0291105973789,-1.44757918376
1385572933498080872,-0.560471592874,1.11696465665,-0.14345318363,0.0110340406575,0.0280414502834,-1.45202877084
1385572933508115514,-0.56061890584,1.11873320322,-0.145575954162,0.0108310953566,0.0284813244156,-1.4546046962
1385572933518338604,-0.560705009728,1.12019041148,-0.148174889967,0.0110446229777,0.0259776568743,-1.45830290544
1385572933528138801,-0.560873393594,1.12178025565,-0.150732750343,0.0123330947106,0.0243194776058,-1.46102908047
1385572933538159447,-0.560921317234,1.12351717739,-0.153116196278,0.0149057030074,0.0238523485553,-1.46395258899
1385572933548366830,-0.560875794197,1.12518406108,-0.155524378858,0.0179974208469,0.0233366506942,-1.46633936611
1385572933558178957,-0.56096112721,1.12682752091,-0.158263542542,0.0204930481933,0.0210520703762,-1.46948645784
1385572933568117210,-0.561015857183,1.12854553312,-0.161085867849,0.0225369938363,0.0208347912144,-1.47209211666
1385572933578182729,-0.560973532749,1.13035867716,-0.163738792128,0.0245310472986,0.0192292368932,-1.47475558746
1385572933588148103,-0.561027756328,1.13197015935,-0.166469299236,0.0267553168246,0.017901722431,-1.47742082149
1385572933598124871,-0.560936216343,1.13370232611,-0.169374891121,0.0279066717565,0.0169853463314,-1.47850856579
1385572933608101986,-0.56094467345,1.13539214719,-0.172494650409,0.0295743415514,0.013587878607,-1.48048543074
1385572933618281394,-0.561108877843,1.13716087536,-0.175211899735,0.0302545795614,0.0118856348162,-1.48168492434
1385572933628183494,-0.561131670508,1.13875078507,-0.178268364609,0.0303255558881,0.00879137463867,-1.48391661233
1385572933638402871,-0.560773503618,1.14041984866,-0.181264008482,0.0301620829062,0.00448803630482,-1.48602749482
1385572933648187522,-0.560998787447,1.14209857247,-0.184466013055,0.0307383846687,0.00192345331977,-1.48738591197
1385572933658369784,-0.560739489225,1.14369534665,-0.187682664567,0.0318327350558,-0.00204205171195,-1.49007301803
1385572933668166287,-0.560643444777,1.14537246883,-0.190790888316,0.0318463330332,-0.0052704317977,-1.49232811587
1385572933678128926,-0.56064870462,1.14702804389,-0.194315820766,0.031372300587,-0.00783196264369,-1.49450516888
1385572933688310698,-0.560342030149,1.14864084836,-0.197620028047,0.030967070888,-0.0114372054654,-1.49711964119
1385572933698185171,-0.560305738712,1.15018950268,-0.201121831174,0.030723457124,-0.0154477076616,-1.49912085786
1385572933708123389,-0.560101023479,1.15162543266,-0.20460108486,0.0303193566745,-0.0201177836367,-1.5012551266
1385572933718314551,-0.559807717936,1.15319745863,-0.208039597007,0.0311821368365,-0.0249434146382,-1.50304013597
1385572933728279862,-0.559693917523,1.15452156138,-0.211766014195,0.0323798063765,-0.0290197136495,-1.50483455581
1385572933738257211,-0.559185473412,1.15598732253,-0.215557476201,0.0334020289103,-0.0331179469033,-1.50690435246
1385572933748327914,-0.558813072294,1.15731639624,-0.219218173299,0.0351500020002,-0.0375672648159,-1.50850570799
1385572933758235728,-0.558565518787,1.15853009878,-0.223056717342,0.0365464243904,-0.0423043546868,-1.51088005635
1385572933768068560,-0.558035543616,1.15973225141,-0.226888223349,0.037796876727,-0.0466449550409,-1.51174814723
1385572933779817763,-0.557792808937,1.16092503766,-0.230785727081,0.0393881398693,-0.0498670273519,-1.51347014063
1385572933788391839,-0.557227903915,1.16200154634,-0.234818374943,0.0404337530011,-0.0532572189449,-1.51486074512
1385572933798188566,-0.556590200445,1.1630470557,-0.238788312831,0.0422541994783,-0.0585257692983,-1.51654902352
1385572933808214556,-0.55598488444,1.16396315221,-0.242739934391,0.0440467719968,-0.0628333167561,-1.51771894434
1385572933818390142,-0.55531049979,1.1648600711,-0.246944069622,0.0449217847279,-0.0670088333078,-1.51881723372
1385572933828319866,-0.554589669372,1.16559100901,-0.250762384353,0.0460615158554,-0.0709226674648,-1.51992592498
1385572933838249805,-0.554029257187,1.16643484247,-0.255168957601,0.0469683920243,-0.0741465910923,-1.52178867315
1385572933848400594,-0.55325134801,1.16709396141,-0.259407313778,0.0483866055158,-0.0777450845537,-1.52254576201
1385572933858377273,-0.552580980562,1.16772954074,-0.263474249986,0.0506133303201,-0.0798589111346,-1.52410228594
1385572933868211850,-0.551800697872,1.16820586954,-0.267679626727,0.0507963961744,-0.0814587410915,-1.5252807797
1385572933878265563,-0.551018727128,1.16866603167,-0.271961856779,0.0515418771281,-0.084442453509,-1.52669706899
1385572933888398942,-0.550114614174,1.16900754699,-0.276086273209,0.0513162242858,-0.0856752426081,-1.5278041478
1385572933898219883,-0.549102752058,1.16933527071,-0.280569549506,0.0519245786968,-0.0877267050207,-1.52880527013
1385572933908401368,-0.548335911427,1.16938401492,-0.284648949946,0.0513893820668,-0.0913686996214,-1.52993852239
1385572933918536805,-0.547389530826,1.16937198392,-0.288999523108,0.0512694440799,-0.093418966117,-1.53115873802
1385572933928156603,-0.546270226405,1.16929675419,-0.293417319536,0.0518317346168,-0.0976397772039,-1.53214282581
1385572933938830457,-0.545275769911,1.1691608193,-0.297661690428,0.0518979843198,-0.0994284370411,-1.53301790239
1385572933948143151,-0.544024143098,1.16883641448,-0.302190005866,0.0535658072005,-0.102939797765,-1.53448159012
1385572933958209971,-0.54290205151,1.16844803548,-0.306798515383,0.0540349056709,-0.105958882435,-1.53533792929
1385572933968137622,-0.541696025089,1.1679070644,-0.31118915904,0.0556594696145,-0.108768372352,-1.5366677784
1385572933978147328,-0.540367675244,1.16741533366,-0.31563661162,0.0571064771738,-0.111682355585,-1.53753907974
1385572933988395545,-0.539253148424,1.16656392987,-0.320241731157,0.0578903812282,-0.114258548042,-1.53831681176
1385572933998250575,-0.537774992172,1.16574080642,-0.324693682608,0.0589501928892,-0.116090764882,-1.53896125159
1385572934008220533,-0.536266403494,1.1647832719,-0.329368176346,0.0601971390976,-0.11727548322,-1.5396065129
1385572934018424615,-0.534906418836,1.16375807167,-0.33379886039,0.062714118689,-0.119948781699,-1.5410643186
1385572934028090311,-0.533448813155,1.16251635986,-0.338411032328,0.062489953568,-0.121320370353,-1.54263954468
1385572934038233621,-0.531940084592,1.16113877209,-0.343140012236,0.0641151640777,-0.123654803512,-1.54357717367
1385572934048396341,-0.530339939424,1.15970909402,-0.347767956011,0.0649613498122,-0.124816985778,-1.54539445303
1385572934058164012,-0.528805360609,1.15814339707,-0.352452697044,0.0645784719483,-0.12563739745,-1.54605148229
1385572934068111547,-0.527281254018,1.15635596155,-0.357220101638,0.0644568537453,-0.127454981657,-1.54687644932
1385572934078088823,-0.525715339087,1.15455712795,-0.361979476754,0.0639535693672,-0.12752048653,-1.54857697247
1385572934088224226,-0.523922078655,1.15252479435,-0.366965131304,0.0635454699471,-0.129714466444,-1.54902232712
1385572934098086463,-0.522182170055,1.15036903631,-0.371926866427,0.0629582841007,-0.13010240675,-1.55007339324
1385572934108274966,-0.520405635655,1.14802468809,-0.377047011474,0.063234650597,-0.13098453452,-1.55140619935
1385572934118341254,-0.518558537385,1.145765052,-0.382031066008,0.0641584712756,-0.134267983555,-1.55195321043
1385572934128175792,-0.516698448141,1.14323114048,-0.386678139331,0.0652917843236,-0.135789481906,-1.55355604669
1385572934138266238,-0.514726149776,1.14059467784,-0.391168666046,0.0650201819732,-0.137370794835,-1.55441165785
1385572934148067790,-0.51294548726,1.13774966681,-0.395699216858,0.0650020612549,-0.138300252536,-1.55652350271
1385572934158155909,-0.510841276284,1.13484081525,-0.3999869617,0.0651007081707,-0.139097825915,-1.55715558973
1385572934168653026,-0.508683043657,1.13200731826,-0.404218712886,0.0658971095672,-0.14161716447,-1.5579219229
1385572934178367958,-0.506815906966,1.12883394528,-0.408002876074,0.066469222157,-0.14367999756,-1.5587036183
1385572934188406735,-0.504785876133,1.12571704188,-0.411942735003,0.0662758920681,-0.144071639898,-1.55981174276
1385572934198103195,-0.502607277421,1.12237065781,-0.415661944958,0.0667910567449,-0.146145821907,-1.56102601807
1385572934208224247,-0.500416687507,1.11888681178,-0.419183074846,0.0673892583836,-0.146746743575,-1.56216612414
1385572934218308558,-0.498194479781,1.11536796601,-0.422584691414,0.068474277338,-0.148312611597,-1.5631056803
1385572934228142956,-0.496147488611,1.11165641689,-0.425969439453,0.0685081979819,-0.148667595777,-1.56427707491
1385572934238205935,-0.493768213008,1.10794089673,-0.429244880037,0.068623308285,-0.149542117991,-1.56503945132
1385572934248075733,-0.491661056607,1.10397460338,-0.432114622032,0.0690859897995,-0.14996416949,-1.56561798947
1385572934258055636,-0.489221761266,1.09998070413,-0.434945765713,0.0690601615825,-0.150232783891,-1.56685252749
1385572934268456562,-0.486989953844,1.09577140652,-0.437815723369,0.0696831122,-0.151020219967,-1.56750156552
1385572934278388436,-0.484502644609,1.09152981045,-0.440405831487,0.0700319098946,-0.150589860026,-1.56844027609
1385572934288368804,-0.482051534476,1.08716871915,-0.442780351055,0.070000942718,-0.151773874797,-1.56964834948
1385572934298231832,-0.479733143529,1.08266360953,-0.445067183964,0.071053683927,-0.152819044758,-1.57065926285
1385572934308196925,-0.477160330955,1.07803995634,-0.447286347197,0.0714202559988,-0.151669740106,-1.57155218408
1385572934318087853,-0.4745460561,1.07339780594,-0.449291395517,0.0723294650614,-0.153472813391,-1.57325376314
1385572934328164175,-0.472146317871,1.06851386839,-0.451160745222,0.0726217820054,-0.151653193483,-1.57370776193
1385572934338316742,-0.469468180878,1.06350204991,-0.452919565308,0.0730814441363,-0.152957861699,-1.57447030644
1385572934348345535,-0.466766542248,1.05839511291,-0.454462957307,0.0739238770524,-0.152825570229,-1.57517090828
1385572934358230774,-0.464119892705,1.05311279,-0.455939661206,0.0736211745055,-0.152714438888,-1.57596741143
1385572934368138964,-0.461444002488,1.04780949669,-0.457388703431,0.0741606586006,-0.15269007802,-1.57687566262
1385572934378159885,-0.458820449113,1.04242984965,-0.458710990251,0.0747869933896,-0.151204680882,-1.57767763784
1385572934388277645,-0.455741361005,1.03692007361,-0.459776492581,0.0747945707697,-0.154291128447,-1.57913291397
1385572934398164456,-0.45309982473,1.0312040711,-0.460670021892,0.0747159585327,-0.151878511542,-1.57927710225
1385572934408120716,-0.450084467164,1.02540571656,-0.46167285281,0.075191884532,-0.153971780294,-1.58092729244
1385572934418154128,-0.447294470441,1.01946907652,-0.46228657784,0.075189485994,-0.15246247549,-1.58156171428
1385572934428131178,-0.444443527686,1.01351452662,-0.463001197322,0.0755494462916,-0.150745891085,-1.58209985177
1385572934438240806,-0.441281604113,1.00738503682,-0.463651460977,0.0760157237744,-0.152422324968,-1.58339049087
1385572934448174774,-0.438422675548,1.00101050398,-0.463956350065,0.0760479040984,-0.150703402456,-1.58349238558
1385572934458144270,-0.435373079237,0.994668278843,-0.464188730855,0.0765510753238,-0.150462964548,-1.58419878729
1385572934468253414,-0.432180030437,0.988184708668,-0.46438336136,0.0769627714425,-0.149532996303,-1.58507211533
1385572934478121870,-0.428920881449,0.981602853807,-0.46452180656,0.0778703407444,-0.148538295668,-1.58618230438
1385572934488266691,-0.425719632648,0.974814323669,-0.464523004798,0.0788694311489,-0.148771170011,-1.58743970254
1385572934498102705,-0.422443235999,0.968000759018,-0.464453847561,0.0788538417062,-0.147118258524,-1.58832563167
1385572934508119264,-0.419257548388,0.961084505763,-0.464256466193,0.0802295878982,-0.146103509757,-1.58875290694
1385572934518117561,-0.415895055657,0.953989236889,-0.46406448424,0.0804594762486,-0.144885547067,-1.58947358504
1385572934528104734,-0.41254468205,0.946898276768,-0.46370817349,0.0809466818861,-0.144323058347,-1.59041182511
1385572934538318611,-0.409210750997,0.939595028454,-0.463253368099,0.0808345999838,-0.142720899749,-1.59129173996
1385572934548157075,-0.405731905181,0.932220504295,-0.462785381286,0.0810263340201,-0.141006642392,-1.59204726632
1385572934558087347,-0.402508259289,0.924826375306,-0.462142122104,0.0809141076665,-0.139116558402,-1.5929374336
1385572934568131167,-0.398819505045,0.917233145289,-0.46152907054,0.0805321469708,-0.137653338034,-1.59412843457
1385572934578167747,-0.395380347491,0.909491863166,-0.460903648961,0.0810991653227,-0.13570489271,-1.5950479286
1385572934588177443,-0.39177617084,0.901811099141,-0.459973492965,0.0808262396694,-0.134972259046,-1.59562391626
1385572934598198688,-0.388174801759,0.893952185742,-0.459045114796,0.0805609517217,-0.132420216007,-1.59501924056
1385572934608097704,-0.384594079133,0.885905306459,-0.458364128828,0.0806488579968,-0.130950187914,-1.59681055465
1385572934618244415,-0.380810178787,0.877860165493,-0.457407435875,0.0802810738415,-0.129585707074,-1.59784828656
1385572934628139900,-0.37713262862,0.869685740347,-0.456297426311,0.0802617826939,-0.127613021751,-1.5985712116
1385572934638458699,-0.373407107097,0.86147000765,-0.455282203672,0.0801105718434,-0.125986309429,-1.5994831676
1385572934648095845,-0.369546727751,0.853018391948,-0.454245014817,0.0800923019655,-0.123117453723,-1.60033351768
1385572934658200148,-0.365805988893,0.84469008596,-0.452891763267,0.0798797837575,-0.121832483773,-1.60132313039
1385572934668117171,-0.361927093579,0.836241650759,-0.451670113796,0.0793612959564,-0.119125288108,-1.60150506788
1385572934678085543,-0.35803499498,0.827638500132,-0.450400761083,0.079415641289,-0.11582713892,-1.60220968997
1385572934688169003,-0.353947247496,0.818962597737,-0.449061532878,0.0792098368751,-0.115105905772,-1.60343658
1385572934698281228,-0.349922064639,0.810208030773,-0.447716609938,0.07983389309,-0.112322120011,-1.60374068024
1385572934708114652,-0.346024633393,0.801376107961,-0.446247231127,0.080614139707,-0.1108576677,-1.60490856894
1385572934718098886,-0.341754546815,0.79243881454,-0.444775794387,0.0810672715877,-0.108134961745,-1.60505881198
1385572934728159398,-0.337769665202,0.783604820879,-0.443350529488,0.082905613875,-0.105119342927,-1.60627152105
1385572934738053199,-0.33336206598,0.774563943649,-0.441880507276,0.0835224238349,-0.102415711797,-1.60707557317
1385572934748118962,-0.329095370064,0.76545457997,-0.440277125493,0.0847169266815,-0.100090573105,-1.60796149619
1385572934758186141,-0.324776199153,0.756310550801,-0.438671987112,0.0853653374904,-0.0967409856797,-1.60869367405
1385572934768736790,-0.320417660321,0.747100300998,-0.436909831047,0.0862077737939,-0.0937117265283,-1.60894632329
1385572934778117098,-0.316038755624,0.737801999737,-0.43540778464,0.08642882571,-0.0913845910025,-1.61019597725
1385572934788239143,-0.311614530063,0.728395223053,-0.433651058422,0.0864406261039,-0.0883557308288,-1.61079562475
1385572934798315105,-0.307250562326,0.719059540176,-0.431838554745,0.0863280378746,-0.084582907044,-1.61171633578
1385572934808151853,-0.302649628976,0.709521120919,-0.430158941924,0.0860642743806,-0.0827673293348,-1.61251273023
1385572934818200788,-0.298155532216,0.700031509066,-0.428313025779,0.0864058982196,-0.080509293721,-1.61289448448
1385572934828183091,-0.293632606923,0.69053668681,-0.426590611975,0.0859919445869,-0.0769042929339,-1.61339328355
1385572934838315454,-0.288853358386,0.680851034191,-0.424751827626,0.0855129615057,-0.0740197891099,-1.61406501549
1385572934848120313,-0.284397731156,0.671265104476,-0.422961306009,0.0858859694825,-0.0702188652817,-1.61456441845
1385572934858508003,-0.279436860375,0.661500467104,-0.421067405468,0.0854234955645,-0.0685031099326,-1.61555093769
1385572934868196464,-0.274623646155,0.651786794604,-0.419181107241,0.0854121123189,-0.0664591481159,-1.61594162913
1385572934878089170,-0.269905116775,0.642099499534,-0.41723694522,0.084915273607,-0.0634533999315,-1.61646144781
1385572934888178166,-0.265086339137,0.63217487339,-0.415633582562,0.0841584038816,-0.0599190041783,-1.61835452492
1385572934898286988,-0.260226271085,0.622434338499,-0.413660202664,0.0836662679653,-0.0580134792824,-1.61892262522
1385572934908180453,-0.255445162277,0.612552680462,-0.411901198253,0.0824923157683,-0.0558654280223,-1.61910238727
1385572934918155142,-0.250477659321,0.60272511307,-0.409968879595,0.0803532668198,-0.0533621227281,-1.6193024072
1385572934928065950,-0.245594298828,0.592736495518,-0.408136860161,0.0783379761845,-0.0517627536077,-1.61937629083
1385572934938177185,-0.240744996729,0.582867562899,-0.406437407279,0.0773862172039,-0.0486496608544,-1.61991786331
1385572934948186213,-0.235479910293,0.572905466003,-0.404579668206,0.0758537466692,-0.0468395392063,-1.6198986884
1385572934958119003,-0.230614393633,0.563098254156,-0.402691607389,0.0753056905284,-0.044188766206,-1.62115525467
1385572934968229501,-0.225468954984,0.553099864297,-0.40108204983,0.0743202936832,-0.0422507898251,-1.62244288188
1385572934978220139,-0.22036131535,0.543147781306,-0.39933687896,0.0724045041683,-0.039643373557,-1.62283083165
1385572934988197288,-0.215208859674,0.533147743498,-0.397600086007,0.0700880840103,-0.0371442171127,-1.62352087021
1385572934998181824,-0.210088685943,0.523216122944,-0.395838027457,0.0681215385153,-0.0345419874859,-1.62355377057
1385572935008082190,-0.20511169008,0.51332921052,-0.394246617246,0.0663444815853,-0.0315863514428,-1.62361528758
1385572935018085860,-0.199759580628,0.503317469693,-0.39266672193,0.0637766118687,-0.0294434549799,-1.62387839385
1385572935028123827,-0.194663522133,0.493303784901,-0.391072860542,0.061890731424,-0.0271072430016,-1.62399698284
1385572935038265803,-0.189370873547,0.483386387165,-0.389516371872,0.0594662184254,-0.0248391157274,-1.62471478475
1385572935048141578,-0.184213440046,0.473454452644,-0.387895971435,0.0571135583173,-0.0227860772517,-1.62535878067
1385572935058073544,-0.179145459131,0.46356948282,-0.386323965702,0.0544848624327,-0.0196498800531,-1.62557262735
1385572935068138178,-0.173796457182,0.453629867665,-0.385012739627,0.0521889712555,-0.01814620543,-1.62604272893
1385572935078113143,-0.168706535775,0.443742911071,-0.383577779364,0.0495211671572,-0.0151764409679,-1.62597806057
1385572935088240609,-0.163404162301,0.43379872238,-0.382200169079,0.0471867938397,-0.0132447131931,-1.62663618407
1385572935098153737,-0.158033580894,0.42398903005,-0.380859442444,0.045600838828,-0.01141061179,-1.6268231666
1385572935108171122,-0.153017979777,0.414207945599,-0.379470308112,0.0444528356662,-0.00899924698158,-1.62681821266
1385572935118121734,-0.147701875752,0.404337366208,-0.378278309405,0.0432052727921,-0.00639817509549,-1.62738099487
1385572935128134857,-0.142184074601,0.394532790389,-0.377101449515,0.0424887684614,-0.0041722958665,-1.62740740181
1385572935138298251,-0.137007868419,0.384878491558,-0.375825033904,0.0416759258605,-0.00208997912501,-1.62858548326
1385572935148135181,-0.131613268417,0.37525092714,-0.374530938028,0.0412388429667,0.00111787254921,-1.62877529512
1385572935158122606,-0.126546085631,0.365598613452,-0.373269555282,0.040384762199,0.00421414797002,-1.62822066236
1385572935168152784,-0.121122206892,0.355890508329,-0.372443705777,0.0397398820229,0.00586070416081,-1.62891166077
1385572935178122884,-0.115783920578,0.346289416298,-0.371387705984,0.0378797821349,0.00841684078701,-1.62836189387
1385572935188243472,-0.110655294615,0.33678254637,-0.370211030272,0.0360182524027,0.0118749013049,-1.62769045044
1385572935198298828,-0.105369603011,0.327296050232,-0.369445372108,0.034995920855,0.0133921899069,-1.62803914791
1385572935208187632,-0.0999902240706,0.3177689568,-0.368577770545,0.0343034843957,0.0138813123761,-1.6277811503
1385572935218117650,-0.0944864893802,0.308352681199,-0.367771379989,0.0334958928484,0.016084848117,-1.62793166369
1385572935228190142,-0.0895449509709,0.299036415054,-0.367089777235,0.0325428895229,0.0195631717187,-1.62853357745
1385572935238289947,-0.0840611388924,0.289733617519,-0.366339870582,0.0322295950754,0.0210411243949,-1.62839835798
1385572935248114454,-0.0788402390178,0.280506136932,-0.365512998328,0.0325255534016,0.0230586038705,-1.62845445432
1385572935258208852,-0.0736968825946,0.271423552108,-0.364757563059,0.0326439028481,0.0259881891934,-1.62807068499
1385572935268335500,-0.0682515774089,0.262282960623,-0.364156740764,0.0331598273491,0.0278088316247,-1.62867335423
1385572935278336046,-0.0630245802739,0.253223432722,-0.363459233625,0.0331368872417,0.0314339239855,-1.62839421982
1385572935288155528,-0.0575858789741,0.24429578536,-0.362948550931,0.0330759645233,0.0343233165593,-1.62833211613
1385572935298106649,-0.0524501802908,0.235492705242,-0.36227171566,0.0332585476919,0.0370481197325,-1.62778774798
1385572935308110742,-0.0471342543773,0.226662931627,-0.361898765471,0.0330687278127,0.0403496330383,-1.62766668044
1385572935318190444,-0.0418355688342,0.217997117166,-0.361609902429,0.0325615401201,0.0435375299184,-1.62824598759
1385572935328148664,-0.0366166945954,0.209264433908,-0.36102529594,0.031908585212,0.0458841325931,-1.62755813098
1385572935338249927,-0.0312353317023,0.200745492513,-0.360709586705,0.0313143182243,0.0497991887653,-1.62720612859
1385572935348142063,-0.0261241000288,0.192266297352,-0.360396320118,0.0309694449961,0.0521923158295,-1.62697998044
1385572935358124733,-0.0208202278357,0.183914260195,-0.360047092298,0.0298401066885,0.0560392351665,-1.62657287029
1385572935368140980,-0.0155219091384,0.175603233022,-0.35996168524,0.0297691920255,0.0594424441889,-1.62651909074
1385572935378160758,-0.0104240724073,0.16745032683,-0.359804180423,0.0294595866562,0.0638787349691,-1.62547125052
1385572935388273315,-0.00516397520884,0.159378679306,-0.359511714044,0.0291560113002,0.0668601837199,-1.62556093874
1385572935398597088,0.000142155845462,0.151472806571,-0.359808212409,0.0289551032454,0.0698933234975,-1.62566549306
1385572935408168446,0.000142155845462,0.151472806571,-0.359808212409,0.0289551032454,0.0698933234975,-1.62566549306
1385572935418127922,0.0106231054376,0.135759538887,-0.359778690012,0.0271724480737,0.0785477671712,-1.62361731324
1385572935428182449,0.0160326511389,0.128118983586,-0.360050795531,0.0269747910052,0.0801744553884,-1.62332947441
1385572935438382624,0.02124496413,0.120514541721,-0.360331622116,0.0273879220003,0.0825072782325,-1.62288696278
1385572935448149915,0.0263227206877,0.113280102448,-0.360573283687,0.0267868574832,0.0866831183388,-1.62274963045
1385572935458164788,0.0317245272193,0.105913138275,-0.360944929462,0.0257672551632,0.0908697406701,-1.62173906797
1385572935468309502,0.0317245272193,0.105913138275,-0.360944929462,0.0257672551632,0.0908697406701,-1.62173906797
1385572935478509420,0.0423557065334,0.0916938370406,-0.361797424611,0.0238444511699,0.096265147616,-1.62176105671
1385572935488330852,0.0473537313021,0.0847904619658,-0.362257167108,0.0238296085685,0.100541949585,-1.62098386396
1385572935498154620,0.0524506510026,0.0781047173569,-0.362887869625,0.0228465876186,0.103734423357,-1.62099655423
1385572935508548901,0.0576720656686,0.0714842930016,-0.363625425137,0.0220478770906,0.1067710007,-1.62057925756
1385572935518175325,0.0632025964937,0.0648309669548,-0.364358970223,0.0208443222871,0.108024208062,-1.62055987296
1385572935528142592,0.0682422466014,0.0585329867318,-0.365146348932,0.0196253673785,0.110896317918,-1.62091974826
1385572935538313961,0.0734105529301,0.0522547683513,-0.366006197044,0.0181115687368,0.113317124546,-1.6206774893
1385572935548181143,0.0784394148008,0.0461233877021,-0.36685333234,0.0172305480792,0.115877191615,-1.62014707144
1385572935558221601,0.0834528991472,0.0401588600822,-0.367603084767,0.0152944607355,0.119663432584,-1.61938169955
1385572935568204302,0.088884236861,0.0341837272826,-0.368785967207,0.0132149841094,0.120469820309,-1.61979654011
1385572935578216164,0.088884236861,0.0341837272826,-0.368785967207,0.0132149841094,0.120469820309,-1.61979654011
1385572935588434381,0.0985356255782,0.0230514766207,-0.370761232881,0.010616862021,0.126267999447,-1.61930251365
1385572935598385739,0.103896285842,0.0175420228448,-0.371956944564,0.00823465885936,0.125769971653,-1.61927097102
1385572935608118049,0.10885107122,0.0122808426423,-0.373067460969,0.0065483562705,0.129164174866,-1.61819064061
1385572935618184995,0.113819241547,0.00713703125782,-0.374302055939,0.00488246030073,0.131854053103,-1.61825003225
1385572935628135441,0.118867265244,0.00211859823224,-0.375402088115,0.00380089811486,0.134027241834,-1.61760696485
1385572935638307805,0.12356889548,-0.00265595729082,-0.37672200074,0.0036793990222,0.135976756721,-1.61756131532
1385572935648150504,0.128683289834,-0.00734880060222,-0.378137491701,0.00263216258466,0.136163417546,-1.61752890304
1385572935658181619,0.133508965442,-0.0117833555173,-0.379530951409,0.00110722908616,0.139926844729,-1.6172318758
1385572935668203652,0.138578784306,-0.0163995736236,-0.381081101084,-0.00108224005527,0.138752418006,-1.61677038793
