%time,field.header.seq,field.header.stamp,field.header.frame_id,field.child_frame_id,field.transform.translation.x,field.transform.translation.y,field.transform.translation.z,field.transform.rotation.x,field.transform.rotation.y,field.transform.rotation.z,field.transform.rotation.w
1385572925037114448,1005689,1385572925037114448,/world,vicon/Archie/Archie,-0.545073112907,-1.0685110255,0.103814956181,0.00692780961661,-0.000443946590056,0.575828248749,0.817541213828
1385572925046983578,1005690,1385572925046983578,/world,vicon/Archie/Archie,-0.545070465387,-1.06853423527,0.103700631619,0.00718490802054,-0.000642968165005,0.575805421755,0.817554940029
1385572925057039017,1005691,1385572925057039017,/world,vicon/Archie/Archie,-0.545103469797,-1.06853468262,0.103702035815,0.00723711790696,-0.000700447992397,0.575824795698,0.817540786846
1385572925067229803,1005692,1385572925067229803,/world,vicon/Archie/Archie,-0.54503314493,-1.06853802059,0.103792652571,0.0071312544477,-0.000468028111534,0.57584351418,0.817528698784
1385572925077101010,1005693,1385572925077101010,/world,vicon/Archie/Archie,-0.545062967226,-1.06851542338,0.103830424393,0.00690782707341,-0.000421340453098,0.575814326845,0.817551200475
1385572925087170152,1005694,1385572925087170152,/world,vicon/Archie/Archie,-0.545037101444,-1.06854126942,0.103777679261,0.0071300550124,-0.000475797676147,0.575840600643,0.817530756964
1385572925096983059,1005695,1385572925096983059,/world,vicon/Archie/Archie,-0.545046323016,-1.06853793301,0.103790494915,0.00715299351173,-0.000509526236183,0.575845689321,0.817526951946
1385572925107086132,1005696,1385572925107086132,/world,vicon/Archie/Archie,-0.545082608656,-1.06857503559,0.103746012942,0.00729091511553,-0.000761598119161,0.575822346937,0.817541978918
1385572925117110358,1005697,1385572925117110358,/world,vicon/Archie/Archie,-0.545037557334,-1.06854019838,0.103796801634,0.00714426936197,-0.000491959597985,0.57584266924,0.817529166253
1385572925127132360,1005698,1385572925127132360,/world,vicon/Archie/Archie,-0.545058826045,-1.06850266423,0.103732678263,0.00706629946948,-0.000442844841838,0.575838484259,0.817532819736
1385572925137150593,1005699,1385572925137150593,/world,vicon/Archie/Archie,-0.545046377321,-1.06853375947,0.103744489586,0.00718304431322,-0.000327531630227,0.575832940452,0.817535761473
1385572925147062832,1005700,1385572925147062832,/world,vicon/Archie/Archie,-0.545130071603,-1.0685097321,0.103735846826,0.00703730642264,-0.000656141526266,0.57582704791,0.817540981659
1385572925157109534,1005701,1385572925157109534,/world,vicon/Archie/Archie,-0.545049433024,-1.06853188336,0.103792904105,0.0071600807453,-0.000520799013687,0.575856373135,0.817519357282
1385572925166990597,1005702,1385572925166990597,/world,vicon/Archie/Archie,-0.545075726519,-1.0685143664,0.103828424031,0.0069543145813,-0.000481179380215,0.575841115117,0.817531905259
1385572925177124978,1005703,1385572925177124978,/world,vicon/Archie/Archie,-0.545055334629,-1.06853469449,0.103754188409,0.00718077037981,-0.000353046450841,0.57585457111,0.817520534804
1385572925187173410,1005704,1385572925187173410,/world,vicon/Archie/Archie,-0.545092716117,-1.06851145397,0.103803870871,0.00697214317073,-0.00027674657112,0.575834656478,0.817536397373
1385572925197028996,1005705,1385572925197028996,/world,vicon/Archie/Archie,-0.545104462441,-1.06850686273,0.103789980964,0.0069767465096,-0.000293673697247,0.575849349697,0.817526002777
1385572925207165453,1005706,1385572925207165453,/world,vicon/Archie/Archie,-0.545051594697,-1.0685365513,0.10380083212,0.00714161774541,-0.00049042181287,0.57584346522,0.81752862968
1385572925217068911,1005707,1385572925217068911,/world,vicon/Archie/Archie,-0.545050187028,-1.06853475641,0.103792944863,0.00715827331206,-0.000515513456365,0.575855370362,0.817520082808
1385572925227061305,1005708,1385572925227061305,/world,vicon/Archie/Archie,-0.545019335994,-1.06855825323,0.103751103167,0.0071986326234,-0.000660373793498,0.575870372956,0.817509056309
1385572925237088376,1005709,1385572925237088376,/world,vicon/Archie/Archie,-0.545063353845,-1.06849114815,0.10370248005,0.00713430579997,-0.00028014911266,0.575857937655,0.817518598466
1385572925247055307,1005710,1385572925247055307,/world,vicon/Archie/Archie,-0.545055648298,-1.06850209094,0.10373460144,0.00706433309901,-0.000410757251251,0.575838583021,0.817532783918
1385572925257215445,1005711,1385572925257215445,/world,vicon/Archie/Archie,-0.545077757906,-1.06851711466,0.103826895056,0.00691712656508,-0.000442578051657,0.575820844599,0.817546520028
1385572925266986057,1005712,1385572925266986057,/world,vicon/Archie/Archie,-0.545085796417,-1.0685069148,0.103816824265,0.00701900746198,-0.000357735742575,0.5758462601,0.817527791753
1385572925277049600,1005713,1385572925277049600,/world,vicon/Archie/Archie,-0.545079723624,-1.06850620283,0.103790868221,0.00697264174033,-0.000273130014878,0.575824662298,0.817543433682
1385572925287164269,1005714,1385572925287164269,/world,vicon/Archie/Archie,-0.545049993709,-1.06854050861,0.103784753206,0.00699992702069,-0.000593049842999,0.5758456946,0.817528216836
1385572925297063819,1005715,1385572925297063819,/world,vicon/Archie/Archie,-0.545143105134,-1.06854425117,0.10375840064,0.00713836159219,-0.000526028775799,0.575844368804,0.817527999523
1385572925307185909,1005716,1385572925307185909,/world,vicon/Archie/Archie,-0.545127166881,-1.0685485744,0.103785160878,0.00709048669855,-0.000682486575361,0.57582113722,0.817544663698
1385572925317063143,1005717,1385572925317063143,/world,vicon/Archie/Archie,-0.545115912164,-1.06854418288,0.103753220589,0.00708207383335,-0.000484251602982,0.575814967677,0.817549223429
1385572925327215694,1005718,1385572925327215694,/world,vicon/Archie/Archie,-0.545087229046,-1.0685046926,0.103795725388,0.00695615936793,-0.000268900780497,0.575835409905,0.81753600547
1385572925337121118,1005719,1385572925337121118,/world,vicon/Archie/Archie,-0.545094164586,-1.06852215289,0.103800250896,0.0071990102818,-0.000682101029753,0.575909641487,0.817481372162
1385572925347015310,1005720,1385572925347015310,/world,vicon/Archie/Archie,-0.545128913727,-1.06855218207,0.103797418671,0.00710121092495,-0.000691462197158,0.575821828455,0.817544076217
1385572925357092840,1005721,1385572925357092840,/world,vicon/Archie/Archie,-0.545126757956,-1.06854984348,0.103790167936,0.0070460200812,-0.000598136091722,0.575818510506,0.817546964274
1385572925367121527,1005722,1385572925367121527,/world,vicon/Archie/Archie,-0.545085341095,-1.06852114047,0.103811975503,0.00692758760424,-0.000400647905427,0.575821897591,0.817545711423
1385572925377191005,1005723,1385572925377191005,/world,vicon/Archie/Archie,-0.545084874049,-1.06850568039,0.103790634173,0.00697607113229,-0.000319980338015,0.575842824846,0.817530594607
1385572925387063983,1005724,1385572925387063983,/world,vicon/Archie/Archie,-0.545056981211,-1.06853463502,0.103794371541,0.00716693963802,-0.000533072707906,0.575846735281,0.81752607804
1385572925396900155,1005725,1385572925396900155,/world,vicon/Archie/Archie,-0.545074940675,-1.06851261927,0.103820372836,0.00692228080154,-0.00040649303854,0.575835772227,0.817535980991
1385572925407446901,1005726,1385572925407446901,/world,vicon/Archie/Archie,-0.545124049518,-1.0685429189,0.103747770181,0.00711161351545,-0.00049180359988,0.575817061285,0.817547487927
1385572925416997688,1005727,1385572925416997688,/world,vicon/Archie/Archie,-0.545081348908,-1.06851579336,0.103838941667,0.00695465885166,-0.000466768585601,0.575831143315,0.817538934386
1385572925427107496,1005728,1385572925427107496,/world,vicon/Archie/Archie,-0.545073930246,-1.06852349067,0.10383218492,0.00690553064371,-0.00039231826535,0.575820866019,0.817546628633
1385572925437206078,1005729,1385572925437206078,/world,vicon/Archie/Archie,-0.545077087659,-1.0685343395,0.103835912865,0.00728691454432,-0.000711342068848,0.575878382881,0.817502588986
1385572925447060184,1005730,1385572925447060184,/world,vicon/Archie/Archie,-0.545071906308,-1.06857478733,0.103737788865,0.00724333514616,-0.000652667599948,0.575808719981,0.817552093823
1385572925457158103,1005731,1385572925457158103,/world,vicon/Archie/Archie,-0.545095998374,-1.06851993444,0.103831925043,0.00698382683194,-0.000501224114642,0.575852516799,0.817523610566
1385572925467041927,1005732,1385572925467041927,/world,vicon/Archie/Archie,-0.54508920814,-1.0685131086,0.103829980897,0.00691146947668,-0.000386374494085,0.575805131242,0.817557663495
1385572925477112175,1005733,1385572925477112175,/world,vicon/Archie/Archie,-0.545064371183,-1.06853504497,0.103803974889,0.00701222390541,-0.00064702191815,0.575859642288,0.817518245951
1385572925487172283,1005734,1385572925487172283,/world,vicon/Archie/Archie,-0.545078458475,-1.06851816018,0.103834803455,0.0069873986756,-0.000478605327149,0.575841518107,0.817531340819
1385572925497114548,1005735,1385572925497114548,/world,vicon/Archie/Archie,-0.545059110413,-1.06853367194,0.103781089892,0.00720596252812,-0.000385342290761,0.575877735613,0.817503981177
1385572925507193425,1005736,1385572925507193425,/world,vicon/Archie/Archie,-0.545034663827,-1.06854372307,0.103791303076,0.00713342983704,-0.000476540699745,0.575836619592,0.817533531193
1385572925517318645,1005737,1385572925517318645,/world,vicon/Archie/Archie,-0.545080108609,-1.06851579985,0.103824253485,0.00692854389119,-0.000411462889059,0.575833698016,0.817537386428
1385572925527232258,1005738,1385572925527232258,/world,vicon/Archie/Archie,-0.545094636208,-1.06857639163,0.103749333011,0.00727142579816,-0.000731162964148,0.57583492842,0.817533318574
1385572925537260110,1005739,1385572925537260110,/world,vicon/Archie/Archie,-0.545046837261,-1.06853731129,0.103778733468,0.00712791043979,-0.000476753916546,0.575833406149,0.817535842616
1385572925547049340,1005740,1385572925547049340,/world,vicon/Archie/Archie,-0.545080381051,-1.06851650502,0.103828945883,0.00692076235771,-0.000435195394392,0.575827882688,0.817541536053
1385572925557180771,1005741,1385572925557180771,/world,vicon/Archie/Archie,-0.545113092833,-1.0685495243,0.103768655759,0.00701487808182,-0.000590915146444,0.575810482036,0.817552891917
1385572925567098470,1005742,1385572925567098470,/world,vicon/Archie/Archie,-0.545065864554,-1.06852714553,0.103752781798,0.00704599449226,-0.000454356698156,0.575876706664,0.817506064959
1385572925577270125,1005743,1385572925577270125,/world,vicon/Archie/Archie,-0.545049580041,-1.0685352574,0.103757246805,0.00718602701216,-0.00036528868336,0.575864467355,0.817513512315
1385572925587253670,1005744,1385572925587253670,/world,vicon/Archie/Archie,-0.545042338583,-1.06855716705,0.103749390011,0.00729973633648,-0.000560682935495,0.575900973701,0.817486677552
1385572925597124489,1005745,1385572925597124489,/world,vicon/Archie/Archie,-0.545076933163,-1.06851682038,0.103813774263,0.0069185125177,-0.000442167420784,0.575829226728,0.817540604691
1385572925607164840,1005746,1385572925607164840,/world,vicon/Archie/Archie,-0.545109168527,-1.06855261289,0.103798653326,0.00706761932289,-0.000651984634597,0.575816412326,0.817548214461
1385572925617017596,1005747,1385572925617017596,/world,vicon/Archie/Archie,-0.545052965213,-1.0685988213,0.103700196412,0.00732080662584,-0.000869595045821,0.575849372628,0.817522568275
1385572925627169438,1005748,1385572925627169438,/world,vicon/Archie/Archie,-0.54502588259,-1.06851644572,0.103700759498,0.00715621032382,-0.00059679214015,0.575874213916,0.817506771984
1385572925637161123,1005749,1385572925637161123,/world,vicon/Archie/Archie,-0.545029963652,-1.06854011277,0.103797826448,0.00716182329545,-0.000505251770903,0.575831362849,0.817536968319
1385572925647014760,1005750,1385572925647014760,/world,vicon/Archie/Archie,-0.54513357942,-1.06854177404,0.103743826417,0.00709617300008,-0.00046108571205,0.575831965707,0.817537142275
1385572925657994086,1005751,1385572925657994086,/world,vicon/Archie/Archie,-0.545075798805,-1.068573903,0.103741706667,0.00721914567966,-0.000654369755563,0.575813359236,0.817549038933
1385572925667009848,1005752,1385572925667009848,/world,vicon/Archie/Archie,-0.545074405872,-1.06851874875,0.103806334628,0.00692315048166,-0.000427516095836,0.575825834123,0.81754296277
1385572925677239890,1005753,1385572925677239890,/world,vicon/Archie/Archie,-0.545037518792,-1.06855595452,0.103769857025,0.00722381984731,-0.00069837316485,0.575883631589,0.817499462734
1385572925687285199,1005754,1385572925687285199,/world,vicon/Archie/Archie,-0.545045325117,-1.06853612023,0.10379919114,0.00716036785795,-0.000504871076494,0.575850014039,0.817523844037
1385572925697935373,1005755,1385572925697935373,/world,vicon/Archie/Archie,-0.545114950646,-1.06850292654,0.103839654222,0.00712338037643,-0.000492169291856,0.575867545634,0.817511825668
1385572925707192857,1005756,1385572925707192857,/world,vicon/Archie/Archie,-0.545102082144,-1.06857749744,0.10375602265,0.00728117041892,-0.000742481316169,0.575839367813,0.817530094709
1385572925717103026,1005757,1385572925717103026,/world,vicon/Archie/Archie,-0.54502766816,-1.06853745232,0.103784982418,0.00714512247197,-0.000478721400981,0.575835437316,0.817534260555
1385572925727158786,1005758,1385572925727158786,/world,vicon/Archie/Archie,-0.545130307597,-1.06853861383,0.103832962731,0.00717769276079,-0.000810399946172,0.575841039231,0.817529767969
1385572925737198312,1005759,1385572925737198312,/world,vicon/Archie/Archie,-0.545072823355,-1.06857232794,0.103733959562,0.00722802549351,-0.000652576941584,0.575819912721,0.817544346139
1385572925747096031,1005760,1385572925747096031,/world,vicon/Archie/Archie,-0.545068768428,-1.06851124712,0.103820903589,0.00691114284416,-0.000408777509542,0.575828360162,0.817541294761
1385572925757098463,1005761,1385572925757098463,/world,vicon/Archie/Archie,-0.545078891235,-1.06851606077,0.103810031706,0.00693349620948,-0.000428328517864,0.575824943024,0.817543502302
1385572925767030873,1005762,1385572925767030873,/world,vicon/Archie/Archie,-0.545082964011,-1.06851764883,0.103818475657,0.00693318133956,-0.000417612782474,0.575822578739,0.817545175761
1385572925777230018,1005763,1385572925777230018,/world,vicon/Archie/Archie,-0.545013445173,-1.06856097155,0.103761139238,0.00719987385812,-0.000647616153166,0.57585923104,0.817516904067
1385572925787136931,1005764,1385572925787136931,/world,vicon/Archie/Archie,-0.545074692327,-1.06853032692,0.103780746112,0.00709026649634,-0.000485344128531,0.57588317345,0.817501108928
1385572925797042566,1005765,1385572925797042566,/world,vicon/Archie/Archie,-0.54506596214,-1.06851826111,0.103828213186,0.00695571675218,-0.000454159287015,0.575821308769,0.817545859332
1385572925807234147,1005766,1385572925807234147,/world,vicon/Archie/Archie,-0.545082794506,-1.068517167,0.103819875834,0.00691591642569,-0.000428526645657,0.575827719995,0.817541695175
1385572925817076277,1005767,1385572925817076277,/world,vicon/Archie/Archie,-0.545060378394,-1.06853206274,0.103766334668,0.00719188982774,-0.000381269348343,0.575858021667,0.81751799383
1385572925827200656,1005768,1385572925827200656,/world,vicon/Archie/Archie,-0.545053816638,-1.06853364311,0.103752710054,0.00717163193124,-0.000352684228588,0.575851264568,0.817522944268
1385572925837209109,1005769,1385572925837209109,/world,vicon/Archie/Archie,-0.54508975086,-1.06851539962,0.1038223075,0.00692669220291,-0.000432140618498,0.575837913222,0.817534422447
1385572925847039322,1005770,1385572925847039322,/world,vicon/Archie/Archie,-0.545112225598,-1.0685334057,0.103702715764,0.00724252920285,-0.00067950074393,0.575825804762,0.817540045881
1385572925857131440,1005771,1385572925857131440,/world,vicon/Archie/Archie,-0.545090168313,-1.06850893948,0.103828330018,0.00697158349998,-0.000472801216475,0.57584629048,0.817528117696
1385572925867028598,1005772,1385572925867028598,/world,vicon/Archie/Archie,-0.545070557095,-1.06852454617,0.103839025354,0.00725507670269,-0.000658706092592,0.575877395808,0.817503611592
1385572925877167756,1005773,1385572925877167756,/world,vicon/Archie/Archie,-0.545033563164,-1.06854248483,0.103776410869,0.00711460690574,-0.000485325062641,0.575828264985,0.817539574622
1385572925887111467,1005774,1385572925887111467,/world,vicon/Archie/Archie,-0.545046338535,-1.06853978453,0.103782881229,0.00713342081073,-0.000470873885816,0.575841589895,0.817530033658
1385572925896965054,1005775,1385572925896965054,/world,vicon/Archie/Archie,-0.545076012683,-1.06851589437,0.103824843025,0.00696331447816,-0.000459821374107,0.575830826458,0.817539087822
1385572925907186941,1005776,1385572925907186941,/world,vicon/Archie/Archie,-0.545016954957,-1.06856561227,0.103761621648,0.00720977540369,-0.000654227884674,0.575865317557,0.817512524161
1385572925917019076,1005777,1385572925917019076,/world,vicon/Archie/Archie,-0.545051141703,-1.06853136204,0.103793548803,0.00700511464486,-0.000609680385895,0.575852525638,0.81752334852
1385572925927225036,1005778,1385572925927225036,/world,vicon/Archie/Archie,-0.545069221023,-1.06851886561,0.103820223199,0.00692592517421,-0.00042433068875,0.575819982453,0.817547062444
1385572925937177769,1005779,1385572925937177769,/world,vicon/Archie/Archie,-0.545090560912,-1.06850387764,0.103880504771,0.00706586133872,-0.00060726112829,0.575854504521,0.81752143364
1385572925947111286,1005780,1385572925947111286,/world,vicon/Archie/Archie,-0.545110282574,-1.06854992686,0.103770518902,0.0070334550613,-0.000609254978612,0.575810020553,0.817553043875
1385572925957227977,1005781,1385572925957227977,/world,vicon/Archie/Archie,-0.545066847485,-1.06851884705,0.103824576992,0.00692046842263,-0.000405660502279,0.575823041149,0.817544963802
1385572925968146618,1005782,1385572925968146618,/world,vicon/Archie/Archie,-0.545100953648,-1.0685609923,0.103736208592,0.00732119969323,-0.000601095626909,0.575845162976,0.817525771457
1385572925977150063,1005783,1385572925977150063,/world,vicon/Archie/Archie,-0.545081671584,-1.06850733997,0.103803023195,0.00703374479362,-0.000352798721854,0.57585627409,0.817520613537
1385572925987120820,1005784,1385572925987120820,/world,vicon/Archie/Archie,-0.545087320283,-1.06856909505,0.103706261103,0.00726918604364,-0.000526283727314,0.575829840799,0.817537079529
1385572925997061425,1005785,1385572925997061425,/world,vicon/Archie/Archie,-0.545082938913,-1.06851417655,0.103829483765,0.00695119545793,-0.000465662209017,0.575832878062,0.817537742605
1385572926007171541,1005786,1385572926007171541,/world,vicon/Archie/Archie,-0.545104259608,-1.06855191486,0.103764086952,0.00705644800909,-0.000622423082117,0.575802405218,0.817558199321
1385572926017054644,1005787,1385572926017054644,/world,vicon/Archie/Archie,-0.545037032324,-1.06853471934,0.103782606858,0.00711475580492,-0.000477414574766,0.575838631009,0.817532276649
1385572926027181255,1005788,1385572926027181255,/world,vicon/Archie/Archie,-0.545070662111,-1.06851680704,0.103820090041,0.00692263952172,-0.000431534023583,0.575826141624,0.817542748401
1385572926037146181,1005789,1385572926037146181,/world,vicon/Archie/Archie,-0.545122129123,-1.06854631888,0.103745929237,0.00711340567629,-0.000506418793545,0.575814550136,0.817549232066
1385572926047027757,1005790,1385572926047027757,/world,vicon/Archie/Archie,-0.545050175645,-1.06854253615,0.103790375844,0.00711833442102,-0.000490678689132,0.575837696363,0.817532895972
1385572926057210061,1005791,1385572926057210061,/world,vicon/Archie/Archie,-0.545027588245,-1.06854261987,0.103795779979,0.00714381166269,-0.000493592872268,0.575833542767,0.817535597602
1385572926067067348,1005792,1385572926067067348,/world,vicon/Archie/Archie,-0.545073906913,-1.06857737383,0.103762700008,0.00729110303277,-0.000772620017038,0.575829376351,0.817537015802
1385572926077104940,1005793,1385572926077104940,/world,vicon/Archie/Archie,-0.545030915444,-1.06854347479,0.103791739998,0.00714523651351,-0.000482412589436,0.575831078745,0.817537327358
1385572926087149575,1005794,1385572926087149575,/world,vicon/Archie/Archie,-0.54507792501,-1.068517834,0.103817807056,0.00692188362777,-0.000442589963417,0.575828268542,0.817541250818
1385572926096960607,1005795,1385572926096960607,/world,vicon/Archie/Archie,-0.545072889599,-1.06851435015,0.103837105833,0.00695898077847,-0.000469604616705,0.575823725053,0.817544120965
1385572926107135068,1005796,1385572926107135068,/world,vicon/Archie/Archie,-0.545079549777,-1.06857506264,0.103735877397,0.00722689753007,-0.000671614330431,0.57581950055,0.817544630997
1385572926117182403,1005797,1385572926117182403,/world,vicon/Archie/Archie,-0.545068869187,-1.06853234948,0.103793738527,0.00703157023728,-0.000622750445233,0.575869489826,0.817511161936
1385572926127182090,1005798,1385572926127182090,/world,vicon/Archie/Archie,-0.545047715085,-1.06853703475,0.103778339567,0.00712718473922,-0.000463677860669,0.575843957973,0.817528424158
1385572926137097260,1005799,1385572926137097260,/world,vicon/Archie/Archie,-0.545076686586,-1.06851684483,0.103815412844,0.00691834007289,-0.000411695564685,0.575825033574,0.817543575467
1385572926147077643,1005800,1385572926147077643,/world,vicon/Archie/Archie,-0.545071998389,-1.06851891099,0.1038213031,0.00691787377327,-0.000428097975318,0.575822814343,0.817545134067
1385572926157158362,1005801,1385572926157158362,/world,vicon/Archie/Archie,-0.545069763792,-1.0685143843,0.10381745903,0.0069065528011,-0.000432906482883,0.575826683759,0.817542501887
1385572926167029488,1005802,1385572926167029488,/world,vicon/Archie/Archie,-0.545058440519,-1.06858630377,0.103681080898,0.00738654063451,-0.000746924982182,0.575866704845,0.817509889464
1385572926177446456,1005803,1385572926177446456,/world,vicon/Archie/Archie,-0.545064357208,-1.06851723749,0.10381955407,0.0069143950578,-0.000444175283958,0.575812567337,0.817552372112
1385572926187155739,1005804,1385572926187155739,/world,vicon/Archie/Archie,-0.545080557104,-1.06850736343,0.103793071343,0.0069923557847,-0.000279795329696,0.575835799488,0.817535418623
1385572926197001679,1005805,1385572926197001679,/world,vicon/Archie/Archie,-0.545030087723,-1.06854391195,0.103792188596,0.00712563599353,-0.000484421339045,0.575835147887,0.817534631135
1385572926207076042,1005806,1385572926207076042,/world,vicon/Archie/Archie,-0.545068248041,-1.06857624721,0.103762949589,0.00728445292222,-0.000759342228028,0.575832936318,0.817534580062
1385572926216988321,1005807,1385572926216988321,/world,vicon/Archie/Archie,-0.545049809375,-1.06854012833,0.103791036184,0.00715511936394,-0.00051591744567,0.575850419608,0.817523597417
1385572926227119545,1005808,1385572926227119545,/world,vicon/Archie/Archie,-0.545024126698,-1.06854653735,0.103722509122,0.00724525314519,-0.000523748891214,0.575873504235,0.817506537658
1385572926237155702,1005809,1385572926237155702,/world,vicon/Archie/Archie,-0.545038751768,-1.06854012525,0.103785099486,0.00710891956468,-0.000477764347955,0.575831872949,0.817537087293
1385572926246995010,1005810,1385572926246995010,/world,vicon/Archie/Archie,-0.54508422739,-1.06851637131,0.103836132528,0.00696823288964,-0.000471076776608,0.575849784176,0.817525686374
1385572926257189608,1005811,1385572926257189608,/world,vicon/Archie/Archie,-0.545044651527,-1.06853805997,0.10377992002,0.00713085237628,-0.000479847962378,0.57583041097,0.817537924804
1385572926267037718,1005812,1385572926267037718,/world,vicon/Archie/Archie,-0.545087282611,-1.06858029389,0.103762189402,0.00725605592777,-0.000705962044803,0.575827512978,0.817538700349
1385572926277101051,1005813,1385572926277101051,/world,vicon/Archie/Archie,-0.545075057113,-1.06850780623,0.10378481705,0.0069694450886,-0.000296091127439,0.575826442217,0.817542199283
1385572926287208954,1005814,1385572926287208954,/world,vicon/Archie/Archie,-0.545076815997,-1.06857188611,0.103741661313,0.00722781298572,-0.000654066161217,0.575806410453,0.817553856696
1385572926297036490,1005815,1385572926297036490,/world,vicon/Archie/Archie,-0.545080221168,-1.06851674482,0.103810811859,0.00691137254288,-0.000432346299434,0.575819938405,0.817547212423
1385572926307117815,1005816,1385572926307117815,/world,vicon/Archie/Archie,-0.545033194837,-1.06854968477,0.103734197511,0.00726324169922,-0.000604052006892,0.575887141759,0.817496715833
1385572926317077950,1005817,1385572926317077950,/world,vicon/Archie/Archie,-0.545098046411,-1.06850491027,0.103810684436,0.00703797878857,-0.000361036951066,0.575847460055,0.817526781981
1385572926327120882,1005818,1385572926327120882,/world,vicon/Archie/Archie,-0.545050239151,-1.06853029192,0.103798264531,0.00715510704188,-0.000504580384335,0.575848663943,0.81752484126
1385572926337171469,1005819,1385572926337171469,/world,vicon/Archie/Archie,-0.54503582347,-1.06853632748,0.103783578566,0.00712396191992,-0.000451169879441,0.575824516105,0.817542153203
1385572926346998423,1005820,1385572926346998423,/world,vicon/Archie/Archie,-0.545089636821,-1.06850990298,0.103840599977,0.00693229025932,-0.000443506027575,0.57583363623,0.817537381433
1385572926357078732,1005821,1385572926357078732,/world,vicon/Archie/Archie,-0.54505497083,-1.06858987882,0.103682957317,0.00739275947263,-0.000757387822243,0.575870805198,0.817506935256
1385572926366977083,1005822,1385572926366977083,/world,vicon/Archie/Archie,-0.545037561587,-1.06853516038,0.103799965392,0.0071773369284,-0.000557284289249,0.575844727998,0.81752738456
1385572926377130161,1005823,1385572926377130161,/world,vicon/Archie/Archie,-0.545075444482,-1.0685170318,0.103815188887,0.0069044972081,-0.000414383980964,0.575813622648,0.817551728135
1385572926387366414,1005824,1385572926387366414,/world,vicon/Archie/Archie,-0.545053733572,-1.06851949057,0.10382225702,0.00693627100628,-0.000416158618261,0.575815896559,0.817549856723
1385572926397072319,1005825,1385572926397072319,/world,vicon/Archie/Archie,-0.545079106695,-1.0685691993,0.103751161689,0.00721243658943,-0.000679738611652,0.575818008143,0.817545803128
1385572926407091205,1005826,1385572926407091205,/world,vicon/Archie/Archie,-0.545097477875,-1.06856733948,0.103733823567,0.00712623749887,-0.000808599326379,0.575850341372,0.817523667699
1385572926417043354,1005827,1385572926417043354,/world,vicon/Archie/Archie,-0.545060448775,-1.06848171115,0.103701588765,0.00713270683354,-0.000295717550063,0.575851616822,0.817523059276
1385572926427291518,1005828,1385572926427291518,/world,vicon/Archie/Archie,-0.545097560185,-1.06847912878,0.103784531758,0.00722076081212,-0.000617529338871,0.57587160281,0.817508028308
1385572926437128737,1005829,1385572926437128737,/world,vicon/Archie/Archie,-0.545055861452,-1.06850058264,0.103802114384,0.00692084799427,-0.000398262295877,0.575817623277,0.81754878018
1385572926447015471,1005830,1385572926447015471,/world,vicon/Archie/Archie,-0.545145707903,-1.06850136404,0.103734712779,0.00704366892416,-0.000623779187961,0.575824903807,0.817542462373
1385572926457187183,1005831,1385572926457187183,/world,vicon/Archie/Archie,-0.545113475948,-1.06849958355,0.103802892159,0.00701605082785,-0.000341675781439,0.575846135157,0.817527912008
1385572926467038196,1005832,1385572926467038196,/world,vicon/Archie/Archie,-0.545127524836,-1.06853121261,0.103736037076,0.00710789759519,-0.000489876711982,0.57580854691,0.817553518198
1385572926477130800,1005833,1385572926477130800,/world,vicon/Archie/Archie,-0.545058907843,-1.06850574522,0.103821668452,0.0069371674631,-0.000425752448072,0.575829438671,0.817540306042
1385572926487140357,1005834,1385572926487140357,/world,vicon/Archie/Archie,-0.545125794591,-1.06853756225,0.103782090989,0.00707194276266,-0.000653949695944,0.575809453281,0.817553076863
1385572926497035047,1005835,1385572926497035047,/world,vicon/Archie/Archie,-0.545038728601,-1.06852906686,0.103782310389,0.00712522467563,-0.000482811626179,0.575820157,0.817545194383
1385572926507144747,1005836,1385572926507144747,/world,vicon/Archie/Archie,-0.545058827763,-1.06849634986,0.103739313984,0.00708059971696,-0.000436525769412,0.575842899454,0.817529589496
1385572926517036000,1005837,1385572926517036000,/world,vicon/Archie/Archie,-0.545103566814,-1.06845943185,0.10377600702,0.00687170024323,-0.000328668538255,0.575812160247,0.817553073399
1385572926527138592,1005838,1385572926527138592,/world,vicon/Archie/Archie,-0.54506382375,-1.06853748242,0.103794518778,0.00716840306878,-0.000534030422578,0.575858108127,0.817518053692
1385572926537117161,1005839,1385572926537117161,/world,vicon/Archie/Archie,-0.545071591328,-1.0685081679,0.103824365138,0.00692351663557,-0.000379177131608,0.575800746329,0.817560653205
1385572926546996479,1005840,1385572926546996479,/world,vicon/Archie/Archie,-0.545092864253,-1.06856218567,0.103743850615,0.00710564952988,-0.000749610581969,0.575835871979,0.817534094929
1385572926557121954,1005841,1385572926557121954,/world,vicon/Archie/Archie,-0.545087772884,-1.06856770013,0.103754411366,0.00728920204968,-0.000764810559044,0.575829628788,0.817536862293
1385572926567441895,1005842,1385572926567441895,/world,vicon/Archie/Archie,-0.545078369373,-1.06852342348,0.103812973855,0.00701688909017,-0.000592236497557,0.575857554517,0.817519718068
1385572926577154590,1005843,1385572926577154590,/world,vicon/Archie/Archie,-0.545049843028,-1.06853068941,0.103791792791,0.00715670553444,-0.000515568435262,0.57585061777,0.817523444171
1385572926587099352,1005844,1385572926587099352,/world,vicon/Archie/Archie,-0.54503565242,-1.06853442434,0.103783846677,0.00715132506113,-0.000509127594725,0.575820887899,0.817544435733
1385572926597053132,1005845,1385572926597053132,/world,vicon/Archie/Archie,-0.545044711991,-1.06853175552,0.103805962713,0.0071700382886,-0.000542710526094,0.575842459527,0.817529056256
1385572926607097801,1005846,1385572926607097801,/world,vicon/Archie/Archie,-0.545047799144,-1.06853657178,0.103802710072,0.00718015171642,-0.000520957795222,0.575842698456,0.817528813351
1385572926617093062,1005847,1385572926617093062,/world,vicon/Archie/Archie,-0.545074042137,-1.06856930985,0.103739982684,0.00724443215482,-0.00069007138256,0.575815657721,0.817547167035
1385572926627134049,1005848,1385572926627134049,/world,vicon/Archie/Archie,-0.545113670007,-1.06855884967,0.103790786152,0.00739218421446,-0.000889793115781,0.575856736135,0.817516717461
1385572926637182323,1005849,1385572926637182323,/world,vicon/Archie/Archie,-0.545062399215,-1.06853067016,0.103800541226,0.00714666212604,-0.000492666845866,0.5758373922,0.817532861874
1385572926647187953,1005850,1385572926647187953,/world,vicon/Archie/Archie,-0.545101414405,-1.06850665574,0.103841410375,0.00694797224131,-0.000420478127044,0.575828817678,0.817540654409
1385572926657097293,1005851,1385572926657097293,/world,vicon/Archie/Archie,-0.545091563849,-1.06850801985,0.103832245693,0.0069516561937,-0.000446621726219,0.575820508192,0.817546461891
1385572926667045072,1005852,1385572926667045072,/world,vicon/Archie/Archie,-0.545158694929,-1.06849357419,0.10371437979,0.00706997671549,-0.00047104540677,0.575849420526,0.817525068989
1385572926677197128,1005853,1385572926677197128,/world,vicon/Archie/Archie,-0.545047228977,-1.06853284072,0.103798556797,0.00700501037194,-0.000560591821352,0.575854911471,0.817521703994
1385572926687161630,1005854,1385572926687161630,/world,vicon/Archie/Archie,-0.545102660521,-1.06855016142,0.103796530696,0.0070394945313,-0.000598983697103,0.575798919107,0.817560818221
1385572926697050659,1005855,1385572926697050659,/world,vicon/Archie/Archie,-0.545055015669,-1.0685275865,0.103786483521,0.00698659317353,-0.000584091819007,0.575863218355,0.817515993787
1385572926707200511,1005856,1385572926707200511,/world,vicon/Archie/Archie,-0.545023191796,-1.06855351987,0.103753746061,0.00717492673305,-0.00061486195467,0.575875919246,0.817505393256
1385572926717035391,1005857,1385572926717035391,/world,vicon/Archie/Archie,-0.545084397567,-1.06851029857,0.103818020565,0.00690110735452,-0.000424648882677,0.575823264496,0.81754496051
1385572926727141920,1005858,1385572926727141920,/world,vicon/Archie/Archie,-0.545052396198,-1.0685353637,0.103781192935,0.00713120187151,-0.000507734778317,0.575844699876,0.817527840376
1385572926737244112,1005859,1385572926737244112,/world,vicon/Archie/Archie,-0.545052032933,-1.06853785741,0.103790217915,0.0071578098125,-0.000528077528433,0.575843250843,0.817528615616
1385572926746997372,1005860,1385572926746997372,/world,vicon/Archie/Archie,-0.545028040101,-1.06854524574,0.103792769975,0.00713586258392,-0.000478468681779,0.575832483799,0.817536421901
1385572926757091728,1005861,1385572926757091728,/world,vicon/Archie/Archie,-0.545053606034,-1.06853324293,0.103795428546,0.00716090919693,-0.000522157358567,0.575847023857,0.817525934663
1385572926767065610,1005862,1385572926767065610,/world,vicon/Archie/Archie,-0.545048359482,-1.06854472738,0.103781685184,0.00713786695057,-0.000482627092601,0.575839328751,0.817531580668
1385572926777143763,1005863,1385572926777143763,/world,vicon/Archie/Archie,-0.545047790374,-1.06853494892,0.103792565027,0.00715976860013,-0.000510740277683,0.57584580865,0.817526807829
1385572926787100407,1005864,1385572926787100407,/world,vicon/Archie/Archie,-0.545089144341,-1.06851190241,0.103825869394,0.00688785084354,-0.000381468664601,0.575809586801,0.817554727061
1385572926797026348,1005865,1385572926797026348,/world,vicon/Archie/Archie,-0.545047016773,-1.06854236253,0.103806078598,0.00716941873144,-0.000524961820479,0.575848074638,0.817525118138
1385572926807137966,1005866,1385572926807137966,/world,vicon/Archie/Archie,-0.545091633076,-1.06857759607,0.10374232582,0.00724847050484,-0.000714839679346,0.575824347913,0.817540989205
1385572926817120979,1005867,1385572926817120979,/world,vicon/Archie/Archie,-0.545055735062,-1.06854502142,0.103811519283,0.00717473768925,-0.000537226180834,0.575849027028,0.817524392662
1385572926827129489,1005868,1385572926827129489,/world,vicon/Archie/Archie,-0.545075683023,-1.06857547974,0.103750026038,0.00723157256591,-0.00066752671035,0.575810852888,0.817550683727
1385572926837120461,1005869,1385572926837120461,/world,vicon/Archie/Archie,-0.545036048543,-1.06855001528,0.103721320949,0.0072535528058,-0.00050542161776,0.575882830445,0.817499905883
1385572926847027858,1005870,1385572926847027858,/world,vicon/Archie/Archie,-0.545117279967,-1.06854590743,0.103805457013,0.00705418468022,-0.000598186015095,0.575813829987,0.817550190415
1385572926857120242,1005871,1385572926857120242,/world,vicon/Archie/Archie,-0.545094150194,-1.06846517385,0.103759031134,0.00691314433229,-0.000241731872178,0.575855044311,0.817522548889
1385572926867077247,1005872,1385572926867077247,/world,vicon/Archie/Archie,-0.545046085711,-1.06854055463,0.103806540114,0.007172732695,-0.000558082273281,0.57585408202,0.817520835619
1385572926877182107,1005873,1385572926877182107,/world,vicon/Archie/Archie,-0.545082208646,-1.06851750313,0.103828130369,0.00693058092597,-0.000418095154231,0.575818632434,0.817547977055
1385572926887145891,1005874,1385572926887145891,/world,vicon/Archie/Archie,-0.545122970402,-1.0685485017,0.103756965923,0.00709936031422,-0.00049626180528,0.575831229545,0.817537612522
1385572926897029279,1005875,1385572926897029279,/world,vicon/Archie/Archie,-0.545084891412,-1.06851775323,0.10382672454,0.00693535671059,-0.000443384692601,0.575827377719,0.817541763646
1385572926907156108,1005876,1385572926907156108,/world,vicon/Archie/Archie,-0.545088627143,-1.0685792782,0.103738723161,0.0072653192459,-0.00070602303795,0.575815901434,0.817546796412
1385572926917108952,1005877,1385572926917108952,/world,vicon/Archie/Archie,-0.545058916257,-1.06854154094,0.10379551843,0.00717810213129,-0.000546059929186,0.575845947829,0.817526526198
1385572926927119922,1005878,1385572926927119922,/world,vicon/Archie/Archie,-0.545093409886,-1.0685096818,0.103794910979,0.00698498721864,-0.000288709916646,0.575843377667,0.817530140727
1385572926937169101,1005879,1385572926937169101,/world,vicon/Archie/Archie,-0.54502969367,-1.0685497252,0.103739371267,0.00730085965062,-0.000596528474956,0.575888732702,0.817495265521
1385572926947212487,1005880,1385572926947212487,/world,vicon/Archie/Archie,-0.545061200338,-1.06853146905,0.103754423769,0.00717267756349,-0.000342284050267,0.575855125571,0.817520219867
1385572926957212834,1005881,1385572926957212834,/world,vicon/Archie/Archie,-0.545059615631,-1.06854167478,0.103796986768,0.00717150167665,-0.000561012520117,0.575842933807,0.817528696997
1385572926967007197,1005882,1385572926967007197,/world,vicon/Archie/Archie,-0.545043421818,-1.06854235776,0.103793044253,0.00712074498744,-0.000481656121323,0.575837302884,0.817533157496
1385572926977195271,1005883,1385572926977195271,/world,vicon/Archie/Archie,-0.545084831218,-1.06856986975,0.103743511217,0.00726095964949,-0.000703838160128,0.575828482962,0.81753797544
1385572926987166784,1005884,1385572926987166784,/world,vicon/Archie/Archie,-0.545072331294,-1.06852106155,0.103820854153,0.00692760640236,-0.000445723754401,0.575814896565,0.817550618918
1385572926997046557,1005885,1385572926997046557,/world,vicon/Archie/Archie,-0.545010664238,-1.06855833011,0.103765667832,0.0072037058285,-0.000665326896701,0.575872887926,0.817507236001
1385572927007435389,1005886,1385572927007435389,/world,vicon/Archie/Archie,-0.545119963574,-1.06855461071,0.103785861507,0.00703637486607,-0.000653334775838,0.575803635738,0.817557481559
1385572927017151187,1005887,1385572927017151187,/world,vicon/Archie/Archie,-0.545114703722,-1.06854909843,0.103782847825,0.00703036164394,-0.000594607184771,0.575805151877,0.817556510297
1385572927027161028,1005888,1385572927027161028,/world,vicon/Archie/Archie,-0.545042662013,-1.06853979609,0.10380453255,0.00718082265637,-0.000546950079237,0.575851981269,0.817522251868
1385572927037891059,1005889,1385572927037891059,/world,vicon/Archie/Archie,-0.545076402288,-1.06852822908,0.103776741038,0.00721834435297,-0.000390283595178,0.575863335939,0.817514013033
1385572927047082502,1005890,1385572927047082502,/world,vicon/Archie/Archie,-0.545067410257,-1.06859278833,0.103715463358,0.00735337693695,-0.000931305775203,0.575861661419,0.817513551829
1385572927057149067,1005891,1385572927057149067,/world,vicon/Archie/Archie,-0.545078830987,-1.06857124304,0.103741712001,0.00723819050083,-0.000662274729798,0.575803875776,0.817555543454
1385572927067167885,1005892,1385572927067167885,/world,vicon/Archie/Archie,-0.545041284039,-1.06853878486,0.103804081666,0.00714227333353,-0.000519068910446,0.575831032652,0.817537363265
1385572927077163207,1005893,1385572927077163207,/world,vicon/Archie/Archie,-0.545063883406,-1.06852869132,0.103758528803,0.00717547110764,-0.00031242439343,0.575853426645,0.817521404017
1385572927087143488,1005894,1385572927087143488,/world,vicon/Archie/Archie,-0.545085565281,-1.06856707893,0.103753162571,0.00723988473725,-0.000669266884117,0.575821952828,0.817542790802
1385572927097206350,1005895,1385572927097206350,/world,vicon/Archie/Archie,-0.54505592026,-1.06859061176,0.103711736798,0.00731929324715,-0.000864345905971,0.57586297847,0.817513003493
1385572927107175459,1005896,1385572927107175459,/world,vicon/Archie/Archie,-0.545089905845,-1.06857028394,0.103756504541,0.00727374063128,-0.000729977934663,0.575828084508,0.817538119553
1385572927117077821,1005897,1385572927117077821,/world,vicon/Archie/Archie,-0.545062819056,-1.0685263085,0.103779950911,0.00703093914253,-0.000428335850198,0.575856782205,0.817520243671
1385572927127265461,1005898,1385572927127265461,/world,vicon/Archie/Archie,-0.545056321645,-1.06852927418,0.103831824676,0.0072807738256,-0.000675976847297,0.575864321312,0.817512579003
1385572927137167229,1005899,1385572927137167229,/world,vicon/Archie/Archie,-0.545042056942,-1.0685307046,0.103747480573,0.00716696747662,-0.000335244640552,0.575846799682,0.817526137493
1385572927147024057,1005900,1385572927147024057,/world,vicon/Archie/Archie,-0.545052835228,-1.06853475394,0.103794844914,0.00717832861756,-0.000526250587162,0.575852102241,0.817522202147
1385572927157111528,1005901,1385572927157111528,/world,vicon/Archie/Archie,-0.545067013935,-1.06852442342,0.103764392733,0.00720458648242,-0.000388393186809,0.575861452241,0.817515462182
1385572927167144026,1005902,1385572927167144026,/world,vicon/Archie/Archie,-0.545045724675,-1.06853973684,0.103785317576,0.00713981556248,-0.000479032500408,0.575845433018,0.81752726611
1385572927177148978,1005903,1385572927177148978,/world,vicon/Archie/Archie,-0.545053768158,-1.06854057523,0.103810117131,0.00715509202943,-0.000534251151437,0.575852637297,0.817522023772
1385572927187146245,1005904,1385572927187146245,/world,vicon/Archie/Archie,-0.545116565609,-1.0685125345,0.103808220828,0.00703502775659,-0.000363842149325,0.575852068049,0.81752356035
1385572927197059987,1005905,1385572927197059987,/world,vicon/Archie/Archie,-0.545114366016,-1.06853102102,0.10369688615,0.00721031990422,-0.00068180882384,0.57581118294,0.817550627194
1385572927207187460,1005906,1385572927207187460,/world,vicon/Archie/Archie,-0.5450888918,-1.06857283233,0.103745204188,0.00721494852172,-0.000685235231991,0.575817890564,0.817545859189
1385572927217289000,1005907,1385572927217289000,/world,vicon/Archie/Archie,-0.545131884037,-1.06853889961,0.103752526434,0.00709893331246,-0.000468911607403,0.575818757608,0.817546416819
1385572927227177132,1005908,1385572927227177132,/world,vicon/Archie/Archie,-0.545064847578,-1.06852875494,0.103808732977,0.00704439545566,-0.000618707718028,0.575871667877,0.81750952033
1385572927237200315,1005909,1385572927237200315,/world,vicon/Archie/Archie,-0.545080166715,-1.06858526127,0.10367826411,0.00735632591231,-0.000744016241964,0.575860497415,0.817514537134
1385572927247057832,1005910,1385572927247057832,/world,vicon/Archie/Archie,-0.545076310469,-1.0685277206,0.103775500874,0.0072207757444,-0.000436320519495,0.575874631459,0.817506011515
1385572927257178797,1005911,1385572927257178797,/world,vicon/Archie/Archie,-0.545047347581,-1.06849917242,0.103737572192,0.00707811705494,-0.000433694297409,0.575835777808,0.817534628725
1385572927267492986,1005912,1385572927267492986,/world,vicon/Archie/Archie,-0.545078712857,-1.06853046266,0.103768396252,0.00722385242335,-0.000411482881584,0.575872585137,0.817507438697
1385572927277182753,1005913,1385572927277182753,/world,vicon/Archie/Archie,-0.545016689768,-1.06852103703,0.103722356589,0.00720971198715,-0.000652282814262,0.575871345087,0.817508280379
1385572927287214979,1005914,1385572927287214979,/world,vicon/Archie/Archie,-0.545113841425,-1.06856668051,0.103787759406,0.00738645785878,-0.000880563845904,0.57585074203,0.817521001413
1385572927296983742,1005915,1385572927296983742,/world,vicon/Archie/Archie,-0.545044300966,-1.06853722749,0.103803625043,0.00716747298048,-0.000544711368176,0.575836573498,0.817533223327
1385572927307220044,1005916,1385572927307220044,/world,vicon/Archie/Archie,-0.545038401858,-1.06854168019,0.103789184047,0.00713167435501,-0.00050138621212,0.575833689083,0.817535595769
1385572927317068996,1005917,1385572927317068996,/world,vicon/Archie/Archie,-0.545098424464,-1.06856258383,0.103716177136,0.00726895449359,-0.000513889919698,0.575837038302,0.817532019885
1385572927328352320,1005918,1385572927328352320,/world,vicon/Archie/Archie,-0.545077570628,-1.06857240145,0.10375217311,0.00724987240432,-0.000681409202394,0.575820141186,0.817543968259
1385572927337160808,1005919,1385572927337160808,/world,vicon/Archie/Archie,-0.545068307918,-1.06859935859,0.103717015664,0.0073391795547,-0.000915269830787,0.575865553674,0.817510955777
1385572927347081148,1005920,1385572927347081148,/world,vicon/Archie/Archie,-0.545118671157,-1.06856608272,0.103723625797,0.0073310507724,-0.000642818038957,0.575853261837,0.817519946736
1385572927357134360,1005921,1385572927357134360,/world,vicon/Archie/Archie,-0.54511339326,-1.06852222885,0.103668549764,0.00727209131877,-0.000545981201522,0.575837560498,0.817531603372
1385572927367068752,1005922,1385572927367068752,/world,vicon/Archie/Archie,-0.545094071435,-1.06857179561,0.103764406406,0.00727394265652,-0.00073987589135,0.575823448467,0.817541374205
1385572927377132777,1005923,1385572927377132777,/world,vicon/Archie/Archie,-0.545047924074,-1.06852946732,0.103791445013,0.00701351134217,-0.000580329394082,0.575851702256,0.817523877869
1385572927387696395,1005924,1385572927387696395,/world,vicon/Archie/Archie,-0.545107113921,-1.06850459942,0.103799558893,0.00703413639268,-0.0003510943919,0.575867078846,0.817512999994
1385572927397072395,1005925,1385572927397072395,/world,vicon/Archie/Archie,-0.545092826178,-1.06857132786,0.10374831668,0.00728387592216,-0.000739874759144,0.575825104472,0.817540119381
1385572927407176693,1005926,1385572927407176693,/world,vicon/Archie/Archie,-0.545087688105,-1.06854530123,0.103766840685,0.00701723469736,-0.000569964405434,0.575799137702,0.817560876375
1385572927417108928,1005927,1385572927417108928,/world,vicon/Archie/Archie,-0.545038125809,-1.06853693332,0.103775258996,0.00712738436896,-0.000443452271105,0.575836013586,0.817534029383
1385572927427145437,1005928,1385572927427145437,/world,vicon/Archie/Archie,-0.545112611945,-1.06856481603,0.103724165664,0.00723769240868,-0.000732259940381,0.575867015226,0.817511015448
1385572927437207430,1005929,1385572927437207430,/world,vicon/Archie/Archie,-0.545033596901,-1.06855959747,0.103765387794,0.00722389635189,-0.000728467656796,0.575882084916,0.817500525339
1385572927447153076,1005930,1385572927447153076,/world,vicon/Archie/Archie,-0.54507746632,-1.06856974426,0.10373364118,0.00724367957831,-0.000687856285262,0.575820332815,0.817543882784
1385572927457181748,1005931,1385572927457181748,/world,vicon/Archie/Archie,-0.545026049237,-1.06855516626,0.103765772906,0.00723786657657,-0.000686026609786,0.575878834228,0.817502728401
1385572927467448623,1005932,1385572927467448623,/world,vicon/Archie/Archie,-0.545045458267,-1.06853918582,0.103800857001,0.00716465602168,-0.00052372627288,0.575843244575,0.81752856286
1385572927477150368,1005933,1385572927477150368,/world,vicon/Archie/Archie,-0.545059045451,-1.06853446914,0.103800270168,0.00705192036286,-0.00064660183079,0.575871200287,0.817509763248
1385572927487181622,1005934,1385572927487181622,/world,vicon/Archie/Archie,-0.5450540101,-1.06854127041,0.10379113553,0.00716910507091,-0.000518580379505,0.575849378865,0.817524206288
1385572927497048733,1005935,1385572927497048733,/world,vicon/Archie/Archie,-0.545069948597,-1.06856376732,0.103718318945,0.00728118592598,-0.000509228466061,0.575824853229,0.817540496503
1385572927507206488,1005936,1385572927507206488,/world,vicon/Archie/Archie,-0.545036179601,-1.06853445232,0.103795525289,0.00717402933362,-0.000532923938618,0.575839308592,0.817531247094
1385572927516968323,1005937,1385572927516968323,/world,vicon/Archie/Archie,-0.545092621211,-1.06857455555,0.103738226049,0.00714683626061,-0.000798291350614,0.57583023202,0.817537662346
1385572927527152442,1005938,1385572927527152442,/world,vicon/Archie/Archie,-0.545057761487,-1.06859513742,0.103697125458,0.00732395428193,-0.000856628479545,0.575849643466,0.817522362997
1385572927537175099,1005939,1385572927537175099,/world,vicon/Archie/Archie,-0.545031209213,-1.06855229467,0.103741117427,0.00728336032626,-0.000562743350671,0.575884644876,0.817498325245
1385572927547011022,1005940,1385572927547011022,/world,vicon/Archie/Archie,-0.545051324772,-1.06859453276,0.103715597667,0.00737636365652,-0.000969327869678,0.57586423127,0.817511490321
1385572927557348654,1005941,1385572927557348654,/world,vicon/Archie/Archie,-0.545047354943,-1.06854654091,0.103799933244,0.0072048103103,-0.000558717127327,0.575853030195,0.817521294009
1385572927567072649,1005942,1385572927567072649,/world,vicon/Archie/Archie,-0.545072214706,-1.06857870358,0.103748706992,0.00714055124686,-0.000804021025564,0.575838075219,0.81753218726
1385572927577222593,1005943,1385572927577222593,/world,vicon/Archie/Archie,-0.54507763436,-1.06857321044,0.103733287437,0.00723150481732,-0.000680611923289,0.575814976259,0.817547769382
1385572927587176326,1005944,1385572927587176326,/world,vicon/Archie/Archie,-0.545059790354,-1.06851877657,0.103826089651,0.0069220872858,-0.000421992835907,0.575824551192,0.817543878256
1385572927597182505,1005945,1385572927597182505,/world,vicon/Archie/Archie,-0.545081829153,-1.06856959411,0.103754813013,0.00727691163947,-0.000726992570511,0.575820468329,0.817543458351
1385572927607146302,1005946,1385572927607146302,/world,vicon/Archie/Archie,-0.545072866475,-1.06857961195,0.103759005183,0.00725824861747,-0.000681656313068,0.57582259508,0.817542165376
1385572927617101791,1005947,1385572927617101791,/world,vicon/Archie/Archie,-0.545068993631,-1.06857440357,0.103732821725,0.00723491205225,-0.000659742507257,0.575814360473,0.817548190054
1385572927627200335,1005948,1385572927627200335,/world,vicon/Archie/Archie,-0.545118882219,-1.06854398029,0.103740826699,0.00710103308821,-0.000467965808196,0.575813586293,0.817550041391
1385572927637225005,1005949,1385572927637225005,/world,vicon/Archie/Archie,-0.545073329681,-1.0685741323,0.10374873313,0.00722720686294,-0.000664182243681,0.575820115012,0.817544201551
1385572927647053865,1005950,1385572927647053865,/world,vicon/Archie/Archie,-0.545028173697,-1.06855964178,0.1037479692,0.00720300398126,-0.000654323913453,0.575869132767,0.817509896283
1385572927657187036,1005951,1385572927657187036,/world,vicon/Archie/Archie,-0.545074210422,-1.06858695077,0.103687853977,0.00739532168104,-0.000792233667437,0.575875853805,0.817503322677
1385572927667207147,1005952,1385572927667207147,/world,vicon/Archie/Archie,-0.545067915143,-1.06857272905,0.103745355535,0.00724081700458,-0.0006526490723,0.575822490081,0.817542417576
1385572927677119162,1005953,1385572927677119162,/world,vicon/Archie/Archie,-0.545090948128,-1.0685756549,0.103733745605,0.00713454833885,-0.000788546508098,0.575843767818,0.817528245065
1385572927687175552,1005954,1385572927687175552,/world,vicon/Archie/Archie,-0.545038106896,-1.06850168083,0.103723267554,0.00709967687398,-0.000482253746442,0.575831229881,0.817537617919
1385572927697469581,1005955,1385572927697469581,/world,vicon/Archie/Archie,-0.545021702079,-1.06852704558,0.1037035122,0.00718319374005,-0.000637259341306,0.575878509933,0.817503478541
1385572927707214260,1005956,1385572927707214260,/world,vicon/Archie/Archie,-0.545039511448,-1.06854111629,0.103772404231,0.0071423356377,-0.000498343812173,0.57583829494,0.817532260388
1385572927717392412,1005957,1385572927717392412,/world,vicon/Archie/Archie,-0.545068661227,-1.06853562058,0.103825470173,0.00728233997712,-0.000695255642533,0.575869376503,0.817508987932
1385572927727273321,1005958,1385572927727273321,/world,vicon/Archie/Archie,-0.545030684908,-1.06854594626,0.10379966803,0.00715021814121,-0.00052390953684,0.575838176733,0.817532258762
1385572927737200453,1005959,1385572927737200453,/world,vicon/Archie/Archie,-0.54507220842,-1.06857529225,0.103749508609,0.0072410484317,-0.000686769579328,0.575812644703,0.817549321916
1385572927747073126,1005960,1385572927747073126,/world,vicon/Archie/Archie,-0.545019929959,-1.0685599058,0.10376310001,0.00725433253151,-0.000697853020915,0.57587884573,0.817502564339
1385572927757149271,1005961,1385572927757149271,/world,vicon/Archie/Archie,-0.545076417443,-1.06857529549,0.103747206279,0.0072358180369,-0.000688763574502,0.575821187549,0.817543349622
1385572927767107041,1005962,1385572927767107041,/world,vicon/Archie/Archie,-0.545133501948,-1.06854002087,0.103829347412,0.00717940378354,-0.000822123130952,0.575836710582,0.817532790181
1385572927777117103,1005963,1385572927777117103,/world,vicon/Archie/Archie,-0.545076916791,-1.06858724313,0.103687509138,0.00740556444057,-0.000803357182513,0.575886776534,0.817495524664
1385572927787220426,1005964,1385572927787220426,/world,vicon/Archie/Archie,-0.54508446724,-1.068567289,0.103715404433,0.00728972655276,-0.000550180403329,0.575827808021,0.817538312679
1385572927797108614,1005965,1385572927797108614,/world,vicon/Archie/Archie,-0.545048264584,-1.06853742763,0.103794448382,0.00716392165013,-0.000545416961102,0.575852866584,0.817521777566
1385572927807136412,1005966,1385572927807136412,/world,vicon/Archie/Archie,-0.545039410075,-1.06853702448,0.103781079028,0.00711927128233,-0.000488985422095,0.575841501574,0.817530208576
1385572927817014845,1005967,1385572927817014845,/world,vicon/Archie/Archie,-0.545051562241,-1.06853377609,0.103748376561,0.0071764312849,-0.000352168085006,0.57584689021,0.817525983592
1385572927827124815,1005968,1385572927827124815,/world,vicon/Archie/Archie,-0.545049143555,-1.06850090671,0.103758273886,0.0071242335987,-0.000479137727764,0.575838903084,0.817532001464
1385572927837183880,1005969,1385572927837183880,/world,vicon/Archie/Archie,-0.545078415407,-1.06857672635,0.103738082237,0.00723279266538,-0.000679398054068,0.575816328309,0.817546806722
1385572927847030081,1005970,1385572927847030081,/world,vicon/Archie/Archie,-0.545110008958,-1.06854336512,0.103777658542,0.00707133538679,-0.000669280655226,0.575817033424,0.817547730899
1385572927857155763,1005971,1385572927857155763,/world,vicon/Archie/Archie,-0.545041240683,-1.06855362346,0.103737917093,0.00727300202983,-0.000584991128818,0.575897344939,0.817489455173
1385572927867092967,1005972,1385572927867092967,/world,vicon/Archie/Archie,-0.545004621388,-1.06855974822,0.103751537026,0.0071967392474,-0.000632652133568,0.575850864076,0.817522837013
1385572927877239449,1005973,1385572927877239449,/world,vicon/Archie/Archie,-0.545103498392,-1.06856451489,0.103801173734,0.00738147732484,-0.000892625574781,0.575858042665,0.8175158908
1385572927887153362,1005974,1385572927887153362,/world,vicon/Archie/Archie,-0.545049106493,-1.06853947178,0.103791354157,0.00715771685314,-0.000545477555747,0.57584971725,0.817524050219
1385572927896989634,1005975,1385572927896989634,/world,vicon/Archie/Archie,-0.545080563851,-1.06856885766,0.103735154505,0.00712579899702,-0.000816233415883,0.575847874768,0.817525401365
1385572927907140000,1005976,1385572927907140000,/world,vicon/Archie/Archie,-0.545046697045,-1.06854139522,0.103776028388,0.00712252033015,-0.000483791984926,0.575837849985,0.817532755414
1385572927917050274,1005977,1385572927917050274,/world,vicon/Archie/Archie,-0.545049360498,-1.06853411249,0.103772128107,0.0072415893759,-0.000428430653144,0.575852117468,0.817521690622
1385572927927127784,1005978,1385572927927127784,/world,vicon/Archie/Archie,-0.545047636306,-1.06853479401,0.103758626375,0.00718490090091,-0.000357390079594,0.57585646678,0.817519161328
1385572927937147369,1005979,1385572927937147369,/world,vicon/Archie/Archie,-0.545033849012,-1.06853651714,0.103781963805,0.00712352052779,-0.000493494041043,0.575828041665,0.817539649406
1385572927947071356,1005980,1385572927947071356,/world,vicon/Archie/Archie,-0.545070243913,-1.0685207762,0.103809430539,0.00692085786173,-0.0004196583063,0.575827217277,0.817542012043
1385572927957150168,1005981,1385572927957150168,/world,vicon/Archie/Archie,-0.545070510902,-1.06857389309,0.103738590766,0.00726146323383,-0.00066854095894,0.57581331136,0.817548686419
1385572927967078271,1005982,1385572927967078271,/world,vicon/Archie/Archie,-0.545064731224,-1.06853841747,0.10376619959,0.00719973103354,-0.000410571848135,0.575861911387,0.817515170696
1385572927977220253,1005983,1385572927977220253,/world,vicon/Archie/Archie,-0.545007997393,-1.0685594592,0.103745048359,0.00718331148444,-0.000630806167669,0.575867397216,0.81751131059
1385572927987205241,1005984,1385572927987205241,/world,vicon/Archie/Archie,-0.545002115036,-1.06856209725,0.103765635691,0.00721261887085,-0.000668376189752,0.575860557434,0.817515840699
1385572927997100923,1005985,1385572927997100923,/world,vicon/Archie/Archie,-0.545055325712,-1.06850214524,0.103744443103,0.00711168730496,-0.000511395802624,0.57585263927,0.817522415732
1385572928007257390,1005986,1385572928007257390,/world,vicon/Archie/Archie,-0.545060327376,-1.06852425317,0.103768973956,0.00703083062616,-0.00041088845031,0.575874910328,0.817507483908
1385572928017743480,1005987,1385572928017743480,/world,vicon/Archie/Archie,-0.54507230829,-1.06857985686,0.103750892675,0.00728931734791,-0.000714156095905,0.575819814088,0.817543819949
1385572928027252731,1005988,1385572928027252731,/world,vicon/Archie/Archie,-0.545064387606,-1.06857004143,0.103738579591,0.00722323890835,-0.000692416872743,0.575816335028,0.817546875533
1385572928037216160,1005989,1385572928037216160,/world,vicon/Archie/Archie,-0.545078391674,-1.06856681081,0.103746761549,0.0072763205583,-0.000719753183564,0.575831768804,0.817535510636
1385572928047083215,1005990,1385572928047083215,/world,vicon/Archie/Archie,-0.545113102277,-1.06856238343,0.103720360467,0.00729789384472,-0.000585790579822,0.575846794633,0.817524841644
1385572928057241803,1005991,1385572928057241803,/world,vicon/Archie/Archie,-0.545042679808,-1.06854509846,0.103781157871,0.0071332693576,-0.000520541564984,0.575841435645,0.817530113512
1385572928067053768,1005992,1385572928067053768,/world,vicon/Archie/Archie,-0.545041750238,-1.06854357111,0.103776885397,0.00711792875006,-0.000485383451263,0.575839293933,0.817531777398
1385572928077186068,1005993,1385572928077186068,/world,vicon/Archie/Archie,-0.545061332226,-1.06859683583,0.103697219428,0.00732928477594,-0.000874289926768,0.575849563842,0.817522352615
1385572928087175128,1005994,1385572928087175128,/world,vicon/Archie/Archie,-0.545084929299,-1.06851548668,0.103822984889,0.0069494983787,-0.000489230596816,0.575833740679,0.817537135683
1385572928096939422,1005995,1385572928096939422,/world,vicon/Archie/Archie,-0.545098270441,-1.06856265793,0.103729201697,0.0072220575682,-0.000731871623003,0.575864982972,0.817512585613
1385572928107182657,1005996,1385572928107182657,/world,vicon/Archie/Archie,-0.545091067113,-1.06856571906,0.103724312235,0.0073291110466,-0.000593366995528,0.575841174294,0.817528515732
1385572928117027808,1005997,1385572928117027808,/world,vicon/Archie/Archie,-0.545062277151,-1.06852885871,0.103763080192,0.00721876882966,-0.000415175046273,0.575859433354,0.81751674602
1385572928127176991,1005998,1385572928127176991,/world,vicon/Archie/Archie,-0.545045042957,-1.06853880267,0.103786998322,0.0071712105291,-0.00053445366355,0.575847561934,0.81752545741
1385572928137161443,1005999,1385572928137161443,/world,vicon/Archie/Archie,-0.545099755289,-1.06856308454,0.103714525362,0.00731027301149,-0.000601093961873,0.575838071185,0.817530864474
1385572928147010758,1006000,1385572928147010758,/world,vicon/Archie/Archie,-0.545075146442,-1.06857227759,0.103736958763,0.00724237721036,-0.00064859911461,0.575816796961,0.817546416804
1385572928157143570,1006001,1385572928157143570,/world,vicon/Archie/Archie,-0.545043739819,-1.06854321103,0.103785445718,0.00717129747035,-0.000534467894868,0.575849799025,0.817523880874
1385572928167154085,1006002,1385572928167154085,/world,vicon/Archie/Archie,-0.545038130152,-1.06854138429,0.103800537377,0.00718631741291,-0.000539310559508,0.575834715193,0.817534370387
1385572928177184706,1006003,1385572928177184706,/world,vicon/Archie/Archie,-0.545048917543,-1.06853952893,0.10379853832,0.00716645812605,-0.000550812458943,0.575855218884,0.817520094779
1385572928187182701,1006004,1385572928187182701,/world,vicon/Archie/Archie,-0.545037334995,-1.06854017553,0.103778218122,0.00714456011607,-0.000490764297106,0.575833390874,0.81753569975
1385572928197092990,1006005,1385572928197092990,/world,vicon/Archie/Archie,-0.545074931647,-1.06851825492,0.103815299965,0.00693320124014,-0.000445632724798,0.575826713539,0.817542248515
1385572928207208348,1006006,1385572928207208348,/world,vicon/Archie/Archie,-0.545117582433,-1.06854970898,0.103786897537,0.00706630841009,-0.000666868227647,0.57581863395,0.817546649047
1385572928217129339,1006007,1385572928217129339,/world,vicon/Archie/Archie,-0.545069152872,-1.06851694466,0.103814837045,0.0069194431873,-0.000438885612763,0.575815963352,0.817549940392
1385572928227165890,1006008,1385572928227165890,/world,vicon/Archie/Archie,-0.545087887718,-1.06846669159,0.103753051507,0.0069631422329,-0.000305710922551,0.575845350081,0.817528931586
