%time,field.linear.x,field.linear.y,field.linear.z,field.angular.x,field.angular.y,field.angular.z
1385571778585457916,-0.0,0.0,0.0,1.0,0.0,0.0
1385571779074745910,-0.0,0.0,8.54614469758e-08,1.0,0.0,0.283690762114
1385571779574552648,0.128075545913,-0.400273274507,-0.00211484368255,1.0,0.0,0.088811821423
1385571780074608825,0.0342214559357,-0.104848754609,0.0210914631718,1.0,0.0,0.0194137619652
1385571780574558191,-0.0410241351382,0.128491453288,0.0443032315876,1.0,0.0,0.0171912333716
1385571781074677580,-0.0276134114098,0.0621372538821,0.0705921696928,1.0,0.0,0.0188374144042
1385571781574607174,0.0207144867561,-0.101918309556,0.0992639608887,1.0,0.0,0.0144677137254
1385571782074578780,-0.0140070224013,-0.0769977684103,0.13821824434,1.0,0.0,-0.00554995873873
1385571782574644584,-0.0312109338814,0.0431160474639,0.101277489347,1.0,0.0,-0.0138182541129
1385571783074643943,-0.041605405594,0.103527716318,0.0844984862353,1.0,0.0,-0.0170956180733
1385571783574657776,-0.0490211096946,0.120304317207,0.118192280619,1.0,0.0,-0.0205330215347
1385571784074775766,-0.062924246032,0.16914702494,0.142920514595,1.0,0.0,-0.0196626237397
1385571784574546549,-0.0878737171129,0.205194880949,0.14397408305,1.0,0.0,-0.0165276850935
1385571785074521430,-0.0791738354767,0.173697106024,0.152235983253,1.0,0.0,-0.0135760889291
1385571785574679100,-0.0340824398937,0.119173522878,0.133139014652,1.0,0.0,-0.0118750476804
1385571786074681194,0.00552932567015,0.0622100766888,0.128226517107,1.0,0.0,-0.0088065884602
1385571786574655988,0.0184146721702,0.0231500791591,0.112969340069,1.0,0.0,-0.00394722047777
1385571787074604166,0.0210682610042,0.00626645276793,0.0838305928497,1.0,0.0,0.000884328607633
1385571787574559325,0.027650837498,0.00708453148711,0.0633301584183,1.0,0.0,0.00419157520574
1385571788074544849,0.00499977029708,0.0159254472622,0.0362182858412,1.0,0.0,0.00874740003692
1385571788574685842,-0.0394757014744,0.0432277408479,0.0191453480878,1.0,0.0,0.0166144033217
1385571789074796193,-0.0640012272662,0.0808806176663,0.00783385116308,1.0,0.0,0.0261206070199
1385571789574676668,-0.0553684015468,0.100808049425,0.00445393122172,1.0,0.0,0.0338681013904
1385571790074540503,-0.0263655723718,0.0932118221107,0.00467465737499,1.0,0.0,0.0362950560917
1385571790574674414,-0.00270621607825,0.0774773564937,0.0103118860645,1.0,0.0,0.03536558799
1385571791074602922,0.0132674302548,0.0575728947021,0.0188426941714,1.0,0.0,0.0338038830038
1385571791574574491,0.0228624773587,0.0276202766662,0.0202302454846,1.0,0.0,0.0326240306053
1385571792074573201,0.00820025506924,0.00455795351955,0.0164901211955,1.0,0.0,0.0351585087562
1385571792574732973,-0.0244636120242,0.0114458685571,0.0105865081974,1.0,0.0,0.0426128410517
1385571793074575516,-0.0483548463075,0.0331981095249,0.00568798579507,1.0,0.0,0.0526724175025
1385571793574661581,-0.0622370729373,0.0429197410958,0.000207545341011,1.0,0.0,0.0631007551223
1385571794074785087,-0.0636221221939,0.0506896253574,-0.000165715515937,1.0,0.0,0.0705316456578
1385571794574645020,-0.0567445725295,0.0578715467302,0.00342446050743,1.0,0.0,0.0755177400228
1385571795075524492,-0.0375710672812,0.0519535806883,0.00297876008464,1.0,0.0,0.078220318383
1385571795574653466,-0.0101781433986,0.0416686543548,0.00372814361598,1.0,0.0,0.077641800458
1385571796074575986,0.00642061375165,0.0387138880895,0.0080871176989,1.0,0.0,0.0741451471381
1385571796574539530,0.00778866759138,0.0384791652545,0.0114749008951,1.0,0.0,0.0690429035146
1385571797074708736,0.00117882683076,0.0282232779249,0.00764082715828,1.0,0.0,0.0656661161096
1385571797574540982,-0.0182526941169,0.0246361739395,0.0038402556272,1.0,0.0,0.0682308592965
1385571798074576228,-0.0383510636062,0.0345561298172,0.00564135955482,1.0,0.0,0.0770878869278
1385571798574559849,-0.0420569425425,0.0367966712973,0.00486239615334,1.0,0.0,0.0897850126789
1385571799074631095,-0.0351339259592,0.0279019362131,0.000449879802629,1.0,0.0,0.103867118408
1385571799574660054,-0.0362323101357,0.0221335018208,-0.00448950209912,1.0,0.0,0.118935709689
1385571800074727317,-0.0384079873373,0.0279693860347,-0.00914974192126,1.0,0.0,0.132390784252
1385571800574705347,-0.0336325293852,0.0321172205439,-0.0141728801325,1.0,0.0,0.143211711501
1385571801074643459,-0.0286036512156,0.0355797633292,-0.0167349334819,1.0,0.0,0.15125938111
1385571801574649361,-0.0258811077425,0.0492024551722,-0.0167301137204,1.0,0.0,0.156265203451
1385571802074648370,-0.0219966500352,0.0609428537243,-0.0162590639593,1.0,0.0,0.157464567492
1385571802574648491,-0.0146610473095,0.0547980851404,-0.0129927383078,1.0,0.0,0.155009314301
1385571803074630540,-0.0091454304388,0.0346316869512,-0.0100005253015,1.0,0.0,0.150623744564
1385571803574571550,-0.0147379579392,0.0183947975059,-0.00664486066845,1.0,0.0,0.146318323238
1385571804074548880,-0.0269388711916,0.0222755453324,-0.00144544775735,1.0,0.0,0.141502697666
1385571804574618985,-0.0383684236177,0.037716779815,0.00476428960526,1.0,0.0,0.136088258335
1385571805074626047,-0.0376210950436,0.0538307139389,0.0117820867393,1.0,0.0,0.128487236905
1385571805574533538,-0.0185675370211,0.0653754815268,0.0201501073448,1.0,0.0,0.118049232002
1385571806074612965,0.0106805831674,0.0564428072373,0.0236022559232,1.0,0.0,0.106135168468
1385571806574725172,0.0255875517434,0.0252162055116,0.0212095302055,1.0,0.0,0.095348629725
1385571807074582106,0.00989840824275,-0.0011440087126,0.0174799399269,1.0,0.0,0.0892050760075
1385571807574542783,-0.0207839065515,-0.0118649803194,0.0153426755322,1.0,0.0,0.090014334414
1385571808074543668,-0.0305689583334,-0.0142402317553,0.0163702575789,1.0,0.0,0.0943974920557
1385571808574625459,-0.0170925082175,0.00178424958197,0.0242947306828,1.0,0.0,0.0962767572111
1385571809074517847,-0.00897586828651,0.0213649986812,0.0281767923218,1.0,0.0,0.0966018597028
1385571809574666618,-0.00929151765607,0.0308074507159,0.0250680940295,1.0,0.0,0.0959480402848
1385571810074620216,-0.00607917155706,0.0275960929115,0.0172342862886,1.0,0.0,0.0951322967951
1385571810574513339,0.00210627417715,0.0191116045441,0.00566428859716,1.0,0.0,0.0949673135829
1385571811074766892,0.00252664876128,0.0108355387974,-0.00285144157948,1.0,0.0,0.0941052316724
1385571811574629002,-0.00446642603868,0.0025008107886,-0.00727238716608,1.0,0.0,0.0940022063173
1385571812074601345,-0.00337114126212,-0.00148114395777,-0.0101708847318,1.0,0.0,0.0940788159508
1385571812574683360,-0.0017139223856,-0.00312132122687,-0.0123216167411,1.0,0.0,0.0940309592939
1385571813074569092,-0.0100054501744,-0.0066922862139,-0.014110872908,1.0,0.0,0.0932693833323
1385571813574603991,-0.0216690615103,-0.0126748966531,-0.0148028168958,1.0,0.0,0.0941582657467
1385571814074724979,-0.029912096982,-0.0172303418152,-0.0149792098176,1.0,0.0,0.0939114606828
1385571814574541368,-0.0345651781574,-0.0160579353226,-0.0171312508955,1.0,0.0,0.0915029386717
1385571815074505745,-0.0466116756873,-0.0184648708957,-0.0209333155282,1.0,0.0,0.0859530178914
1385571815574746080,-0.059171443657,-0.0194777598876,-0.0218036705087,1.0,0.0,0.0784935626315
1385571816075405101,-0.0528538296936,-0.0157032670953,-0.0192491653221,1.0,0.0,0.0696812707753
1385571816574573110,-0.0346952119693,-0.0117166133283,-0.0145246554269,1.0,0.0,0.0612802504385
1385571817074781706,-0.0221462713144,-0.0123854219421,-0.00874373136735,1.0,0.0,0.0540163044297
1385571817574570882,-0.0136642882358,-0.0172099289506,-0.00424778186516,1.0,0.0,0.0479118181115
1385571818074653178,-0.0058391473984,-0.0236622780473,-0.00392867477598,1.0,0.0,0.041670326015
1385571818574551914,-0.002510572083,-0.0321677077575,-0.00703142455012,1.0,0.0,0.0353313394157
1385571819074809435,-0.0106752748866,-0.0438258357641,-0.00788468105589,1.0,0.0,0.0302593472418
1385571819574857347,-0.0254581516677,-0.0430702978459,-0.00411291839323,1.0,0.0,0.0252301409685
1385571820074614170,-0.0292011388579,-0.027078448236,0.00431510844107,1.0,0.0,0.0198506304619
1385571820574704280,-0.0153684737191,0.000141104586234,0.0115406982614,1.0,0.0,0.0153764060147
1385571821074704431,-0.0013968581998,0.0214831947673,0.0143868126299,1.0,0.0,0.0128697155402
1385571821574806268,0.0152447388539,0.0321817250434,0.0192856197447,1.0,0.0,0.0150503305423
1385571822074687678,0.0553799353165,0.0498666461483,0.0247849077558,1.0,0.0,0.0245343159191
1385571822574550021,0.0836446851655,0.057721147761,0.0206604639557,1.0,0.0,0.0464233813934
1385571823074620641,0.0683807780523,0.0161576955115,0.000223000003558,1.0,0.0,0.0760010825654
1385571823574609342,0.0447278315672,-0.0474008079511,-0.0168148716393,1.0,0.0,0.10222587213
1385571824075219013,0.0389791840012,-0.0957150819585,-0.0259212817609,1.0,0.0,0.118539321823
1385571824574551886,0.000757180615928,-0.112579548453,-0.0115512101956,1.0,0.0,0.122471967402
1385571825074611908,-0.0769891073719,-0.0451732669489,0.0113415817947,1.0,0.0,0.122799497956
1385571825574828240,-0.0754029480142,0.0994652052219,0.0369685523066,1.0,0.0,0.122512910064
1385571826074626768,-0.000748921696534,0.194681375742,0.0349912071298,1.0,0.0,0.121897132882
1385571826574659184,0.0528243093299,0.186418336111,0.00710358918898,1.0,0.0,0.111665754638
1385571827074611087,0.106966929569,0.101748107579,-0.00415973737837,1.0,0.0,0.0928147026513
1385571827574597787,0.157657015079,0.00219179717969,0.00109593897046,1.0,0.0,0.0719591535354
1385571828074721642,0.14689212606,-0.114428703268,0.00117776301137,1.0,0.0,0.0507769340555
1385571828574590133,0.0564076594508,-0.206822392616,-0.00381263015534,1.0,0.0,0.032306487244
1385571829074544928,-0.0385508600678,-0.218942511384,0.00513073694342,1.0,0.0,0.0197697680856
1385571829574557094,-0.109382270806,-0.166348835076,0.0216562154247,1.0,0.0,0.0125384750453
1385571830074525262,-0.154875005576,-0.0631576253592,0.0361225397748,1.0,0.0,0.0079810614468
1385571830574537585,-0.147751905304,0.0498724787067,0.0376686785331,1.0,0.0,0.00504157041283
1385571831074625235,-0.102531158874,0.12484375775,0.0323900775826,1.0,0.0,0.0026340269695
1385571831574956975,-0.0399154594547,0.160044499466,0.0170124797558,1.0,0.0,-0.000315173055568
1385571832074842321,0.0271431738472,0.148291924353,0.00426505298253,1.0,0.0,-0.00142947764319
1385571832574526770,0.0736042176654,0.0869652382087,-0.00480754849307,1.0,0.0,-0.00105336036534
1385571833074608249,0.0952269821257,0.0178560650332,-0.0147002813743,1.0,0.0,0.000484520583964
1385571833574780492,0.0861063104858,-0.0381001462592,-0.0198075412642,1.0,0.0,0.00518664860849
1385571834074655513,0.0562201879026,-0.0888341283719,-0.0227552433398,1.0,0.0,0.0108750153125
1385571834574672602,0.0207692041109,-0.112619064042,-0.0249413592506,1.0,0.0,0.0224306900891
1385571835074498446,-0.0215669347558,-0.110520834906,-0.0270948821104,1.0,0.0,0.035692290046
1385571835574676163,-0.0874198966027,-0.0855138344889,-0.0103056665879,1.0,0.0,0.0421566993752
1385571836074721961,-0.133010165414,0.0184623611948,0.0143020808207,1.0,0.0,0.0480038349351
1385571836574715969,-0.0835633337423,0.150767845242,0.0273770349346,1.0,0.0,0.0534574014652
1385571837074774028,0.00385213781379,0.212840287279,0.0144786273778,1.0,0.0,0.0553481684173
1385571837574675850,0.0690717509611,0.182678029049,0.00466240894872,1.0,0.0,0.0495692512951
1385571838074981416,0.116879446368,0.0966242436543,-0.00172437356202,1.0,0.0,0.0432026022761
1385571838574663454,0.141616295738,-0.000312197093898,-0.000489053507659,1.0,0.0,0.0388843326942
1385571839074667618,0.118200935686,-0.101925680386,-0.00389844026336,1.0,0.0,0.034504643065
1385571839574581420,0.0398694424127,-0.181765829368,-0.00748235826715,1.0,0.0,0.0297817970113
1385571840074705159,-0.0554958941438,-0.188822387751,-0.00525864392327,1.0,0.0,0.0260127305334
1385571840574458970,-0.124169406697,-0.129032550852,0.00501704475362,1.0,0.0,0.0237993607725
1385571841074751389,-0.149272659641,-0.0341120060119,0.0172954808683,1.0,0.0,0.0209974004191
1385571841574613569,-0.1317967314,0.0597164794892,0.0218134542595,1.0,0.0,0.0175262003464
1385571842074810227,-0.0970896372726,0.131875183443,0.0180676687015,1.0,0.0,0.0131890870595
1385571842575608266,-0.0258937756724,0.158625803159,0.00887980960252,1.0,0.0,0.00855555574568
1385571843074766667,0.0489917747251,0.137514850785,0.000323462790736,1.0,0.0,0.00643739823467
1385571843574756880,0.0919539221222,0.0865716617601,-0.00679929112964,1.0,0.0,0.00671286619545
1385571844074586523,0.10208904624,0.0310785726768,-0.0126618407867,1.0,0.0,0.010082939293
1385571844574924343,0.085991448902,-0.0291670375737,-0.0164723625514,1.0,0.0,0.0187356198675
1385571845074831396,0.043484501164,-0.10690256952,-0.0182142126517,1.0,0.0,0.0307127655784
1385571845574543358,-0.0104706969425,-0.15056996179,-0.0208911179512,1.0,0.0,0.0379807504222
1385571846074744434,-0.0753163881098,-0.114169810806,-0.00864861864851,1.0,0.0,0.0395520971525
1385571846575072403,-0.129932984205,-0.00988739800624,0.00525594322989,1.0,0.0,0.0412286856381
1385571847074668922,-0.120927525968,0.0941373608,0.0112328435009,1.0,0.0,0.0397645490294
1385571847574644010,-0.0567502936688,0.172099080982,0.0083919868653,1.0,0.0,0.0353228733145
1385571848075017260,0.0225316889975,0.20565779153,0.00466384247203,1.0,0.0,0.031300456827
1385571848574911300,0.0991350138749,0.178404202011,0.00305055064559,1.0,0.0,0.0279697464761
1385571849074834090,0.147101491252,0.07033034591,0.000987964403186,1.0,0.0,0.0270483581634
1385571849574683985,0.147776198797,-0.0573456915521,-0.00620280334352,1.0,0.0,0.0251366631135
1385571850074681520,0.0948989025313,-0.133615798772,-0.00513971681887,1.0,0.0,0.0236138348606
1385571850574730232,0.0128256100248,-0.157655233896,-0.00248212834065,1.0,0.0,0.0226934196097
1385571851074610345,-0.0690386865439,-0.145469568434,-0.000877140344162,1.0,0.0,0.0218664406841
1385571851574746600,-0.113818609105,-0.0865829829506,0.0083863414072,1.0,0.0,0.0215206616125
1385571852074744618,-0.120155738991,0.0165402702127,0.0107694993695,1.0,0.0,0.0228294892115
1385571852574549614,-0.107430654113,0.109538754343,0.00550916570081,1.0,0.0,0.0227560744987
1385571853074592558,-0.0702468890617,0.161209000021,-0.00231869462663,1.0,0.0,0.0186274629245
1385571853574748805,-0.00393230196724,0.159381888347,-0.00881930983337,1.0,0.0,0.013560028301
1385571854074736823,0.0529521359978,0.122564942286,-0.00917589696583,1.0,0.0,0.0101332026983
1385571854575238604,0.0772314793786,0.0590665485522,-0.016800355452,1.0,0.0,0.010329599648
1385571855074988933,0.0560591466429,0.0021110316712,-0.019874052629,1.0,0.0,0.017910415991
1385571855574899085,0.031924834645,-0.0537176691511,-0.0147270332939,1.0,0.0,0.0358145218417
1385571856074597802,0.0136078351597,-0.123995320991,-0.0182208983075,1.0,0.0,0.0545013982942
1385571856574637037,-0.00528676624553,-0.162962637459,-0.0183589851866,1.0,0.0,0.0613186534404
1385571857074708245,-0.08189088361,-0.0927826006159,0.00625764209765,1.0,0.0,0.0628384243867
1385571857574686876,-0.11814190727,0.0273331460754,0.0183065809972,1.0,0.0,0.0630836372657
1385571858074753990,-0.0901399819282,0.115042635228,0.0119676205549,1.0,0.0,0.0584154197707
1385571858574672010,-0.0501067674214,0.171278820544,0.0168612912381,1.0,0.0,0.0539959067584
1385571859074605845,0.00358802887293,0.20487996719,0.0115663083169,1.0,0.0,0.0519632178823
1385571859574629207,0.0856260557481,0.17270668101,0.0157222382017,1.0,0.0,0.0471159183038
1385571860074552519,0.151181927539,0.0414053070328,0.00998270586799,1.0,0.0,0.0411214387447
1385571860574649613,0.145719906614,-0.0958456204075,0.00288021241789,1.0,0.0,0.0335180028333
1385571861074730191,0.0732323814677,-0.161342479231,0.0024431473896,1.0,0.0,0.026849646507
1385571861574691179,-0.012892142356,-0.172212234038,-0.000821823040865,1.0,0.0,0.0209827435477
1385571862074696760,-0.0877046294946,-0.149454650545,0.00309171267464,1.0,0.0,0.0145071001448
1385571862574524132,-0.124621971507,-0.0758192797382,0.0116896963497,1.0,0.0,0.0117125054951
1385571863074897712,-0.118173480504,0.0269523478245,0.0110827267386,1.0,0.0,0.0118252233253
1385571863574666535,-0.0953731143912,0.110085572764,0.0027138144129,1.0,0.0,0.00830749168303
1385571864074636753,-0.0512282460413,0.139989689071,-0.00512101848012,1.0,0.0,0.00287033020568
1385571864574567368,0.00297228730802,0.136233024682,-0.0110335566954,1.0,0.0,-0.000881761433966
1385571865074617832,0.0372941632329,0.107482922891,-0.0125636141494,1.0,0.0,0.00110279833005
1385571865574710113,0.0309670209025,0.0565540794973,-0.0200083846563,1.0,0.0,0.0135809130523
1385571866074654334,0.0234109246965,-0.00713809195893,-0.0144895270825,1.0,0.0,0.0345859962113
1385571866575271879,0.0223804735728,-0.097409123298,-0.0165091578197,1.0,0.0,0.0567601149818
1385571867074656814,0.0206993497573,-0.141493868791,-0.0212929905093,1.0,0.0,0.0685882367742
1385571867574684711,-0.0455574461297,-0.0983628140963,-0.00781172407661,1.0,0.0,0.0707526343524
1385571868074662517,-0.0973654887037,-0.0102370605188,0.0065048344488,1.0,0.0,0.0704854746089
1385571868574672940,-0.086548473694,0.0754493788846,0.00953877261026,1.0,0.0,0.0649367892507
1385571869074686753,-0.0633285833115,0.152546422813,0.00981503702238,1.0,0.0,0.0576581046277
1385571869574604231,-0.037640651017,0.180666773031,0.0233923901785,1.0,0.0,0.0652718711774
1385571870074636179,0.0333113300208,0.151559799859,0.00779553819616,1.0,0.0,0.0720412624288
1385571870574546334,0.120017991694,0.0594325806581,0.0045346131641,1.0,0.0,0.072852330083
1385571871074613473,0.123474598769,-0.0754189902229,0.00648153681515,1.0,0.0,0.0710134172831
1385571871574582481,0.0637002859953,-0.175116618682,-0.00694367101496,1.0,0.0,0.0652359823622
1385571872074688932,-0.000197973922271,-0.18158838865,-0.00792199986269,1.0,0.0,0.0549947127035
1385571872574612729,-0.0689760886115,-0.119041285628,-0.00016796062398,1.0,0.0,0.0459266486989
1385571873074719282,-0.13118121321,-0.0332923879649,0.00539767791884,1.0,0.0,0.0370990007354
1385571873574786704,-0.148931918453,0.0512823431231,0.00854378684373,1.0,0.0,0.0263468083801
1385571874074686211,-0.110566703432,0.118413573206,0.00485272200298,1.0,0.0,0.0164522641777
1385571874574866029,-0.0462048746494,0.150750523588,-0.0016271118478,1.0,0.0,0.00846767471699
1385571875074686922,0.0160332106382,0.118128630835,0.00107697313676,1.0,0.0,0.00507401855049
1385571875574672828,0.0744162565007,0.0568462857165,-0.00311256970022,1.0,0.0,0.00473685649291
1385571876074657492,0.0950728472281,0.00270330586292,-0.0126110177638,1.0,0.0,0.0134617252458
1385571876574641128,0.0613891331601,-0.0588023489016,-0.0152368436107,1.0,0.0,0.0304119477475
1385571877074651247,0.0418412151753,-0.137771330504,-0.0265451160904,1.0,0.0,0.0398662116075
1385571877574654009,-0.00961924412927,-0.153950256403,-0.0154107263422,1.0,0.0,0.0408479689502
1385571878074677082,-0.0892237301567,-0.0802213285548,0.00307903974949,1.0,0.0,0.0425135699769
1385571878574667584,-0.120811756855,0.0100990927494,0.0135957303239,1.0,0.0,0.0442873926758
1385571879074570227,-0.0986304108818,0.0844704917455,0.0169056851893,1.0,0.0,0.0436730200274
1385571879574751494,-0.0573601530823,0.157287343722,0.0153668374185,1.0,0.0,0.039810438485
1385571880074692003,0.00481347899416,0.194864370616,0.00946353157802,1.0,0.0,0.0388877055855
1385571880574717933,0.0643398631348,0.154927845802,0.00801212840536,1.0,0.0,0.0411664592743
1385571881074540152,0.127506196626,0.0412352290108,-0.00224013823344,1.0,0.0,0.040512195188
1385571881574623150,0.136878111729,-0.0774169548473,-0.00533648836478,1.0,0.0,0.0361835714622
1385571882074571192,0.0796768260329,-0.145694346426,-0.00551647562941,1.0,0.0,0.0292503402537
1385571882574646445,-0.0103270150737,-0.154982305264,-0.00569185708665,1.0,0.0,0.0227588820746
1385571883074586837,-0.0678954625383,-0.125753702406,0.00189662469734,1.0,0.0,0.0179843578711
1385571883574673037,-0.086569440876,-0.0702903064787,0.00942599836154,1.0,0.0,0.0157827336418
1385571884074686379,-0.0957526076912,0.0105489587847,0.0104900300264,1.0,0.0,0.0169655434127
1385571884574590224,-0.0957850093958,0.082627394812,0.00705881146625,1.0,0.0,0.0174974421496
1385571885074621373,-0.0622503459501,0.120513218945,0.0050989409531,1.0,0.0,0.0146122362672
1385571885574743983,0.00166752900789,0.102976502734,0.00166551848408,1.0,0.0,0.0195027737594
1385571886074688693,0.0324023353074,0.0442553418578,-0.0102302260806,1.0,0.0,0.035627303685
1385571886575029246,0.0363640002941,-0.0240378374298,-0.0118242698927,1.0,0.0,0.0492854374713
1385571887074965593,0.0321810863883,-0.0898760465984,-0.0137003807665,1.0,0.0,0.0597945203175
1385571887574567453,0.0340524101486,-0.114927820124,-0.0212992226821,1.0,0.0,0.0625866454485
1385571888074565757,-0.00141491532585,-0.0859008604328,-0.014095972998,1.0,0.0,0.0575945671205
1385571888574576868,-0.0536128843545,-0.0203603716025,-0.00525567504109,1.0,0.0,0.0532045841839
1385571889074599816,-0.0789080189749,0.0462813667116,-0.00264492944621,1.0,0.0,0.0477645390271
1385571889574567777,-0.0710738545258,0.0947845440224,-0.00442509677503,1.0,0.0,0.0393850531452
1385571890074607339,-0.0380640265732,0.0835324446668,-0.00426138861979,1.0,0.0,0.0341191802302
1385571890574631112,0.0148383895051,0.0193165853712,-0.00935616445218,1.0,0.0,0.0345412726886
1385571891074584293,0.0534929951487,-0.0281677084745,-0.0117318633353,1.0,0.0,0.0374563552716
1385571891574727863,0.0684386385265,-0.0529197896551,-0.0157588203608,1.0,0.0,0.0367774953714
1385571892074717464,0.0531225559326,-0.0707337899049,-0.0102484844121,1.0,0.0,0.0312476914851
1385571892574558388,0.0125971856571,-0.0603086181698,0.00176659791372,1.0,0.0,0.0262099957799
1385571893074659396,-0.0282979991068,-0.0156687551488,0.0100946526143,1.0,0.0,0.0249150522768
1385571893574900136,-0.0508047316107,0.0310940504913,0.0094676977053,1.0,0.0,0.0241054114391
1385571894074832707,-0.052362772519,0.0560175464913,0.00416915465448,1.0,0.0,0.021781962847
1385571894574524172,-0.0330638278255,0.0574153917788,-0.000171429046263,1.0,0.0,0.0191932511625
1385571895074732139,-0.00152387965559,0.0333036941013,-0.00242816994819,1.0,0.0,0.0173180697215
1385571895574675389,0.0256198429594,-0.0095067919579,-0.00424184124668,1.0,0.0,0.0159149424074
1385571896074576765,0.0408073165311,-0.0473647470655,-0.00560999978809,1.0,0.0,0.0148800567055
1385571896574542668,0.0432038527774,-0.0637278889199,-0.00621413169426,1.0,0.0,0.0140271483283
1385571897074512100,0.0286511911311,-0.051241716454,-0.00281557675898,1.0,0.0,0.0168427178037
1385571897574516742,0.00812540313621,-0.0186643933224,-0.000845264509617,1.0,0.0,0.0233247664262
1385571898074618437,-0.00622422250224,0.0184285377127,-5.41171895014e-05,1.0,0.0,0.0303114840975
1385571898574553593,-0.0186898377648,0.0522456122534,-0.00292018287483,1.0,0.0,0.035153933841
1385571899075488508,-0.0237777298638,0.07015544469,-0.00662047457249,1.0,0.0,0.0351961473468
1385571899574756814,-0.00771219127326,0.0573634298112,-0.0058595194205,1.0,0.0,0.0317608698338
1385571900074706987,0.0118065803966,0.0141341456043,-0.00311000471077,1.0,0.0,0.0284039322472
1385571900574659619,0.0164614954737,-0.0261609370922,-0.0025083219158,1.0,0.0,0.0265610463801
1385571901074564900,0.00810906544139,-0.038726679059,-0.00159592039492,1.0,0.0,0.026767325094
1385571901574613251,0.00214411638438,-0.0400366912153,-0.000848252031138,1.0,0.0,0.0281101524582
1385571902074640707,-0.0101822888895,-0.0433394526728,-0.000104554163447,1.0,0.0,0.0307171792386
1385571902574568088,-0.0341809652413,-0.0253583110796,0.000251195956303,1.0,0.0,0.0351410144141
1385571903074575113,-0.0460926730415,0.0165520377263,-0.00209008680739,1.0,0.0,0.0402632576875
1385571903574669908,-0.0382170663463,0.0425889487707,-0.00281297156324,1.0,0.0,0.0453297150538
1385571904074646100,-0.0189200963943,0.047658371407,-6.19749228789e-05,1.0,0.0,0.0497412066526
1385571904574542144,-0.000346056201323,0.0432449994963,0.00334455815667,1.0,0.0,0.0521794021944
1385571905074720011,0.00952732659121,0.0294338492331,0.00423635902506,1.0,0.0,0.0524179360919
1385571905574832981,0.0114934723178,0.00387628134925,0.00385265357571,1.0,0.0,0.0513075450986
1385571906074604861,0.00884062049661,-0.0223060576506,0.00170659279919,1.0,0.0,0.0484364498864
1385571906574603824,2.04615151025e-05,-0.0366149342969,0.00166758125954,1.0,0.0,0.0450678275057
1385571907074527124,-0.0179280266159,-0.0371036623647,0.00165180986659,1.0,0.0,0.041064424429
1385571907574646201,-0.0387011824917,-0.0240963873753,0.00192357959388,1.0,0.0,0.037301401552
1385571908074664792,-0.0467934875487,-0.0073846074376,0.00352262636933,1.0,0.0,0.0344769214523
1385571908574521406,-0.0435621503545,0.00877948209262,0.00514090887418,1.0,0.0,0.0342054725657
1385571909074591036,-0.0312695014082,0.0214416689313,0.00262859514899,1.0,0.0,0.0370242761824
1385571909574653705,-0.0148668560358,0.0284062301112,-0.000829328741984,1.0,0.0,0.0421103661316
1385571910074620570,0.00289653956825,0.0252657148739,-0.00528098881415,1.0,0.0,0.0470142433856
1385571910574478759,0.0160915706089,0.0150455546127,-0.00903846953719,1.0,0.0,0.0494183949541
1385571911074681956,0.0234366833145,0.00402502069706,-0.0110507042746,1.0,0.0,0.0497139079836
1385571911574813692,0.0219290968982,-0.00275808620973,-0.0108742650288,1.0,0.0,0.0480538009986
1385571912074756504,0.0112923371904,-0.00986925465053,-0.0084355338049,1.0,0.0,0.0445438140779
1385571912574696797,-0.00153307438192,-0.0146511212461,-0.00437349465711,1.0,0.0,0.0399826778579
1385571913074561974,-0.0138780730163,-0.013075068929,-0.000418493930504,1.0,0.0,0.0350938977089
1385571913574561787,-0.0229742966135,-0.0044449969719,0.00146255661951,1.0,0.0,0.0320981653899
1385571914074644168,-0.0257003205012,0.00802245246822,0.00291836448702,1.0,0.0,0.031477708433
1385571914574664043,-0.0210409535567,0.0165865615574,0.00268812534527,1.0,0.0,0.032750347636
1385571915074621556,-0.0138395357206,0.0196002757052,0.00215986443503,1.0,0.0,0.0346995517848
1385571915574638460,-0.00890057243596,0.0210943928335,0.00264539965819,1.0,0.0,0.0374099901681
1385571916074532623,-0.00264857237678,0.0205559554589,0.00303682844734,1.0,0.0,0.0403660299519
1385571916574541916,0.00485727181379,0.0138941767054,0.00344724923026,1.0,0.0,0.043906664749
1385571917074563783,0.00837996988153,0.00354010048955,0.00294961548995,1.0,0.0,0.0470470356182
1385571917574539051,0.00745820635528,-0.0042378960597,0.00515199595576,1.0,0.0,0.0504758959895
1385571918074579119,0.00422134032968,-0.0064504250383,0.0073323092953,1.0,0.0,0.0539450429263
1385571918574961464,-0.000857583143703,-0.00170903817046,0.0074161115134,1.0,0.0,0.0568554237717
1385571919074647467,-0.00513827451883,0.012754859044,0.00596361316683,1.0,0.0,0.0582998077218
1385571919574957326,-0.00963863538497,0.0284858240809,0.00414247662559,1.0,0.0,0.0580398392518
1385571920074664795,-0.0138672626293,0.0437727112614,0.00312992774299,1.0,0.0,0.0589534340515
1385571920574470146,-0.00588698447071,0.0551685271825,0.00296833750141,1.0,0.0,0.0613271756537
1385571921074760630,0.0145082303812,0.0380353060896,-0.00390068098787,1.0,0.0,0.0651850201062
1385571921574958516,0.0316753508702,0.00342219741096,-0.00988502942773,1.0,0.0,0.0677479118106
1385571922074645495,0.0309661404643,-0.0253946333163,-0.0132372883177,1.0,0.0,0.0665612108305
1385571922574529452,0.0143048179006,-0.0398046739569,-0.0136681919621,1.0,0.0,0.0621094947453
1385571923074607527,-0.00705864948256,-0.0448590077239,-0.0136605758215,1.0,0.0,0.0547693362502
1385571923574637802,-0.0346352300979,-0.0334882944427,-0.0113654845959,1.0,0.0,0.0463373255587
1385571924074948371,-0.0668200862995,0.00265622971576,-0.00446268387818,1.0,0.0,0.0398988731623
1385571924574595231,-0.0728760067651,0.0459834374512,-0.00209165049001,1.0,0.0,0.0391340948992
1385571925074600129,-0.0402043316416,0.068377545232,-0.00587016894899,1.0,0.0,0.0454875501147
1385571925574718909,-0.0131963160315,0.05303682615,-0.0155133003624,1.0,0.0,0.0563672775495
1385571926074734876,-0.00749597382403,0.030031922479,-0.0278991206292,1.0,0.0,0.0686021100802
1385571926574594992,0.0115225665026,0.0133987300976,-0.0436325559748,1.0,0.0,0.0788031541313
1385571927074632767,0.0435961479056,-0.0197174690093,-0.0590159967786,1.0,0.0,0.0848789748907
1385571927574601131,0.0199718925118,-0.0527583806265,-0.0674339986776,1.0,0.0,0.0869178044091
1385571928074641013,-0.0283620012516,-0.0462101806625,-0.0742509512867,1.0,0.0,0.0849599298449
1385571928574711324,-0.0459465814301,-0.0157372531153,-0.0805830391982,1.0,0.0,0.0805602669287
1385571929074892238,-0.0468096215442,0.00870095060062,-0.0855260941588,1.0,0.0,0.0766078156846
1385571929574669740,-0.058527059573,0.0388394985979,-0.0867644654536,1.0,0.0,0.0755052015697
1385571930074615955,-0.047487926118,0.0744744105062,-0.0857440185501,1.0,0.0,0.0779841406616
1385571930574549171,-0.00222960411245,0.071340847091,-0.0886096325294,1.0,0.0,0.0807997021488
1385571931074572970,0.0389335747544,0.0260124700655,-0.0953609185898,1.0,0.0,0.0832542390895
1385571931575425295,0.0432696113094,-0.0122565183902,-0.100700395607,1.0,0.0,0.0840883501703
1385571932074802394,0.0350120861489,-0.026781285841,-0.107195223569,1.0,0.0,0.0831551088499
1385571932574648505,0.028435528248,-0.0380269937868,-0.113458538117,1.0,0.0,0.0787000009057
1385571933074694466,-0.000975154957166,-0.0498042048419,-0.114713236532,1.0,0.0,0.0691247417487
1385571933574558909,-0.0440398481586,-0.0287240866727,-0.111137423343,1.0,0.0,0.0562148160043
