%time,field.header.seq,field.header.stamp,field.header.frame_id,field.child_frame_id,field.transform.translation.x,field.transform.translation.y,field.transform.translation.z,field.transform.rotation.x,field.transform.rotation.y,field.transform.rotation.z,field.transform.rotation.w
1385571775552417363,894181,1385571775552417363,/world,vicon/Archie/Archie,-0.825429238324,-0.170842297294,0.111440510485,0.00205059351914,0.00170590140298,0.668811598813,0.743427151952
1385571775562429421,894182,1385571775562429421,/world,vicon/Archie/Archie,-0.82541515813,-0.170823989058,0.111416340141,0.0019588472371,0.00169713476654,0.668788281277,0.743448395975
1385571775572303453,894183,1385571775572303453,/world,vicon/Archie/Archie,-0.82541628754,-0.17083046104,0.11141784144,0.00201509092872,0.001718289348,0.66880845795,0.743430046113
1385571775582542330,894184,1385571775582542330,/world,vicon/Archie/Archie,-0.825418264965,-0.170825143586,0.111421041717,0.00195032305217,0.00171363642603,0.668784908295,0.743451414772
1385571775592441531,894185,1385571775592441531,/world,vicon/Archie/Archie,-0.825417063149,-0.170822984781,0.111417979591,0.0019545823526,0.00168214579116,0.668775767995,0.743459697721
1385571775602550122,894186,1385571775602550122,/world,vicon/Archie/Archie,-0.825416516668,-0.170818822728,0.111429637764,0.00203217774846,0.00174868698164,0.668800301093,0.743437266758
1385571775612479158,894187,1385571775612479158,/world,vicon/Archie/Archie,-0.825416731036,-0.170813437145,0.111394529525,0.00192744278316,0.00172497247252,0.66877968069,0.743456150779
1385571775622430721,894188,1385571775622430721,/world,vicon/Archie/Archie,-0.825435677103,-0.170834727343,0.111451698032,0.00204638225026,0.001757944109,0.668810702925,0.743427848285
1385571775632488859,894189,1385571775632488859,/world,vicon/Archie/Archie,-0.825421171566,-0.170830472216,0.111411628351,0.00194995512189,0.00165529428735,0.668775524819,0.743459988889
1385571775642482651,894190,1385571775642482651,/world,vicon/Archie/Archie,-0.825417568414,-0.170814129994,0.111396001898,0.00195395651192,0.00170665227799,0.668765696317,0.743468703324
1385571775652511467,894191,1385571775652511467,/world,vicon/Archie/Archie,-0.825429683409,-0.170827384778,0.111416926044,0.00196332708158,0.00168932045109,0.668778697594,0.743457023094
1385571775662433530,894192,1385571775662433530,/world,vicon/Archie/Archie,-0.825442756447,-0.170839699714,0.111454908074,0.00202360013561,0.00175436824009,0.668799002157,0.743438445298
1385571775672396874,894193,1385571775672396874,/world,vicon/Archie/Archie,-0.825447073948,-0.170836833036,0.111455643402,0.00203244342664,0.00175157592621,0.668811164477,0.743427486327
1385571775682386814,894194,1385571775682386814,/world,vicon/Archie/Archie,-0.825442882778,-0.170833629505,0.111458746943,0.00202541330361,0.00174470775691,0.668806076452,0.743432098982
1385571775692434754,894195,1385571775692434754,/world,vicon/Archie/Archie,-0.825440959411,-0.170824457706,0.111430545124,0.00196534896412,0.0017044719861,0.668774682107,0.743460595292
1385571775702484837,894196,1385571775702484837,/world,vicon/Archie/Archie,-0.825451360119,-0.170837060544,0.111458302517,0.00203647470837,0.00174703860111,0.668811593941,0.743427099612
1385571775712304701,894197,1385571775712304701,/world,vicon/Archie/Archie,-0.825451231497,-0.170832893763,0.111459784488,0.00204152873619,0.00174420988289,0.668808163479,0.743430178535
1385571775722221756,894198,1385571775722221756,/world,vicon/Archie/Archie,-0.825448774385,-0.170832346863,0.111452802287,0.00202983240516,0.00175504051545,0.668794301617,0.743442655312
1385571775732241477,894199,1385571775732241477,/world,vicon/Archie/Archie,-0.825450736813,-0.170842259934,0.111458266127,0.00205186302124,0.00176130244692,0.668805670241,0.743432352756
1385571775743016585,894200,1385571775743016585,/world,vicon/Archie/Archie,-0.825419780152,-0.170805546338,0.11140241904,0.0019560174349,0.00167723872936,0.668785536425,0.743450917772
1385571775752326200,894201,1385571775752326200,/world,vicon/Archie/Archie,-0.825420069387,-0.17082035407,0.111424863797,0.00194524635534,0.00168870833708,0.668774933883,0.743460457651
1385571775763019946,894202,1385571775763019946,/world,vicon/Archie/Archie,-0.825433434407,-0.170819165225,0.11142543081,0.00196957445639,0.00168283628786,0.668781679095,0.743454339247
1385571775773621883,894203,1385571775773621883,/world,vicon/Archie/Archie,-0.825433294005,-0.170824309877,0.11142995304,0.00203193928672,0.0017461349345,0.668809949088,0.743428593906
1385571775783031548,894204,1385571775783031548,/world,vicon/Archie/Archie,-0.825437501841,-0.170836927117,0.111449524002,0.00204414443851,0.00173809296128,0.668811213752,0.743427441561
1385571775792934241,894205,1385571775792934241,/world,vicon/Archie/Archie,-0.825434148161,-0.170838755344,0.111454259192,0.00203449169188,0.00174531063201,0.668814406121,0.74342457916
1385571775802893114,894206,1385571775802893114,/world,vicon/Archie/Archie,-0.825442221026,-0.170831462717,0.111457730118,0.00205920326505,0.00173763472813,0.668809483798,0.743428957392
1385571775812841104,894207,1385571775812841104,/world,vicon/Archie/Archie,-0.825427631105,-0.170825899054,0.111421439278,0.00195276999129,0.00170868986057,0.668785053632,0.743451288994
1385571775822981821,894208,1385571775822981821,/world,vicon/Archie/Archie,-0.825408969792,-0.170811132366,0.111388719376,0.00193412436933,0.00173253545587,0.668773092762,0.743462041991
1385571775833215531,894209,1385571775833215531,/world,vicon/Archie/Archie,-0.825428518795,-0.170823552974,0.111413594597,0.00195930697419,0.00171057271002,0.668792787727,0.743444310047
1385571775843102211,894210,1385571775843102211,/world,vicon/Archie/Archie,-0.825444409474,-0.170827659648,0.111450528008,0.00205192843537,0.00175313375804,0.668807438435,0.74343078118
1385571775852685385,894211,1385571775852685385,/world,vicon/Archie/Archie,-0.825440125097,-0.170830711941,0.111450529764,0.00204004523687,0.00175478298895,0.668801494764,0.743436157012
1385571775862743096,894212,1385571775862743096,/world,vicon/Archie/Archie,-0.825423477029,-0.17082419208,0.111425334747,0.0019665651172,0.00168809564609,0.668777881456,0.743457751476
1385571775872654584,894213,1385571775872654584,/world,vicon/Archie/Archie,-0.825418942322,-0.170828411223,0.111421698624,0.0019786473685,0.00168865987284,0.668791649007,0.743445333297
1385571775883287886,894214,1385571775883287886,/world,vicon/Archie/Archie,-0.825428916191,-0.170831507624,0.11141900406,0.00196370885855,0.00170579237767,0.668779191787,0.743456539922
1385571775892440570,894215,1385571775892440570,/world,vicon/Archie/Archie,-0.825467150575,-0.170812902992,0.111377249767,0.00213865299253,0.00145748211329,0.668730953623,0.743499975505
1385571775903265027,894216,1385571775903265027,/world,vicon/Archie/Archie,-0.825409149968,-0.170816439368,0.11138436467,0.00193382831426,0.00168469033242,0.668765956621,0.743468571892
1385571775912570360,894217,1385571775912570360,/world,vicon/Archie/Archie,-0.825436455729,-0.170820137226,0.111431489035,0.00199386502755,0.00169762112055,0.668789000262,0.743447654992
1385571775922492446,894218,1385571775922492446,/world,vicon/Archie/Archie,-0.825412326561,-0.170820026838,0.111395263131,0.00193612252863,0.00171523982738,0.668766525311,0.743467984519
1385571775932439162,894219,1385571775932439162,/world,vicon/Archie/Archie,-0.825422906087,-0.170814042097,0.111398319128,0.00192929936172,0.00171024564226,0.668769125956,0.743465674414
1385571775942348655,894220,1385571775942348655,/world,vicon/Archie/Archie,-0.82546770619,-0.170818150757,0.111376068192,0.00215094711237,0.00146328297229,0.668736653488,0.74349480194
1385571775952370621,894221,1385571775952370621,/world,vicon/Archie/Archie,-0.825432465224,-0.170826274856,0.111417734952,0.00195245234862,0.0017114312882,0.668779199497,0.743456549674
1385571775962407094,894222,1385571775962407094,/world,vicon/Archie/Archie,-0.825439917177,-0.17083465053,0.111445930624,0.00203994452322,0.00174144749678,0.668801016728,0.743436618691
1385571775972463676,894223,1385571775972463676,/world,vicon/Archie/Archie,-0.825424197693,-0.170829673818,0.111412178341,0.00196351174404,0.00171589222075,0.668781976117,0.743454012537
1385571775982444356,894224,1385571775982444356,/world,vicon/Archie/Archie,-0.82543501127,-0.170835877502,0.111447573022,0.00203626921283,0.0017567053215,0.668816840223,0.743422357633
1385571775992402619,894225,1385571775992402619,/world,vicon/Archie/Archie,-0.825428385658,-0.170823468054,0.111423509595,0.00194818154129,0.00172212155874,0.668779344981,0.743456405321
1385571776002504724,894226,1385571776002504724,/world,vicon/Archie/Archie,-0.825426681774,-0.170821895193,0.111419588388,0.00196272953826,0.00172727772526,0.668784644508,0.743451587849
1385571776012564502,894227,1385571776012564502,/world,vicon/Archie/Archie,-0.825437610918,-0.170822203653,0.111414097791,0.0019721300281,0.00170679153088,0.668783078814,0.743453018729
1385571776022360625,894228,1385571776022360625,/world,vicon/Archie/Archie,-0.825428150248,-0.17083030182,0.111421149987,0.00198156746489,0.0016988334896,0.668763237366,0.743470860023
1385571776032500265,894229,1385571776032500265,/world,vicon/Archie/Archie,-0.825426584849,-0.170827604352,0.111409282913,0.00196028649723,0.00170723982557,0.668774718109,0.743460569921
1385571776042453787,894230,1385571776042453787,/world,vicon/Archie/Archie,-0.825438677619,-0.170819898762,0.111428561198,0.00204186167112,0.00173421449671,0.668799191265,0.743438272531
1385571776052487683,894231,1385571776052487683,/world,vicon/Archie/Archie,-0.82543098855,-0.170819183431,0.111417952825,0.00196830561596,0.00169683509464,0.668785518397,0.743450857089
1385571776062490453,894232,1385571776062490453,/world,vicon/Archie/Archie,-0.825424984008,-0.170800719671,0.111399412429,0.00195473583654,0.0017003017813,0.668769952791,0.743464887016
1385571776072471788,894233,1385571776072471788,/world,vicon/Archie/Archie,-0.825437202396,-0.170821214448,0.111426806223,0.00199872319801,0.00168202721542,0.668779203384,0.743456490328
1385571776082449428,894234,1385571776082449428,/world,vicon/Archie/Archie,-0.825447940097,-0.17082795735,0.1114605922,0.00207412909327,0.00172998925128,0.668811657925,0.743426977819
1385571776092459271,894235,1385571776092459271,/world,vicon/Archie/Archie,-0.825435913825,-0.170816711836,0.111429053202,0.00198052620644,0.00171333289368,0.668777646875,0.743457867701
1385571776102248694,894236,1385571776102248694,/world,vicon/Archie/Archie,-0.825426275062,-0.170828196413,0.111423885407,0.00196503917448,0.0016915358771,0.668792240261,0.743444830969
1385571776112301740,894237,1385571776112301740,/world,vicon/Archie/Archie,-0.82544146594,-0.170833371284,0.111450005689,0.00204247332602,0.00174279914839,0.668811219592,0.743427429883
1385571776122296211,894238,1385571776122296211,/world,vicon/Archie/Archie,-0.825407820068,-0.170815358406,0.111396156866,0.00195152502513,0.00172756304339,0.668776857156,0.743458621854
1385571776132243291,894239,1385571776132243291,/world,vicon/Archie/Archie,-0.825416858007,-0.170822926108,0.111415463293,0.0019579349517,0.00168754503911,0.668772859901,0.743462292617
1385571776142204763,894240,1385571776142204763,/world,vicon/Archie/Archie,-0.825422056746,-0.170823055362,0.111426213456,0.0019672920164,0.00168272338355,0.668785373648,0.743451022058
1385571776153015994,894241,1385571776153015994,/world,vicon/Archie/Archie,-0.825397072529,-0.170827581096,0.111408432038,0.00194919484304,0.00166712117702,0.668780331168,0.743455640902
1385571776163038894,894242,1385571776163038894,/world,vicon/Archie/Archie,-0.825411786812,-0.170823174065,0.111427113986,0.00198098064911,0.00168652871239,0.668769951182,0.743464850368
1385571776173007765,894243,1385571776173007765,/world,vicon/Archie/Archie,-0.825408468707,-0.170822137393,0.111418150235,0.0019581934162,0.0017091001581,0.668768354609,0.743466295355
1385571776182992834,894244,1385571776182992834,/world,vicon/Archie/Archie,-0.825415679106,-0.170825108477,0.111414079422,0.00193774917424,0.00171532890637,0.66878010277,0.743455766616
1385571776192986286,894245,1385571776192986286,/world,vicon/Archie/Archie,-0.825405252208,-0.170826968775,0.111414487897,0.00195366451149,0.001710155756,0.668778480496,0.743457196204
1385571776202931091,894246,1385571776202931091,/world,vicon/Archie/Archie,-0.825420902967,-0.170833162238,0.111419702,0.00195838553409,0.00168802581156,0.668768874869,0.743465875008
1385571776212934916,894247,1385571776212934916,/world,vicon/Archie/Archie,-0.825405881405,-0.170826621306,0.111420618242,0.00195384367232,0.0017291531356,0.668781605807,0.743454340399
1385571776222986971,894248,1385571776222986971,/world,vicon/Archie/Archie,-0.825406217813,-0.170824827796,0.111418067003,0.00196320460261,0.0016968123043,0.668769878514,0.743464939488
1385571776233117752,894249,1385571776233117752,/world,vicon/Archie/Archie,-0.825404235833,-0.170824883588,0.111417787886,0.00195817768964,0.00171772213461,0.668778259752,0.743457365458
1385571776243233928,894250,1385571776243233928,/world,vicon/Archie/Archie,-0.825401528645,-0.170824718052,0.111421031612,0.00195478717115,0.00170832432601,0.668773334958,0.743461826111
1385571776253426269,894251,1385571776253426269,/world,vicon/Archie/Archie,-0.825408387708,-0.170819537127,0.11141748656,0.00195638384198,0.00171365168788,0.668770775174,0.74346411227
1385571776263251563,894252,1385571776263251563,/world,vicon/Archie/Archie,-0.82540646874,-0.170827277417,0.11141939092,0.00195379941332,0.00171513490936,0.66877961464,0.743456164156
1385571776273205030,894253,1385571776273205030,/world,vicon/Archie/Archie,-0.825431292289,-0.170836050281,0.111446064589,0.00202193526619,0.00176977822336,0.668808508466,0.743429861296
1385571776283271583,894254,1385571776283271583,/world,vicon/Archie/Archie,-0.825407154153,-0.170802024347,0.11139080969,0.00193658673845,0.00172428628073,0.668778346627,0.743457328669
1385571776293245853,894255,1385571776293245853,/world,vicon/Archie/Archie,-0.825407468417,-0.170827481397,0.111407698445,0.0019336016074,0.00167308144901,0.668777993924,0.743457770708
1385571776303200083,894256,1385571776303200083,/world,vicon/Archie/Archie,-0.825408844124,-0.170821740458,0.111419007575,0.00195903841412,0.00171561430027,0.668773405526,0.743461734656
1385571776313262332,894257,1385571776313262332,/world,vicon/Archie/Archie,-0.825398407383,-0.170808742762,0.111388626057,0.00194743691448,0.00170794096326,0.668771428308,0.743463561384
1385571776323113305,894258,1385571776323113305,/world,vicon/Archie/Archie,-0.825406732116,-0.170799324671,0.111387567128,0.00193147621837,0.00174648080894,0.668774195078,0.743461024669
1385571776332534495,894259,1385571776332534495,/world,vicon/Archie/Archie,-0.825433685098,-0.170803714643,0.11134148629,0.00212524307133,0.00145918524329,0.668725122306,0.743505255474
1385571776342496130,894260,1385571776342496130,/world,vicon/Archie/Archie,-0.825418144169,-0.170821402108,0.111410961816,0.00194869036094,0.00170511778177,0.668779375411,0.743456415807
1385571776352402291,894261,1385571776352402291,/world,vicon/Archie/Archie,-0.82544197038,-0.170804797182,0.111338711971,0.00213593998511,0.00145239638594,0.668731269527,0.74349970912
1385571776362725511,894262,1385571776362725511,/world,vicon/Archie/Archie,-0.825418341107,-0.17081617561,0.111410261401,0.00195358702222,0.00169789569683,0.668774943235,0.743460406443
1385571776372422159,894263,1385571776372422159,/world,vicon/Archie/Archie,-0.825439897434,-0.170830297801,0.111450715999,0.00205989326124,0.00173764304685,0.668804107193,0.74343379237
1385571776382431691,894264,1385571776382431691,/world,vicon/Archie/Archie,-0.825408093688,-0.170805929723,0.111387695066,0.00193063011931,0.00171480315347,0.668757484477,0.743476132148
1385571776392388506,894265,1385571776392388506,/world,vicon/Archie/Archie,-0.825464616329,-0.170813719859,0.111375276364,0.00219757186272,0.00141476900356,0.668724793888,0.74350542644
1385571776402487134,894266,1385571776402487134,/world,vicon/Archie/Archie,-0.825431008674,-0.170826214304,0.111414710791,0.0019560726375,0.00169114882315,0.668784669719,0.743451665775
1385571776412340822,894267,1385571776412340822,/world,vicon/Archie/Archie,-0.825415249111,-0.170817802095,0.111392308656,0.00193172496446,0.00171939626152,0.668784251422,0.743452040932
1385571776422526457,894268,1385571776422526457,/world,vicon/Archie/Archie,-0.825421581857,-0.17082604994,0.111414067799,0.00196806897492,0.00170801815066,0.668779925018,0.743455863701
1385571776432414287,894269,1385571776432414287,/world,vicon/Archie/Archie,-0.825413159017,-0.170824559488,0.111413066308,0.00195450457795,0.00170915081008,0.668775042453,0.743460288992
1385571776442350231,894270,1385571776442350231,/world,vicon/Archie/Archie,-0.825471769474,-0.170813010209,0.111368676784,0.00214821574809,0.00145539669285,0.668745333075,0.743487018367
1385571776452440811,894271,1385571776452440811,/world,vicon/Archie/Archie,-0.825403901118,-0.1708088,0.111382592759,0.00193147350713,0.00174907523088,0.668778848821,0.743456832315
1385571776462543723,894272,1385571776462543723,/world,vicon/Archie/Archie,-0.825420290713,-0.170825079792,0.111412974921,0.00195355766601,0.00169114296722,0.6687881325,0.743448557383
1385571776472429794,894273,1385571776472429794,/world,vicon/Archie/Archie,-0.825430744029,-0.170824770251,0.111414075986,0.00195638209785,0.00170270775913,0.668789272851,0.743447497726
1385571776482460404,894274,1385571776482460404,/world,vicon/Archie/Archie,-0.825410464319,-0.170830487951,0.111398695796,0.00193481212385,0.00167998126303,0.668783807578,0.743452522281
1385571776492526561,894275,1385571776492526561,/world,vicon/Archie/Archie,-0.825415692318,-0.17083283616,0.111422093912,0.00197553251318,0.00172793275366,0.668783176204,0.743452873252
1385571776502413810,894276,1385571776502413810,/world,vicon/Archie/Archie,-0.825458788728,-0.170820718564,0.111367892274,0.00215139479104,0.00145742217475,0.668748272923,0.743484360887
1385571776512516166,894277,1385571776512516166,/world,vicon/Archie/Archie,-0.825418084324,-0.170830284301,0.111415249267,0.00196464487855,0.00170782450503,0.668785385783,0.743450960904
1385571776522473145,894278,1385571776522473145,/world,vicon/Archie/Archie,-0.825412453464,-0.170831064232,0.111419328976,0.0019675483395,0.00172126172115,0.668791321817,0.743445582322
1385571776532286397,894279,1385571776532286397,/world,vicon/Archie/Archie,-0.825417253816,-0.170834100442,0.111402160383,0.00194197435761,0.00169347862257,0.668794234206,0.743443093423
1385571776542300365,894280,1385571776542300365,/world,vicon/Archie/Archie,-0.825424086843,-0.170827733044,0.111412244237,0.001947638806,0.00174589357032,0.668787306809,0.743449189124
1385571776552473617,894281,1385571776552473617,/world,vicon/Archie/Archie,-0.82541496278,-0.170829256054,0.111401978736,0.00193733179868,0.00170470369664,0.668786695096,0.743449861923
1385571776562405594,894282,1385571776562405594,/world,vicon/Archie/Archie,-0.825425669777,-0.170827253742,0.111418280274,0.00195598751558,0.00174010284069,0.66877561903,0.743459694634
1385571776572286489,894283,1385571776572286489,/world,vicon/Archie/Archie,-0.825408868149,-0.17081082658,0.11139033738,0.00193455528835,0.00174585069207,0.668768878496,0.743465800596
1385571776582364260,894284,1385571776582364260,/world,vicon/Archie/Archie,-0.825422759486,-0.170829506224,0.111415877836,0.00195781373154,0.00169488674326,0.668773793806,0.743461436151
1385571776592337107,894285,1385571776592337107,/world,vicon/Archie/Archie,-0.825413942963,-0.170825517713,0.11141501678,0.00196690190208,0.0017132647258,0.668773666524,0.743461484534
1385571776603167204,894286,1385571776603167204,/world,vicon/Archie/Archie,-0.825421106171,-0.170817575681,0.111385890203,0.00194049062652,0.00171315015265,0.668776547369,0.743458962756
1385571776613160332,894287,1385571776613160332,/world,vicon/Archie/Archie,-0.8254247678,-0.170834917378,0.111418282287,0.00195382470332,0.00174080222361,0.66877175873,0.74346317118
1385571776623055324,894288,1385571776623055324,/world,vicon/Archie/Archie,-0.825425596614,-0.170829721068,0.111414787192,0.0019439630825,0.00171335347306,0.668778195497,0.743457470644
1385571776632973867,894289,1385571776632973867,/world,vicon/Archie/Archie,-0.825431705482,-0.170822109123,0.111417679545,0.0019572525826,0.00172032366492,0.668778659348,0.743457002421
1385571776643041605,894290,1385571776643041605,/world,vicon/Archie/Archie,-0.825424936298,-0.170826361821,0.111413484793,0.00195421679729,0.00169429498289,0.668775974553,0.743459485286
1385571776652902416,894291,1385571776652902416,/world,vicon/Archie/Archie,-0.825429325086,-0.170821563249,0.111418943719,0.00198411795642,0.00168678222645,0.668783667241,0.743452503173
1385571776662897555,894292,1385571776662897555,/world,vicon/Archie/Archie,-0.825423895802,-0.17082608527,0.111419190344,0.00196574267716,0.00170447537542,0.668784461211,0.743451797404
1385571776672860988,894293,1385571776672860988,/world,vicon/Archie/Archie,-0.825423022309,-0.170822894769,0.111422908745,0.00195801315115,0.00171903274715,0.668780837581,0.743455043964
1385571776683242844,894294,1385571776683242844,/world,vicon/Archie/Archie,-0.825417242587,-0.170813232912,0.111398029552,0.00195691660115,0.00171146116617,0.668782028601,0.743453992927
1385571776693301874,894295,1385571776693301874,/world,vicon/Archie/Archie,-0.825417683604,-0.170819570458,0.111422504965,0.00194993492385,0.00171870779691,0.668777898079,0.743457710188
1385571776703148745,894296,1385571776703148745,/world,vicon/Archie/Archie,-0.82543296293,-0.170825317358,0.111421504873,0.00196373785443,0.00168929090593,0.66878178708,0.743454242909
1385571776713090369,894297,1385571776713090369,/world,vicon/Archie/Archie,-0.825427813483,-0.170825806084,0.111421550688,0.00195138528444,0.00169085548283,0.668774668302,0.743460675585
1385571776722717962,894298,1385571776722717962,/world,vicon/Archie/Archie,-0.825430227552,-0.170831555179,0.11142242085,0.00197065785613,0.00168350173532,0.668794480116,0.743442819385
1385571776732613380,894299,1385571776732613380,/world,vicon/Archie/Archie,-0.82542403321,-0.170828233508,0.111417712923,0.00195219238005,0.00172516439122,0.668783725012,0.743452447647
1385571776742624761,894300,1385571776742624761,/world,vicon/Archie/Archie,-0.825434038559,-0.17082964675,0.111407644884,0.00195190667222,0.00168963376488,0.66878002697,0.743455856607
1385571776752937917,894301,1385571776752937917,/world,vicon/Archie/Archie,-0.825421435697,-0.170828052005,0.11140742258,0.00195650645402,0.00169387639838,0.668780476743,0.743455430266
1385571776762690213,894302,1385571776762690213,/world,vicon/Archie/Archie,-0.825431969914,-0.17083083821,0.111405754938,0.00193182438354,0.00172785270904,0.668778837528,0.743456891188
1385571776772642511,894303,1385571776772642511,/world,vicon/Archie/Archie,-0.825436647056,-0.170834988283,0.111412209144,0.00196369625755,0.00169889674591,0.668781803267,0.74345420657
1385571776782438340,894304,1385571776782438340,/world,vicon/Archie/Archie,-0.825426997752,-0.170822919522,0.111407394417,0.00195374918014,0.00172178566683,0.668774757886,0.743460517803
1385571776792423359,894305,1385571776792423359,/world,vicon/Archie/Archie,-0.825420613145,-0.170835850198,0.111411689393,0.00196755663286,0.00172788996088,0.668792246157,0.743444735402
1385571776802447863,894306,1385571776802447863,/world,vicon/Archie/Archie,-0.825423087994,-0.170831761739,0.111410500892,0.00195064517377,0.00173461734374,0.668783533399,0.743452602081
1385571776812476796,894307,1385571776812476796,/world,vicon/Archie/Archie,-0.82542390959,-0.170825206588,0.111411723218,0.00194490293642,0.00174470620533,0.668779231483,0.743456463346
1385571776822555493,894308,1385571776822555493,/world,vicon/Archie/Archie,-0.825422599631,-0.170826840905,0.111413677743,0.00196085206889,0.00171883195788,0.668787037972,0.743449459288
1385571776832545607,894309,1385571776832545607,/world,vicon/Archie/Archie,-0.825428309088,-0.170827992093,0.11141237314,0.00197536964187,0.00171234993293,0.668785104033,0.74345117553
1385571776842411918,894310,1385571776842411918,/world,vicon/Archie/Archie,-0.825425274486,-0.170827105172,0.111414797777,0.0019672319173,0.00171743014113,0.66879045878,0.743446368393
1385571776852500639,894311,1385571776852500639,/world,vicon/Archie/Archie,-0.82542821743,-0.170822158408,0.111409797741,0.0019777261469,0.00168794794146,0.668777501148,0.743458064311
1385571776862512918,894312,1385571776862512918,/world,vicon/Archie/Archie,-0.825431938655,-0.170824418303,0.111413258426,0.00197129666831,0.00168812623069,0.668784067401,0.743452174259
1385571776872328881,894313,1385571776872328881,/world,vicon/Archie/Archie,-0.825426727824,-0.170825860395,0.11141802432,0.00195839427259,0.00172831330164,0.668769281416,0.743465416721
1385571776882462882,894314,1385571776882462882,/world,vicon/Archie/Archie,-0.82542068038,-0.170830401082,0.111418795684,0.00195214255328,0.00172985147731,0.668784356431,0.743451868883
1385571776892498776,894315,1385571776892498776,/world,vicon/Archie/Archie,-0.825427953283,-0.170829096961,0.111413406816,0.00194267657025,0.00171714848313,0.668776949772,0.743458585842
1385571776902395490,894316,1385571776902395490,/world,vicon/Archie/Archie,-0.825427690321,-0.170823605248,0.1114274567,0.00200793949625,0.00176613682506,0.668804598603,0.743433425283
1385571776912451143,894317,1385571776912451143,/world,vicon/Archie/Archie,-0.825428020951,-0.170821824297,0.11142965438,0.00195667949868,0.00172935611756,0.668779597016,0.743456139492
1385571776922462292,894318,1385571776922462292,/world,vicon/Archie/Archie,-0.825432191845,-0.170815370565,0.111432089187,0.00197131750135,0.00168931612521,0.668781350174,0.743454615815
1385571776932404465,894319,1385571776932404465,/world,vicon/Archie/Archie,-0.825435315291,-0.170823508553,0.11142194154,0.0019381862561,0.00169421642387,0.668777907029,0.743457789074
1385571776942504494,894320,1385571776942504494,/world,vicon/Archie/Archie,-0.825428032423,-0.170830324432,0.111423224591,0.00196025008163,0.00171486985611,0.668780796319,0.743455084801
1385571776952512302,894321,1385571776952512302,/world,vicon/Archie/Archie,-0.825436562511,-0.170827382924,0.111425513436,0.00195685118255,0.001693562371,0.668772222559,0.7434628551
1385571776962293744,894322,1385571776962293744,/world,vicon/Archie/Archie,-0.825422955897,-0.17081030292,0.111406283962,0.00195835877408,0.00168067334467,0.668783073601,0.743453119324
1385571776972346230,894323,1385571776972346230,/world,vicon/Archie/Archie,-0.825436456704,-0.170828296527,0.111425944103,0.00196954829891,0.00168657187021,0.668778657353,0.743457049078
1385571776982337797,894324,1385571776982337797,/world,vicon/Archie/Archie,-0.825440640164,-0.170825240938,0.111425139618,0.00195778540755,0.00170796986502,0.668775052791,0.743460273774
1385571776992290903,894325,1385571776992290903,/world,vicon/Archie/Archie,-0.825413276597,-0.170813199263,0.111405367022,0.00192444560524,0.00172315374635,0.66878365959,0.743452583502
1385571777002299398,894326,1385571777002299398,/world,vicon/Archie/Archie,-0.825423024653,-0.170822076837,0.111415098141,0.00193333468896,0.00170438736592,0.668770140802,0.7434647645
1385571777012362905,894327,1385571777012362905,/world,vicon/Archie/Archie,-0.825439312669,-0.170836523355,0.111433113595,0.00195981660161,0.00172813081611,0.668785481684,0.743450840454
1385571777023083344,894328,1385571777023083344,/world,vicon/Archie/Archie,-0.825439838537,-0.17082479362,0.111431551895,0.00196025371854,0.00171587231156,0.668774007196,0.74346118963
1385571777033100027,894329,1385571777033100027,/world,vicon/Archie/Archie,-0.825423530113,-0.170815495715,0.111401993,0.00193105469122,0.00171414884028,0.668760625358,0.743473307316
1385571777043161504,894330,1385571777043161504,/world,vicon/Archie/Archie,-0.825440871656,-0.170831154786,0.111422910685,0.00195379095788,0.00167381549759,0.66877418098,0.743461146192
1385571777053057151,894331,1385571777053057151,/world,vicon/Archie/Archie,-0.825430768439,-0.170819246864,0.111402987548,0.00194748651547,0.00171788940036,0.66876448401,0.743469784914
1385571777062991638,894332,1385571777062991638,/world,vicon/Archie/Archie,-0.825428652197,-0.170819715342,0.111403724404,0.0019462177174,0.00169659448435,0.668775307943,0.743460100671
1385571777072909207,894333,1385571777072909207,/world,vicon/Archie/Archie,-0.825425584111,-0.170819289865,0.111397833946,0.00192336950942,0.00172630379768,0.668770414187,0.743464493862
1385571777083394082,894334,1385571777083394082,/world,vicon/Archie/Archie,-0.825446002071,-0.170836047953,0.111422946188,0.00196496335994,0.00169543442523,0.668773798553,0.743461411769
1385571777093182765,894335,1385571777093182765,/world,vicon/Archie/Archie,-0.825439204331,-0.170833893793,0.111425031619,0.00196704682705,0.0016997415632,0.668773274768,0.743461867591
1385571777103092886,894336,1385571777103092886,/world,vicon/Archie/Archie,-0.825443348392,-0.170830490703,0.11142709276,0.00196689734197,0.00170642617541,0.668784879846,0.743451413284
1385571777112661340,894337,1385571777112661340,/world,vicon/Archie/Archie,-0.825428687477,-0.170818760932,0.111407719619,0.00195403686301,0.00172354398694,0.668769437313,0.743465299023
1385571777122718498,894338,1385571777122718498,/world,vicon/Archie/Archie,-0.82543433505,-0.170831094054,0.111429322452,0.00196344078017,0.00169931248429,0.668775011331,0.743460315993
1385571777132599496,894339,1385571777132599496,/world,vicon/Archie/Archie,-0.825433802472,-0.170832235795,0.111420541542,0.00194704223948,0.00172289641938,0.668780009084,0.743455809113
1385571777142570235,894340,1385571777142570235,/world,vicon/Archie/Archie,-0.825422612261,-0.170817713812,0.11139381392,0.0019161173997,0.00173155760388,0.668771168044,0.74346382225
1385571777152509646,894341,1385571777152509646,/world,vicon/Archie/Archie,-0.825430278644,-0.170827775133,0.111416313544,0.00196921099654,0.00169409433652,0.668775083991,0.743460247279
1385571777162458220,894342,1385571777162458220,/world,vicon/Archie/Archie,-0.825419722817,-0.170818785688,0.111398180111,0.00192279597728,0.00172845757547,0.668775137039,0.743460241955
1385571777172548923,894343,1385571777172548923,/world,vicon/Archie/Archie,-0.825433625476,-0.170828395656,0.111430924016,0.00200085320522,0.00166606204644,0.668788411982,0.743448236814
1385571777182358948,894344,1385571777182358948,/world,vicon/Archie/Archie,-0.825432825745,-0.170826140907,0.111418454458,0.00195813651205,0.00170959444186,0.668782942871,0.743453171567
1385571777192468450,894345,1385571777192468450,/world,vicon/Archie/Archie,-0.825425807428,-0.17083594286,0.111419861068,0.00196205151782,0.00168561101882,0.66877246342,0.743462642801
1385571777202496182,894346,1385571777202496182,/world,vicon/Archie/Archie,-0.825415260145,-0.170814028685,0.111388016055,0.00192978842708,0.00171675792633,0.668770413923,0.74346449957
1385571777212471879,894347,1385571777212471879,/world,vicon/Archie/Archie,-0.825426513756,-0.170830025201,0.111413762518,0.00195145863411,0.0017173017255,0.668774049708,0.743461171226
1385571777222437334,894348,1385571777222437334,/world,vicon/Archie/Archie,-0.825429892716,-0.170832040847,0.111412207401,0.00196681918926,0.00168808576525,0.668790468202,0.743446428218
1385571777232462953,894349,1385571777232462953,/world,vicon/Archie/Archie,-0.82542651564,-0.170829782994,0.111414648184,0.00195473349231,0.00170946012833,0.668780480798,0.743455395613
1385571777242497149,894350,1385571777242497149,/world,vicon/Archie/Archie,-0.825435448534,-0.170831059101,0.111419974027,0.00195933583615,0.00172740006563,0.668774213629,0.74346097966
1385571777252461565,894351,1385571777252461565,/world,vicon/Archie/Archie,-0.825422344776,-0.170834305708,0.11142575768,0.00198060691662,0.00168996913142,0.668778067671,0.743457542434
1385571777262434531,894352,1385571777262434531,/world,vicon/Archie/Archie,-0.825425952195,-0.170828410198,0.111415888347,0.00195248766909,0.00171425707436,0.668786793739,0.743449711571
1385571777272448079,894353,1385571777272448079,/world,vicon/Archie/Archie,-0.825437802812,-0.170821361251,0.111424496084,0.00196967527595,0.00167260511265,0.668789806825,0.743447050608
1385571777282445298,894354,1385571777282445298,/world,vicon/Archie/Archie,-0.825413251757,-0.170810630871,0.111392053579,0.00195208993277,0.00171191970312,0.668769645782,0.743465143471
1385571777292459045,894355,1385571777292459045,/world,vicon/Archie/Archie,-0.825439266248,-0.170832095066,0.1114148114,0.00194784069329,0.00173108510876,0.668774696556,0.743460566881
1385571777302434258,894356,1385571777302434258,/world,vicon/Archie/Archie,-0.825426420012,-0.170825890879,0.111419106793,0.00196267741182,0.00171534098818,0.668779186727,0.743456525227
1385571777312497762,894357,1385571777312497762,/world,vicon/Archie/Archie,-0.8254267662,-0.17082068872,0.111409060723,0.00197389978053,0.00167674312725,0.668785366542,0.743451024447
1385571777322461363,894358,1385571777322461363,/world,vicon/Archie/Archie,-0.825430762735,-0.17082538446,0.111418530312,0.00195365067236,0.00172858323722,0.668786464133,0.743449971848
1385571777332381997,894359,1385571777332381997,/world,vicon/Archie/Archie,-0.825432310491,-0.170836744936,0.111422045956,0.00197749353737,0.00168310483978,0.668770704242,0.743464190008
1385571777342491976,894360,1385571777342491976,/world,vicon/Archie/Archie,-0.825430924191,-0.170829286781,0.111416598835,0.00196152888505,0.00170790474989,0.668760478644,0.74347337388
1385571777352395858,894361,1385571777352395858,/world,vicon/Archie/Archie,-0.825435388813,-0.170835604797,0.111421743937,0.0019506531365,0.00172641044791,0.668780919449,0.74345497257
1385571777362235462,894362,1385571777362235462,/world,vicon/Archie/Archie,-0.825432042628,-0.170833539561,0.111414614497,0.00196106126005,0.00172372408929,0.668780010224,0.743455769322
1385571777372260529,894363,1385571777372260529,/world,vicon/Archie/Archie,-0.825436372348,-0.170833232714,0.111418921527,0.00197116865576,0.0016975566145,0.668782190022,0.743453841947
1385571777382239739,894364,1385571777382239739,/world,vicon/Archie/Archie,-0.825422183783,-0.17083306882,0.111414212999,0.00195646245832,0.00173374120278,0.668776715065,0.743458722313
1385571777392196424,894365,1385571777392196424,/world,vicon/Archie/Archie,-0.825416574221,-0.170825604972,0.11139426698,0.00193518453196,0.00174224286787,0.668780640725,0.743455226791
1385571777402566298,894366,1385571777402566298,/world,vicon/Archie/Archie,-0.825424424224,-0.170838270977,0.111417192905,0.0019688168354,0.00169570274021,0.668769605231,0.743465173005
1385571777412993235,894367,1385571777412993235,/world,vicon/Archie/Archie,-0.825422698468,-0.170822002084,0.111389413354,0.00195414305789,0.00171277972878,0.668770174137,0.743464660825
1385571777423047752,894368,1385571777423047752,/world,vicon/Archie/Archie,-0.825420841089,-0.170833177852,0.111417825567,0.00194451297255,0.00171967211342,0.668774932548,0.743460389794
1385571777433019657,894369,1385571777433019657,/world,vicon/Archie/Archie,-0.825420102298,-0.170833635689,0.111417490605,0.00195764975261,0.00172085479479,0.668770311355,0.743464509521
1385571777442984653,894370,1385571777442984653,/world,vicon/Archie/Archie,-0.825413583981,-0.170824415416,0.111395270061,0.00195539525324,0.00173059846541,0.6687627728,0.74347127394
1385571777453066051,894371,1385571777453066051,/world,vicon/Archie/Archie,-0.825421028428,-0.170837290331,0.111412694007,0.00195630110206,0.00171743253865,0.668777760543,0.743457820132
1385571777463009582,894372,1385571777463009582,/world,vicon/Archie/Archie,-0.825428344796,-0.170833593369,0.111420418926,0.00196063932757,0.00173243630209,0.668778771705,0.7434568643
1385571777472858010,894373,1385571777472858010,/world,vicon/Archie/Archie,-0.825424589917,-0.170831068603,0.111415766185,0.00196021975701,0.00170459035541,0.668790799348,0.743446110097
1385571777482861628,894374,1385571777482861628,/world,vicon/Archie/Archie,-0.82540692921,-0.170826039377,0.11138443378,0.00193221748774,0.00174061188357,0.668764446948,0.74346980524
1385571777493258150,894375,1385571777493258150,/world,vicon/Archie/Archie,-0.825401799673,-0.170816716598,0.11139296199,0.00193910442571,0.00174285025692,0.668778071354,0.743457526442
1385571777503308564,894376,1385571777503308564,/world,vicon/Archie/Archie,-0.825429960573,-0.170838692729,0.111414645314,0.00195062384127,0.00171632860425,0.668781149436,0.743454789104
1385571777513256559,894377,1385571777513256559,/world,vicon/Archie/Archie,-0.825422663095,-0.17083963139,0.111421645004,0.00197461706604,0.00170606460456,0.668774801778,0.743460459431
1385571777523137204,894378,1385571777523137204,/world,vicon/Archie/Archie,-0.825433875486,-0.170837926402,0.111416290233,0.00196046149632,0.00170661518255,0.668774773484,0.743460521081
1385571777532523465,894379,1385571777532523465,/world,vicon/Archie/Archie,-0.82542100307,-0.170835538654,0.11142157158,0.00195365824327,0.00172334810884,0.668788667523,0.74344800187
1385571777542380818,894380,1385571777542380818,/world,vicon/Archie/Archie,-0.825430989848,-0.170834825707,0.111411619599,0.00195260667584,0.00171317460875,0.668767538681,0.74346703462
1385571777552378047,894381,1385571777552378047,/world,vicon/Archie/Archie,-0.825423523592,-0.170839380595,0.11140776419,0.00195053981192,0.00171713341354,0.668780526861,0.743455347508
1385571777562505012,894382,1385571777562505012,/world,vicon/Archie/Archie,-0.825423349297,-0.17083234991,0.111415360295,0.00196047128615,0.00170985842262,0.668772268899,0.743462766578
1385571777572484146,894383,1385571777572484146,/world,vicon/Archie/Archie,-0.825407301743,-0.170820529468,0.111390833592,0.00192384428595,0.00171953168007,0.6687628852,0.743471280826
1385571777582457414,894384,1385571777582457414,/world,vicon/Archie/Archie,-0.825411430009,-0.170830217909,0.111389415777,0.0019479396461,0.00169835442795,0.668775326304,0.743460075626
1385571777592534553,894385,1385571777592534553,/world,vicon/Archie/Archie,-0.825425793122,-0.170829125951,0.111422513634,0.0019517217614,0.00168299227889,0.668784819892,0.743451560629
1385571777602496022,894386,1385571777602496022,/world,vicon/Archie/Archie,-0.825424626989,-0.170832363199,0.111415075958,0.00194442616521,0.00171669039686,0.668773076958,0.743462066092
1385571777612441846,894387,1385571777612441846,/world,vicon/Archie/Archie,-0.825426475661,-0.170830999592,0.111411504098,0.0019516441304,0.00170118994066,0.668780602263,0.743455313435
1385571777622901950,894388,1385571777622901950,/world,vicon/Archie/Archie,-0.825433555022,-0.170833313918,0.111416090708,0.00195832487302,0.00170866156065,0.668771301208,0.743463645459
1385571777632447710,894389,1385571777632447710,/world,vicon/Archie/Archie,-0.825432602983,-0.170836516033,0.111404322427,0.00196139217355,0.00168194691352,0.668776661502,0.743458876486
1385571777642439538,894390,1385571777642439538,/world,vicon/Archie/Archie,-0.825426230708,-0.170830123284,0.111417621098,0.00196053616187,0.00169839542954,0.668782070402,0.743453975751
1385571777652539725,894391,1385571777652539725,/world,vicon/Archie/Archie,-0.825420701461,-0.17081294783,0.111387000033,0.00194529164332,0.0017443494725,0.668768206147,0.743466380903
1385571777662510776,894392,1385571777662510776,/world,vicon/Archie/Archie,-0.825420880704,-0.170821828304,0.111388453784,0.00194178650972,0.00172253222687,0.668757081331,0.743476447857
1385571777672486365,894393,1385571777672486365,/world,vicon/Archie/Archie,-0.82542756612,-0.170828729204,0.111418541437,0.00195878736054,0.00172645505743,0.66878854723,0.743448089378
1385571777682440275,894394,1385571777682440275,/world,vicon/Archie/Archie,-0.825432984159,-0.170823723505,0.111414880102,0.00195663964294,0.00172486904222,0.668778192259,0.743457413674
1385571777692456500,894395,1385571777692456500,/world,vicon/Archie/Archie,-0.825426035511,-0.170835023297,0.111410030465,0.00195081780349,0.00173220657184,0.668775034706,0.743460252282
1385571777702502343,894396,1385571777702502343,/world,vicon/Archie/Archie,-0.825437624879,-0.170828166328,0.111416141988,0.00195774028789,0.00171377715123,0.668781069076,0.743454848573
1385571777712367709,894397,1385571777712367709,/world,vicon/Archie/Archie,-0.825424339921,-0.170828496582,0.111414532465,0.00196079964663,0.00172278198603,0.6687767252,0.743458727245
1385571777722463213,894398,1385571777722463213,/world,vicon/Archie/Archie,-0.825432899637,-0.170826787891,0.11141006181,0.00195811765944,0.00170864690228,0.668774768668,0.743460526924
1385571777732500933,894399,1385571777732500933,/world,vicon/Archie/Archie,-0.825432974231,-0.170822135927,0.111419065436,0.0019778245099,0.00169188027114,0.668774618734,0.743460647976
1385571777742468157,894400,1385571777742468157,/world,vicon/Archie/Archie,-0.825412728297,-0.170810339604,0.111395654752,0.00195064235868,0.00172674681763,0.668763940406,0.743470245102
1385571777752487363,894401,1385571777752487363,/world,vicon/Archie/Archie,-0.82542119622,-0.170818580967,0.111428246678,0.00198340667225,0.00170090036495,0.668765266893,0.743469024797
1385571777762421717,894402,1385571777762421717,/world,vicon/Archie/Archie,-0.825420955642,-0.170819518938,0.111421324374,0.00195780741781,0.00171909560917,0.66876810125,0.74346650123
1385571777772257892,894403,1385571777772257892,/world,vicon/Archie/Archie,-0.825422817135,-0.170817991003,0.111421911344,0.001969544743,0.00171516489317,0.668766613848,0.743467817262
1385571777782235745,894404,1385571777782235745,/world,vicon/Archie/Archie,-0.825418919277,-0.170820874861,0.11141243101,0.00196085201381,0.00171300798284,0.668771297725,0.743463631929
1385571777792309981,894405,1385571777792309981,/world,vicon/Archie/Archie,-0.825430093662,-0.170822430809,0.111413463808,0.00193183689917,0.00170726032033,0.668771733202,0.743463329384
1385571777802336177,894406,1385571777802336177,/world,vicon/Archie/Archie,-0.825430440021,-0.170820735992,0.111411739143,0.0019432102234,0.00169674355434,0.668770536659,0.743464400151
1385571777812260525,894407,1385571777812260525,/world,vicon/Archie/Archie,-0.825424033881,-0.170827572691,0.111417408912,0.00196698427219,0.00168218352661,0.668772921657,0.743462225329
1385571777822311370,894408,1385571777822311370,/world,vicon/Archie/Archie,-0.825411092364,-0.170822567871,0.111419992281,0.00197492712889,0.00170033850684,0.668767595905,0.743466953656
1385571777832293587,894409,1385571777832293587,/world,vicon/Archie/Archie,-0.825410696737,-0.170817846003,0.111393123687,0.00193996156779,0.00171241194605,0.66875845153,0.743475243503
1385571777842342247,894410,1385571777842342247,/world,vicon/Archie/Archie,-0.825423107643,-0.170827076109,0.111419431414,0.00195595756049,0.00172027753395,0.668781061389,0.743454845167
1385571777852371925,894411,1385571777852371925,/world,vicon/Archie/Archie,-0.825420627747,-0.170833978193,0.111412083469,0.0019397032181,0.00167058877499,0.668789219819,0.743447662004
1385571777862278383,894412,1385571777862278383,/world,vicon/Archie/Archie,-0.825418151135,-0.170817664776,0.111425581164,0.00196317968449,0.00171056917075,0.668776881077,0.743458608946
1385571777872317664,894413,1385571777872317664,/world,vicon/Archie/Archie,-0.825430658353,-0.170828263633,0.111425585025,0.00195711250619,0.00171729318376,0.668794455141,0.743442800347
1385571777882312798,894414,1385571777882312798,/world,vicon/Archie/Archie,-0.825411243714,-0.170814881771,0.111405189488,0.00195303227248,0.00166863606464,0.668776808751,0.743458796031
1385571777892759440,894415,1385571777892759440,/world,vicon/Archie/Archie,-0.825424480228,-0.170826461042,0.111420843585,0.00197004363271,0.00168510496939,0.668775704576,0.743459707259
1385571777902356893,894416,1385571777902356893,/world,vicon/Archie/Archie,-0.825428988263,-0.170816448627,0.111427655706,0.00198083155331,0.00170535573336,0.668768318737,0.743466276251
1385571777912465269,894417,1385571777912465269,/world,vicon/Archie/Archie,-0.825419677506,-0.1708032675,0.111403035643,0.00194080372224,0.00173578332866,0.668769782654,0.743464994566
1385571777922734334,894418,1385571777922734334,/world,vicon/Archie/Archie,-0.825421464422,-0.170805448658,0.111401518259,0.00194215942768,0.00172510725541,0.66877628771,0.743459164325
1385571777932725857,894419,1385571777932725857,/world,vicon/Archie/Archie,-0.825422362095,-0.170806201243,0.111396544314,0.00195437519882,0.00171070977146,0.668764888121,0.743469419886
1385571777942757387,894420,1385571777942757387,/world,vicon/Archie/Archie,-0.825434403087,-0.170817529686,0.111425360602,0.00197025438008,0.00171945513356,0.668786442866,0.74344996833
1385571777952524050,894421,1385571777952524050,/world,vicon/Archie/Archie,-0.825431658694,-0.170811099435,0.11141825069,0.00197109635583,0.00171235990663,0.668779564861,0.743456169674
1385571777962492180,894422,1385571777962492180,/world,vicon/Archie/Archie,-0.825421245756,-0.170803226994,0.111397242987,0.00195612818559,0.00173458112173,0.668774444803,0.743460763436
1385571777972526073,894423,1385571777972526073,/world,vicon/Archie/Archie,-0.825442996986,-0.170812670394,0.111420017808,0.00196974115309,0.00170596340083,0.66878055008,0.743455301712
1385571777983260137,894424,1385571777983260137,/world,vicon/Archie/Archie,-0.825445220318,-0.170818840446,0.11142214976,0.00196106927294,0.00169005697693,0.668780360695,0.743455531329
1385571777992486842,894425,1385571777992486842,/world,vicon/Archie/Archie,-0.825440108354,-0.170811251662,0.111421248185,0.00197173889565,0.00171843255312,0.66877913147,0.743456543817
1385571778002448892,894426,1385571778002448892,/world,vicon/Archie/Archie,-0.825439751877,-0.170816095706,0.111420404962,0.00198061631053,0.00171690597489,0.668781740879,0.743454176435
1385571778012505399,894427,1385571778012505399,/world,vicon/Archie/Archie,-0.825441911144,-0.17081753185,0.111422936371,0.0019702973414,0.00168515440037,0.66878936836,0.743447415055
1385571778022508714,894428,1385571778022508714,/world,vicon/Archie/Archie,-0.825434997411,-0.170809919069,0.111424463933,0.00196564529465,0.00171414962763,0.668792424325,0.743444611989
1385571778032376175,894429,1385571778032376175,/world,vicon/Archie/Archie,-0.825438509999,-0.170813052088,0.111424170757,0.00198445214621,0.00169783321927,0.668783601788,0.743452536004
1385571778042403257,894430,1385571778042403257,/world,vicon/Archie/Archie,-0.825436416557,-0.170815961927,0.111420892507,0.00195602068983,0.00171950531761,0.668790971709,0.743445931756
1385571778052518769,894431,1385571778052518769,/world,vicon/Archie/Archie,-0.825432489746,-0.170814777157,0.111422754842,0.00196479287071,0.00171551142956,0.668778696138,0.743456960558
1385571778062474804,894432,1385571778062474804,/world,vicon/Archie/Archie,-0.825467542913,-0.170803827754,0.111470879171,0.00210813412204,0.00175540699376,0.668777107049,0.743457904258
1385571778072539677,894433,1385571778072539677,/world,vicon/Archie/Archie,-0.825410660551,-0.170800475721,0.111393774155,0.00193556261213,0.00174146398853,0.66876954258,0.7434652109
1385571778082536149,894434,1385571778082536149,/world,vicon/Archie/Archie,-0.825427080898,-0.170817302299,0.111416593471,0.00194584834328,0.00171496544892,0.668778169782,0.743457485127
1385571778092538907,894435,1385571778092538907,/world,vicon/Archie/Archie,-0.825413390357,-0.170796247548,0.111389794496,0.00194422098721,0.0017297853036,0.668764312859,0.743469919832
1385571778102516222,894436,1385571778102516222,/world,vicon/Archie/Archie,-0.825422369187,-0.170825168762,0.111419133564,0.0019636554151,0.00171745027807,0.668775410337,0.743459914824
1385571778112470399,894437,1385571778112470399,/world,vicon/Archie/Archie,-0.825424343739,-0.170802488587,0.111385461664,0.00194813839594,0.0017335724894,0.668768083568,0.743466508918
1385571778122479678,894438,1385571778122479678,/world,vicon/Archie/Archie,-0.825419633823,-0.170822552681,0.111407803837,0.0019722819152,0.00172322844663,0.668776433474,0.743458958261
1385571778132470987,894439,1385571778132470987,/world,vicon/Archie/Archie,-0.825417803115,-0.170825506656,0.111409870211,0.0019754595478,0.0017327584696,0.668782700977,0.743453289711
1385571778142464559,894440,1385571778142464559,/world,vicon/Archie/Archie,-0.825422898364,-0.17081494304,0.111407404533,0.00195562231281,0.00173958351472,0.668781091167,0.743454774339
1385571778152509247,894441,1385571778152509247,/world,vicon/Archie/Archie,-0.825405472394,-0.170807911049,0.111381966792,0.00195683086042,0.00175320790595,0.668782814513,0.743453188901
1385571778162529394,894442,1385571778162529394,/world,vicon/Archie/Archie,-0.825430704459,-0.170834133185,0.111414620737,0.00197201508712,0.00172370397828,0.668799916484,0.743437833119
1385571778172461140,894443,1385571778172461140,/world,vicon/Archie/Archie,-0.825426779812,-0.170826430947,0.111407484588,0.00195591334977,0.00172227748409,0.668782062733,0.743453939885
1385571778182450263,894444,1385571778182450263,/world,vicon/Archie/Archie,-0.825431867806,-0.170825963373,0.111409527724,0.00196711737043,0.00173394614246,0.668790636358,0.743446170614
1385571778192244306,894445,1385571778192244306,/world,vicon/Archie/Archie,-0.825423660363,-0.170819057114,0.11141460923,0.00196597602531,0.00175501657904,0.668780451532,0.743455286149
1385571778202242541,894446,1385571778202242541,/world,vicon/Archie/Archie,-0.825418458557,-0.170811871421,0.111390657054,0.00193940541112,0.00173561993967,0.668767488557,0.743467062202
1385571778212283893,894447,1385571778212283893,/world,vicon/Archie/Archie,-0.825419811196,-0.170819300516,0.111410406519,0.00195242278153,0.00174559771874,0.66877072392,0.743464094467
1385571778222315701,894448,1385571778222315701,/world,vicon/Archie/Archie,-0.82542448737,-0.170816535826,0.111407655846,0.00194029584665,0.00172280182863,0.668781485564,0.743454498791
1385571778232320310,894449,1385571778232320310,/world,vicon/Archie/Archie,-0.825432076296,-0.170813788062,0.111408750282,0.00194802758067,0.00172126081356,0.66878842728,0.743448237597
1385571778242554577,894450,1385571778242554577,/world,vicon/Archie/Archie,-0.825432975121,-0.170806523804,0.111415539967,0.00195155817252,0.00173376467878,0.668781901221,0.743454069919
1385571778252552682,894451,1385571778252552682,/world,vicon/Archie/Archie,-0.825435169025,-0.170813391203,0.111418527828,0.00197166069868,0.00171494872104,0.668785373675,0.743450936823
1385571778262554176,894452,1385571778262554176,/world,vicon/Archie/Archie,-0.825423357798,-0.170809888176,0.111418973901,0.0019628719534,0.00171964224134,0.668782327915,0.743453689098
1385571778272547536,894453,1385571778272547536,/world,vicon/Archie/Archie,-0.825411781261,-0.170801011373,0.111391845381,0.00193767202364,0.00173725453754,0.668775855949,0.743459536137
1385571778282434617,894454,1385571778282434617,/world,vicon/Archie/Archie,-0.825432340037,-0.170813506794,0.11142271995,0.00196112459766,0.00167864432282,0.668780245953,0.743455660256
1385571778292538090,894455,1385571778292538090,/world,vicon/Archie/Archie,-0.825434695714,-0.170810535576,0.111424382546,0.00196570287791,0.0017040403286,0.668789266907,0.743447475433
1385571778302508654,894456,1385571778302508654,/world,vicon/Archie/Archie,-0.825439518218,-0.170809121665,0.111421100998,0.00198008469124,0.00171223539015,0.668780091737,0.743455672122
1385571778312549795,894457,1385571778312549795,/world,vicon/Archie/Archie,-0.825427235519,-0.170808503107,0.111402193914,0.00195775267404,0.00172321344924,0.668774745958,0.743460514694
1385571778322470610,894458,1385571778322470610,/world,vicon/Archie/Archie,-0.825433905238,-0.170823984051,0.11141679351,0.00195804464801,0.00170023181882,0.668785808408,0.743450615539
1385571778332490834,894459,1385571778332490834,/world,vicon/Archie/Archie,-0.825448947176,-0.170816586116,0.111433702944,0.00196957723923,0.0017086633276,0.668784864832,0.743451414557
1385571778342602798,894460,1385571778342602798,/world,vicon/Archie/Archie,-0.825432853541,-0.170822329911,0.111420454183,0.00196455623611,0.00168602306229,0.668784619484,0.743451700238
1385571778352512172,894461,1385571778352512172,/world,vicon/Archie/Archie,-0.825440057267,-0.170821915824,0.111432831614,0.00198520849703,0.00169735375696,0.668776332261,0.743459074425
1385571778362377413,894462,1385571778362377413,/world,vicon/Archie/Archie,-0.825431413023,-0.170819825754,0.111432354363,0.00198957044948,0.00171341419454,0.66878974173,0.743446963258
1385571778372480980,894463,1385571778372480980,/world,vicon/Archie/Archie,-0.825421657294,-0.170820739025,0.111422163582,0.00197150218916,0.00171898203311,0.668775671115,0.743459655936
1385571778382515385,894464,1385571778382515385,/world,vicon/Archie/Archie,-0.825427175579,-0.170824378635,0.111429953766,0.00197552929038,0.00172141268159,0.668779786362,0.74345593775
1385571778392481435,894465,1385571778392481435,/world,vicon/Archie/Archie,-0.825438511078,-0.170826213053,0.111423738917,0.00197017011606,0.00171950020104,0.668771206822,0.743463674079
1385571778402540295,894466,1385571778402540295,/world,vicon/Archie/Archie,-0.825420190876,-0.170815715189,0.111400630913,0.00195380992305,0.00172131857886,0.668758006467,0.743475587007
1385571778412535133,894467,1385571778412535133,/world,vicon/Archie/Archie,-0.825426902456,-0.170829345939,0.111422334969,0.0019731515735,0.00171708074903,0.668770795988,0.743464041323
1385571778422383077,894468,1385571778422383077,/world,vicon/Archie/Archie,-0.825432227202,-0.170832946862,0.111425567745,0.00197319548853,0.00171506690763,0.668764450295,0.743469753969
1385571778432498815,894469,1385571778432498815,/world,vicon/Archie/Archie,-0.825435090512,-0.170820585875,0.11141547292,0.00196657344871,0.00171864349159,0.668769328651,0.743465375058
1385571778442500099,894470,1385571778442500099,/world,vicon/Archie/Archie,-0.825435084653,-0.170833835939,0.111425830306,0.0019661366143,0.00171788923236,0.668776674163,0.743458770383
1385571778452492900,894471,1385571778452492900,/world,vicon/Archie/Archie,-0.825419436865,-0.170803215934,0.111397365612,0.00194165806571,0.00171262118609,0.668756312886,0.743477162304
1385571778462552598,894472,1385571778462552598,/world,vicon/Archie/Archie,-0.825434691456,-0.170827683821,0.111418136517,0.00198134531125,0.00170107739129,0.668775601053,0.743459733975
1385571778472483259,894473,1385571778472483259,/world,vicon/Archie/Archie,-0.825432510396,-0.170828336712,0.111426609517,0.00196692701758,0.00169099007849,0.668784962405,0.743451374208
1385571778482464896,894474,1385571778482464896,/world,vicon/Archie/Archie,-0.825431981962,-0.170825913901,0.111410907723,0.00195534599325,0.00168698321525,0.668788364629,0.743448353315
1385571778492456164,894475,1385571778492456164,/world,vicon/Archie/Archie,-0.825433226683,-0.170814227882,0.111421039773,0.00196238056994,0.00171717581471,0.668780458125,0.743455378082
1385571778502503285,894476,1385571778502503285,/world,vicon/Archie/Archie,-0.825416910242,-0.170797812854,0.111390329399,0.00193714178234,0.00174562382807,0.668772771897,0.74346229215
1385571778512473608,894477,1385571778512473608,/world,vicon/Archie/Archie,-0.825433958406,-0.170823981075,0.111416524201,0.00196497624864,0.00170502998354,0.668768932693,0.743465766801
1385571778522292278,894478,1385571778522292278,/world,vicon/Archie/Archie,-0.82542532628,-0.170813900044,0.111415149496,0.00195818807539,0.0017136739719,0.668780534535,0.743455328482
1385571778532271231,894479,1385571778532271231,/world,vicon/Archie/Archie,-0.825430251581,-0.170813045287,0.111413259411,0.00195909558434,0.00167160269256,0.668788649516,0.743448121907
1385571778542295839,894480,1385571778542295839,/world,vicon/Archie/Archie,-0.825433902149,-0.170809341656,0.111409789722,0.00196318941384,0.00170043458587,0.668793864703,0.743443354228
1385571778552455316,894481,1385571778552455316,/world,vicon/Archie/Archie,-0.825431104654,-0.170803138453,0.111409431294,0.00196534416544,0.00170708953029,0.668784693813,0.743451583217
1385571778562346954,894482,1385571778562346954,/world,vicon/Archie/Archie,-0.825433547793,-0.170813446228,0.111421818216,0.00196512061384,0.00168180968321,0.668788239094,0.743448452192
1385571778572363487,894483,1385571778572363487,/world,vicon/Archie/Archie,-0.825422335992,-0.17081194577,0.111417461202,0.00195707161504,0.00169613934528,0.668797567167,0.743440049455
1385571778582305443,894484,1385571778582305443,/world,vicon/Archie/Archie,-0.825413537327,-0.170800038194,0.111388246045,0.00191936377911,0.00170460527607,0.668783754913,0.743452553649
1385571778592330802,894485,1385571778592330802,/world,vicon/Archie/Archie,-0.825430129317,-0.170804111032,0.111422276019,0.00196573463104,0.00169674114431,0.668789994512,0.743446837506
1385571778602370074,894486,1385571778602370074,/world,vicon/Archie/Archie,-0.82547466472,-0.17080155481,0.11137960552,0.00215387053631,0.0014661488864,0.668753259265,0.743479851422
1385571778613126178,894487,1385571778613126178,/world,vicon/Archie/Archie,-0.825427611401,-0.170806177604,0.111420637578,0.00194734298755,0.00170998934073,0.66878227586,0.743453799026
1385571778622964110,894488,1385571778622964110,/world,vicon/Archie/Archie,-0.825436970688,-0.170812745265,0.111417729411,0.0019680558025,0.00169489197505,0.668787569743,0.74344901685
1385571778632864231,894489,1385571778632864231,/world,vicon/Archie/Archie,-0.825433550813,-0.170819252317,0.111413356872,0.00195875575931,0.00171575678712,0.668776928169,0.743458566299
1385571778642996646,894490,1385571778642996646,/world,vicon/Archie/Archie,-0.825421623187,-0.170796489413,0.111390011497,0.00194470285713,0.00172055974465,0.668769459191,0.74346531073
1385571778653186089,894491,1385571778653186089,/world,vicon/Archie/Archie,-0.825437841203,-0.170816953508,0.111416457242,0.00196908576294,0.00170980897452,0.668780151824,0.743455652867
1385571778663339240,894492,1385571778663339240,/world,vicon/Archie/Archie,-0.825420820183,-0.170798058613,0.11140095037,0.00195610118332,0.00171581414184,0.66878391537,0.743452287771
1385571778673344041,894493,1385571778673344041,/world,vicon/Archie/Archie,-0.825427952258,-0.17080841707,0.111420881451,0.00195359478339,0.00170391753157,0.668783273561,0.743452899072
1385571778683259231,894494,1385571778683259231,/world,vicon/Archie/Archie,-0.825446551872,-0.170818020629,0.111423865859,0.00197638157455,0.00170337934938,0.668775529351,0.743459806416
1385571778693176431,894495,1385571778693176431,/world,vicon/Archie/Archie,-0.825431012814,-0.170807368677,0.1114172813,0.0019534506859,0.00171615615607,0.668776017451,0.743459398569
1385571778702593614,894496,1385571778702593614,/world,vicon/Archie/Archie,-0.825438940963,-0.170813084436,0.111422044244,0.00197020950106,0.00171811967328,0.668786837655,0.743449616396
1385571778712510589,894497,1385571778712510589,/world,vicon/Archie/Archie,-0.825437270577,-0.170815603903,0.111427669933,0.00198889204435,0.00169141595723,0.668776435367,0.743458985364
1385571778722510444,894498,1385571778722510444,/world,vicon/Archie/Archie,-0.825426568048,-0.170817358072,0.111424201303,0.00197331313018,0.00172768526487,0.66877396156,0.743461168777
1385571778732501207,894499,1385571778732501207,/world,vicon/Archie/Archie,-0.825424062993,-0.170801822711,0.111400622998,0.00195094219536,0.00173739818045,0.668773865563,0.743461291536
1385571778742542784,894500,1385571778742542784,/world,vicon/Archie/Archie,-0.8254318479,-0.170817814188,0.111420936985,0.00196700371156,0.00171363273966,0.66877788055,0.743457692708
1385571778752510165,894501,1385571778752510165,/world,vicon/Archie/Archie,-0.825426491023,-0.170804538102,0.11139541344,0.0019612903728,0.00173528097661,0.668777513969,0.743457987347
1385571778762514250,894502,1385571778762514250,/world,vicon/Archie/Archie,-0.825440184529,-0.170809953692,0.111421638197,0.00195815194856,0.00170629893016,0.668778146145,0.743457494026
1385571778772422436,894503,1385571778772422436,/world,vicon/Archie/Archie,-0.825433114113,-0.170812058714,0.111422722595,0.00197496301855,0.00171240538709,0.668763085492,0.743470983074
1385571778782504944,894504,1385571778782504944,/world,vicon/Archie/Archie,-0.825434105848,-0.170817039105,0.111431041894,0.00199544498168,0.00169503389834,0.668782394481,0.743453599018
