%time,field.linear.x,field.linear.y,field.linear.z,field.angular.x,field.angular.y,field.angular.z
1385571778585357571,0.0,0.0,0.0,0.0,0.0,0.0
1385571778585420006,-0.825413537327,0.170800038194,-0.111388246045,0.00513395899607,3.26923395602e-05,-1.46514914228
1385571778594480714,-0.825430129317,0.170804111032,-0.111422276019,0.00519238875213,0.000106453630795,-1.46516587335
1385571778604460170,-0.82547466472,0.17080155481,-0.11137960552,0.00516372660065,0.000700711627282,-1.46506555975
1385571778614475161,-0.825427611401,0.170806177604,-0.111420637578,0.00518276342254,6.21008069079e-05,-1.46514520026
1385571778624510972,-0.825436970688,0.170812745265,-0.111417729411,0.0051933670507,0.000112290969752,-1.46515933768
1385571778634452740,-0.825433550813,0.170819252317,-0.111413356872,0.00520744815203,6.87531574053e-05,-1.46513085401
1385571778644421458,-0.825421623187,0.170796489413,-0.111390011497,0.00519297719235,4.27627857418e-05,-1.46511079507
1385571778654448273,-0.825437841203,0.170816953508,-0.111416457242,0.00521485215183,9.14366562595e-05,-1.46513948485
1385571778664461425,-0.825420820183,0.170798058613,-0.11140095037,0.00520357709343,6.51661182462e-05,-1.46514965087
1385571778674438861,-0.825427952258,0.17080841707,-0.111420881451,0.00518393773446,7.9498171722e-05,-1.46514784238
1385571778684444355,-0.825446551872,0.170818020629,-0.111423865859,0.00521710107636,0.00011072310498,-1.46512700553
1385571778694469885,-0.825431012814,0.170807368677,-0.1114172813,0.00520009414851,6.10570927687e-05,-1.46512840689
1385571778704447927,-0.825438940963,0.170813084436,-0.111422044244,0.00522763846886,8.06295395046e-05,-1.46515752802
1385571778714489840,-0.825437270577,0.170815603903,-0.111427669933,0.00521970134885,0.000145251481223,-1.46512936066
1385571778724504669,-0.825426568048,0.170817358072,-0.111424201303,0.0052450492721,7.04670664032e-05,-1.46512295612
1385571778734451676,-0.825424062993,0.170801822711,-0.111400622998,0.00522477677587,2.61017166618e-05,-1.46512276579
1385571778744469946,-0.8254318479,0.170817814188,-0.111420936985,0.00521687110666,8.29502610444e-05,-1.46513340126
1385571778754465710,-0.825426491023,0.170804538102,-0.11139541344,0.00523733172933,4.31167946879e-05,-1.46513256555
1385571778764506627,-0.825440184529,0.170809953692,-0.111421638197,0.00519389972149,8.20170067959e-05,-1.46513406531
1385571778774427699,-0.825433114113,0.170812058714,-0.111422722595,0.00522706624066,9.53172910542e-05,-1.46509359264
1385571778784441455,-0.825434105848,0.170817039105,-0.111431041894,0.00523428312412,0.000148678841992,-1.46514541597
1385571778794480858,-0.82543596068,0.170814431954,-0.111423774471,0.00521364393273,0.000107351788027,-1.46513493855
1385571778804461192,-0.825424199368,0.170803049013,-0.111393623025,0.0051845143179,5.39789639676e-05,-1.46513705957
1385571778814508664,-0.825438307599,0.170815912923,-0.111417466465,0.0052128842807,9.8054344804e-05,-1.46512149171
1385571778824499987,-0.825439512103,0.170806646677,-0.111418575487,0.00521973977341,0.000116367042277,-1.46514952988
1385571778834461774,-0.825446555852,0.170815109697,-0.111421514704,0.00523317413524,0.000106543566448,-1.46517874011
1385571778844435995,-0.825425146762,0.170804666487,-0.111390550835,0.00519939648561,4.65324292313e-05,-1.46510375641
1385571778854507296,-0.825420808735,0.170800112032,-0.111384826066,0.00520814983896,3.74253704849e-05,-1.46516020844
1385571778864494815,-0.825435783568,0.170813557351,-0.111420119949,0.00522089371511,8.31950134645e-05,-1.46515352285
1385571778874446116,-0.825433081261,0.170812476063,-0.111415265365,0.00521009753555,8.95965213228e-05,-1.46515055926
1385571778884478671,-0.825429866168,0.170817136121,-0.111404752153,0.00516780438293,0.000141286432391,-1.46516361127
1385571778894527473,-0.825423665004,0.170795645958,-0.111386880646,0.00521571970667,-1.42923197564e-05,-1.46511560135
1385571778904512461,-0.825414313501,0.17079411563,-0.111383372623,0.00516777201204,5.08824570126e-05,-1.46510367557
1385571778914499089,-0.825432282386,0.170810392234,-0.111416246585,0.0052463458196,8.5381705521e-05,-1.46511381866
1385571778924496556,-0.825416590781,0.170819775933,-0.111412319846,0.00516452246997,0.000121479320369,-1.46516122332
1385571778934576417,-0.825431522911,0.170813963511,-0.111413998133,0.00522886177812,6.30878437389e-05,-1.46512679387
1385571778944443731,-0.825432643551,0.170812636526,-0.111415481653,0.00521945045486,9.62104700685e-05,-1.46514397547
1385571778954481546,-0.825412788715,0.170799527339,-0.111392718698,0.00520617616512,5.83081469053e-05,-1.46513538877
1385571778964502720,-0.82541472419,0.170802544963,-0.111390421041,0.00516241048775,3.09369321728e-05,-1.46513374429
1385571778974555396,-0.825425825516,0.170820264958,-0.111418562993,0.00519256184908,0.000101300489285,-1.46514085823
1385571778984591321,-0.825429139089,0.170818054104,-0.111418311019,0.00524011071238,6.52275963663e-05,-1.46514096547
1385571778994512121,-0.825431348835,0.170817871703,-0.111415213671,0.0051933817501,7.48861324116e-05,-1.46512289422
1385571779004500155,-0.825415034325,0.170800809325,-0.111396875381,0.00522542589897,2.97353782452e-05,-1.46514988451
1385571779014557436,-0.825436752034,0.170814898703,-0.111423127939,0.0052438630267,9.95737563907e-05,-1.46511685667
1385571779024523608,-0.825426843704,0.170798952178,-0.111400194354,0.00519130437735,7.92982396882e-05,-1.46513509703
1385571779034454399,-0.825438270891,0.1708200517,-0.111420586301,0.00520250079727,0.00012370314265,-1.46514130678
1385571779044563296,-0.825436202798,0.170816419129,-0.111414095815,0.0052207714664,2.31272539843e-05,-1.46511700084
1385571779054544203,-0.825434750221,0.170804615773,-0.111392584563,0.00522095091926,8.458394462e-05,-1.46511889678
1385571779064511029,-0.825443944853,0.170815796614,-0.111415347048,0.00518473278802,7.25724425363e-05,-1.46513425224
1385571779074584431,-0.82543682628,0.170813504521,-0.111419664666,0.00525329069742,7.9777242098e-06,-1.46515569469
1385571779084469314,-0.825437960613,0.170816744473,-0.11141361942,0.00521483399432,4.44835103048e-05,-1.46514938211
1385571779094472072,-0.825424571364,0.170799677212,-0.11138651115,0.00518275526078,-2.23305101358e-05,-1.46529638569
1385571779104517826,-0.825430070238,0.170836939069,-0.111420522497,0.00519940968112,0.00024124720915,-1.46469748878
1385571779114466541,-0.825482720531,0.170800559001,-0.111374834281,0.00507964718286,0.000665004273749,-1.46472189179
1385571779124502101,-0.825411592547,0.17080143607,-0.111413494484,0.00526854574246,-5.78732201054e-05,-1.465555445
1385571779134516715,-0.825468852088,0.170800439484,-0.11136938396,0.00526523967562,0.000714955378286,-1.46549173534
1385571779144647374,-0.825481692917,0.170776983352,-0.111384848282,0.00534759097696,0.000814264984787,-1.46462383497
1385571779154679921,-0.825427879664,0.170809496151,-0.111385825287,0.00529147246543,-0.000367298107771,-1.46326994765
1385571779164556679,-0.825342556887,0.170788219873,-0.111512896413,0.00594813411356,3.17039285505e-05,-1.46421843889
1385571779174498438,-0.825501253631,0.170795907861,-0.11134389624,0.00526654957896,0.000590343256719,-1.46522484171
1385571779184495841,-0.825424829978,0.170784182355,-0.111340282754,0.00522112082223,-0.000213836905552,-1.46352112151
1385571779194531942,-0.825321266439,0.170799484963,-0.11146923982,0.00567344679983,-0.000231611651219,-1.46267272621
1385571779204530114,-0.825471415087,0.170770331961,-0.111303733277,0.00535769274785,-0.000205923750259,-1.46450142999
1385571779214539234,-0.825417746804,0.170776081745,-0.111346711976,0.00561331893589,-0.000533153142699,-1.46483401963
1385571779224512964,-0.825435149361,0.170811526253,-0.111370678539,0.00575071014981,-0.000518568289336,-1.46326102695
1385571779234478585,-0.825399090682,0.170779935718,-0.111437418355,0.00590957484037,-0.000514276363046,-1.4636628997
1385571779244454795,-0.825408292619,0.17074980637,-0.111360206708,0.00585811186174,-0.000820184065325,-1.46459030123
1385571779254507884,-0.825404521708,0.170752178729,-0.111352188185,0.00564912020482,-0.000547033743847,-1.46408243694
1385571779264546588,-0.825421046939,0.170762647443,-0.111396811823,0.00535657896123,-0.000310652839675,-1.46334694733
1385571779274523361,-0.825443182426,0.170725813616,-0.111410745478,0.00567891155383,-0.000533431521788,-1.464052336
1385571779284542543,-0.825441555657,0.170753455869,-0.111406606294,0.00591535989378,-0.000666467564474,-1.46452940562
1385571779294608430,-0.825414305411,0.170748402482,-0.111347923886,0.00571772106524,-0.0004861568143,-1.46363825096
1385571779304448558,-0.82542100977,0.170768816841,-0.111373469439,0.00569810539066,-0.000594909518659,-1.46348338365
1385571779314603447,-0.825339599398,0.170764742781,-0.111471665633,0.00628985148443,-0.00064781408052,-1.4639683938
1385571779324610934,-0.825301852458,0.170757249256,-0.111464379724,0.00613743940791,-0.000340091102656,-1.4640873851
1385571779334559731,-0.825405124644,0.170734726023,-0.111342906059,0.00587517919157,-0.000575874277251,-1.46348370403
1385571779344449784,-0.825425856773,0.170745899131,-0.111372546795,0.00557702742276,-0.000596738765697,-1.4637747706
1385571779354519848,-0.825347440363,0.170732950435,-0.111528345783,0.00648614395498,-0.000414618430481,-1.46422701537
1385571779364517540,-0.825420803828,0.170750543985,-0.111390214008,0.00575285618812,-0.000607874147555,-1.46401314838
1385571779374525507,-0.825461059156,0.170781732335,-0.111387172439,0.0059303608398,-0.000636950714273,-1.4634122184
1385571779384626617,-0.825425597165,0.170751748277,-0.111415607917,0.00586658873763,-0.000556707361646,-1.46408679296
1385571779394569444,-0.825418708931,0.17076341992,-0.111400208568,0.00581757855453,-0.000525955731547,-1.46427089804
1385571779404534200,-0.825431614685,0.170755393844,-0.111414334373,0.00584023251769,-0.000451427733226,-1.46404345512
1385571779414559591,-0.825379335792,0.170800175236,-0.111366172206,0.00551514761377,-0.00064092316747,-1.46403586725
1385571779424456832,-0.825496034348,0.170774366707,-0.111340144056,0.00588695862261,-0.000260663643523,-1.46379862574
1385571779434451351,-0.82539434706,0.170756198421,-0.111391282358,0.00577651989403,-0.000491524298174,-1.46398316959
1385571779444525153,-0.825398542579,0.170749910446,-0.111399949148,0.00559681269264,-0.00038406748251,-1.46395010045
1385571779454446979,-0.825418604201,0.1707432295,-0.111410767802,0.00576607922475,-0.000446079201657,-1.46401418918
1385571779464513748,-0.825411741123,0.170757102332,-0.111390313412,0.00563915470397,-0.000608695303559,-1.46407233066
1385571779474511900,-0.825389449845,0.170750817474,-0.111384029,0.005720276501,-0.000523186700863,-1.46382904003
1385571779484473676,-0.825389030773,0.170765789061,-0.111388157957,0.00575681307622,-0.000514339691493,-1.46394977539
1385571779494528264,-0.82540297899,0.170749121542,-0.111377612705,0.00579430907601,-0.000641469669652,-1.46411497257
1385571779504457547,-0.825398430001,0.170775208102,-0.111388577178,0.00578872964988,-0.000675407333018,-1.46391998084
1385571779514522425,-0.825403160385,0.170763421905,-0.111404462286,0.00571625604648,-0.000714411847129,-1.4639044037
1385571779524516126,-0.825395178479,0.170768728356,-0.111390268198,0.00556227227928,-0.000537162627592,-1.46415219766
1385571779534470689,-0.825418418684,0.170754820836,-0.111392321062,0.00580994433931,-0.00050051679452,-1.4638462514
1385571779544545122,-0.825425849362,0.170783281563,-0.11137729044,0.0058075524243,-0.000794609427483,-1.46367510547
1385571779554518876,-0.825391057484,0.170758163037,-0.111386963921,0.00570870679006,-0.000648374545763,-1.46413046358
1385571779564558760,-0.82539255973,0.170763023497,-0.111376292129,0.00573656889863,-0.000530535778226,-1.46391972893
1385571779574532176,-0.82540907788,0.170759260738,-0.111407402518,0.00592981994091,-0.000483549927681,-1.46373929774
1385571779584525254,-0.82538906759,0.170780385886,-0.111402402493,0.00581774979287,-0.000513609518929,-1.46430232261
1385571779594461723,-0.825401856771,0.170770979424,-0.111422313108,0.00584852062284,-0.000489796724347,-1.46425223368
1385571779604454173,-0.825414978256,0.170753653953,-0.111427011008,0.00594259092316,-0.000423750785359,-1.46375452623
1385571779614463436,-0.825388972592,0.170761251664,-0.111376013209,0.00577785373237,-0.000532268536222,-1.46375540202
1385571779624480727,-0.82527053181,0.170756121962,-0.111455060853,0.00642648066225,-0.000425501097566,-1.46421226764
1385571779634640790,-0.825421208408,0.170755459976,-0.11142799229,0.00593853521966,-0.000429747705087,-1.46405741761
1385571779644452313,-0.825396655226,0.170759715141,-0.111402018912,0.00552362574033,-0.000404617713288,-1.46368831603
1385571779654449528,-0.825388854533,0.170765122348,-0.111378246608,0.00548702667544,-0.000555836189347,-1.46405181177
1385571779664526354,-0.825374283717,0.170756068386,-0.111378494377,0.00575653435037,-0.00060985079559,-1.46437984148
1385571779674458346,-0.825407733484,0.170763829294,-0.11145253403,0.00610760125585,-0.000433984784443,-1.46376910468
1385571779684494510,-0.825394179962,0.170801622134,-0.111468580089,0.00623775755152,-0.000611851199952,-1.4636163431
1385571779694522155,-0.825434246816,0.1707430658,-0.111498546678,0.00653729889815,-0.00060583594812,-1.46430848907
1385571779704451055,-0.825390660094,0.170762100204,-0.111420436224,0.00626635545142,-0.000732730183776,-1.46437348424
1385571779714473012,-0.82545131367,0.170769986153,-0.111414925398,0.00595289978935,-0.000692234612829,-1.46370078081
1385571779724457343,-0.825453477704,0.170755819443,-0.111486334571,0.00584196316179,-0.000513685110962,-1.46392294006
1385571779734461656,-0.825399052023,0.170737513072,-0.11140711342,0.00528689620699,-0.000460446897028,-1.46455989205
1385571779744697433,-0.825398642285,0.170781490425,-0.111418983989,0.0058049289528,-0.000462910407504,-1.46412804274
1385571779754619724,-0.825371772609,0.170748942135,-0.111414498333,0.0063245434839,-0.00061644622606,-1.46381760142
1385571779764513716,-0.825435054412,0.170752924614,-0.111413137252,0.00668356520397,-0.000127762274717,-1.4640622139
1385571779774494021,-0.825319180896,0.170754581218,-0.111517632331,0.00715602927797,8.92038179038e-05,-1.46389751289
1385571779784503456,-0.825416123217,0.170741615639,-0.111492017688,0.00640801611967,-0.000714393289078,-1.46419557088
1385571779794485023,-0.825382854511,0.170741220302,-0.111432435564,0.00575335369032,-0.000582957226735,-1.46399474089
1385571779804522612,-0.825554729736,0.170785110986,-0.111387841474,0.00596220274208,-0.00012584061955,-1.46394121093
1385571779814429918,-0.825430247894,0.170750997132,-0.111451195412,0.00600004447439,-0.000776073782716,-1.46427809065
1385571779824488668,-0.825374987437,0.170722265802,-0.111470654528,0.00654267533709,-0.000844312767051,-1.46417782794
1385571779834492996,-0.825457182384,0.170721145806,-0.111484645839,0.00684412338806,-0.000614613771013,-1.46385733973
1385571779844464924,-0.825389416206,0.170770181401,-0.111479838047,0.00690086099995,-0.000776372176778,-1.46427748019
1385571779854505722,-0.825397908857,0.170755656382,-0.111464564079,0.00664915001038,-0.000744247410712,-1.46418026264
1385571779864503923,-0.825386550367,0.170770379796,-0.111523432633,0.0060975386393,-0.000665072475632,-1.46403303603
1385571779874447073,-0.825402519379,0.170746254005,-0.111526556151,0.00575643322781,-0.000621191624159,-1.46425782936
1385571779884530308,-0.825403219897,0.17077374466,-0.11144467113,0.00604390990638,-0.000618119537183,-1.46416682243
1385571779894468921,-0.825368869716,0.170769673859,-0.111436500087,0.0064344792191,-0.000556288588369,-1.4642647035
1385571779904556395,-0.825504902496,0.170779853958,-0.111506507509,0.00685265859948,-0.000242629618624,-1.46392159276
1385571779914568402,-0.825401020894,0.170764328503,-0.111533021773,0.00642229579431,-0.000667688967269,-1.46390507855
1385571779924510041,-0.825410415681,0.170774934826,-0.111494583289,0.00607478330043,-0.000484036625195,-1.46416128171
1385571779934506286,-0.825390678594,0.170774120837,-0.111449135922,0.00566646172313,-0.000754047740364,-1.46407387607
1385571779944522157,-0.825390839557,0.170754716682,-0.111504282701,0.00599272747885,-0.000431590591183,-1.46413415811
1385571779954539790,-0.825409789023,0.170783787691,-0.111509577353,0.00615905174687,-0.000715633157415,-1.46422892423
1385571779964450439,-0.825388038039,0.170752182128,-0.11148693523,0.00631727153375,-0.000636085946291,-1.46414676619
1385571779974465682,-0.825436069514,0.170784666794,-0.111500386938,0.00677990968396,-0.000463935442756,-1.46390852928
1385571779984544602,-0.825390434946,0.170785491672,-0.111484635667,0.0065144828924,-0.000611042440493,-1.46406343842
1385571779994493899,-0.825415103509,0.170774579536,-0.111516540893,0.00632602619755,-0.000742611219599,-1.46405608686
1385571780004489704,-0.825408839342,0.170773131178,-0.111503357157,0.00607916852239,-0.000666122531682,-1.46407906794
1385571780014494474,-0.825478737316,0.170816959235,-0.111475154921,0.0063737791024,-0.000662642953229,-1.46391940023
1385571780024459575,-0.825406640092,0.170780490367,-0.111426174684,0.00624289133842,-0.0004351725319,-1.46381186339
1385571780034462118,-0.825387689987,0.170782160397,-0.111448716886,0.00671901705874,-0.000507884737628,-1.46386753681
1385571780044490893,-0.825410864468,0.170796374011,-0.111520219901,0.00687447895616,-0.000942379078956,-1.464145501
1385571780054461151,-0.825412561839,0.17076372061,-0.111515963905,0.00682219271034,-0.00066101857957,-1.46392376106
1385571780064510234,-0.82539960083,0.170768291482,-0.111450847524,0.00625473859788,-0.000574297694292,-1.46388588674
1385571780074588775,-0.825432398654,0.170775768543,-0.111428463426,0.00566041878717,-0.00087164145277,-1.46401125133
1385571780084497377,-0.825471837508,0.170799910983,-0.111468241143,0.00596590893548,-0.00066452320903,-1.46373224917
1385571780094468774,-0.825407143004,0.170780908912,-0.111486406305,0.00635073048135,-0.000665127819384,-1.46415487859
1385571780104470561,-0.8252988429,0.170778666765,-0.111557834171,0.00756817328193,-0.000662352652002,-1.46360504827
1385571780114462807,-0.82538665832,0.170779262439,-0.111485496679,0.00710880509267,-0.000618429318603,-1.46377552178
1385571780124626888,-0.825472706319,0.170778077244,-0.111479209056,0.00682540716939,5.70334246257e-05,-1.46418490009
1385571780134510757,-0.825411663504,0.170801828803,-0.11145895738,0.00612804502705,-0.000570077528676,-1.46402952016
1385571780144543677,-0.825398861161,0.170780209061,-0.1114453984,0.00593447770684,-0.000671248547,-1.46395662674
1385571780154530893,-0.825418138989,0.17082869113,-0.11146881909,0.00615927102406,-0.000850057701578,-1.46407915019
1385571780164480209,-0.825432867327,0.170759824417,-0.111500353739,0.0068391676886,-0.00046902314966,-1.46389591685
1385571780174531122,-0.825398238412,0.170780862821,-0.1114989,0.00705417250898,-0.000593901866767,-1.46403530554
1385571780184447457,-0.825421610661,0.170794226906,-0.111556279908,0.00720110239152,-0.00031810680623,-1.46412796858
1385571780194484466,-0.825427720648,0.170825127287,-0.111443643598,0.00669021793043,-0.000929899619565,-1.46366363398
1385571780204481930,-0.825400353886,0.170789665914,-0.111404849019,0.00584390100351,-0.000686302867455,-1.46405790303
1385571780214460336,-0.825425550231,0.170808872388,-0.111427401854,0.00539636118185,-0.000670920307981,-1.46395680708
1385571780224460861,-0.825418872252,0.170784177196,-0.111453582274,0.00594461205376,-0.000441107525247,-1.46370124534
1385571780234473711,-0.825431605256,0.170734773549,-0.111525437476,0.0067502453008,-0.000157587275672,-1.46439223809
1385571780244502268,-0.825334019495,0.170841109747,-0.111782413457,0.00834924537413,-0.000475947020085,-1.46620948393
1385571780254470831,-0.825234936693,0.170863636067,-0.111768716471,0.00941045471529,-0.000499008475311,-1.46636896738
1385571780264453799,-0.825252134712,0.170989318251,-0.111547122177,0.00979291046381,-0.000322320162414,-1.46721482502
1385571780274421130,-0.825223889158,0.171035128182,-0.111384378486,0.00895787561218,0.00037310537018,-1.46816004369
1385571780284429501,-0.825257021405,0.171049404253,-0.111550076696,0.00738727515166,5.21110165025e-05,-1.46793029004
1385571780294505789,-0.825302477595,0.1709979201,-0.111747839293,0.00726267637407,-0.000417705816866,-1.4686977264
1385571780304482885,-0.825313709691,0.171039518781,-0.111655200654,0.00779886242586,-0.00064428356166,-1.468253056
1385571780314508671,-0.825278617919,0.17100819385,-0.111457040025,0.00849002850896,0.000309329025191,-1.4683884428
1385571780324450106,-0.825310087131,0.17098632412,-0.111485759343,0.00850564945229,0.000246679785339,-1.46881803606
1385571780334511508,-0.825464450365,0.170969826127,-0.111720165071,0.00829353213048,-0.000587047068933,-1.46888033269
1385571780344490880,-0.825362639023,0.17091803738,-0.111688184293,0.00794683726781,-0.000126015693801,-1.46966737194
1385571780354458205,-0.825368931659,0.171024061574,-0.111517866298,0.00792011143217,2.83130856103e-05,-1.47088291383
1385571780364520114,-0.825350132299,0.170941934696,-0.111431382192,0.00783008498383,0.000409115952582,-1.47092703412
1385571780374479361,-0.825362729808,0.17101474432,-0.111506387109,0.00743173502999,-0.000504117624491,-1.4714938957
1385571780384553494,-0.825355681342,0.170887663409,-0.111737036621,0.00781897327471,-0.00129804122387,-1.47210864252
1385571780394607870,-0.825351165858,0.170980744653,-0.111637234243,0.00834175693656,-0.000344096548768,-1.47249836976
1385571780404713563,-0.825370915463,0.170921343151,-0.111358053858,0.00865302184516,-3.64464860947e-05,-1.47307772538
1385571780414534057,-0.825316564247,0.170940125048,-0.111432482945,0.00839706813775,-0.000734821673833,-1.47369048602
1385571780424513116,-0.825313154052,0.17092289582,-0.111741211972,0.00793441232302,-0.00166002586363,-1.47350512891
1385571780434791893,-0.825313004829,0.170949008602,-0.111721653092,0.00797744946439,-0.00109318786011,-1.47476231417
1385571780444517532,-0.825207342272,0.171014478472,-0.111458279011,0.00833995427558,-0.000636018017889,-1.47463712627
1385571780454481106,-0.82512629,0.170916919758,-0.111421702274,0.00854079624954,-0.00128579151823,-1.47584012002
1385571780464588608,-0.825109589266,0.170971189685,-0.111611310705,0.00883980919674,-0.00271913274647,-1.47650607106
1385571780474805289,-0.825101687661,0.170949754941,-0.11172247914,0.0088811821901,-0.00193398939836,-1.47728378098
1385571780484740974,-0.825059840142,0.170960877815,-0.111572489955,0.00890873917313,-0.000835917713411,-1.47697937159
1385571780494651286,-0.825005184659,0.170923991412,-0.111432559744,0.00835868243979,-0.000926136294113,-1.47811061061
1385571780504706804,-0.824995689364,0.170861982045,-0.111573650345,0.00820655070367,-0.00190536208779,-1.47726942584
1385571780514637694,-0.824962532935,0.170871359352,-0.11176008709,0.00821642070697,-0.00194959972752,-1.4789358355
1385571780524708925,-0.824946360837,0.170807391386,-0.111738665121,0.00862730499417,-0.00143394901455,-1.47887957757
1385571780534794808,-0.824936754034,0.170914940773,-0.111529552188,0.00974889368371,-0.00093916911025,-1.47920673706
1385571780544709497,-0.825013338034,0.170680278895,-0.111498639454,0.0103121944922,-0.00236165811033,-1.47945395479
1385571780554465056,-0.825029844299,0.170893301456,-0.111692115825,0.0101977970369,-0.00197196685528,-1.4799771733
1385571780564533182,-0.825016596051,0.170769421107,-0.111728314822,0.0091304778712,-0.000634142509269,-1.47978691643
1385571780574545837,-0.825003428047,0.170872702546,-0.111698273402,0.00806992643504,-0.00095658355138,-1.48155044071
1385571780584861013,-0.824992481208,0.170721141305,-0.111671345849,0.00800851805003,-0.00210425514546,-1.48063122654
1385571780594521908,-0.82497973057,0.170779517563,-0.111755976118,0.00848663950416,-0.00277099095043,-1.48180371332
1385571780604507909,-0.825000188288,0.17068377609,-0.111809959732,0.00974122310937,-0.00212980434193,-1.48204479258
1385571780614806120,-0.824998907485,0.170751718449,-0.111788154225,0.0107432867159,-0.00238750136211,-1.48241703908
1385571780624555309,-0.825015282987,0.1707390801,-0.111624707153,0.0110363303467,-0.00224451634989,-1.48224821059
1385571780634482774,-0.825057573299,0.170715089242,-0.111618797535,0.00998401109902,-0.00156676592685,-1.48293028962
1385571780644537248,-0.8250776267,0.170858580532,-0.111728358906,0.00834989169525,-0.000668744432698,-1.4825961437
1385571780654750534,-0.82515665682,0.17066598569,-0.111800780902,0.00767500177101,-0.00189724887343,-1.48408713481
1385571780664690860,-0.825224383285,0.170752286507,-0.111798559599,0.00755368739338,-0.00178856272981,-1.48500365307
1385571780674560173,-0.825202171455,0.170644703855,-0.111762405133,0.00847105912668,-0.00178547909263,-1.48527452038
1385571780684667470,-0.825140914584,0.170852419625,-0.111948796121,0.00948016014326,-0.00185843907097,-1.48644681014
1385571780694501291,-0.82508936918,0.170830548047,-0.111850687688,0.010446215827,-0.000847812189208,-1.48600481538
1385571780704553545,-0.825068624302,0.170966867777,-0.111693040998,0.0106977831751,-0.000672294458292,-1.48683385894
1385571780714496397,-0.825057435474,0.170867853035,-0.111761694464,0.0107116031385,-0.00178573763729,-1.48737689678
1385571780724505906,-0.825115118905,0.171005839643,-0.111870056491,0.0101558571085,-0.00246741865911,-1.48790533102
1385571780734565219,-0.82508788599,0.171010099349,-0.11198971434,0.00913762697629,-0.000971159422418,-1.4886387982
1385571780744719142,-0.82511513564,0.171009067198,-0.112026059917,0.00943789810635,-0.00115854971581,-1.4900426976
1385571780754607731,-0.824930975011,0.171158510751,-0.111996156951,0.00930748664515,-0.00108596795995,-1.49006989333
1385571780764483870,-0.824899062692,0.17099919666,-0.112099059916,0.0109142701488,-0.00172664334492,-1.49093054008
1385571780774477114,-0.824796428285,0.171270744673,-0.112165081564,0.0118881845275,-0.00196873890504,-1.49189118065
1385571780784492794,-0.824702579554,0.171170381289,-0.112156401349,0.0126095890611,-0.00107396018377,-1.49138767664
1385571780794571435,-0.824664140881,0.171334477038,-0.112137419197,0.0132577518152,-0.00139869772017,-1.49343310289
1385571780804487023,-0.824574691065,0.171290691443,-0.112244019846,0.0133303520665,-0.00206018221188,-1.49383477703
1385571780814635331,-0.82466740096,0.171394430688,-0.112236854398,0.0128027696342,-0.00190610096755,-1.49491021159
1385571780824506834,-0.824601164801,0.171348265437,-0.111994023115,0.0117348562107,-0.00146401840687,-1.49593032836
1385571780834462691,-0.824623326684,0.171440231667,-0.111912791089,0.0109379006551,-0.00158116861448,-1.49644712161
1385571780844457718,-0.824577693004,0.171539266973,-0.111830798654,0.00955152788982,-0.00155468642957,-1.49757874386
1385571780854469232,-0.824624097873,0.171513221361,-0.111776398831,0.00888923803243,-0.000856552506444,-1.49824162467
1385571780864642382,-0.824707814262,0.171673243796,-0.111700492433,0.00800760924927,-0.000936713085439,-1.49859111095
1385571780874509671,-0.824749582092,0.1716286872,-0.111568266775,0.00765673201567,0.000510933713146,-1.49966664035
1385571780884459348,-0.824783553544,0.171743313114,-0.111464644694,0.0076089901691,-0.00125174768565,-1.50081570838
1385571780894494387,-0.82483487431,0.171743738619,-0.111679126871,0.00678568949904,-0.000851903185743,-1.50096732055
1385571780904820519,-0.824856819207,0.171748934744,-0.111758287706,0.0069001090715,-0.0013317092123,-1.50222389187
1385571780914600705,-0.824967955613,0.171857058779,-0.111907632864,0.00760211255784,-0.000711749139297,-1.50326644159
1385571780924636643,-0.8248922688,0.171818913459,-0.111915807392,0.00813710768705,-0.00144763659395,-1.50290207149
1385571780934668589,-0.824814960533,0.171930556561,-0.11201608801,0.00888244899914,-0.00112193330997,-1.50382039877
1385571780944571505,-0.82479636413,0.171928730026,-0.112265494403,0.00993113134999,-0.00131967970983,-1.50404074714
1385571780954573383,-0.824734496896,0.171971872,-0.112268089636,0.0105982232525,-0.000721228676292,-1.50414089082
1385571780964615792,-0.824659668694,0.171964221393,-0.11239319798,0.0119137722573,-0.00057199342394,-1.50420798212
1385571780974529233,-0.82460408499,0.172014772449,-0.112548211941,0.0136258687604,-0.00175179496365,-1.5033485231
1385571780984509762,-0.824581011969,0.171991798645,-0.112604421971,0.0147129319167,-0.00188816841267,-1.50428613983
1385571780994617389,-0.824525793052,0.172040419924,-0.112807241524,0.01562205247,-0.00188073820431,-1.50468051685
1385571781004511963,-0.824546012471,0.172128497955,-0.113012652178,0.0164899317365,0.000302785058019,-1.5052978854
1385571781014972180,-0.824383617509,0.172149214212,-0.113083732923,0.0168695301344,0.000858630672878,-1.50656987402
1385571781024468480,-0.824215443955,0.172051478971,-0.113124260165,0.0181232102947,-0.000655432280198,-1.50578791205
1385571781034517098,-0.824180869585,0.172059331815,-0.113307750426,0.0195156897571,-0.00165303927085,-1.50720174098
1385571781044440959,-0.824107116903,0.172049097048,-0.113598369002,0.0210626621306,-0.00225670602022,-1.50714986888
1385571781054604575,-0.824106318137,0.172042073637,-0.113870950545,0.0220412874667,-0.00208913075296,-1.5079172262
1385571781064460055,-0.823992033667,0.172175135215,-0.113875664809,0.022507060084,-0.000320871512226,-1.50851343098
1385571781074521987,-0.823872693641,0.172060936919,-0.114092943766,0.0247199588176,0.00100674033581,-1.50900678795
1385571781084660548,-0.823861704741,0.172034228248,-0.114169861482,0.0251148416532,-0.0020230497692,-1.50981453699
1385571781094505604,-0.823706933859,0.171965839799,-0.114369228909,0.0261633925661,-0.00297215751396,-1.51090902285
1385571781104515259,-0.823682987619,0.172060298291,-0.114450812697,0.0278453627077,-0.00251118113263,-1.5116580441
1385571781114464436,-0.823490731053,0.172072315992,-0.114546709272,0.0285120808002,-0.00171977645914,-1.51287250588
1385571781124491600,-0.823409016646,0.172183397028,-0.114723042132,0.0296317779926,-0.000595498719192,-1.51340613957
1385571781134483862,-0.823299990421,0.172267400991,-0.115057155359,0.0310025770356,0.000524796098452,-1.51487636045
1385571781144479848,-0.823154686457,0.172275155891,-0.115173130955,0.031894338637,-0.00176264540312,-1.51593164064
1385571781154473889,-0.823094944393,0.17233743571,-0.115344163721,0.0329920065734,-0.00256649063189,-1.51811364583
1385571781164495515,-0.822962824756,0.1723963772,-0.115546311996,0.0348804399918,-0.00364861400432,-1.51961832662
1385571781174439739,-0.822937828751,0.172426017443,-0.115930663194,0.0369746827743,-0.00337938866598,-1.52112920364
1385571781184521204,-0.822843041998,0.172543237897,-0.116191878869,0.0393163495534,-0.00189360041223,-1.52295458068
1385571781194511369,-0.822668176422,0.172655281445,-0.116195309866,0.0414983064876,-0.00100957957081,-1.5244672404
1385571781204502254,-0.822549237609,0.172684212596,-0.116520910406,0.0434886300179,-0.00227329229797,-1.52706019429
1385571781214501678,-0.822396548519,0.172662482581,-0.116917140837,0.0449309035004,-0.00245995335852,-1.52871624466
1385571781224441888,-0.822326096176,0.172680476101,-0.117082277347,0.0466726390139,-0.00127391502489,-1.5313919725
1385571781234511015,-0.822194239259,0.172726472414,-0.117436445147,0.0490601195669,-0.000678360274121,-1.53452255726
1385571781244531156,-0.822074998788,0.172727625301,-0.117847522529,0.0521618964559,-0.00210921445713,-1.53652167496
1385571781254514426,-0.821826475171,0.172785467249,-0.118091145485,0.055489160546,-0.00328259106504,-1.53841309236
1385571781264512729,-0.821603049987,0.172720159979,-0.118589483601,0.0591916140667,-0.00364237811011,-1.5402030778
1385571781274447498,-0.821300041566,0.172727167675,-0.118899804693,0.0628338159458,-0.00341791615243,-1.54195179451
1385571781284500238,-0.821031372961,0.172765558096,-0.119274489344,0.065800450373,-0.00287527773539,-1.54435317727
1385571781294506248,-0.820630818373,0.172665527931,-0.119601856802,0.0685613694047,-0.00217553582189,-1.54625192325
1385571781304475468,-0.820320033134,0.172636027442,-0.120231175773,0.0722228490225,-0.00215029549177,-1.54836710528
1385571781314830413,-0.81976143612,0.172487389776,-0.120781413247,0.0755738703959,-0.00282647349216,-1.55087708813
1385571781324480834,-0.81930259994,0.172472334881,-0.121287681087,0.0802677325586,-0.00382361819196,-1.55247912253
1385571781334526357,-0.81865617248,0.172324267063,-0.121642423861,0.0846784844042,-0.00273896079786,-1.55566990201
1385571781344470355,-0.818047194736,0.172197697346,-0.122254462334,0.089568877081,-0.00236620277755,-1.55788538026
1385571781354883499,-0.817123308282,0.172114982202,-0.122853406323,0.0932931447377,-0.00299190338804,-1.56151568725
1385571781364518644,-0.816384786701,0.17198523325,-0.123445478788,0.0981783765765,-0.00219218071243,-1.56384672283
1385571781374530545,-0.815551865356,0.17192467976,-0.124224755567,0.103095341247,-0.00153185585605,-1.56722210621
1385571781384491248,-0.814515562023,0.171732270159,-0.124745757709,0.108330912358,-0.00277981008682,-1.56975381348
1385571781394579819,-0.813392055884,0.171552603823,-0.125560625409,0.113364858597,-0.00438170926382,-1.5729163787
1385571781404443790,-0.812171004053,0.171383106928,-0.126453010503,0.118770492729,-0.00411724283197,-1.57532214275
1385571781414547688,-0.810917691367,0.171173522584,-0.127099470633,0.12434702767,-0.00521988151263,-1.57898887822
1385571781424520684,-0.809612382353,0.17095370723,-0.127793279254,0.129621314177,-0.00612733898858,-1.58087480317
1385571781434541183,-0.808015418481,0.170704226927,-0.128730484813,0.134574208869,-0.00826352904577,-1.58422614124
1385571781444774559,-0.806400312267,0.170430948347,-0.129639412591,0.139209842016,-0.010070089661,-1.58708676179
1385571781454541118,-0.804756659702,0.170107694005,-0.130695809073,0.143443448487,-0.0114549774792,-1.58905772357
1385571781464510182,-0.802818460941,0.169673992642,-0.13167796357,0.147029788001,-0.0130322096707,-1.59127313275
1385571781474501983,-0.800946936029,0.169357455065,-0.132762654372,0.149973816321,-0.0143835924066,-1.59346989381
1385571781484683201,-0.798710879159,0.168825457929,-0.134017484652,0.151252946538,-0.0153031942074,-1.59570657002
1385571781494526748,-0.796303742295,0.16849494241,-0.135010956966,0.151899032054,-0.0182353431584,-1.59824167357
1385571781504478005,-0.794121161643,0.167856749659,-0.136279666199,0.153060646481,-0.020305607713,-1.60089103111
1385571781514488343,-0.791416011125,0.167225926862,-0.137487873899,0.152143091728,-0.0218946677141,-1.60245920262
1385571781524527093,-0.78871460995,0.166712860078,-0.138730574667,0.151300977189,-0.0248721225824,-1.60423907487
1385571781534550176,-0.786101691888,0.165855959503,-0.140211137621,0.149914933132,-0.0264031348734,-1.60587086679
1385571781544490734,-0.782992636566,0.165170314711,-0.141486809871,0.147622155921,-0.0276228862364,-1.60740984803
1385571781554506563,-0.780142497001,0.164406355705,-0.14294274133,0.144998916525,-0.0297155700961,-1.6094044907
1385571781564492490,-0.776865582868,0.163623435416,-0.144461359084,0.140633671586,-0.0307604760214,-1.61099609427
1385571781574560780,-0.773627433279,0.162800835988,-0.145914060704,0.135660828513,-0.0296431614406,-1.61320102347
1385571781584496160,-0.770387822185,0.161944281161,-0.147350663579,0.130490283958,-0.0303218223566,-1.61430211092
1385571781594487810,-0.767057229392,0.160950907784,-0.149182003752,0.124010384981,-0.030226156662,-1.6163197766
1385571781604466249,-0.763492192985,0.160013084019,-0.15093734894,0.117938406317,-0.0298626776529,-1.61746780496
1385571781614541795,-0.76013713978,0.159125519136,-0.152549748619,0.111056378625,-0.0290150977437,-1.61795864533
1385571781624554540,-0.756623251227,0.158034081904,-0.154344578172,0.105105633965,-0.0291224847491,-1.61927047839
1385571781634484751,-0.753047762728,0.156869615079,-0.156375971945,0.0992689901443,-0.027950253895,-1.61929754406
1385571781644533257,-0.749137022537,0.155714695187,-0.158471792272,0.0931302549235,-0.0285951733152,-1.62051543561
1385571781654533373,-0.745321069772,0.154361606786,-0.160545017443,0.0875149683251,-0.0273165321158,-1.62097689271
1385571781664448713,-0.741392832328,0.153142103168,-0.162344329639,0.0823430025148,-0.0269650775699,-1.62144706114
1385571781674465898,-0.737473157346,0.151806895778,-0.164428424869,0.0765711865224,-0.0255320157742,-1.62167752324
1385571781684476133,-0.733328616612,0.150395069072,-0.166881544577,0.0718729121492,-0.0239372273912,-1.6215488597
1385571781694549234,-0.729542575274,0.148977533468,-0.169261703008,0.0665692584303,-0.0215943267916,-1.62363045359
1385571781704501896,-0.72544307999,0.147592697724,-0.17152319894,0.0624438046387,-0.0198025299921,-1.62349277862
1385571781714478715,-0.721337457468,0.146040580436,-0.174030333361,0.0585281815283,-0.0190882955256,-1.62435238849
1385571781724510021,-0.717265615061,0.144503189682,-0.176826882799,0.0547470776248,-0.0164076610266,-1.62472793792
1385571781734546281,-0.713085344828,0.143016704378,-0.179474540211,0.0503385659194,-0.0156624535782,-1.62503095281
1385571781744452624,-0.709020013609,0.141409754208,-0.182150467884,0.0463987353387,-0.0145325140776,-1.62555473544
1385571781754518172,-0.704946554928,0.139814873382,-0.18493749013,0.0425537661982,-0.012750632575,-1.62591808293
1385571781764521336,-0.700631334584,0.138368830681,-0.188123584188,0.039764803553,-0.0129387042031,-1.62697904889
1385571781774468702,-0.696448289882,0.136639475088,-0.191181614663,0.0375276406932,-0.012136668524,-1.62808635125
1385571781784509056,-0.692132067367,0.135116709695,-0.194371025032,0.0360805921652,-0.0121914863184,-1.62887271689
1385571781794485256,-0.687853508358,0.133358544895,-0.19743561794,0.0333212645215,-0.0118337950389,-1.62969660454
1385571781804536127,-0.683722092924,0.131759323022,-0.200774683994,0.0312805272752,-0.0109804247113,-1.63050960432
1385571781814613348,-0.679479846742,0.129980183772,-0.204093189504,0.028773915793,-0.0112275363927,-1.63108588456
1385571781824547696,-0.675364186005,0.1281865089,-0.207522532253,0.0260682457088,-0.0100412563274,-1.63135753644
1385571781834520606,-0.671082801181,0.126499585268,-0.21107784384,0.023841803498,-0.0108168583963,-1.63209808078
1385571781844556122,-0.666873023997,0.124729561371,-0.214626982887,0.0215363163294,-0.0106862445566,-1.63175956718
1385571781854474957,-0.66277088044,0.122971094569,-0.218111603798,0.0192507762044,-0.00875593501715,-1.63128683531
1385571781864510767,-0.65880302091,0.121110705763,-0.221864383705,0.0172225920687,-0.00854198167977,-1.63073250524
1385571781874553744,-0.654532675599,0.119244876144,-0.225773695719,0.0144227358519,-0.00732562348728,-1.63078418378
1385571781884525521,-0.65045659529,0.117470112332,-0.229709641353,0.0127676032253,-0.00726220320838,-1.63145503658
1385571781894481756,-0.646397156438,0.115706580985,-0.233755622701,0.0107285239077,-0.00517793016582,-1.6315495796
1385571781904573279,-0.642255643919,0.113804189945,-0.237712504999,0.00913217544893,-0.00292331774604,-1.63153642704
1385571781914510097,-0.6383566774,0.112003842545,-0.241900555944,0.00833430439219,-0.000804671939038,-1.63209355629
1385571781924516591,-0.634283119994,0.110213523836,-0.246244855354,0.00724020881472,0.00232175226831,-1.63212547403
1385571781934511472,-0.630191919111,0.108416313682,-0.250458335162,0.00665708536047,0.00334637504297,-1.63212961253
1385571781944502245,-0.626428274869,0.106627333039,-0.254805409417,0.00653518871255,0.00611190407544,-1.63213950021
1385571781954517837,-0.622450379375,0.104679862458,-0.259387838317,0.00584502895571,0.00896361586758,-1.63182752362
1385571781964457760,-0.618505173631,0.10299799013,-0.263954984709,0.00593024760492,0.0108232334523,-1.63259559922
1385571781974504201,-0.614839969341,0.101013416518,-0.268564928493,0.00516039582181,0.0133176912443,-1.63204706483
1385571781984497389,-0.61079264664,0.099334424833,-0.273334100639,0.00396971732861,0.0149741930585,-1.6325913207
1385571781994451963,-0.607358217548,0.0974030939895,-0.277813432216,0.00264961958813,0.0164862031324,-1.63199638628
1385571782004524727,-0.603283551525,0.0956464069699,-0.282662887335,0.000907833172412,0.015216197305,-1.63237886664
1385571782014474662,-0.599633939545,0.0938277488174,-0.287393570525,-0.000363112388173,0.0176955771405,-1.63226441612
1385571782024513638,-0.596111147829,0.0919584344314,-0.292288820112,-0.000827655134441,0.0186398435404,-1.63242316006
1385571782034770162,-0.592307564088,0.0901204837396,-0.297303297633,-0.00172154896099,0.0182900893505,-1.6324542139
1385571782044562556,-0.588697042865,0.0883150285759,-0.302299143918,-0.00136577453037,0.0168195724939,-1.63267171985
1385571782054516388,-0.58517482963,0.0864744171822,-0.307382614344,-0.00114917938682,0.0164573695598,-1.63324631292
1385571782064522320,-0.581405423186,0.0847237537486,-0.312638399051,-0.000560904018595,0.0147333564231,-1.63358620127
1385571782074566788,-0.577902701541,0.0829737001979,-0.317760361112,7.88764102484e-05,0.0129922353752,-1.63359129612
1385571782084489315,-0.57461026783,0.0810984336271,-0.322961188002,0.000983802068935,0.0133088461238,-1.63344437873
1385571782094558220,-0.571071671053,0.0793279374629,-0.328343210342,0.00126304061806,0.0095170525288,-1.63317492487
1385571782104529452,-0.567489718153,0.0775812488953,-0.333596264617,0.00189389023773,0.010113319717,-1.6336148193
1385571782114490060,-0.564114133239,0.0758740409217,-0.338849441373,0.00273911447171,0.00996250271602,-1.63331340459
1385571782124535028,-0.560730040518,0.0741085900183,-0.344282949743,0.00409110690986,0.00894860424427,-1.63340814499
1385571782134535380,-0.557375219786,0.0723485507475,-0.34982998384,0.00576774301767,0.0090723520284,-1.63390942711
1385571782144526442,-0.554046793702,0.0706177740363,-0.355314167257,0.00731985927156,0.00868399637527,-1.63379242145
1385571782154532996,-0.550755223359,0.0688570039354,-0.360843225398,0.00834749610306,0.00856104286476,-1.63414897379
1385571782164501846,-0.547668729762,0.0670816713186,-0.366312631514,0.0106279117007,0.00875178068503,-1.63433299922
1385571782174559019,-0.544242018307,0.0653713918093,-0.372139889822,0.0125252350168,0.00893978812549,-1.63459705322
1385571782184553601,-0.540985898174,0.0635879422963,-0.377864298264,0.0141288625773,0.00870613076439,-1.6347537264
1385571782194552461,-0.537765205822,0.0618237507319,-0.383600455096,0.0162576781757,0.00786485236427,-1.63525558592
1385571782204541069,-0.534428944303,0.0600465170968,-0.389583196365,0.018723530327,0.00716542054813,-1.63497020439
1385571782214521589,-0.531536834362,0.0582071346143,-0.395387705539,0.0204520446572,0.0083169014401,-1.63505712834
1385571782224562159,-0.528340035271,0.0563882242935,-0.401644333753,0.0227321471461,0.00620453809083,-1.63569379872
1385571782234526917,-0.525095052067,0.0547103661408,-0.407909401517,0.0250195119405,0.00466403560617,-1.63559354414
1385571782244527191,-0.521654887806,0.0528709589992,-0.414108962626,0.0268093669073,0.00274347456099,-1.6369830893
1385571782254523493,-0.51860912078,0.051123522029,-0.420001279141,0.0285692971007,0.00199370957153,-1.63725528184
1385571782264555207,-0.515521315388,0.049280653456,-0.425772432516,0.0292119529538,0.00117887803124,-1.63783938492
1385571782274516094,-0.512433077945,0.0476114820508,-0.431387753998,0.0301351424269,0.00175063601529,-1.63776902359
1385571782284555436,-0.509185832627,0.0457451573746,-0.437072385033,0.0303734600006,0.00097775141416,-1.63815993353
1385571782294469971,-0.50621455958,0.0440043068029,-0.442307791666,0.0311242145881,0.0010120381827,-1.63849228786
1385571782304512436,-0.503036941996,0.042131634599,-0.447636863545,0.0312325879872,0.00150636990675,-1.63900383568
1385571782314460957,-0.499998526639,0.0402897355282,-0.452765915902,0.0315323596349,0.00106230629755,-1.63940350394
1385571782324516023,-0.496910578876,0.0384586658119,-0.457719222103,0.0326435206767,0.00132454273378,-1.63975840889
1385571782334520541,-0.493764889774,0.036725627613,-0.462576405796,0.032680027762,0.00240496458391,-1.63967881924
1385571782344494035,-0.490610722659,0.0348731616764,-0.467242470461,0.0328270473828,0.00272209563275,-1.64064433818
1385571782354524151,-0.487530111488,0.0329632770112,-0.471803210792,0.0331281312753,0.00257864677791,-1.64076743367
1385571782364494569,-0.484451486721,0.0312011031661,-0.476117062083,0.0343337620715,0.00371190559561,-1.64117944211
1385571782374492096,-0.481331899745,0.0293691575747,-0.480332962842,0.0344371248148,0.00396035621074,-1.64151187697
1385571782384474773,-0.478285332117,0.0274180434206,-0.484363944722,0.0353735251781,0.00356041489519,-1.64158507127
1385571782394758776,-0.47528644829,0.0257344361776,-0.488192134853,0.0355392952394,0.00549497239492,-1.6423306295
1385571782404531298,-0.47206890501,0.0237636864659,-0.491890554183,0.0357165610002,0.00499648536948,-1.64287988195
1385571782414521167,-0.468968611222,0.021906875448,-0.495398222319,0.0355393052024,0.0053902805658,-1.64326736013
1385571782424455215,-0.465781670734,0.0200210216405,-0.498715300786,0.0356370560658,0.0046514447322,-1.64355028723
1385571782434455438,-0.462653696099,0.0180862225989,-0.501875664634,0.0357301519915,0.00457268081278,-1.64419406247
1385571782444451071,-0.459638649225,0.0162253820146,-0.504894827624,0.0356122125374,0.0048879051078,-1.64436113081
1385571782454514450,-0.456453809884,0.0142773614304,-0.507802918748,0.0355567331434,0.00469296812805,-1.6448677451
1385571782464455009,-0.453362549323,0.012364549247,-0.510428041362,0.0355289795423,0.00491934679776,-1.64517897804
1385571782474458055,-0.450380207701,0.0105642919773,-0.51283803157,0.0356966569489,0.0055428424348,-1.64556326833
1385571782484499284,-0.447060134672,0.00853024889847,-0.515287435093,0.03574802017,0.00486978480633,-1.6461051307
1385571782494523696,-0.443848338343,0.00664364817888,-0.517459502154,0.0360126188858,0.00461489434917,-1.64630234875
1385571782504523871,-0.440786403915,0.00464366274713,-0.51949862737,0.0372024082136,0.00444038555017,-1.6471498694
1385571782514498240,-0.437603111867,0.00269686322197,-0.521335768353,0.0380592059863,0.00393041155495,-1.64719552897
1385571782524516811,-0.434292519695,0.000606964174978,-0.523100975745,0.0398801274533,0.00498357010463,-1.64750164947
1385571782534501480,-0.431015122931,-0.00106017335079,-0.524530032572,0.0419487120962,0.00250506506792,-1.64777228272
1385571782544457997,-0.427812766553,-0.00313556525526,-0.525998336554,0.0438634856815,0.00221417488901,-1.64804179181
1385571782554471660,-0.424569399911,-0.0051459577158,-0.527286152498,0.046544693243,0.00152896665116,-1.64847676795
1385571782564501346,-0.421238388687,-0.00712211569041,-0.52829815091,0.0498283025623,0.000525735532861,-1.64890264997
1385571782574546952,-0.417807345846,-0.00910395996412,-0.529445661926,0.0528068235126,0.0013655391399,-1.64898787277
1385571782584575818,-0.41454803475,-0.0110055414737,-0.530172963256,0.0563463015223,0.000105112355701,-1.64991223099
1385571782594466162,-0.411082919348,-0.0132485694422,-0.530901255778,0.0600369631326,-0.00135057794192,-1.650335101
1385571782604491357,-0.407667435284,-0.0151880236668,-0.531517618194,0.0641578438818,-0.00121955475381,-1.65083302958
1385571782614458239,-0.40433382092,-0.0172112103512,-0.531813656988,0.0680491298348,-0.00173868049461,-1.65132202042
1385571782624459117,-0.400901054022,-0.0192169400429,-0.532085159209,0.0721836682365,-0.0023077556263,-1.65158566527
1385571782634463861,-0.397356029645,-0.021296785958,-0.532277133502,0.0759933820068,-0.00183681726487,-1.65250494214
1385571782644463597,-0.393765181929,-0.0234036259634,-0.532380895859,0.0799318871489,-0.00233791917755,-1.65254439774
1385571782654477741,-0.390090221119,-0.025487299813,-0.532236381887,0.0838649525144,-0.00355864628949,-1.65336482227
1385571782664464293,-0.386538249835,-0.0276184027491,-0.532061001044,0.0883276928086,-0.00432572767735,-1.65410912356
1385571782674465773,-0.382830570294,-0.0297058352534,-0.531665354152,0.0922472071342,-0.0054677458589,-1.65485186118
1385571782684526384,-0.379050006066,-0.0319154275041,-0.531172430677,0.095731184826,-0.00667182146497,-1.65534199508
1385571782694463850,-0.37530154485,-0.0340640591465,-0.530639972882,0.0989400012831,-0.00753408799158,-1.65608648608
1385571782704532319,-0.371363849589,-0.0361732584722,-0.530052126541,0.102106241207,-0.00707335672446,-1.65659009127
1385571782714673985,-0.367529725669,-0.0384655681249,-0.529229622492,0.105572381651,-0.00847187677977,-1.65702178253
1385571782724521874,-0.363565065883,-0.04065890506,-0.52845052979,0.108689856073,-0.00895861693964,-1.65766973752
1385571782734454671,-0.359414686327,-0.0430398474696,-0.52789641497,0.110890015984,-0.0120958957761,-1.65806826458
1385571782744534552,-0.355325924132,-0.0452357997012,-0.526456613503,0.114478768158,-0.0104966346352,-1.65833400056
1385571782754462347,-0.351277804339,-0.0475419702309,-0.525248776514,0.11750450566,-0.0109762640542,-1.65865043416
1385571782764460802,-0.347006954802,-0.0499027316229,-0.524009732291,0.120186489113,-0.0117686678641,-1.65910447501
1385571782774470774,-0.34271349889,-0.0521289386784,-0.522780885723,0.122419406015,-0.0128183683475,-1.65975441337
1385571782784522598,-0.338307525689,-0.0545205841145,-0.521322223628,0.124788851988,-0.0126881842805,-1.6602889515
1385571782794521577,-0.333885337423,-0.0568839161116,-0.519928765046,0.12640522645,-0.0120223406744,-1.66065955758
1385571782804483235,-0.329336742394,-0.059315558145,-0.518259692132,0.128140755,-0.0145892541747,-1.66108713852
1385571782814518437,-0.324586388971,-0.0617110752107,-0.51663081724,0.129079670633,-0.0141085733535,-1.6613828293
1385571782824501411,-0.320000605218,-0.0640895636807,-0.514958401811,0.1306936468,-0.0154038480835,-1.66234012546
1385571782834520481,-0.315146579981,-0.0666318497032,-0.513289835023,0.131870785429,-0.0154772687478,-1.66221030218
1385571782844447448,-0.310221138694,-0.0691493951734,-0.511411840508,0.13237274325,-0.0148771363555,-1.66287408794
1385571782854510387,-0.30542534835,-0.0717227267196,-0.509417844888,0.134099548468,-0.0150871734634,-1.66283556943
1385571782864519014,-0.300284396184,-0.0743069756558,-0.507553732479,0.135369058821,-0.0154516498736,-1.66369800612
1385571782874477431,-0.295249494167,-0.0768510914609,-0.505587489231,0.136738330306,-0.0168368094649,-1.66402389694
1385571782884506183,-0.290013243606,-0.0794388517189,-0.503505277453,0.137083527963,-0.0146456292267,-1.66361453904
1385571782894467239,-0.284599436135,-0.0821050671124,-0.501382382048,0.137448175526,-0.0166296490244,-1.66480488904
1385571782904467461,-0.279163531615,-0.0848557231997,-0.499341994415,0.138353532081,-0.017239890564,-1.66440975627
1385571782914532138,-0.273741568318,-0.0874996445355,-0.497234124376,0.140142952596,-0.0181904547058,-1.66515527629
1385571782924491487,-0.268197680612,-0.0902748166461,-0.494915955924,0.140894086476,-0.0172027847034,-1.6660791496
1385571782934425587,-0.262396221059,-0.0931124368962,-0.492622682448,0.141219790978,-0.0182264207426,-1.66598539625
1385571782944519564,-0.256689325774,-0.0958969204373,-0.490398062592,0.142293044087,-0.0191639920657,-1.66636006597
1385571782954500884,-0.250761502253,-0.098719401115,-0.488187921623,0.141290461104,-0.0177043883507,-1.66631463925
1385571782964459170,-0.244837243681,-0.10168567197,-0.485767058121,0.141943649903,-0.0188530527351,-1.66613657746
1385571782974456784,-0.23888312894,-0.104581541613,-0.483482867287,0.142665192181,-0.0190069995138,-1.66599239429
1385571782984451802,-0.232726738312,-0.107453662114,-0.481116157539,0.141442091214,-0.0201072003157,-1.66616397835
1385571782994520129,-0.226553709583,-0.110544303118,-0.478939643304,0.141810158006,-0.0193742271669,-1.66610900106
1385571783004447425,-0.220204339932,-0.11338503398,-0.476448947423,0.139751871209,-0.0196049815353,-1.66673127024
1385571783014499309,-0.213989320371,-0.116422879,-0.474236188193,0.140005312013,-0.0209773983254,-1.66661167941
1385571783024486378,-0.20751762122,-0.119545988627,-0.471823112086,0.138935216229,-0.0201837710715,-1.66715391747
1385571783034499215,-0.200981923815,-0.122579506128,-0.469527505563,0.137761919579,-0.0207699393587,-1.66700535775
1385571783044487214,-0.194335029213,-0.125722620097,-0.467208256169,0.136851274991,-0.0196283754325,-1.66724060486
1385571783054482740,-0.187498600655,-0.128802592901,-0.465028966603,0.135659848346,-0.0189433287454,-1.6669297299
1385571783064535043,-0.180637386823,-0.132017213778,-0.462873825993,0.135063951585,-0.0190673184634,-1.66669389788
1385571783074575957,-0.173884787693,-0.135229248388,-0.460438697344,0.134679743335,-0.0190831880239,-1.6670927012
1385571783084548848,-0.166987323408,-0.138440443879,-0.458341583181,0.133335890373,-0.0190879815501,-1.66697200178
1385571783094491028,-0.159783087298,-0.141764975371,-0.456196114476,0.131802382744,-0.01883451201,-1.66710512364
1385571783104475611,-0.15293734898,-0.145073254972,-0.453840993295,0.131031804916,-0.0143804042199,-1.66597251184
1385571783114685662,-0.145472446069,-0.148292064443,-0.452018207405,0.130110260549,-0.0152874594455,-1.6666963489
1385571783124534633,-0.138199744317,-0.151708978118,-0.449919845625,0.129078778603,-0.0164493029429,-1.66619021387
1385571783134517989,-0.130740945347,-0.155085391056,-0.447794551545,0.128340197688,-0.0150959808676,-1.66598479823
1385571783144514046,-0.123389278296,-0.158438183444,-0.445920321025,0.128185833749,-0.0135925961594,-1.66599978967
1385571783154513213,-0.115721729505,-0.161954393987,-0.443875111508,0.127498313122,-0.0138117353872,-1.66573558433
1385571783164485320,-0.108006361727,-0.165396368406,-0.442138183559,0.127013524924,-0.0135950068095,-1.66537827954
1385571783174538670,-0.100297909979,-0.168898395942,-0.440315535699,0.126808223278,-0.0132956904166,-1.66511584276
1385571783184474163,-0.092524686248,-0.172459068452,-0.438438768727,0.126446173307,-0.0128797278031,-1.66478745381
1385571783194478333,-0.0844620736461,-0.175892281432,-0.436830089676,0.12633222438,-0.0116000043829,-1.66511150562
1385571783204518039,-0.0764953587624,-0.179426866314,-0.435205790848,0.126302498256,-0.0108751365088,-1.6648892832
1385571783214515546,-0.0684642917858,-0.182954981972,-0.43350595797,0.125993176723,-0.0103402447603,-1.66512728342
1385571783224500614,-0.060216374968,-0.186685713154,-0.431892899539,0.126260968824,-0.00977039947659,-1.66442817212
1385571783234494719,-0.0519581246079,-0.190243497437,-0.430393630792,0.127027195804,-0.00936092089463,-1.66388524431
1385571783244560579,-0.0435712058727,-0.193878522894,-0.428853679777,0.127428943036,-0.00792590416217,-1.66353144283
1385571783254529730,-0.0351493298273,-0.197452897087,-0.427470407828,0.128063857407,-0.00727110039707,-1.66355370399
1385571783264499433,-0.0266460006795,-0.201204278104,-0.425952924526,0.129031437449,-0.00736312480731,-1.66374480943
1385571783274551977,-0.0179613085504,-0.204857597562,-0.424648183683,0.129623703929,-0.00637740912302,-1.66388925134
1385571783284521098,-0.00939397722655,-0.208577938346,-0.42336372256,0.129358021223,-0.00504381542495,-1.6638227757
1385571783294499955,-0.00069451354534,-0.21217592491,-0.422058612763,0.130085035568,-0.00480114875568,-1.66440915551
1385571783304741488,0.00811515114949,-0.215937613912,-0.420861125901,0.13025367976,-0.00426201490834,-1.6638883217
1385571783314660401,0.0169149453695,-0.219714624921,-0.419595252377,0.12897045137,-0.00358067914922,-1.66353795007
1385571783324536021,0.0259422208265,-0.223484943824,-0.418449021286,0.128569360805,-0.0024873265612,-1.663846514
1385571783334468513,0.0348403610382,-0.227195215386,-0.417404426779,0.126794974492,-0.00245711291849,-1.66373120297
1385571783344455826,0.0439067439326,-0.230932922734,-0.416399535051,0.126614033182,-0.00249041834587,-1.66355952788
1385571783354474180,0.0529411154276,-0.234748248188,-0.415309012408,0.124862567179,-0.00282727921299,-1.66362323808
1385571783364449528,0.0620902513166,-0.238666046326,-0.414337954329,0.123492582971,-0.00264904431372,-1.66315022249
1385571783374465880,0.0714926989972,-0.242343298368,-0.413425567889,0.122563379761,-0.00276935608149,-1.6634341532
1385571783384538323,0.0809027002301,-0.246161665957,-0.412538563132,0.120820391009,-0.00164002377222,-1.66301430627
1385571783394537134,0.0901018065954,-0.250103697202,-0.411742660565,0.119512611191,-0.00262801559327,-1.66283868997
1385571783404651840,0.09958590283,-0.254022806822,-0.410970873821,0.119061803571,-0.00306038704531,-1.66321366757
1385571783414526700,0.109052913782,-0.257769444852,-0.410087174127,0.117641531499,-0.00362054645117,-1.66285703081
1385571783424461030,0.118716680956,-0.261675197218,-0.409372010084,0.116890724642,-0.0036646323529,-1.6628157698
1385571783434518328,0.128340288582,-0.265673626178,-0.408619311972,0.116003136582,-0.00416981327488,-1.6622775455
1385571783444472276,0.138229021596,-0.269441824099,-0.407995125493,0.115674915457,-0.00465934061268,-1.66155786051
1385571783454475875,0.147850168593,-0.273423152987,-0.407426971424,0.116103242441,-0.00441770570011,-1.66139903214
1385571783464567076,0.157773974461,-0.277359551289,-0.406706095408,0.113923612283,-0.00498499919916,-1.66126129702
1385571783474535652,0.16769579368,-0.281305617854,-0.406180884391,0.112866969127,-0.00476472257662,-1.66088484176
1385571783484523100,0.177410600263,-0.285247004059,-0.405529515506,0.111743818242,-0.00426030655958,-1.66067917388
1385571783494453406,0.18744471661,-0.289143112638,-0.404994073998,0.110020401091,-0.00622107595884,-1.66065206908
1385571783504482758,0.197374798442,-0.293154878519,-0.404477300975,0.107271062902,-0.00693794711298,-1.66067058204
1385571783514527232,0.207478985948,-0.297129942335,-0.404014703023,0.10352955781,-0.00638740395468,-1.66061819681
1385571783524522752,0.217449089946,-0.301144706651,-0.403688715321,0.100796481413,-0.00688444552753,-1.66039826701
1385571783534484968,0.227450336352,-0.305096901346,-0.403118799885,0.0984208387631,-0.00748765150448,-1.66061198785
1385571783544533748,0.23766159845,-0.309116554481,-0.402811292938,0.094758462271,-0.00802886817594,-1.65964522372
1385571783554518909,0.247763831985,-0.313190143868,-0.402553990742,0.0909443729529,-0.0080770536576,-1.65950265101
1385571783564559319,0.257776967391,-0.31717601493,-0.402303585186,0.0866500992741,-0.0105591778171,-1.65898701031
1385571783574537613,0.268155947643,-0.321240172045,-0.402088901129,0.0849130080567,-0.00899221341741,-1.65899548763
1385571783584765138,0.278250656276,-0.325313914568,-0.401863467064,0.080293765766,-0.0095147638405,-1.65858670818
1385571783594592916,0.288295035605,-0.329468106402,-0.401642636277,0.0771814588641,-0.0112953944266,-1.65841663783
1385571783604502301,0.298668130169,-0.333398117615,-0.401681762348,0.0746705362033,-0.0115705736524,-1.65815718192
1385571783614510223,0.308828940983,-0.337582633972,-0.401371745097,0.0717323447608,-0.0121638996796,-1.65729332656
1385571783624456234,0.319239808311,-0.341711915669,-0.401553804984,0.0683259775378,-0.0115937471771,-1.65730032255
1385571783634499564,0.329355427982,-0.345872861962,-0.401445379187,0.0657716933798,-0.0118207969307,-1.65640083861
1385571783644506436,0.339613237717,-0.349914297247,-0.401407231308,0.0635387489242,-0.0127816831879,-1.65639863799
1385571783654455796,0.350042047215,-0.354074906134,-0.401603764166,0.06137073601,-0.0131191673079,-1.65608552223
1385571783664516634,0.360243889404,-0.358157531744,-0.401660896669,0.0588141215806,-0.0118154235942,-1.65591686568
1385571783674461530,0.370561616101,-0.362409258947,-0.401950426298,0.0563336515905,-0.0103760287913,-1.65563413477
1385571783684461020,0.380788169676,-0.366470886271,-0.402143806398,0.0543293704651,-0.0125654697974,-1.65497879695
1385571783694513282,0.391120034546,-0.370733734058,-0.402354212085,0.0515572517247,-0.0120498261482,-1.65502497352
1385571783704473294,0.401169031124,-0.374980530526,-0.402589925936,0.0486047752542,-0.0121130849164,-1.65456134265
1385571783714461121,0.411311243274,-0.379090035447,-0.402824935182,0.0466745487523,-0.0118277230517,-1.65359130148
1385571783724509305,0.421605001391,-0.383372707014,-0.40322616401,0.0437091397337,-0.0136667857166,-1.65305683886
1385571783734462417,0.431787572606,-0.38766409043,-0.403613942025,0.0420001977237,-0.0131711342881,-1.65278335521
