%time,field.linear.x,field.linear.y,field.linear.z,field.angular.x,field.angular.y,field.angular.z
1385575142674191984,-0.0,0.0,0.0,1.0,0.0,0.0
1385575142864412149,-0.0,0.0,6.25747411814e-08,1.0,0.0,0.214571076534
1385575143064417887,-0.348842235464,-0.607925536401,-0.0137763990327,1.0,0.0,0.0731851855546
1385575143264400717,-0.102357714769,-0.178758566256,-0.00430569034204,1.0,0.0,0.106456602628
1385575143464570628,-0.248451993268,-0.43231404539,-0.00147050195838,1.0,0.0,0.0668939372684
1385575143664547164,-0.0129028719383,-0.024412581771,0.00685745838176,1.0,0.0,0.0644106430476
1385575143864627086,-0.0791611333688,-0.138689422768,0.0147745475329,1.0,0.0,0.0500816706228
1385575144064413262,0.0983704300027,0.168728244412,0.0243136268658,1.0,0.0,0.0510055029562
1385575144264555582,0.0340913467109,0.0588516052494,0.0338402532222,1.0,0.0,0.0482396890182
1385575144464485040,0.115572035831,0.199841156383,0.043655007038,1.0,0.0,0.0498446580073
1385575144664473924,0.022674494938,0.0417129781111,0.0539583757816,1.0,0.0,0.0499768869736
1385575144864434972,0.0379437238772,0.0671062396502,0.0644010434674,1.0,0.0,0.0509531642104
1385575145064534707,-0.0492743194973,-0.0886410152315,0.0747826332645,1.0,0.0,0.0518426732933
1385575145264489932,-0.0509122631536,-0.0784230172648,0.0855023096736,1.0,0.0,0.0511662615375
1385575145464421513,-0.100643875196,-0.164115567306,0.0955791279632,1.0,0.0,0.050158536816
1385575145664429443,-0.0710879448251,-0.123055660807,0.104283512024,1.0,0.0,0.0507705201253
1385575145864428939,-0.109612132743,-0.140769452156,0.1001398885,1.0,0.0,0.0476126922042
1385575146064351829,-0.0719353238178,-0.0514940836052,0.10869827738,1.0,0.0,0.0420265351724
1385575146264373325,-0.073560509113,-0.0361193958834,0.110493625917,1.0,0.0,0.037736954886
1385575146464490719,-0.0392649960211,0.0493295820198,0.112325077653,1.0,0.0,0.03321777513
1385575146664554606,-0.0397478843209,0.0561478773707,0.101360027112,1.0,0.0,0.0291379933256
1385575146864565522,-0.0135756937918,0.10944368768,0.100216978815,1.0,0.0,0.0254398751293
1385575147064373068,-0.0151149481048,0.0937940647832,0.100236847185,1.0,0.0,0.0219866762904
1385575147264546371,-0.000853264442142,0.108972351694,0.108490049304,1.0,0.0,0.0191034823148
1385575147464455413,-0.0127826300268,0.0642957032144,0.114132339751,1.0,0.0,0.0168786836374
1385575147664348308,-0.0157996423599,0.050763784671,0.12248796544,1.0,0.0,0.0153151055199
1385575147864387893,-0.0337039940257,-0.00138062148146,0.129537118342,1.0,0.0,0.0144048181695
1385575148064588920,-0.0463882900289,-0.0204700722831,0.128279150875,1.0,0.0,0.0137656322748
1385575148265064100,-0.0624433468344,-0.0568534236884,0.128092924906,1.0,0.0,0.0131721756149
1385575148464467544,-0.0724579059611,-0.0585239645924,0.12582862145,1.0,0.0,0.0127844569606
1385575148664501309,-0.0781284703183,-0.0745121131204,0.123343624259,1.0,0.0,0.0124973207606
1385575148864427447,-0.079596334269,-0.0559745925751,0.119577164174,1.0,0.0,0.0120172308352
1385575149064490787,-0.0779211776697,-0.0476610392197,0.114898225192,1.0,0.0,0.0112110344977
1385575149264331226,-0.0729850396931,-0.0191948895179,0.110688371674,1.0,0.0,0.0104986802787
1385575149464386925,-0.0662222495112,-0.00234689519501,0.107994512825,1.0,0.0,0.00964421543774
1385575149664389716,-0.0590433129156,0.0247659542007,0.106807172225,1.0,0.0,0.00891911319536
1385575149864452184,-0.0529775905217,0.03191324005,0.104409662386,1.0,0.0,0.00869977543879
1385575150064680683,-0.0477231733823,0.0443180725744,0.102577846458,1.0,0.0,0.00864943993063
1385575150264368485,-0.0458578874544,0.0355449124939,0.0980149744181,1.0,0.0,0.00890149970479
1385575150464575560,-0.0442072648987,0.0333667990287,0.0931650919608,1.0,0.0,0.00908724116138
1385575150664354465,-0.0459075310401,0.0122102965035,0.0865081717255,1.0,0.0,0.0096428667896
1385575150864460891,-0.0483294578819,0.00186523760986,0.079874197392,1.0,0.0,0.00981293546802
1385575151064402490,-0.0522640326599,-0.0209433416589,0.0734759791551,1.0,0.0,0.0100257461411
1385575151264407582,-0.0565888974688,-0.0320107995135,0.0674060897919,1.0,0.0,0.0101131334938
1385575151464344271,-0.0608345525723,-0.0495634590281,0.0620227599614,1.0,0.0,0.0101093944917
1385575151664415532,-0.0639827680128,-0.0542933357559,0.0581175643368,1.0,0.0,0.0100064393587
1385575151864402681,-0.0659943774798,-0.0591517478322,0.0552561147522,1.0,0.0,0.00955237729801
1385575152064451297,-0.0657626311424,-0.0523522178347,0.0525385781197,1.0,0.0,0.00894270455269
1385575152264639427,-0.0644786125546,-0.0468908742917,0.0496519019623,1.0,0.0,0.00853747410143
1385575152464359292,-0.0614946025655,-0.0298765464741,0.0470751863377,1.0,0.0,0.00780213706971
1385575152664439801,-0.0577399665242,-0.0175088901721,0.0446663391144,1.0,0.0,0.00722525181883
1385575152864457514,-0.0528983257603,0.00154972686183,0.0423739955962,1.0,0.0,0.00632783034978
1385575153064430238,-0.0483488113338,0.0128534413903,0.0388977331031,1.0,0.0,0.00535184817219
1385575153264540617,-0.0437521660927,0.0256990948092,0.0363490905216,1.0,0.0,0.00421018924044
1385575153467486396,-0.0404232167135,0.0317585386829,0.0342312372598,1.0,0.0,0.00267159376497
1385575153664478472,-0.0377666423485,0.0378848243896,0.0318689423818,1.0,0.0,0.000784356848564
1385575153864407390,-0.0365166214196,0.0347344798856,0.0296013166651,1.0,0.0,-0.00128558160232
1385575154064407316,-0.0353511554293,0.0334353440553,0.0268306898273,1.0,0.0,-0.00355651914541
1385575154264426422,-0.03460564067,0.0267285556971,0.0274549401297,1.0,0.0,-0.00607620732039
1385575154464525712,-0.0344523349084,0.0183385310905,0.0267844316034,1.0,0.0,-0.00818388778998
1385575154664420613,-0.0338896248471,0.00751701910386,0.0262842085622,1.0,0.0,-0.0101039437447
1385575154864500957,-0.0329175981601,-0.000624062238488,0.0256400036529,1.0,0.0,-0.0120404495697
1385575155064388661,-0.0311687632139,-0.00930970724138,0.0248461438591,1.0,0.0,-0.0136242158458
1385575155264415982,-0.0289212843874,-0.0127929838741,0.0236553272984,1.0,0.0,-0.0150297750951
1385575155464392489,-0.026375810942,-0.0146967944002,0.0225507543539,1.0,0.0,-0.0161166038965
1385575155664677029,-0.0234991548493,-0.010400878788,0.0227512141508,1.0,0.0,-0.0171453921474
1385575155864495561,-0.020728421982,-0.0067881215992,0.022735139513,1.0,0.0,-0.0177941239306
1385575156064391082,-0.018428363766,0.000409893095907,0.0225034135489,1.0,0.0,-0.0182759106686
1385575156264381731,-0.016482637205,0.00336815866053,0.0229554750919,1.0,0.0,-0.0184110382474
1385575156464381490,-0.0160405922933,0.00609112934308,0.0229767260089,1.0,0.0,-0.0184143601818
1385575156664510597,-0.0160468330425,0.00244499278432,0.0220039612229,1.0,0.0,-0.0180358171829
1385575156864357790,-0.0163589209071,-0.0021067013635,0.0209089859096,1.0,0.0,-0.0173951696533
1385575157064410611,-0.0173423820278,-0.0109277984191,0.0194214668273,1.0,0.0,-0.0166453134992
1385575157264572922,-0.0190411069585,-0.0188402418075,0.0178823493131,1.0,0.0,-0.015994788656
1385575157464403674,-0.02154671169,-0.0297135989243,0.0158205501381,1.0,0.0,-0.0151686961103
1385575157664409229,-0.0248499211818,-0.0369946942785,0.0147604181607,1.0,0.0,-0.0144771465602
1385575157864389701,-0.0290094122614,-0.0456798558311,0.0131726039423,1.0,0.0,-0.0133412452517
1385575158064578163,-0.0324556186,-0.0476591335192,0.0134073424329,1.0,0.0,-0.0122825221442
1385575158264799617,-0.0352043341173,-0.0479805577161,0.0132080803071,1.0,0.0,-0.011025955479
1385575158464425415,-0.0360201585524,-0.0415990396977,0.014293011178,1.0,0.0,-0.0100667710371
1385575158664542055,-0.0347444366942,-0.0345475304115,0.0146691444616,1.0,0.0,-0.0093448563041
1385575158864378646,-0.031254800845,-0.0241949574767,0.0146579327531,1.0,0.0,-0.00887238753085
1385575159064462504,-0.0268116427185,-0.0155504861343,0.0142688439713,1.0,0.0,-0.00857409796337
1385575159264340214,-0.0226497435381,-0.00587658705296,0.0142309483642,1.0,0.0,-0.00846598166142
1385575159464520298,-0.0173876663788,-0.00192113132344,0.0139141638748,1.0,0.0,-0.00796603890537
1385575159664388181,-0.0131677173762,0.00113861698649,0.0121023555251,1.0,0.0,-0.00753012623406
1385575159864386424,-0.00828781049065,-0.00198776411291,0.0110305633212,1.0,0.0,-0.00688820829264
1385575160064477281,-0.00643547064,-0.00423510610147,0.00920135775447,1.0,0.0,-0.0064683361898
1385575160264460809,-0.00566998679288,-0.00965853558479,0.00769399751695,1.0,0.0,-0.00601652322949
1385575160464441531,-0.00834503526271,-0.0132291913088,0.00672613079272,1.0,0.0,-0.00566380952535
1385575160664483533,-0.0113333658118,-0.0175731077862,0.00612119375478,1.0,0.0,-0.00513061369994
1385575160864421634,-0.0168299564491,-0.0192641097742,0.00582472179736,1.0,0.0,-0.00432359725859
1385575161064386128,-0.0211525482333,-0.0195655050506,0.00564407932385,1.0,0.0,-0.00344943331457
1385575161264535628,-0.0258334601228,-0.0178466595485,0.0050446466537,1.0,0.0,-0.00266074027289
1385575161464534943,-0.0271742916879,-0.0171317049113,0.00484885465469,1.0,0.0,-0.00167725195951
1385575161664395628,-0.0272763540326,-0.0148042115387,0.0047618283669,1.0,0.0,-0.00073124004708
1385575161864440116,-0.0240616796491,-0.0138901020424,0.00416055358295,1.0,0.0,0.000180801410856
1385575162064394647,-0.0195806945297,-0.0119250748147,0.00370955756915,1.0,0.0,0.00103433404325
1385575162264391787,-0.0135357693624,-0.0114284446972,0.00314627878992,1.0,0.0,0.00182886076114
1385575162464476601,-0.00743919505455,-0.0104664845173,0.00324296962509,1.0,0.0,0.00261177510162
1385575162664417608,-0.00113390751942,-0.0106418975736,0.00305297553431,1.0,0.0,0.00321620397254
1385575162864572997,0.00434422257246,-0.0111124403628,0.00224290137108,1.0,0.0,0.00377780656792
1385575163064574977,0.0080538437996,-0.0126527767099,0.0010751240282,1.0,0.0,0.00419050134126
1385575163264348666,0.00948402900967,-0.0146058310689,0.00037719506714,1.0,0.0,0.00449648807639
1385575163464390638,0.00885262045952,-0.0168956403482,-0.000726483992397,1.0,0.0,0.00485882485234
1385575163664412418,0.00633852830023,-0.0185519470174,-0.00158033903044,1.0,0.0,0.00499260023314
1385575163864403860,0.00281709695151,-0.020720073724,-0.00228373249344,1.0,0.0,0.00515676160098
1385575164064713398,-0.00141670994641,-0.0220812504862,-0.00260260403483,1.0,0.0,0.00546644971233
1385575164264528346,-0.0061154507721,-0.0227740106573,-0.00246912306629,1.0,0.0,0.00580497663433
1385575164464444359,-0.00967457592558,-0.0220924550541,-0.0027881347774,1.0,0.0,0.00633609720725
1385575164664466504,-0.0122414367363,-0.0200126758911,-0.00317029759086,1.0,0.0,0.0067628715637
1385575164864411876,-0.012871054491,-0.0177362400138,-0.00360915438307,1.0,0.0,0.0070365046561
1385575165064469409,-0.0120548344098,-0.0152065142388,-0.00410412806779,1.0,0.0,0.00717225631546
1385575165264486531,-0.00841635071869,-0.0136225537064,-0.00411234372867,1.0,0.0,0.00757264623328
1385575165464458365,-0.00403562884022,-0.0119266389614,-0.00390364477625,1.0,0.0,0.00796115945947
1385575165664362457,0.00142153038517,-0.0112803060943,-0.0042027355688,1.0,0.0,0.00831781889486
1385575165864372006,0.0055806673733,-0.0118931077977,-0.00361663179792,1.0,0.0,0.00875316757254
1385575166064468957,0.00889274167998,-0.0128662981735,-0.00327964628668,1.0,0.0,0.00903494654531
1385575166264439775,0.0106632813874,-0.0138962869064,-0.00257386235697,1.0,0.0,0.00935788806788
1385575166464402148,0.0111341046448,-0.0136163598911,-0.00114104681899,1.0,0.0,0.00949833749294
1385575166664526870,0.0105034016802,-0.0123931083135,-0.000291252792908,1.0,0.0,0.00956049824855
1385575166864396062,0.00883961480639,-0.00958044242626,0.000130490517704,1.0,0.0,0.00958054730773
1385575167064387903,0.00696076327111,-0.00656174935218,0.000399746961132,1.0,0.0,0.00953957598103
1385575167264464773,0.00537321088203,-0.00328228294153,0.00068959321079,1.0,0.0,0.00947350737756
1385575167464520857,0.00406840414803,-0.00117220098089,0.000962414705345,1.0,0.0,0.00919945987408
1385575167664371586,0.0030892029892,0.000389012876362,0.00101315006711,1.0,0.0,0.00882213571019
1385575167864395715,0.00216289071588,0.000338403840627,0.00119529156334,1.0,0.0,0.00839433923857
1385575168064423093,0.000828096348249,-0.000278997322114,0.00147534229492,1.0,0.0,0.00779603785265
1385575168264395672,-0.00104805942515,-0.00146302010703,0.00178543368127,1.0,0.0,0.00709571631376
1385575168464357934,-0.00310990600774,-0.00230400965951,0.00181244793938,1.0,0.0,0.00640336049571
1385575168664412228,-0.00517359986211,-0.00326618327004,0.00169989357485,1.0,0.0,0.00546295694015
1385575168864404476,-0.00684175337226,-0.0044486105208,0.00164394321564,1.0,0.0,0.0047164400125
1385575169064506279,-0.00762048718791,-0.00587316311739,0.00160854998853,1.0,0.0,0.00403099596015
1385575169264496300,-0.00805518651481,-0.00674706736935,0.00160271564675,1.0,0.0,0.00338800669634
1385575169464392680,-0.00765832418565,-0.00789686772118,0.0011035714623,1.0,0.0,0.00271904935887
1385575169664337385,-0.00709600328947,-0.00883832431264,0.0003728271187,1.0,0.0,0.00237085067366
1385575169864517457,-0.00641201443124,-0.0108780043469,-0.000594535810812,1.0,0.0,0.00218277679495
1385575170064534149,-0.0058440073318,-0.0124793677969,-0.00162318394019,1.0,0.0,0.00209755193586
1385575170264375142,-0.00530512532926,-0.0143232462913,-0.00241459237146,1.0,0.0,0.00218799202503
1385575170464512822,-0.00474946925541,-0.0153535447827,-0.00325271029505,1.0,0.0,0.00246275074475
1385575170664450129,-0.00378871520528,-0.0167680703897,-0.00342334710853,1.0,0.0,0.00294375915883
1385575170864402322,-0.0030508716845,-0.0179222711479,-0.00357883081448,1.0,0.0,0.00350691509854
1385575171064444029,-0.00247355020546,-0.0191200169653,-0.00339538159726,1.0,0.0,0.004214584743
1385575171264414104,-0.00248615362393,-0.0195506372215,-0.00278689942642,1.0,0.0,0.00497788666244
1385575171464430159,-0.00328026178814,-0.0196158054415,-0.00241274737917,1.0,0.0,0.00586626305747
1385575171664495744,-0.00470993409754,-0.0186624391938,-0.00202394963173,1.0,0.0,0.00662128671821
1385575171864470500,-0.00627691965032,-0.0178629621546,-0.00147220798307,1.0,0.0,0.00770063587979
1385575172064407036,-0.00777569173308,-0.0156326056573,-0.000653788672958,1.0,0.0,0.00894826559094
1385575172264341462,-0.00878452037658,-0.012665424776,0.000163356673621,1.0,0.0,0.0106521415834
1385575172464482781,-0.00906785369284,-0.00842729132051,0.000832120330615,1.0,0.0,0.0125987921545
1385575172664531571,-0.0083965375875,-0.0033727971968,0.00189707168976,1.0,0.0,0.0150606717024
1385575172864522902,-0.007196591795,0.00311902277638,0.00277023999993,1.0,0.0,0.0180486896107
1385575173064476149,-0.0058412096788,0.00957640940953,0.00406227702385,1.0,0.0,0.0217787822852
1385575173264345900,-0.00409687600286,0.0168571062627,0.0057257196908,1.0,0.0,0.0261597845597
1385575173464370436,-0.000827223174495,0.0248582012453,0.00695401585677,1.0,0.0,0.0315423299736
1385575173664370293,0.00326183824725,0.032166594013,0.00787018665194,1.0,0.0,0.0378578520746
1385575173864379241,0.00874585525913,0.037487083863,0.00838376576207,1.0,0.0,0.0451305185056
1385575174064455690,0.0147281314317,0.0388688414927,0.00754320467966,1.0,0.0,0.0532184219614
1385575174264456506,0.0203484676864,0.0368835730783,0.00530917656329,1.0,0.0,0.0617958711134
1385575174464564916,0.0238742233321,0.0309800689074,0.00200651583955,1.0,0.0,0.0700284191706
1385575174664440838,0.0254529998814,0.0232423524353,-0.00100298937893,1.0,0.0,0.077935862724
1385575174864382922,0.0237538697448,0.0139690536859,-0.00335843090925,1.0,0.0,0.0852466880997
1385575175064402157,0.0203144817403,0.00416663703201,-0.00498440151813,1.0,0.0,0.091949613874
1385575175264512176,0.0153012643593,-0.00429929218502,-0.00576511508057,1.0,0.0,0.0978967565138
1385575175464392578,0.00926589372308,-0.009026729243,-0.00597701898088,1.0,0.0,0.103363313863
1385575175664403982,0.00241095640156,-0.00944804071251,-0.00596080794635,1.0,0.0,0.108086388838
1385575175864520373,-0.00411689615352,-0.00442138661304,-0.00573639240614,1.0,0.0,0.112325792653
1385575176064450642,-0.00923997869389,0.00531113361229,-0.00566647005741,1.0,0.0,0.1160934221
1385575176264438095,-0.012273584106,0.0179998636047,-0.00548225120037,1.0,0.0,0.119612788346
1385575176464432063,-0.0129502187771,0.0321732093175,-0.00535181686013,1.0,0.0,0.123100002756
1385575176664563891,-0.0101947089846,0.0454526194828,-0.00506591644338,1.0,0.0,0.126365850834
1385575176864515722,-0.0040600227387,0.055687858788,-0.00446031601606,1.0,0.0,0.129114625173
1385575177064425949,0.00551168186631,0.0612005183257,-0.00316912009796,1.0,0.0,0.131246849466
1385575177264542384,0.0182414528846,0.0595930192701,-0.000875307668317,1.0,0.0,0.132260801934
1385575177464342090,0.031144528556,0.0496529567181,0.00179251736041,1.0,0.0,0.132578935878
1385575177664419132,0.041836129926,0.0321407408579,0.00539965360982,1.0,0.0,0.132323374227
1385575177864381180,0.0458306153941,0.00858868918205,0.00956959205422,1.0,0.0,0.131728774268
1385575178064376007,0.041387308852,-0.0156002378142,0.0122625154999,1.0,0.0,0.131445058438
1385575178264377961,0.0292831075069,-0.0359165809022,0.0138778245734,1.0,0.0,0.131308317882
1385575178464323638,0.0106856555488,-0.0457663070446,0.0134080726321,1.0,0.0,0.132024161435
1385575178664429253,-0.00891928311909,-0.0435595504776,0.0117165226659,1.0,0.0,0.132959518172
1385575178864412422,-0.0272990073849,-0.0271227165297,0.00831345693682,1.0,0.0,0.134385776383
1385575179064594895,-0.0402560862146,0.000307876846638,0.00388885965719,1.0,0.0,0.136188458239
1385575179264416119,-0.0468636804566,0.0360614831828,-0.000881129002285,1.0,0.0,0.13845710922
1385575179464408180,-0.044141779369,0.0741160013433,-0.00547320770239,1.0,0.0,0.140820515585
1385575179664535794,-0.0300013212052,0.109977692405,-0.00922991633877,1.0,0.0,0.142274952096
1385575179864360302,-0.00474277583704,0.138308781032,-0.0122401568714,1.0,0.0,0.142513835225
1385575180064438740,0.0307081530711,0.153632246785,-0.0135108866336,1.0,0.0,0.14107656608
1385575180264406355,0.0727328300028,0.150183680798,-0.0110578330539,1.0,0.0,0.138246657666
1385575180464405856,0.116729800855,0.122092881902,-0.00635850217623,1.0,0.0,0.133825696993
1385575180664415906,0.149748830695,0.0711395977432,0.00191238885027,1.0,0.0,0.128706367328
1385575180864415305,0.163768276901,0.00208082040735,0.0117838549109,1.0,0.0,0.123619407089
1385575181064406994,0.152704452968,-0.0752785240933,0.0221875767125,1.0,0.0,0.118442287984
1385575181264433027,0.114155894228,-0.145044028343,0.0279246355537,1.0,0.0,0.113770214909
1385575181464460152,0.0554160762258,-0.194401380761,0.0300323194274,1.0,0.0,0.109564015388
1385575181664392405,-0.0123276628622,-0.213143806315,0.0278276634262,1.0,0.0,0.106210127087
1385575181864407529,-0.0775632101269,-0.199004086592,0.0248539843356,1.0,0.0,0.103076939013
1385575182064450546,-0.131629518583,-0.150537852504,0.0239236263852,1.0,0.0,0.0996700598947
1385575182264379007,-0.168464441514,-0.0724255739084,0.0199449807773,1.0,0.0,0.0964881703003
1385575182464462519,-0.180925826347,0.0320174030474,0.0157718803978,1.0,0.0,0.09516136721
1385575182664410196,-0.163731248769,0.145626762164,0.0122468120092,1.0,0.0,0.094449081561
1385575182864412555,-0.115345901062,0.249593170299,0.00828844976,1.0,0.0,0.092640592278
1385575183064405735,-0.0430037089443,0.321031839278,0.00377829832872,1.0,0.0,0.0895934614544
1385575183264403099,0.0440723687492,0.34862926211,0.00191361235637,1.0,0.0,0.0853230250025
1385575183464360123,0.132327524605,0.321625745814,0.00377049391219,1.0,0.0,0.0803703137795
1385575183664349510,0.206167800261,0.246070703893,0.00826656865185,1.0,0.0,0.0758210683635
1385575183864334305,0.255170899707,0.129747793669,0.0188668650048,1.0,0.0,0.071366873132
1385575184064430735,0.266828706158,-0.0070767686159,0.0288046648318,1.0,0.0,0.0675038376342
1385575184264619632,0.240927142067,-0.143023944221,0.034853581533,1.0,0.0,0.064048149204
1385575184464423717,0.18065448009,-0.258034751446,0.0368420325247,1.0,0.0,0.0604628456652
1385575184664327597,0.0954444133395,-0.33420733388,0.0330920324256,1.0,0.0,0.056353155768
1385575184864441830,-0.0043939983595,-0.362970047423,0.0290631947631,1.0,0.0,0.0522007509659
1385575185064404052,-0.103425178497,-0.339326061748,0.0254824470251,1.0,0.0,0.048198073725
1385575185264589941,-0.188712598564,-0.268783814091,0.0228648283949,1.0,0.0,0.0449420975987
1385575185464419648,-0.247629265879,-0.159712450528,0.0238318398993,1.0,0.0,0.0422452566083
1385575185664591613,-0.269342266048,-0.0267977685101,0.023386494329,1.0,0.0,0.0410756599187
1385575185864618030,-0.252733428491,0.108713638599,0.0211412204504,1.0,0.0,0.0407362332489
1385575186064412825,-0.200611483187,0.226447472844,0.0146878372128,1.0,0.0,0.040285992951
1385575186264351507,-0.122564141818,0.310765654153,0.00652330545853,1.0,0.0,0.0395142452113
1385575186464422538,-0.030623811137,0.348913882737,-0.000904783754535,1.0,0.0,0.0384512835448
1385575186664445748,0.0635198793476,0.337694789567,-0.00519369993779,1.0,0.0,0.0367430602178
1385575186864459255,0.14708383589,0.277051216271,-0.00478140322434,1.0,0.0,0.0350141484589
1385575187064429996,0.208036730707,0.175514338853,-0.00184887933286,1.0,0.0,0.0344224169397
1385575187264417310,0.238719657377,0.0480322590197,0.00256706051482,1.0,0.0,0.0344177635303
1385575187464409012,0.235606543406,-0.0847749964994,0.0045239945127,1.0,0.0,0.0353288488767
1385575187664348067,0.201823232465,-0.204229788736,0.00388462177646,1.0,0.0,0.0362809128016
1385575187864441809,0.139857580399,-0.293905719021,0.0027058903474,1.0,0.0,0.0369731276254
1385575188064471686,0.0576474377054,-0.341745160669,0.00145981973774,1.0,0.0,0.0370611648119
1385575188264446937,-0.034063402955,-0.339311999069,0.000246655398208,1.0,0.0,0.0377850382226
1385575188464439140,-0.117584398029,-0.296172907312,-0.0019005768607,1.0,0.0,0.0384432940056
1385575188664585564,-0.187484741745,-0.214632298088,0.00620132923918,1.0,0.0,0.038080850911
1385575188864470931,-0.233436699241,-0.101385360772,0.00970348176116,1.0,0.0,0.0387390801849
1385575189064387479,-0.250687732414,0.0270165098083,0.0140509948345,1.0,0.0,0.0398061317113
1385575189264390562,-0.234180111336,0.154659325245,0.0158059421876,1.0,0.0,0.0405041397463
1385575189464604876,-0.181634227286,0.261373001878,0.0146895074626,1.0,0.0,0.0412858922539
1385575189664389772,-0.103165177368,0.334066072203,0.00959311803238,1.0,0.0,0.041012519977
1385575189864425792,-0.00692096041368,0.361913073921,0.005951941129,1.0,0.0,0.0397647300742
1385575190064439006,0.0921294177952,0.339709355839,0.0043548801516,1.0,0.0,0.0376222871937
1385575190264586957,0.178174505352,0.267474875356,0.00594952434093,1.0,0.0,0.0356433656658
1385575190464467528,0.234857231816,0.156026412206,0.00867045747067,1.0,0.0,0.0349297527703
1385575190664436119,0.258189642084,0.0235431059359,0.0120774255809,1.0,0.0,0.0348418883786
1385575190864490559,0.244542325635,-0.111109552028,0.0113724901901,1.0,0.0,0.0354766116669
1385575191064403446,0.199483778549,-0.227850609704,0.0078579470776,1.0,0.0,0.0364060681904
1385575191264420109,0.126928790329,-0.311507746718,0.00314662693221,1.0,0.0,0.0371026409029
1385575191464488839,0.0376878878608,-0.351814882782,-0.00156978444296,1.0,0.0,0.0363048807571
1385575191664412232,-0.0610061434167,-0.341832327314,-0.00377063881681,1.0,0.0,0.0348852278153
1385575191864487928,-0.152220765306,-0.285421071325,-0.00241139573197,1.0,0.0,0.0329253371197
1385575192064441054,-0.224256244791,-0.18676468289,0.00119456452692,1.0,0.0,0.0316374486707
1385575192264383981,-0.264260414386,-0.0648311788069,0.0046361366563,1.0,0.0,0.0308846969051
1385575192464370949,-0.268408991039,0.0637270672872,0.00732466964259,1.0,0.0,0.0304788783466
1385575192664410733,-0.234697984422,0.179221464101,0.00839641654293,1.0,0.0,0.0303472317685
1385575192864391735,-0.171663603344,0.268712494178,0.00604067483844,1.0,0.0,0.0303655404391
1385575193064429870,-0.0862104142953,0.320350382382,0.00180356420297,1.0,0.0,0.0304077236586
1385575193264409802,0.00803464914078,0.332179590719,-0.00151993210805,1.0,0.0,0.0295982453981
1385575193464420537,0.102104657172,0.300050297305,-0.00344566976663,1.0,0.0,0.0282505518895
1385575193664380757,0.179989942421,0.229236138169,-0.00281581237623,1.0,0.0,0.0269436033771
1385575193864383156,0.23140255503,0.12660690427,-0.000664350804542,1.0,0.0,0.0264497151035
1385575194064446354,0.247147028283,0.00865216394058,0.000727992209464,1.0,0.0,0.0272405651049
1385575194264391780,0.228568824944,-0.109121298231,0.00090809990006,1.0,0.0,0.0287716812337
1385575194464404612,0.176985887314,-0.209176127472,-0.00150474449604,1.0,0.0,0.0304334486134
1385575194664363577,0.102379493476,-0.279899893263,-0.00516355196769,1.0,0.0,0.0315177355464
1385575194864607526,0.0122383930602,-0.310840850797,-0.00860773752833,1.0,0.0,0.0320158167276
1385575195064448587,-0.0795179550108,-0.29848074063,-0.0122834078783,1.0,0.0,0.032394536853
1385575195264424482,-0.156236585768,-0.248676490319,-0.0122227392979,1.0,0.0,0.0329657345699
1385575195464409288,-0.211088165958,-0.167259212156,-0.00809610733921,1.0,0.0,0.0334148242396
1385575195664523460,-0.23960340433,-0.0618155708822,-0.00429739353914,1.0,0.0,0.034908835957
1385575195864348573,-0.238294778262,0.0543933694121,0.0020974722566,1.0,0.0,0.0373825785149
1385575196064384787,-0.200747030152,0.168030791324,0.00762911628986,1.0,0.0,0.0403037104211
1385575196264395210,-0.133245546522,0.258882539784,0.00801288754329,1.0,0.0,0.043212178659
1385575196464479643,-0.0481284221374,0.318265055023,0.00502067437897,1.0,0.0,0.0453776006908
1385575196664409349,0.0423141394178,0.337421578452,0.00155386571759,1.0,0.0,0.0465642662505
1385575196864415117,0.128550478666,0.31373438195,0.00248942805851,1.0,0.0,0.0464597096793
1385575197064693486,0.19919450541,0.244027301367,0.00255872449358,1.0,0.0,0.0458570430458
1385575197264531050,0.24013253672,0.139440461362,0.00620586049326,1.0,0.0,0.0455411533709
1385575197464472223,0.24589813286,0.0146228152962,0.00899785755,1.0,0.0,0.0456348581665
1385575197664456916,0.218309071439,-0.109199560077,0.00908143124184,1.0,0.0,0.0452822867339
1385575197864424065,0.160673141746,-0.214911139255,0.00604890741866,1.0,0.0,0.0447794999764
1385575198064397737,0.0830328653296,-0.286428450889,0.00148328143834,1.0,0.0,0.043830734524
1385575198264392536,-0.00617804343655,-0.315365960518,-0.00374441937019,1.0,0.0,0.0424023867412
1385575198464439204,-0.0943970315476,-0.300067923908,-0.0080784309211,1.0,0.0,0.0406424918083
1385575198664471342,-0.170919911866,-0.244660725306,-0.00974065817456,1.0,0.0,0.0391849285999
1385575198864401297,-0.224534180891,-0.157127857593,-0.00832807879671,1.0,0.0,0.0378799747116
1385575199064586582,-0.247278923615,-0.0465120751346,-0.00448426937989,1.0,0.0,0.0371535845343
1385575199264411482,-0.235441897118,0.0696062135717,-0.0028522547922,1.0,0.0,0.0372126850002
1385575199464490005,-0.192347869697,0.174958553395,-0.00261888924427,1.0,0.0,0.0370402385563
1385575199664405359,-0.12428707616,0.252865472728,-0.00354214141005,1.0,0.0,0.0370765316717
1385575199864710365,-0.0426850890081,0.294513108481,-0.00547285052653,1.0,0.0,0.0372479737529
1385575200064416893,0.0414753089522,0.297514687865,-0.00785493978992,1.0,0.0,0.0374766773425
1385575200264478115,0.116806413421,0.264866871806,-0.00972199310746,1.0,0.0,0.0375428324975
1385575200464408501,0.175264981713,0.200143442744,-0.00572745022544,1.0,0.0,0.0377624793161
1385575200664571091,0.21242378848,0.107417626765,-0.00266249311859,1.0,0.0,0.038761073819
1385575200864355473,0.223173635473,-0.00111599087321,0.000608426557384,1.0,0.0,0.0405712422565
1385575201064565882,0.204594387455,-0.111903717176,0.00211081411251,1.0,0.0,0.0418722980888
1385575201264529292,0.157521418594,-0.2078474849,0.00114061490527,1.0,0.0,0.0425843844351
1385575201464524941,0.0854859943198,-0.274651065926,0.000282309543971,1.0,0.0,0.0429064288799
1385575201664481249,0.00099839445322,-0.301506079367,-0.0014965842091,1.0,0.0,0.0425261879297
1385575201864423684,-0.0854548601727,-0.285709424853,-0.00242873688326,1.0,0.0,0.0416028961949
1385575202064446733,-0.161059338035,-0.229268735961,-0.000557309707586,1.0,0.0,0.040122763833
1385575202264553006,-0.218529550554,-0.137429451845,0.00187967425772,1.0,0.0,0.0391717143956
1385575202464918227,-0.246236953327,-0.0234090986856,0.00530501647237,1.0,0.0,0.0393014287819
1385575202664444243,-0.240348423257,0.0981457798014,0.00878876000964,1.0,0.0,0.0398911698392
1385575202864593980,-0.196655258022,0.209310636494,0.0110927200961,1.0,0.0,0.0414269500251
1385575203064507622,-0.124244232342,0.292042011047,0.00900669886326,1.0,0.0,0.042806216988
1385575203264536976,-0.0342923982649,0.33828407166,0.00346923751698,1.0,0.0,0.0432023760618
1385575203464493261,0.0588717742615,0.340130471004,0.00164214541521,1.0,0.0,0.0428839119009
1385575203664420141,0.147069419905,0.297170971065,0.0043598893245,1.0,0.0,0.0415270110924
1385575203864492632,0.215780328322,0.207917215516,0.00552693111163,1.0,0.0,0.040808505095
1385575204064395831,0.255674633767,0.0899101636402,0.00971992006744,1.0,0.0,0.040632906282
1385575204264470866,0.259182786929,-0.0419135934532,0.00950809069936,1.0,0.0,0.0403185826078
1385575204464579566,0.227336505985,-0.163862035189,0.00813352986784,1.0,0.0,0.0403039462289
1385575204664445655,0.164764110176,-0.261838306962,0.00468495392568,1.0,0.0,0.0399407533315
1385575204864679677,0.0800363373554,-0.320290681363,0.000297755057949,1.0,0.0,0.03915357128
1385575205064476067,-0.0165546398651,-0.33544444404,-0.00296317362434,1.0,0.0,0.0371396688813
1385575205264366874,-0.114171947122,-0.301691570917,-0.00528765745994,1.0,0.0,0.0346888939243
1385575205464574020,-0.195047165629,-0.226860658912,-0.00485853978926,1.0,0.0,0.0327002665089
1385575205664395108,-0.24670471525,-0.119804947225,-0.00139814458341,1.0,0.0,0.0314116611864
1385575205864460070,-0.260711776315,0.00101767475582,0.00226734579014,1.0,0.0,0.0310614681447
1385575206064463722,-0.23873149542,0.119884307368,0.00347053668983,1.0,0.0,0.0310389436279
1385575206264457503,-0.184621493566,0.217286396023,0.00219584577934,1.0,0.0,0.031317439688
1385575206464411855,-0.109268796403,0.282502194672,-0.000249058961816,1.0,0.0,0.0315933256549
1385575206664418482,-0.0217584951328,0.306374240528,-0.00341138849081,1.0,0.0,0.0314811056481
1385575206864377108,0.0645368006716,0.288729066952,-0.00772000682585,1.0,0.0,0.0312741519391
1385575207064411763,0.135584530956,0.235485108454,-0.0127633484007,1.0,0.0,0.031660563092
1385575207264558670,0.183331729892,0.160534613195,-0.0103730779086,1.0,0.0,0.0321734750491
1385575207464382780,0.210574906668,0.0652214595105,-0.00787513473053,1.0,0.0,0.0337196178191
1385575207664493696,0.213139138177,-0.0398569837593,-0.00429152995495,1.0,0.0,0.0374606274051
1385575207864460931,0.187624680233,-0.146221659292,-0.00276561351619,1.0,0.0,0.0417493423277
1385575208064411787,0.133356028676,-0.234341946092,-0.00434291326421,1.0,0.0,0.0444704290693
1385575208264469130,0.0573028043445,-0.28979591312,-0.00465108089157,1.0,0.0,0.0460616144002
1385575208464361399,-0.0312738460981,-0.301708870335,-0.0047418728181,1.0,0.0,0.0459187638136
1385575208664446268,-0.121895623871,-0.267804896983,-0.00234182448011,1.0,0.0,0.0443853690889
1385575208864503890,-0.198375540222,-0.190486909948,1.76835266607e-06,1.0,0.0,0.0428408586964
1385575209064483293,-0.245908224209,-0.0837158589718,0.00438744239987,1.0,0.0,0.0415859041638
1385575209264538563,-0.256721357802,0.0374694929194,0.00665855031611,1.0,0.0,0.0404815367637
1385575209464442795,-0.231081052617,0.153204344255,0.00780457772452,1.0,0.0,0.0393068664218
1385575209664429152,-0.172837708652,0.248247045967,0.00621779810331,1.0,0.0,0.038324690164
1385575209864374545,-0.0913585605049,0.308224298418,0.00498797990117,1.0,0.0,0.0378432084789
1385575210064411454,0.00257674563349,0.325018971404,0.00307676310887,1.0,0.0,0.0377744603513
1385575210264400006,0.0949020666527,0.300597346921,-0.00125712046769,1.0,0.0,0.0377338922974
1385575210464433742,0.175349702978,0.240880209577,0.0014239152423,1.0,0.0,0.0374061582557
1385575210664388049,0.23326473366,0.148206254527,0.00244320420423,1.0,0.0,0.0378964554216
1385575210864346522,0.263117692623,0.034970839982,0.00520505270783,1.0,0.0,0.0387232689687
1385575211064634805,0.255576608573,-0.0857789173002,0.00481111585755,1.0,0.0,0.0399270371965
1385575211264399191,0.213036270992,-0.194796091323,0.0021147282,1.0,0.0,0.0404696281705
1385575211464399761,0.135494757326,-0.274988796689,-0.00124835501133,1.0,0.0,0.0403341281113
1385575211664318498,0.0376514937864,-0.314167066627,-0.00507031163367,1.0,0.0,0.0385604224552
1385575211864696633,-0.0716826581308,-0.303452857362,-0.00729266780847,1.0,0.0,0.0365390275488
1385575212064408756,-0.168568853391,-0.248624488136,-0.0081909126853,1.0,0.0,0.0346780298049
1385575212264493974,-0.24079383998,-0.159171817997,-0.00648689178382,1.0,0.0,0.0332326669726
1385575212464414658,-0.274201088863,-0.0477866940653,-0.00370786870218,1.0,0.0,0.0324242178874
1385575212664466466,-0.269474716747,0.0686708248158,-0.0020697180016,1.0,0.0,0.032353136497
1385575212864391800,-0.226204156478,0.172607828634,-0.00136611630891,1.0,0.0,0.0324090331618
1385575213064403639,-0.155085489605,0.248104289331,-0.00182860097585,1.0,0.0,0.0323984524262
1385575213264482135,-0.0651239626878,0.287664302253,-0.00189005011306,1.0,0.0,0.0318545807514
1385575213464472126,0.0287605342674,0.280095313682,-0.00175044468004,1.0,0.0,0.0326909701205
1385575213664625191,0.109940577875,0.23302639204,-0.00622869442642,1.0,0.0,0.0355375983565
1385575213864413164,0.168357302817,0.159583742351,-0.00551757018631,1.0,0.0,0.0389597589425
1385575214064516402,0.203543498645,0.0648373469242,-0.00451352076289,1.0,0.0,0.0430232440317
1385575214264386170,0.207545017347,-0.0441203356748,-0.00472745909955,1.0,0.0,0.0478264643649
1385575214464660881,0.17893167054,-0.151221811442,-0.00614066224522,1.0,0.0,0.0515313481783
1385575214664438611,0.124460622737,-0.236679643771,-0.00732691329417,1.0,0.0,0.0540158564385
1385575214864462377,0.0489315265052,-0.287037835148,-0.00911329854486,1.0,0.0,0.0548533169274
1385575215064425705,-0.0399740528187,-0.292510735743,-0.00908667707094,1.0,0.0,0.0535558899426
1385575215264532778,-0.129730394004,-0.249848816702,-0.0076829138156,1.0,0.0,0.0516078274086
1385575215464512460,-0.201509686474,-0.166778483152,-0.00437504476838,1.0,0.0,0.0497302517618
1385575215664389848,-0.243641510962,-0.0555773967918,-0.000609071689133,1.0,0.0,0.0478118719054
1385575215864491622,-0.249738513878,0.0666758212415,0.00108422787252,1.0,0.0,0.0456114523009
1385575216064442257,-0.220470471093,0.178492518713,0.000936627394203,1.0,0.0,0.0434643108596
1385575216264364236,-0.163006143006,0.267237599121,-0.00120502643023,1.0,0.0,0.0403511829161
1385575216464333149,-0.0851572013109,0.317517968392,-0.00123204490258,1.0,0.0,0.0371002235483
1385575216664371522,0.00118963579461,0.322256279346,0.00232611872718,1.0,0.0,0.0347473945882
1385575216864440240,0.0787549526364,0.272059833844,0.00206367649221,1.0,0.0,0.0360273551752
1385575217064466381,0.139448395314,0.192633309937,0.00674459885976,1.0,0.0,0.0389847456162
1385575217264416139,0.179072454132,0.0834522533723,0.0122064872193,1.0,0.0,0.0431628222154
1385575217464541117,0.18898916103,-0.038546636834,0.0150299630706,1.0,0.0,0.0486681779201
1385575217664576795,0.171357668229,-0.157134603389,0.0100505631293,1.0,0.0,0.0531360608588
1385575217864530134,0.130100150498,-0.253180739453,0.00408530993632,1.0,0.0,0.0558582894407
1385575218064446469,0.0711539373702,-0.312339203079,-0.00511966870499,1.0,0.0,0.0573650087842
1385575218264436537,-0.00268865257966,-0.322352541139,-0.00900289570286,1.0,0.0,0.056824363175
1385575218464412239,-0.0806771834361,-0.28217259594,-0.00999764183628,1.0,0.0,0.0553953487146
1385575218664442166,-0.148351423413,-0.196196655523,-0.00756924990467,1.0,0.0,0.0539407715708
1385575218864340887,-0.19153453668,-0.0779249256482,-0.00347410532018,1.0,0.0,0.0526300216199
1385575219064390401,-0.203778305927,0.0542425922524,-0.00231217905369,1.0,0.0,0.0512249067982
1385575219264485870,-0.184722685129,0.177617058626,-0.00414742686867,1.0,0.0,0.0500341878041
1385575219464436940,-0.140931166208,0.27686478317,-0.00821400280407,1.0,0.0,0.04839009141
1385575219664465939,-0.077802645867,0.336596366361,-0.0115812945765,1.0,0.0,0.0465953923222
1385575219864404886,-0.00617737469063,0.350194587595,-0.0112236774504,1.0,0.0,0.0446141172382
1385575220064436045,0.0615511361882,0.304416856223,-0.00418607793713,1.0,0.0,0.0464318158076
1385575220264440433,0.114770016823,0.215165925875,0.000343208437408,1.0,0.0,0.0512579335714
1385575220464510915,0.152271905409,0.0899331383921,0.0123028553082,1.0,0.0,0.056886677302
1385575220664437364,0.162903397563,-0.0519498756999,0.0157528025547,1.0,0.0,0.0632155968817
1385575220864411057,0.153540028008,-0.187702359909,0.0123424345984,1.0,0.0,0.0678057161415
1385575221064416619,0.124078090659,-0.297104886007,0.00452296789817,1.0,0.0,0.070410833524
1385575221264427894,0.0788884006299,-0.3620595962,-0.00494881069225,1.0,0.0,0.0705957033114
1385575221464363879,0.0137731006984,-0.372145923822,-0.00932553643091,1.0,0.0,0.0679550868813
1385575221664352026,-0.0560853863645,-0.323760737951,-0.00823998009619,1.0,0.0,0.0645893001036
1385575221864577852,-0.120405864925,-0.224386252069,-0.00244007051109,1.0,0.0,0.0606293188808
1385575222064350104,-0.163809506048,-0.089662710115,0.00421775561353,1.0,0.0,0.0571129285524
1385575222264429053,-0.182387927135,0.0563649564801,0.00700655992583,1.0,0.0,0.0544387408979
1385575222464438605,-0.172870939453,0.190887091264,0.00353059842536,1.0,0.0,0.0522710422288
1385575222664449724,-0.139446034883,0.294273946311,-0.00333433577616,1.0,0.0,0.0500241365088
1385575222864410393,-0.0853860437541,0.353655028399,-0.010295074296,1.0,0.0,0.0475604508155
1385575223064400135,-0.0194895017488,0.362216598106,-0.0137437367415,1.0,0.0,0.0445946083264
1385575223264400268,0.0501471115204,0.318287103401,-0.0123381205546,1.0,0.0,0.0419511326755
1385575223464379611,0.10617695918,0.226099703757,-0.00457660969438,1.0,0.0,0.0424280092334
1385575223664396098,0.137826413183,0.0979665501704,0.00511062133908,1.0,0.0,0.0482398873421
1385575223864427956,0.151416309675,-0.0411971404906,0.00916623373363,1.0,0.0,0.0553280063939
1385575224064361379,0.147548096701,-0.17407638562,0.00548721076347,1.0,0.0,0.0618663275582
1385575224264540302,0.131133495232,-0.281954687949,-0.00468102861636,1.0,0.0,0.0667100472177
1385575224464443113,0.0952408641778,-0.352717446638,-0.0131569607626,1.0,0.0,0.0686908791348
1385575224664542461,0.0370830845261,-0.368744534872,-0.0162774689165,1.0,0.0,0.0676641619616
1385575224864404314,-0.0316450443254,-0.329425467086,-0.0125884235025,1.0,0.0,0.0654248117342
1385575225064385696,-0.0982662108848,-0.234731439051,-0.00228485368445,1.0,0.0,0.0627283438606
1385575225264405455,-0.148495983621,-0.100950084896,0.00829362875591,1.0,0.0,0.0608023129972
1385575225464481668,-0.175759744213,0.0496365100693,0.0147339462915,1.0,0.0,0.0594347276934
1385575225664581270,-0.17515679925,0.190418111003,0.0130238907994,1.0,0.0,0.0582983763622
1385575225864460672,-0.147907048322,0.301351437739,0.00699408958472,1.0,0.0,0.0573033813125
1385575226064553833,-0.0983200131843,0.366077306899,-0.000181698085383,1.0,0.0,0.0557835535459
1385575226264432292,-0.0320413493676,0.376991900889,-0.00517256551165,1.0,0.0,0.0537097342851
1385575226464367430,0.0398973425923,0.334542375592,-0.00489425681722,1.0,0.0,0.0513254989344
1385575226664491877,0.104843386784,0.243057540465,0.00160361364145,1.0,0.0,0.0508286137049
1385575226864603636,0.144875606413,0.113768290825,0.0109117891309,1.0,0.0,0.0551644090562
1385575227064386945,0.166126812801,-0.028380297565,0.0150983832945,1.0,0.0,0.0618847219296
1385575227264456373,0.165613295664,-0.165168724445,0.0115938139577,1.0,0.0,0.0681062807947
1385575227464349906,0.149822787555,-0.279838766003,0.00332330978504,1.0,0.0,0.0716912034369
1385575227664370766,0.113303051074,-0.358735109933,-0.00639202002367,1.0,0.0,0.0731460470115
1385575227864506576,0.0521552452786,-0.38418613622,-0.0107206142983,1.0,0.0,0.0710625330629
1385575228064352469,-0.0243090027225,-0.34763303477,-0.00889917963522,1.0,0.0,0.067699809804
1385575228264445750,-0.0987829452811,-0.255227324173,-0.000916424857995,1.0,0.0,0.0644915470206
1385575228464404038,-0.158649825166,-0.120568522035,0.0084357278295,1.0,0.0,0.0617318369757
1385575228664435772,-0.19095108844,0.0318043612209,0.0139940873402,1.0,0.0,0.0600377589879
1385575228864384967,-0.193441897452,0.175910326891,0.012062758368,1.0,0.0,0.0588331303403
1385575229064390508,-0.166177639007,0.29168225311,0.0058714420185,1.0,0.0,0.0579090953033
1385575229264389133,-0.115899274059,0.363033732908,-0.00252521478012,1.0,0.0,0.056410286307
1385575229464360466,-0.0474881157852,0.381957329757,-0.00805955767456,1.0,0.0,0.0543331068453
1385575229664384965,0.0276437657142,0.346631899851,-0.0075316605696,1.0,0.0,0.0517062867839
1385575229864378232,0.0984429518627,0.260418247932,-0.000551362387021,1.0,0.0,0.0506800191852
1385575230064414007,0.145934820849,0.134850401737,0.00747043185733,1.0,0.0,0.0540578232107
1385575230264424612,0.173716239789,-0.00837249466127,0.0141552196,1.0,0.0,0.0594574676782
1385575230464402935,0.172942246337,-0.148821818799,0.0100639690247,1.0,0.0,0.0658298444185
1385575230664459674,0.156783190728,-0.268225682575,0.00198633907062,1.0,0.0,0.0693883506013
1385575230864577417,0.117274089027,-0.350982736326,-0.00807347909461,1.0,0.0,0.0713191325175
1385575231064462897,0.0588242569958,-0.384454841507,-0.0131907910752,1.0,0.0,0.069842576591
1385575231264403904,-0.020065531105,-0.355237973663,-0.0122551060485,1.0,0.0,0.0667468186804
1385575231464386307,-0.0953007844264,-0.27087063876,-0.00554708107743,1.0,0.0,0.0632534157584
1385575231664461306,-0.158167206035,-0.141450834901,0.00431012375012,1.0,0.0,0.060532364937
1385575231864503264,-0.193833694753,0.00766132803276,0.0109580084523,1.0,0.0,0.0586313847335
1385575232064394597,-0.201342638153,0.152681146176,0.0111333154259,1.0,0.0,0.0578711156849
1385575232264429445,-0.179126630108,0.272201239369,0.00654491120653,1.0,0.0,0.0574490850661
1385575232464399166,-0.132396267489,0.351379329976,-0.00137692906638,1.0,0.0,0.0564519454062
1385575232664394951,-0.0647006404382,0.380255844049,-0.00724725287259,1.0,0.0,0.0548949137197
1385575232864380475,0.0133515163335,0.355261331041,-0.00846345056639,1.0,0.0,0.0525114287113
1385575233064451776,0.0912677138289,0.280753026809,-0.00264402679906,1.0,0.0,0.0503804667185
1385575233264437609,0.147870426578,0.163047859229,0.0028057832765,1.0,0.0,0.0520987782497
1385575233464542629,0.179508525797,0.027674624116,0.00954748366195,1.0,0.0,0.0560558793658
1385575233664389280,0.181757066283,-0.112751477619,0.0123542651366,1.0,0.0,0.0616428648423
1385575233864389094,0.164918393707,-0.232046871709,0.00414254247025,1.0,0.0,0.0653172397199
1385575234064461745,0.129435401209,-0.32419868994,-0.00450662823619,1.0,0.0,0.0679769135889
1385575234264399081,0.0771508474697,-0.370495153828,-0.0123504711586,1.0,0.0,0.0675333189973
1385575234464414241,0.00113505105005,-0.357866440675,-0.0124652023557,1.0,0.0,0.0648826674127
1385575234664465336,-0.0769808229031,-0.286748766809,-0.00785396144212,1.0,0.0,0.0616941593171
1385575234864455950,-0.145806552939,-0.170027800301,0.000647602029914,1.0,0.0,0.0591116207002
1385575235064454338,-0.190548319858,-0.0256457985748,0.0073744435261,1.0,0.0,0.0571823556483
1385575235264536631,-0.203809781036,0.119639764953,0.0091401434985,1.0,0.0,0.0567084981702
1385575235464518774,-0.186087513318,0.244312054752,0.0058328869069,1.0,0.0,0.05671688346
1385575235664575794,-0.141651531371,0.331952288034,-0.000974035956561,1.0,0.0,0.0564238395236
1385575235864378012,-0.0758280813008,0.373549973073,-0.00695059890512,1.0,0.0,0.0548921090401
1385575236064421506,0.00228351902416,0.362428185551,-0.0083928706726,1.0,0.0,0.0524306296465
1385575236264418086,0.0787815898273,0.298048001246,-0.00381541573884,1.0,0.0,0.050639078887
1385575236464403836,0.136676353561,0.189412231017,0.000776268706959,1.0,0.0,0.0523673198255
1385575236664440557,0.173414093826,0.0567879868617,0.0102234925495,1.0,0.0,0.0558216685797
1385575236864410555,0.179823827392,-0.0842276150298,0.0125290148071,1.0,0.0,0.0618712529673
1385575237064357719,0.167637590895,-0.209776082281,0.00658600464011,1.0,0.0,0.0661763445401
1385575237264416925,0.133032652389,-0.30891756344,-0.00278106919219,1.0,0.0,0.0685344314771
1385575237464406664,0.0807111942175,-0.36231456345,-0.0110903190577,1.0,0.0,0.0677432709821
1385575237664367723,0.00636567097887,-0.359049047147,-0.0132161723282,1.0,0.0,0.0648595073907
1385575237864408428,-0.0699958930246,-0.296169775657,-0.00969636694019,1.0,0.0,0.0609477943224
1385575238064368775,-0.138438222621,-0.186004562178,-0.00291008642091,1.0,0.0,0.0577980367374
1385575238264398054,-0.181260279051,-0.0460619443545,0.00454893511845,1.0,0.0,0.0556374065792
1385575238464557956,-0.19660136261,0.097847906256,0.00687185917127,1.0,0.0,0.054471406793
1385575238664382342,-0.181346702602,0.223751658474,0.00387791785036,1.0,0.0,0.0536860669508
1385575238864399451,-0.141266845778,0.3144500831,-0.0021996935455,1.0,0.0,0.0529529240104
1385575239064402396,-0.079175228984,0.360278465214,-0.00800994807493,1.0,0.0,0.0513328179034
1385575239264414118,-0.00461849031639,0.354352049469,-0.0108340806511,1.0,0.0,0.048936680384
1385575239464432935,0.0695146578043,0.300597856179,-0.00813369547242,1.0,0.0,0.0466776432561
1385575239664547876,0.126141298543,0.203465488367,-0.000283673011008,1.0,0.0,0.0475746005892
1385575239864449972,0.156933461868,0.0809703574996,0.00665596884546,1.0,0.0,0.051872740422
1385575240064334253,0.164757726501,-0.0504303264283,0.0101954288635,1.0,0.0,0.057742048306
1385575240266297374,0.150796833495,-0.170613320885,0.00518543909389,1.0,0.0,0.0631782530807
1385575240464490897,0.122913424548,-0.268491461047,-0.00347369716545,1.0,0.0,0.0668699551608
1385575240664470667,0.0794782069762,-0.332557436704,-0.0142689056362,1.0,0.0,0.0679702617872
1385575240864597629,0.0139588464966,-0.345003637476,-0.0174450756791,1.0,0.0,0.0664196985682
1385575241064522191,-0.0584781867879,-0.299327298551,-0.0152473736873,1.0,0.0,0.0639009623448
1385575241264355526,-0.124777011259,-0.205583855998,-0.00836714705563,1.0,0.0,0.061296590218
1385575241464576683,-0.172681853674,-0.078328449529,-0.000681245586578,1.0,0.0,0.059100200046
1385575241664443424,-0.195152582926,0.059487452589,0.0047342981923,1.0,0.0,0.0574635970052
1385575241864398181,-0.189418170741,0.188181522003,0.00452048023738,1.0,0.0,0.0558585144701
1385575242064359935,-0.156902783257,0.287968352037,0.000607034077368,1.0,0.0,0.0542834413806
1385575242264359547,-0.101597828935,0.345869070353,-0.00306056178278,1.0,0.0,0.0523965851882
1385575242464428539,-0.0304602830039,0.353469807915,-0.00469796562171,1.0,0.0,0.0494474573679
1385575242664537650,0.0459652163771,0.30943195621,-0.00105872580489,1.0,0.0,0.0464530465363
1385575242864447348,0.115805865473,0.221711897804,0.00440335357523,1.0,0.0,0.0440648743809
1385575243064447424,0.159242089133,0.104406289396,0.00759444066143,1.0,0.0,0.0450197041371
1385575243264361585,0.171296077378,-0.0219303793879,0.0118225951718,1.0,0.0,0.0494616383773
1385575243464508083,0.154989545016,-0.138155208402,0.00979551280263,1.0,0.0,0.0557907640824
1385575243664395014,0.12353269789,-0.233346317153,0.00453473375996,1.0,0.0,0.0608212368169
1385575243864423477,0.0784392438622,-0.299959424099,-0.00865647249959,1.0,0.0,0.0643478370833
1385575244064411206,0.0185381828608,-0.327142759826,-0.0148099983203,1.0,0.0,0.0634015242052
1385575244264608693,-0.0573369512552,-0.299885734792,-0.0146356061531,1.0,0.0,0.0611004354855
1385575244464426992,-0.125336588303,-0.223486711327,-0.00817724878641,1.0,0.0,0.0576829284926
1385575244664561917,-0.177913754911,-0.1073015854,0.00014407040203,1.0,0.0,0.0546901762594
1385575244864454577,-0.202496749889,0.0254206743308,0.00697333147939,1.0,0.0,0.0519041377963
1385575245064645610,-0.198956595243,0.155130277473,0.0102618913181,1.0,0.0,0.0499804189823
1385575245264330392,-0.166895827862,0.261347534604,0.0102732829058,1.0,0.0,0.0480975817434
1385575245464387983,-0.110115671537,0.330075713144,0.00940949087131,1.0,0.0,0.0462042234995
1385575245664639491,-0.036762816775,0.350067658726,0.00887762805096,1.0,0.0,0.0438309201295
1385575245864623731,0.0421822133721,0.320318358093,0.0110584945291,1.0,0.0,0.0413882396429
1385575246064413746,0.113395113188,0.242409295717,0.0181230238253,1.0,0.0,0.0393973310303
1385575246264485698,0.170217719972,0.13376269362,0.0222499264519,1.0,0.0,0.0377198021717
1385575246464447751,0.194616788007,0.00945650648273,0.0191997324185,1.0,0.0,0.0383570608247
1385575246664537144,0.183784523283,-0.107061932971,0.018797338771,1.0,0.0,0.0415246477552
1385575246864442753,0.140103693127,-0.201919651208,0.0138742044849,1.0,0.0,0.0469986334684
1385575247064515915,0.0864889051565,-0.268040779048,0.00389055275001,1.0,0.0,0.0514738950925
1385575247264676105,0.0232540129333,-0.306583628932,-0.00967609759898,1.0,0.0,0.0537151223047
1385575247464504578,-0.049542847842,-0.302213434926,-0.0148299785818,1.0,0.0,0.0529965237223
1385575247664474475,-0.124204462278,-0.247089803468,-0.0145534637968,1.0,0.0,0.0514806027569
1385575247864395100,-0.178024636783,-0.155132845967,-0.00918803152284,1.0,0.0,0.0498577786762
1385575248064390723,-0.207485893858,-0.037229166605,-0.00236309424374,1.0,0.0,0.0485188832131
1385575248264400047,-0.203660406039,0.0839755851893,0.00259064539042,1.0,0.0,0.0478940689099
1385575248464357721,-0.1740061201,0.193930387673,0.00432158341145,1.0,0.0,0.0474484983633
1385575248664457919,-0.117599136952,0.273235038698,0.00362183681166,1.0,0.0,0.0470759382088
1385575248864558266,-0.0469213285941,0.313659373195,0.00330898064177,1.0,0.0,0.0458951796402
1385575249064413998,0.0323948733538,0.306469987178,0.0028234259596,1.0,0.0,0.0443668969539
1385575249264576290,0.105113747615,0.257805378592,0.00545369183579,1.0,0.0,0.0427842277279
1385575249464529055,0.164371366227,0.174322394515,0.00737615142449,1.0,0.0,0.0417088654928
1385575249664416071,0.189937477834,0.0712557825964,0.00856318605778,1.0,0.0,0.0432211211719
1385575249864407663,0.182164609745,-0.0375268017105,0.0133981450621,1.0,0.0,0.0470329812404
1385575250064428741,0.142778125215,-0.136567270087,0.0109158937661,1.0,0.0,0.0528819795308
1385575250265138244,0.0939539224566,-0.219719996775,0.00451992468933,1.0,0.0,0.0570733169575
1385575250464547573,0.0339480477047,-0.278682284879,-0.00885306685755,1.0,0.0,0.059872071228
1385575250664341485,-0.0325206237336,-0.300223398464,-0.0151298385743,1.0,0.0,0.0595848369241
1385575250864328040,-0.104383863486,-0.271957373757,-0.0165580513597,1.0,0.0,0.0575132506411
1385575251064334386,-0.159319139649,-0.199273543675,-0.0120961337807,1.0,0.0,0.055272767789
1385575251264533955,-0.192181335006,-0.0912186176484,-0.00500115977751,1.0,0.0,0.05321341054
1385575251464439278,-0.192582589285,0.0330748945903,0.0017779251037,1.0,0.0,0.0516802261098
1385575251664429159,-0.164802934378,0.153637711338,0.00408057987959,1.0,0.0,0.050600843763
1385575251864417777,-0.112664964067,0.250904868149,0.00379320277675,1.0,0.0,0.049593843865
1385575252064503459,-0.0446780797136,0.309568183994,0.00264217984153,1.0,0.0,0.0486042017423
1385575252264393391,0.0321735004352,0.321628195712,0.00144069848322,1.0,0.0,0.0469111846557
1385575252464537576,0.107468014539,0.285595676859,0.00280074398379,1.0,0.0,0.0447609955741
1385575252664455973,0.169400921992,0.208555582685,0.004127964907,1.0,0.0,0.0433233768165
1385575252864494855,0.198544630206,0.105279606199,0.00742788553773,1.0,0.0,0.0449074694091
1385575253065118524,0.192567628516,-0.00649161843183,0.0123331668982,1.0,0.0,0.0489051206786
1385575253264475665,0.157953322587,-0.113103027882,0.0128721706291,1.0,0.0,0.0541004440839
1385575253464459511,0.105996961501,-0.203289792392,0.00600380570516,1.0,0.0,0.0581783341527
1385575253664495070,0.0463818503942,-0.272073756913,-0.00452560679912,1.0,0.0,0.0614393195418
1385575253864522834,-0.0192916494818,-0.307856556814,-0.0114401126113,1.0,0.0,0.0616513308523
1385575254064470651,-0.0900430761431,-0.295010451615,-0.0129206430504,1.0,0.0,0.0605184135166
1385575254264543209,-0.147185593832,-0.233705168013,-0.00976513753368,1.0,0.0,0.0598349868903
1385575254464397557,-0.182798692933,-0.13582168405,-0.0029245035494,1.0,0.0,0.0599263869842
1385575254664391553,-0.189855275694,-0.0152109597629,0.00438572494541,1.0,0.0,0.0602681491822
1385575254864501374,-0.169921732316,0.107607024354,0.00880188541539,1.0,0.0,0.0609300834608
1385575255064378608,-0.125550797475,0.213922986551,0.0091486884131,1.0,0.0,0.0619732451041
1385575255264434056,-0.0664231720691,0.288837865165,0.00662082294345,1.0,0.0,0.0625471879798
1385575255464564840,0.0035881610461,0.321266957734,0.0033360608833,1.0,0.0,0.0628410330702
1385575255664508259,0.0745236289281,0.307414702475,0.00140654719791,1.0,0.0,0.0622108985799
1385575255864400274,0.139650704678,0.248702625504,0.00211934770644,1.0,0.0,0.0613216087725
1385575256064460355,0.187108150271,0.153745849928,0.0026451674153,1.0,0.0,0.0603433783098
1385575256264676649,0.204092068232,0.0385344789959,0.0056908062848,1.0,0.0,0.060683518344
1385575256464473294,0.186375895176,-0.0805468542527,0.00841270252324,1.0,0.0,0.0617407496982
1385575256664405099,0.143550620421,-0.187782731198,0.0060800379239,1.0,0.0,0.0629180938064
1385575256864345622,0.0812453947536,-0.272813505771,-0.000959953227379,1.0,0.0,0.0634856569849
1385575257064390021,0.0107185515473,-0.325595893637,-0.00804239162564,1.0,0.0,0.062739567252
1385575257264463672,-0.0691725787821,-0.329790845285,-0.0102699174675,1.0,0.0,0.0607798075522
1385575257464574262,-0.142106627437,-0.285884628015,-0.00872909062735,1.0,0.0,0.0583769951578
1385575257664512323,-0.199365492639,-0.197004642594,-0.0030008629568,1.0,0.0,0.0562505490263
1385575257864439293,-0.226455588321,-0.0764122949709,0.00604007369883,1.0,0.0,0.0544169407545
1385575258064448083,-0.22262005831,0.0580527834322,0.0128774580001,1.0,0.0,0.0531380015672
1385575258264382578,-0.186415386414,0.184756664544,0.0159051058613,1.0,0.0,0.0523405817053
1385575258464392751,-0.126340885963,0.284210463289,0.0146271615524,1.0,0.0,0.0518209736538
1385575258664422484,-0.0488826277333,0.342069131277,0.0120137617929,1.0,0.0,0.0516630137003
1385575258864692360,0.0345113666486,0.352427173094,0.00922396689108,1.0,0.0,0.0513844427924
1385575259064414750,0.114700121985,0.312551424431,0.00712163705336,1.0,0.0,0.0511685708799
1385575259264516502,0.179306919048,0.230298812193,0.00851271008753,1.0,0.0,0.0509971606689
1385575259464485177,0.217797391799,0.112947181767,0.0124337055996,1.0,0.0,0.0514137043866
1385575259664461858,0.223547182267,-0.0198353563197,0.0137717604808,1.0,0.0,0.0523169920826
1385575259864525838,0.198439127676,-0.148809226419,0.0101032077657,1.0,0.0,0.0527062296467
1385575260064400034,0.137955633361,-0.254152610038,0.00561287437117,1.0,0.0,0.0539257315863
1385575260264436659,0.0583387356868,-0.321061529546,-0.00231240979847,1.0,0.0,0.0541832419264
1385575260464437765,-0.0309188006014,-0.34558452786,-0.0093029040281,1.0,0.0,0.053303022197
1385575260664354071,-0.115901220802,-0.322278390015,-0.00976609147718,1.0,0.0,0.0510844602134
1385575260864399430,-0.190036081624,-0.246749853137,-0.00652803321162,1.0,0.0,0.0487289447471
1385575261064420175,-0.233984002328,-0.133465274297,-2.15388960777e-05,1.0,0.0,0.0465619005597
1385575261264471724,-0.245328642848,0.00258533904854,0.0056781384884,1.0,0.0,0.0451117772847
1385575261464637083,-0.219378369146,0.136077099706,0.00848246279432,1.0,0.0,0.0444725096935
1385575261664407419,-0.163314290176,0.246748305874,0.0081963215924,1.0,0.0,0.0450741764824
1385575261864496703,-0.0857793595243,0.318062987275,0.00458488168048,1.0,0.0,0.0459366710364
1385575262064492819,0.00224646498171,0.342636553825,0.00215186771797,1.0,0.0,0.046574274159
1385575262264525804,0.0921001159845,0.318213236646,-0.000391241000703,1.0,0.0,0.0464606634771
1385575262464534733,0.170777751511,0.251528160126,-0.00157807250651,1.0,0.0,0.0460437427508
1385575262664390932,0.224329909854,0.148874905404,0.000520610151566,1.0,0.0,0.0466009997663
1385575262864423656,0.243130939474,0.0251783971553,0.00408041683035,1.0,0.0,0.0479328541513
1385575263064595571,0.224711570673,-0.101756419076,0.00535360942287,1.0,0.0,0.0496371917499
1385575263264349520,0.17406311405,-0.214581510752,0.00370869546363,1.0,0.0,0.0509565924712
1385575263464396922,0.0931901709575,-0.297113782896,-0.000999381481781,1.0,0.0,0.0519357578032
1385575263664348444,-0.00343144607415,-0.338042450137,-0.0069121066603,1.0,0.0,0.0514863782395
1385575263864422035,-0.101745301074,-0.33221478685,-0.00955270634957,1.0,0.0,0.0504787597957
1385575264064370251,-0.188267576908,-0.278883639652,-0.00810069157207,1.0,0.0,0.0487949914433
1385575264264424347,-0.249050617725,-0.183663256821,-0.00298567154447,1.0,0.0,0.0475576656122
1385575264464500978,-0.273984065362,-0.0601344321078,0.00465674594663,1.0,0.0,0.0467864362174
1385575264664438478,-0.260648059861,0.0717398351504,0.0107248162558,1.0,0.0,0.0463391220887
1385575264864406567,-0.208263537925,0.190945172042,0.0145893996604,1.0,0.0,0.0466268732632
1385575265064565056,-0.128429337199,0.278814943825,0.0141648530335,1.0,0.0,0.0470879607198
1385575265264394989,-0.0291893605975,0.326375253294,0.0126504401783,1.0,0.0,0.0471098775848
1385575265464445989,0.0738468479854,0.326288856466,0.00698749378285,1.0,0.0,0.0463403371773
1385575265664360752,0.168188965344,0.283228684664,0.00215747474042,1.0,0.0,0.0455132190922
1385575265864517370,0.236984771175,0.202128924819,-2.25766456201e-06,1.0,0.0,0.0449561438856
1385575266064430843,0.271096099694,0.0931245618657,0.00115671344722,1.0,0.0,0.0452447292342
1385575266264423341,0.263785928539,-0.0297309283736,0.00254810794091,1.0,0.0,0.0463936367104
1385575266464421231,0.219784935278,-0.147977070171,0.00200124962526,1.0,0.0,0.0481473876464
1385575266664582474,0.145463734378,-0.246657995884,-0.000110244166379,1.0,0.0,0.0496013761868
1385575266864408995,0.0484108691511,-0.309422963988,-0.00410474967423,1.0,0.0,0.0499514355903
1385575267064418791,-0.057379984993,-0.329296515685,-0.00741796664592,1.0,0.0,0.0495929765469
1385575267264407933,-0.156452090885,-0.305089320882,-0.00814134981812,1.0,0.0,0.0485449262669
1385575267464401938,-0.235757509598,-0.237946660833,-0.00606806334886,1.0,0.0,0.0473258176201
1385575267664414640,-0.279865563714,-0.135599232025,0.000781837482245,1.0,0.0,0.0466303284582
1385575267864587697,-0.282779464373,-0.011863267525,0.00762974943539,1.0,0.0,0.0464904698104
1385575268064371097,-0.246220899274,0.112704337033,0.0117245476691,1.0,0.0,0.0465203774027
1385575268264352539,-0.176929951687,0.220408408915,0.0131529372747,1.0,0.0,0.0464662488761
1385575268464419068,-0.0848437091336,0.292090514276,0.0117509312749,1.0,0.0,0.0461600486252
1385575268664500270,0.0189904269839,0.316717673717,0.00908046577042,1.0,0.0,0.0459887022713
1385575268864410944,0.119182590282,0.292526189541,0.00336219399187,1.0,0.0,0.0457420375968
1385575269064414878,0.203609328227,0.228940941914,-0.00122398489692,1.0,0.0,0.0452449297295
1385575269264445870,0.260153846398,0.132395961416,-0.00453324898498,1.0,0.0,0.0449421382431
1385575269464530486,0.278919661433,0.016250882493,-0.00638711683272,1.0,0.0,0.0453360486144
1385575269664598867,0.256009759215,-0.102345214708,-0.00783497160327,1.0,0.0,0.0464961754701
1385575269864488035,0.196827441448,-0.206010527718,-0.00903576923363,1.0,0.0,0.04767430315
1385575270064427423,0.108018452571,-0.28231246451,-0.0106050560858,1.0,0.0,0.0486620397272
1385575270264438690,0.00225421402133,-0.320616619911,-0.0125286095665,1.0,0.0,0.0482269424768
1385575270464399948,-0.107987932387,-0.314033409097,-0.0113988804102,1.0,0.0,0.0465451870184
1385575270664393672,-0.204902861517,-0.25954543843,-0.00852006678498,1.0,0.0,0.0447762155279
1385575270864348881,-0.273539980848,-0.16709274087,-0.00305357522757,1.0,0.0,0.0433750326954
1385575271064424671,-0.302060261417,-0.0492093495888,0.00451636727693,1.0,0.0,0.0423699074509
1385575271264434254,-0.286483936986,0.075338550713,0.0112910289237,1.0,0.0,0.0417266320238
