%time,field.linear.x,field.linear.y,field.linear.z,field.angular.x,field.angular.y,field.angular.z
1385575142674440611,0.0,0.0,0.0,0.0,0.0,0.0
1385575142674455253,-0.736414893133,-0.712697550746,-0.115109586419,0.00171821807026,0.00798973583248,-1.32230395802
1385575142685520415,-0.736355999161,-0.712711068255,-0.115179847524,0.00185312580915,0.00712780011393,-1.32237043094
1385575142694339923,-0.736398696243,-0.712685934137,-0.115103741521,0.00170638920324,0.00797063861676,-1.32228362561
1385575142704417533,-0.736388434752,-0.712692813595,-0.115097157157,0.00170140063995,0.00795789118757,-1.32225904036
1385575142714434073,-0.736369702719,-0.712709333693,-0.115185656891,0.00189100117884,0.00708394155305,-1.32236853084
1385575142724453681,-0.736358729782,-0.712710629051,-0.115181004872,0.00189251672413,0.00702817802507,-1.32237981704
1385575142734332374,-0.73634359923,-0.712668561934,-0.11516256322,0.0018551786333,0.00718966696727,-1.32247750092
1385575142744378075,-0.73631441824,-0.712691311529,-0.115223417782,0.00195397227819,0.00647435578516,-1.32253882662
1385575142754426676,-0.736385883531,-0.712685327654,-0.115106937186,0.0016969049484,0.0080359533196,-1.3222405926
1385575142764425463,-0.736361359607,-0.712709720394,-0.115175551683,0.00183537328254,0.00707385042613,-1.32235452689
1385575142774309826,-0.736347771564,-0.712714984925,-0.115181984329,0.00188780196246,0.00708740710444,-1.32235347687
1385575142784387874,-0.736270829673,-0.712720286424,-0.115235096034,0.0021831499304,0.00724031987539,-1.32208415121
1385575142794428201,-0.736362908592,-0.712708054289,-0.115180745281,0.00185634716328,0.00708441160199,-1.32239670762
1385575142804437444,-0.73636153729,-0.712697863091,-0.115184101741,0.00187665686477,0.00708566773663,-1.32238158524
1385575142814725972,-0.736269412424,-0.712722252123,-0.115228602151,0.00217192983378,0.00726950913629,-1.32207388678
1385575142824412021,-0.736364340132,-0.7127126758,-0.115180219025,0.00183630617274,0.00711318825218,-1.32238016265
1385575142834360332,-0.736305430593,-0.712704988752,-0.115158667611,0.00195603925973,0.00812310550026,-1.32197230671
1385575142844425828,-0.736358052351,-0.712706094449,-0.115177906356,0.00186082345382,0.00707884967108,-1.32236462294
1385575142854462650,-0.736400851397,-0.712683420718,-0.115108883743,0.00174165850685,0.00799702419148,-1.32233235269
1385575142864476422,-0.736228085064,-0.712711652853,-0.115280485993,0.00229091278674,0.00655385145305,-1.32223871786
1385575142874452399,-0.736329467279,-0.712665638558,-0.115152951315,0.00184639289018,0.0071847205512,-1.32250196301
1385575142884348123,-0.736399298894,-0.712677570391,-0.115103997872,0.0016955719061,0.00801303025414,-1.32230622334
1385575142894478739,-0.736395283573,-0.712683682368,-0.115114438044,0.00172123351485,0.00803720798506,-1.32228977196
1385575142904362815,-0.73639267561,-0.712683739851,-0.115090932785,0.00171291828592,0.00793860531187,-1.32229913809
1385575142914369506,-0.736342874039,-0.71266579272,-0.115156400504,0.00177552585189,0.00721137926255,-1.3225011933
1385575142924347662,-0.736301592622,-0.712702587071,-0.115157035391,0.00201772725429,0.00818003588899,-1.32198876023
1385575142934378848,-0.736310534292,-0.712688817442,-0.115226094486,0.00196451895117,0.00647045565378,-1.32254819233
1385575142944366362,-0.736349625232,-0.712713249752,-0.115183744437,0.00189683516401,0.00704798213014,-1.32234440432
1385575142954395440,-0.736389546574,-0.712689538513,-0.115107978321,0.0017217568456,0.00798963122655,-1.32224827866
1385575142964402067,-0.73630695595,-0.712694261275,-0.115225672317,0.00195265684056,0.00647251533748,-1.32252844704
1385575142974390655,-0.736395729292,-0.712684877135,-0.115106410861,0.00173377120994,0.00801101979232,-1.32227985298
1385575142984354024,-0.736353480353,-0.712706992676,-0.115184570005,0.0018685862856,0.00710485378405,-1.32237350926
1385575142994399788,-0.736397104175,-0.712686124105,-0.115112094338,0.00169066435914,0.00802407259331,-1.32229606003
1385575143004353329,-0.736398827152,-0.712683583346,-0.115109663518,0.00171439640155,0.00798293856106,-1.32230466772
1385575143014449385,-0.736299084035,-0.712700589683,-0.115162278712,0.00203275534738,0.00810392431757,-1.32199313701
1385575143024404007,-0.736302017717,-0.712700589788,-0.115166297367,0.00200895251132,0.00813396442177,-1.32197801685
1385575143034343443,-0.736396542216,-0.712681238029,-0.115114377377,0.00171419782325,0.00794816806932,-1.32230019261
1385575143044399860,-0.73639954294,-0.712678861807,-0.115111807151,0.00169392429741,0.00797305861683,-1.32228500657
1385575143054456678,-0.736336322733,-0.712662999533,-0.115164445446,0.00183768673248,0.00719784477956,-1.32245629326
1385575143064446206,-0.736241645737,-0.712682242698,-0.115218831618,0.00215016289578,0.00731486537434,-1.322151772
1385575143074411098,-0.736354506888,-0.712703639607,-0.115185482671,0.00187948157091,0.00706516926378,-1.32238864736
1385575143084373940,-0.736397856031,-0.712675061837,-0.115110853489,0.00174264938436,0.00794474389766,-1.32230794149
1385575143094397736,-0.736242856603,-0.71268157442,-0.115221904225,0.0021569051411,0.0073350962251,-1.32215202553
1385575143104408409,-0.736391241358,-0.71268540128,-0.11511956744,0.0017001447096,0.00797537862016,-1.32229713208
1385575143114433110,-0.73640205315,-0.712686700675,-0.115123091897,0.00171769973647,0.00795742069071,-1.32230463224
1385575143124441958,-0.736365428093,-0.712697985566,-0.115181189133,0.00188695932399,0.00702855537953,-1.32237977828
1385575143134402608,-0.73640138838,-0.712681529417,-0.115115135307,0.00171655262169,0.00797382054675,-1.32231291278
1385575143144404073,-0.736305209739,-0.712688929773,-0.115227800899,0.00197355369438,0.00642349075488,-1.32251415391
1385575143154413856,-0.736330276808,-0.712657962343,-0.115160191008,0.00182404395413,0.00714223943846,-1.32246991805
1385575143164430797,-0.736340514897,-0.712663776461,-0.115168344187,0.00180618138543,0.00722001054676,-1.32243861962
1385575143174402473,-0.736354495348,-0.712670394148,-0.115144831988,0.00178839256929,0.007478857572,-1.3224782839
1385575143184425011,-0.736380613468,-0.712696485266,-0.11510209748,0.00172938808604,0.00792630915511,-1.3222340438
1385575143194474237,-0.73633503123,-0.712660495183,-0.115161568401,0.00182040122809,0.00718923878417,-1.32250003511
1385575143204637852,-0.736355379519,-0.712708672943,-0.115182906031,0.00188331268125,0.00710610529245,-1.32230910961
1385575143214555970,-0.73636661626,-0.712699948083,-0.115180754689,0.0018884482533,0.00705528719711,-1.32236918215
1385575143224487380,-0.736339409977,-0.712715944525,-0.115189950575,0.00188208467383,0.00713651511454,-1.32294017678
1385575143234400251,-0.73633348252,-0.712713879081,-0.115195496245,0.00190253895791,0.00712557774016,-1.32282225467
1385575143244453782,-0.736331737024,-0.712681140127,-0.115182946264,0.00186470002632,0.0071581049973,-1.32183588182
1385575143254441734,-0.736315263927,-0.712709118698,-0.115130167907,0.00208917558191,0.00692764392503,-1.32134333642
1385575143264598106,-0.736335851567,-0.712701332338,-0.115181119315,0.00190984594848,0.00711443945035,-1.32295804486
1385575143274412574,-0.736328900732,-0.712690081871,-0.115140667747,0.00187503465757,0.0076097544051,-1.32348261505
1385575143284392741,-0.736300950791,-0.712706293071,-0.115227563936,0.00204814931392,0.00647348811054,-1.32203008733
1385575143294407842,-0.736305369932,-0.712696615279,-0.115231183658,0.00200898380097,0.00652428290706,-1.32132351701
1385575143304361329,-0.73633910699,-0.712701350482,-0.115191390565,0.00196228687544,0.00688818561803,-1.32262981713
1385575143314427612,-0.736359400637,-0.712735612923,-0.115142870575,0.00220808578918,0.00703196548737,-1.32357031174
1385575143324414165,-0.736321158345,-0.712677075744,-0.115234410188,0.00193982998377,0.00679097986293,-1.32184310918
1385575143334411547,-0.736320354638,-0.712646800752,-0.115228048074,0.00195802177622,0.0062623784394,-1.32068167306
1385575143344397279,-0.736303895981,-0.712647634959,-0.115237482261,0.00199333270847,0.00608826417555,-1.32216293298
1385575143354426223,-0.73631402588,-0.712649025179,-0.115208666384,0.00209913226556,0.00670424075136,-1.32244616918
1385575143364407272,-0.736347325106,-0.712631889707,-0.115217447882,0.00213668139151,0.00668014515486,-1.32121769039
1385575143374528769,-0.73635027094,-0.712642239533,-0.115246808627,0.0019448895586,0.00628550891423,-1.3208067959
1385575143384361601,-0.736339060494,-0.712679268726,-0.115248680286,0.0021373926197,0.00609764989838,-1.32187955087
1385575143394442915,-0.736260448751,-0.712662458856,-0.115295050214,0.00248905905117,0.00663088285399,-1.32146143708
1385575143404434350,-0.736357215534,-0.712627031029,-0.115179087431,0.00204979111599,0.00706227386517,-1.32100485726
1385575143414400814,-0.736365426567,-0.712646368607,-0.115241904022,0.00213835793588,0.00634580755748,-1.32137551469
1385575143424433084,-0.736344924685,-0.71264427262,-0.115222021841,0.00201284248371,0.00663436372829,-1.32206773674
1385575143434449044,-0.736364870588,-0.712670269009,-0.115209587415,0.00232121670803,0.00635425602648,-1.32144151727
1385575143444385172,-0.736349294033,-0.712645687042,-0.115206556268,0.00217534085904,0.00644314141292,-1.32106344092
1385575143454409174,-0.736351430246,-0.712651469293,-0.115180073331,0.00200846614655,0.00671479598319,-1.32175313493
1385575143464466623,-0.736369063564,-0.712633038225,-0.115207130458,0.00197455616837,0.00669244210285,-1.32187610744
1385575143474357911,-0.736359523092,-0.712633889284,-0.115212890425,0.00200936612092,0.00685729047046,-1.32121646047
1385575143484434454,-0.736360836318,-0.712648630794,-0.115235047743,0.00211041564842,0.00639562223943,-1.32121947577
1385575143494402595,-0.736339035038,-0.712641950212,-0.115191316063,0.00213146522262,0.00672547440321,-1.32184377753
1385575143504411476,-0.736335070353,-0.712662018964,-0.115220064737,0.00214263432667,0.00648293703339,-1.3214747474
1385575143514417541,-0.736374799339,-0.712675873384,-0.11525035174,0.00196427711657,0.00617174010326,-1.32119980843
1385575143524396300,-0.736337074659,-0.712660137787,-0.115244667328,0.00210827959895,0.00629959612757,-1.32151280702
1385575143534403947,-0.736355403149,-0.712681568731,-0.11525894652,0.00196560426154,0.00620615931991,-1.3217157997
1385575143544409543,-0.736352200486,-0.712651506961,-0.115237298848,0.00209122917118,0.0065023690239,-1.32135800211
1385575143554388463,-0.736368152479,-0.712673315929,-0.115267521494,0.0019277348725,0.00613375908877,-1.32128346011
1385575143564414708,-0.736350017793,-0.71265282576,-0.115167007041,0.00193963103063,0.00744782036097,-1.32168322468
1385575143574401548,-0.736334846472,-0.712640679492,-0.115209533306,0.00208234040521,0.00682008504052,-1.32165749184
1385575143584415383,-0.736357510339,-0.712645940892,-0.115229686586,0.00218454654258,0.00645477666478,-1.32115694998
1385575143594386738,-0.736352581005,-0.712649912834,-0.115237982537,0.00218596713238,0.00636789890502,-1.321433318
1385575143604431606,-0.736329694194,-0.712654335497,-0.115235975301,0.00226297475993,0.00636200392519,-1.32155291519
1385575143614419339,-0.736290098407,-0.712684729549,-0.115211532607,0.00235083147098,0.00653084424034,-1.32162921784
1385575143624350597,-0.736331118348,-0.712649805037,-0.115235740661,0.00225668461779,0.00634681342162,-1.32132279478
1385575143634434688,-0.736341473083,-0.712657589983,-0.115241914706,0.00231827160834,0.00636838548283,-1.32149388873
1385575143644434506,-0.736348389793,-0.712628004462,-0.115204964749,0.00221665183084,0.00679978338571,-1.32157842463
1385575143654354308,-0.736339066594,-0.712658347338,-0.115237262225,0.00221486237786,0.00649004983733,-1.32143831908
1385575143664490424,-0.736348611512,-0.712654233651,-0.115236544004,0.00226212679721,0.00641649807822,-1.3214937508
1385575143674393912,-0.736340676459,-0.712615584163,-0.115206939241,0.00214624674509,0.0067020814558,-1.32130609903
1385575143684394995,-0.736351007009,-0.712646574096,-0.115215888354,0.00193408720716,0.00654590437677,-1.32167870365
1385575143694389137,-0.73631821651,-0.712646872493,-0.115178697662,0.00219274515107,0.00664617290455,-1.32156375508
1385575143704409815,-0.736345809548,-0.712655358598,-0.115248702013,0.00207623467947,0.00634522982877,-1.32130633925
1385575143714357561,-0.736345679083,-0.712648342952,-0.115236895196,0.0020679059163,0.00645028446324,-1.3215210203
1385575143724405863,-0.73638145367,-0.712635500301,-0.115142223651,0.00194986998913,0.00756620072278,-1.32145296443
1385575143734404439,-0.736357813412,-0.712664753037,-0.115205277194,0.00243354487279,0.00624142357274,-1.32136159319
1385575143744392373,-0.736364267855,-0.71266051983,-0.115250749671,0.00219536683379,0.00630325140407,-1.32128198334
1385575143754369826,-0.736347337522,-0.712655494336,-0.115238031804,0.0019241482683,0.0065908646007,-1.32182805659
1385575143764365045,-0.736363177543,-0.712636770485,-0.115263928609,0.00197248895551,0.00636815735441,-1.32156626489
1385575143774460019,-0.736369612917,-0.712670225591,-0.115269135519,0.00178553325374,0.00624460636465,-1.32123216474
1385575143784374339,-0.736384168899,-0.712659389743,-0.11527412743,0.00159769604725,0.006205003694,-1.32127795999
1385575143794388746,-0.736329485877,-0.712677891922,-0.115270265474,0.00165765665301,0.00627237081598,-1.32170263799
1385575143804478412,-0.736361171876,-0.712644482408,-0.115286274747,0.00182476133354,0.00636200743876,-1.32163271151
1385575143814407158,-0.736364634513,-0.712645179812,-0.115254641484,0.00244376378725,0.00658929821872,-1.32118625447
1385575143824520235,-0.736328380457,-0.712650167837,-0.115241956024,0.00315667212631,0.00642909872622,-1.32108782192
1385575143834414061,-0.736317095147,-0.712717138699,-0.115254767099,0.00345700954697,0.00659133277738,-1.32204516625
1385575143844392877,-0.736322340091,-0.712626078312,-0.115256103972,0.00356931836685,0.00624260599657,-1.32160868035
1385575143854424011,-0.736352948485,-0.712684121235,-0.115245228438,0.00338097441439,0.00638555576131,-1.32096476715
1385575143864508744,-0.736283024388,-0.712666051357,-0.115322403416,0.00304872756158,0.00638814508551,-1.32078468034
1385575143874405008,-0.736373188468,-0.712685691954,-0.115280911526,0.00222785260946,0.00625194988914,-1.32180537972
1385575143884369955,-0.73637824691,-0.712693700359,-0.115228377935,0.00271664750538,0.00623819812019,-1.3212713055
1385575143894430531,-0.736382736995,-0.712656663468,-0.115293534009,0.00284403813519,0.00597392976215,-1.32080898873
1385575143904417594,-0.736390935585,-0.712691168605,-0.115268335208,0.00311857060389,0.00636020205039,-1.32153204228
1385575143914440884,-0.736376733982,-0.712711585476,-0.115295960154,0.003509985384,0.00624272582254,-1.32113572788
1385575143924398100,-0.736365090692,-0.712676565161,-0.115278128583,0.0034546373461,0.00596170838165,-1.32092701117
1385575143934395352,-0.736425510461,-0.712742360436,-0.115294436377,0.00322072290706,0.00603685651617,-1.32123912037
1385575143944411407,-0.736430152561,-0.712684206225,-0.115313877341,0.00289280727044,0.00628765603984,-1.32108839298
1385575143954398950,-0.736416045584,-0.712697998539,-0.115303185622,0.00223775107711,0.00656863589275,-1.32140121762
1385575143964410685,-0.736427182907,-0.712760625858,-0.115330122651,0.00223034456496,0.00597780866784,-1.32104773079
1385575143974400536,-0.736448905326,-0.712706924568,-0.115327637339,0.00259872436046,0.00579111961758,-1.32090655997
1385575143984434405,-0.736408154696,-0.712693917372,-0.115291285574,0.0026642145631,0.00661813616444,-1.3214546967
1385575143994472288,-0.736436096092,-0.712729222504,-0.115321357585,0.00293768493852,0.00644981125143,-1.3209706898
1385575144004414683,-0.736452816408,-0.712706367373,-0.115293316213,0.00349077517201,0.00583184485839,-1.3208984314
1385575144014425107,-0.736474506264,-0.712739599024,-0.115256743576,0.00361524053833,0.00662837253353,-1.32125278483
1385575144024398731,-0.736422553482,-0.71274075656,-0.115328028902,0.00343025282261,0.00637478811959,-1.32095000729
1385575144034428881,-0.736465988953,-0.712689840945,-0.115296465989,0.00320664596334,0.00617737405449,-1.32096495032
1385575144044406800,-0.736390261249,-0.712763819811,-0.115293581721,0.00370212717082,0.00602503664227,-1.32093777348
1385575144054414649,-0.736449183251,-0.712710460971,-0.115274280564,0.00353390405995,0.00624641023979,-1.32077403197
1385575144064481044,-0.736485551994,-0.712715632212,-0.115356357377,0.00325235630108,0.00639581254622,-1.3210754798
1385575144074409399,-0.736511875446,-0.712768264382,-0.115348084647,0.00355242661053,0.00597919182713,-1.32116285342
1385575144084400887,-0.736521329002,-0.712764430218,-0.115263769625,0.00351342303923,0.0061786926898,-1.32068513297
1385575144094396821,-0.736458408466,-0.712729464469,-0.115227624656,0.00359725495876,0.00645180369062,-1.32123729148
1385575144104362087,-0.736493708136,-0.712769078677,-0.115257183036,0.00359362510115,0.00637691617836,-1.32094513045
1385575144114395213,-0.736512062085,-0.712730296399,-0.11534795455,0.00359074535499,0.00579840458909,-1.32083924465
1385575144124402849,-0.736466398241,-0.712745733693,-0.115384930082,0.0032051173283,0.00611768559478,-1.32127732503
1385575144134396928,-0.736509949287,-0.712748107947,-0.115332087513,0.00323839528622,0.00629386605798,-1.32075005267
1385575144144393125,-0.736411157936,-0.71274448703,-0.115277998749,0.00395502929292,0.00628804900139,-1.32055975383
1385575144154407874,-0.736538937169,-0.71275959053,-0.115187236398,0.00353650426479,0.00682208151525,-1.32116358048
1385575144164380027,-0.736495484727,-0.712750371309,-0.115352374201,0.00326287661537,0.00627495880345,-1.32083218739
1385575144174374351,-0.736501963028,-0.712755795693,-0.115390540301,0.00296772646457,0.00627847183231,-1.32101442146
1385575144184475821,-0.73652603129,-0.71276756322,-0.11530115945,0.00312651143915,0.00606522740925,-1.32102774619
1385575144194427132,-0.736507415834,-0.712735165186,-0.115252610207,0.00331203215532,0.00616382422428,-1.32085778705
1385575144204431270,-0.73653188769,-0.712749178774,-0.115228948643,0.00334974269135,0.00637297213076,-1.32135686596
1385575144214386876,-0.736480047743,-0.712884681712,-0.115390746634,0.00323769899987,0.00673668233683,-1.32117221798
1385575144224428573,-0.736551872695,-0.712728514139,-0.11539998456,0.00242901205671,0.00572269134928,-1.32069156095
1385575144234371487,-0.736523764738,-0.712750807195,-0.115340042735,0.00231073993295,0.00632588246743,-1.32115054319
1385575144244370676,-0.736560492952,-0.712794069523,-0.115249869607,0.00224027002007,0.00643040574465,-1.320972787
1385575144254430139,-0.736595020487,-0.71277287919,-0.115273208929,0.00221900574622,0.00598249754366,-1.32095350234
1385575144264431187,-0.736557012286,-0.712762410981,-0.115315468167,0.00217149834786,0.00632838920475,-1.32122196887
1385575144274368132,-0.736585530422,-0.712771928422,-0.115325688062,0.00191087526647,0.00639165312912,-1.32060720849
1385575144284411592,-0.736600706622,-0.712781657635,-0.115254668576,0.0018061356754,0.00608296545391,-1.32092005168
1385575144294434595,-0.736587453585,-0.712771642127,-0.115315037702,0.00197075340585,0.00595697457499,-1.32107764462
1385575144304422773,-0.736574343568,-0.712770883442,-0.115336659869,0.0022621781112,0.0062809458718,-1.32060102418
1385575144314463379,-0.736606807353,-0.712771337817,-0.115285901006,0.00266594130995,0.00632498879005,-1.32111505022
1385575144324439583,-0.736572552058,-0.712863518486,-0.1153116191,0.00246947297559,0.00672667894629,-1.32150399609
1385575144334399084,-0.73663975428,-0.712772402544,-0.115251610103,0.00281322645348,0.00651495355332,-1.32072253233
1385575144344401735,-0.736570527258,-0.712761548116,-0.11539387143,0.00319864255325,0.00672320226649,-1.32164384937
1385575144354626443,-0.736599726976,-0.712705319319,-0.115471831335,0.0036531282494,0.00676489380514,-1.32179011558
1385575144364340314,-0.736560463441,-0.712669871299,-0.115358786141,0.00428038006631,0.00622557557708,-1.32176206004
1385575144374458125,-0.736516782192,-0.712661254294,-0.115144654746,0.00426668677838,0.00602631904332,-1.32249841749
1385575144384469887,-0.736624610961,-0.712735453657,-0.114970588429,0.00412593833735,0.00725296102916,-1.32220120356
1385575144394488660,-0.736590305642,-0.712692798409,-0.115312148456,0.00348761570219,0.00623794649458,-1.32234111782
1385575144404429649,-0.736530672545,-0.712709290077,-0.115530738645,0.00294730971021,0.00567522188393,-1.32220702952
1385575144414514218,-0.736635607573,-0.712690411069,-0.115386329666,0.00203870820307,0.00577660313163,-1.32254149811
1385575144424417250,-0.736619470904,-0.712608250115,-0.115167837954,0.00180806114995,0.00670856705178,-1.32271464751
1385575144434326238,-0.736682680658,-0.712653237855,-0.115078678892,0.00157099785658,0.00795955437939,-1.32232018982
1385575144444492602,-0.736664599939,-0.712621227066,-0.115434536611,0.00207940846365,0.00591772706209,-1.32279685533
1385575144454412718,-0.736675504709,-0.712608687217,-0.115496802708,0.00286521255525,0.00580306353489,-1.32268140075
1385575144464574607,-0.736582022308,-0.712722049803,-0.115340654802,0.00292738688234,0.00708587195911,-1.32280819883
1385575144474411977,-0.736581216955,-0.712492298582,-0.115076800732,0.0037812336432,0.00743739889957,-1.32324321613
1385575144484404437,-0.736489348303,-0.712543400546,-0.115300175172,0.0041976417474,0.00664865036875,-1.3220951712
1385575144494466655,-0.736530519627,-0.712512427536,-0.115467947011,0.00418328256346,0.00548447859522,-1.32291021921
1385575144504434702,-0.736512580343,-0.712486897664,-0.115383973132,0.00431718175546,0.00568700943199,-1.32228426761
1385575144514324531,-0.73648109209,-0.712472762425,-0.115179499837,0.00428938733437,0.00604030116722,-1.32164839276
1385575144524383231,-0.736519853497,-0.712441083667,-0.115052511927,0.0044525905654,0.00707687711238,-1.32319833704
1385575144534336329,-0.736522767394,-0.712462610166,-0.115299109279,0.00456404137306,0.00613904998584,-1.32222587505
1385575144544625520,-0.736530177054,-0.712435066932,-0.115359680189,0.00451950547661,0.00609457620732,-1.32341654059
1385575144554443908,-0.736561741687,-0.712510550098,-0.115345705428,0.00460258219719,0.00565475170433,-1.3233005889
1385575144564377797,-0.736566593603,-0.712398135843,-0.115127761219,0.00482355402325,0.00708060952334,-1.32300265963
1385575144574530785,-0.736552758364,-0.712506635365,-0.115235095784,0.00471927281437,0.00586388456585,-1.32331871435
1385575144584608161,-0.736575250194,-0.712439798209,-0.115368045577,0.00451459603177,0.00610023242873,-1.32307492456
1385575144594431219,-0.736529490629,-0.712501684104,-0.115389983329,0.00427309261576,0.0061830079133,-1.32307530286
1385575144604491358,-0.736602582132,-0.712450199026,-0.115347957772,0.00438633419352,0.00565486484848,-1.32322471759
1385575144614471072,-0.736575657489,-0.712449241646,-0.115209651783,0.00405203969553,0.00617123000844,-1.32355465982
1385575144624421757,-0.73660755209,-0.712412382217,-0.115213362073,0.00393648523565,0.00677620027027,-1.32359578072
1385575144634394470,-0.736637655381,-0.712484583169,-0.115329233436,0.00424662963851,0.00604080217002,-1.32372564704
1385575144644466783,-0.736591689333,-0.71257059476,-0.115483302835,0.00400888356627,0.0058079679233,-1.32386325098
1385575144654360559,-0.736601491099,-0.712495168344,-0.115314841701,0.00460806394269,0.00570014017049,-1.32313039587
1385575144664716370,-0.736625736739,-0.712509287631,-0.115174703626,0.00454973154441,0.00697217302189,-1.32338210661
1385575144674533962,-0.736598556432,-0.712443911819,-0.115224604246,0.00467633194567,0.00626920182194,-1.32370048105
1385575144684523788,-0.736579903115,-0.712515209072,-0.11534209754,0.00441366193531,0.00629637765722,-1.32343089339
1385575144694578671,-0.736523672017,-0.712497553078,-0.115496153005,0.00444061098757,0.00587327380188,-1.32356989506
1385575144704430097,-0.736624243353,-0.712535976895,-0.115361380091,0.00400515743491,0.00576339919935,-1.32300898927
1385575144714581554,-0.736692017133,-0.712474124313,-0.115202732315,0.00346342165684,0.00673759394024,-1.32338115545
1385575144724502252,-0.736772253029,-0.712513417819,-0.115322813639,0.00360600903766,0.00678333120552,-1.32256155016
1385575144734426126,-0.73671722428,-0.712522076649,-0.115420459279,0.00399197626626,0.00564976375587,-1.32259643097
1385575144744326388,-0.736739998011,-0.7125516033,-0.115386681632,0.00418071184534,0.00543690677589,-1.32273032733
1385575144754340144,-0.736722943818,-0.712585587008,-0.11532691952,0.00438793910163,0.00590523249079,-1.32167394846
1385575144764396437,-0.736842162376,-0.712623498948,-0.11517452853,0.00496939721514,0.00598559527873,-1.32210747139
1385575144774626067,-0.736805127527,-0.712650664514,-0.115333604388,0.00557147577797,0.00615648177429,-1.32116010316
1385575144784470879,-0.736870319417,-0.712669818139,-0.115363040896,0.00549609446552,0.0055912929696,-1.32082549352
1385575144794620908,-0.736946320972,-0.712811133146,-0.115412328199,0.0048181816283,0.00588086953276,-1.32139295986
1385575144804511297,-0.737006770917,-0.7128359547,-0.115309170484,0.00472805814409,0.00573677517668,-1.32010449358
1385575144814441673,-0.736949778358,-0.712919257828,-0.115334128849,0.00473121900063,0.00587723911892,-1.321117013
1385575144824364463,-0.736938013065,-0.712864679255,-0.115317911699,0.00532965462504,0.00624538181753,-1.31954105618
1385575144834379373,-0.736992032892,-0.713001020564,-0.115226090012,0.00531514120185,0.00547698559736,-1.31935830988
1385575144844418893,-0.736938221741,-0.712988505958,-0.115323753412,0.00607858281212,0.00593225605442,-1.31911865161
1385575144854383310,-0.736846378907,-0.712950783914,-0.115436374553,0.00637151904489,0.00645043843189,-1.31807870997
1385575144864479090,-0.73704888202,-0.713155337451,-0.1153129356,0.00594021757194,0.00591176970926,-1.31911478339
1385575144874410039,-0.736987784003,-0.713056540519,-0.115312184547,0.00601794207927,0.00658638966541,-1.31902311756
1385575144884360579,-0.737087718432,-0.71320282109,-0.115435681306,0.00596291529064,0.00656342117999,-1.32097883698
1385575144894392904,-0.737162800838,-0.713255037759,-0.115402659449,0.005327142091,0.00621175263851,-1.32105680833
1385575144904362175,-0.737256263021,-0.71343060428,-0.115297841959,0.00593101383364,0.00610553755533,-1.32185475692
1385575144914585319,-0.737268806963,-0.713395757786,-0.115339252205,0.00600026265071,0.00639560611409,-1.32197147592
1385575144924455093,-0.737356329066,-0.713428308542,-0.115375083595,0.00533442715716,0.00720900855017,-1.3223091123
1385575144934475913,-0.737430049307,-0.71352231134,-0.115452863094,0.00490420400025,0.00708081409608,-1.32337552374
1385575144944342109,-0.73753436356,-0.713353850887,-0.115532080228,0.00408762049537,0.00726217560201,-1.32364031253
1385575144954380408,-0.737612971019,-0.713475837909,-0.115489851562,0.00355954176101,0.0078244158299,-1.32550183224
1385575144964441520,-0.737835264937,-0.713557579011,-0.115410026332,0.00369084316155,0.00737112097151,-1.32591756065
1385575144974388773,-0.737808445929,-0.713518456156,-0.11570307628,0.00343573920765,0.00670977275598,-1.32750737143
1385575144984365474,-0.737897525105,-0.713519905261,-0.115469920888,0.00340265135534,0.00589738016131,-1.32798886616
1385575144994606339,-0.737885709539,-0.713515299311,-0.115163737613,0.00422188448469,0.00604753557176,-1.32831701386
1385575145004426753,-0.73786463224,-0.713445868276,-0.115176631048,0.00401750032325,0.00545092890615,-1.32772378898
1385575145014394839,-0.73791056242,-0.713447176101,-0.115439882943,0.00457462800522,0.00507196015452,-1.32780653227
1385575145024395421,-0.737904809415,-0.713415300983,-0.115546361592,0.00481815762913,0.00618237817225,-1.32730053357
1385575145034508275,-0.737810114374,-0.713124447209,-0.115468288801,0.00615763804395,0.00713483736876,-1.32701303351
1385575145044475879,-0.737826663768,-0.71321764035,-0.115366156638,0.00694548730691,0.00561670878089,-1.32743372285
1385575145054377571,-0.737795054394,-0.713094313319,-0.115347103431,0.0080598798466,0.00444750595093,-1.32738834345
1385575145064551576,-0.737612343001,-0.712932728495,-0.11535975839,0.00768313536743,0.00651320231748,-1.32743929197
1385575145074374035,-0.737594138005,-0.712783939065,-0.115417242756,0.00800853002801,0.00741751723039,-1.32726478805
1385575145084421594,-0.737432526036,-0.712606237589,-0.115482936963,0.00811679421138,0.00600731542231,-1.32787955668
1385575145094360589,-0.73730311745,-0.712389897211,-0.11547389197,0.00778918497765,0.00628780638289,-1.3280830998
1385575145104352073,-0.737188555463,-0.712422624676,-0.115379553878,0.00730172325822,0.00514667303994,-1.32863365753
1385575145114369578,-0.737129606634,-0.712216589837,-0.115268886677,0.00722808265747,0.00667535502871,-1.32853332906
1385575145124351182,-0.737036920912,-0.712054163238,-0.115381223971,0.00698106859388,0.00618839172038,-1.32966139417
1385575145134344974,-0.737095736794,-0.712039020033,-0.115416107596,0.00640581615693,0.00497677195734,-1.32956577053
1385575145144354848,-0.736948576978,-0.711917148885,-0.11532506652,0.00729565959938,0.00594125632152,-1.33098564565
1385575145154379688,-0.736870132629,-0.711809784406,-0.115397034145,0.00758193977137,0.00589219501455,-1.33143347346
1385575145164348872,-0.736704883731,-0.711764371281,-0.115509512553,0.00775385961095,0.0050676153421,-1.33251171085
1385575145174391669,-0.736606128762,-0.711704808064,-0.115481328889,0.00824130549262,0.00475587572895,-1.33207813395
1385575145184357169,-0.736617283223,-0.711735278626,-0.115217956959,0.00911182618467,0.00640502368108,-1.33359448675
1385575145194480516,-0.736612150807,-0.711544436646,-0.115190212961,0.0103470471881,0.00602888176865,-1.333356812
1385575145204668103,-0.736451177329,-0.711463966112,-0.115293965582,0.00982110961341,0.00661988257258,-1.33354340472
1385575145214484412,-0.736493220472,-0.711497593766,-0.115351806485,0.0102167883725,0.00579587657058,-1.3337367146
1385575145224359535,-0.736348523888,-0.71139919715,-0.11535371378,0.00929849458187,0.00475313942457,-1.33334177537
1385575145234358333,-0.736284471091,-0.711458491004,-0.115345974488,0.0087544787112,0.00403592574736,-1.33354201307
1385575145244370808,-0.736222022421,-0.71129840525,-0.115377600191,0.00828859188247,0.00411059782714,-1.33415381702
1385575145254328093,-0.736249719456,-0.711318064856,-0.115516748094,0.00759154308754,0.00519318141655,-1.33388962213
1385575145264498544,-0.736168009731,-0.711160243103,-0.115678765036,0.00711125249251,0.00549447090494,-1.33509791817
1385575145274383887,-0.736038433426,-0.71120873694,-0.115624893931,0.00682046065,0.00453371530435,-1.33442627563
1385575145284279353,-0.73602922198,-0.711152761173,-0.11551107442,0.00729706946709,0.00380644650829,-1.33445063384
1385575145294487828,-0.735833564271,-0.711177280461,-0.115341666596,0.00725978607462,0.00443766082843,-1.33375520698
1385575145304353939,-0.735690065706,-0.711129538139,-0.115305887059,0.0078174737115,0.00484940773502,-1.3337405923
1385575145314432612,-0.735540581557,-0.711103598857,-0.115230445149,0.0088551204948,0.00621412637941,-1.33317199043
1385575145324414032,-0.735336734575,-0.710961049246,-0.115336844575,0.00953041995427,0.00622286047586,-1.33305450964
1385575145334339291,-0.735169815618,-0.710969808201,-0.115376416961,0.00988824678334,0.00612181240537,-1.33207706578
1385575145344322233,-0.734962433576,-0.710994781756,-0.115426853765,0.0100956661114,0.00558022365727,-1.33231346182
1385575145354338906,-0.734853717956,-0.710857416652,-0.115488549859,0.0104582418635,0.0055405736644,-1.33091162963
1385575145364502985,-0.734742132697,-0.710831186882,-0.115707239621,0.0101443486852,0.00528626439351,-1.33028789576
1385575145374424609,-0.734484232287,-0.710669455497,-0.115987795908,0.00939533821461,0.00365625843568,-1.32903894271
1385575145384373347,-0.734355724335,-0.710750026425,-0.115901989763,0.00930199390897,0.00217093514784,-1.32841192843
1385575145394502083,-0.734051122938,-0.710512995329,-0.11603972099,0.00908256943116,0.00371046115916,-1.32743909243
1385575145404367917,-0.733860081695,-0.710561410896,-0.116089388954,0.00847731270921,0.00200683475843,-1.32688368479
1385575145414450908,-0.733697013159,-0.71061292128,-0.11632995595,0.00768722145699,0.000214062087731,-1.32630582112
1385575145424341672,-0.733568470647,-0.710503866195,-0.116422519023,0.00640383991392,0.000774647313332,-1.32642616931
1385575145434364568,-0.733455158903,-0.710455129101,-0.11650276332,0.0054119716716,0.00185949146005,-1.32663381568
1385575145444395457,-0.733383063155,-0.71039772113,-0.116569963,0.00355842100392,0.00169999733845,-1.32693391205
1385575145454626074,-0.733257914669,-0.71032183099,-0.116914116182,0.00159478403716,0.00189136594027,-1.32741004068
1385575145464513537,-0.733319292343,-0.710316929083,-0.117133605984,0.00014405982893,0.00208334088693,-1.32732707057
1385575145474389971,-0.733169979173,-0.710145134278,-0.117299115629,-0.00140625808101,0.00341905008542,-1.32794049967
1385575145484370059,-0.733297478634,-0.710141009962,-0.117389938491,-0.00237050153052,0.00364263602302,-1.32747900621
1385575145494463517,-0.733334949226,-0.710413706155,-0.117562044471,-0.00456556325271,0.00298251238821,-1.32906038642
1385575145504462401,-0.733449666575,-0.710264930443,-0.117944971722,-0.00742865233097,0.00296431036274,-1.32804998809
1385575145514470187,-0.733707373046,-0.710337218166,-0.118294423093,-0.0101481310586,0.00237286697496,-1.32847127726
1385575145524382623,-0.733853307871,-0.710385109876,-0.118546626968,-0.0140589516842,0.00207814155872,-1.3288839822
1385575145534346913,-0.734066279255,-0.710407605315,-0.119073498605,-0.0169512490957,0.00042913400094,-1.32864939125
1385575145544383002,-0.734459310671,-0.710463662158,-0.119615365876,-0.0206887910368,0.00077858494212,-1.32907364312
1385575145554424394,-0.734616108274,-0.710502062041,-0.120555750612,-0.0226969208099,-0.00399001920972,-1.32947057635
1385575145564582884,-0.734985246175,-0.710636786255,-0.121302587054,-0.0238500344963,-0.00738882655732,-1.33026884292
1385575145574365971,-0.735247277881,-0.710665362881,-0.121959412005,-0.0258587347742,-0.010976387855,-1.33107865539
1385575145584396345,-0.735700626117,-0.71069815778,-0.123103416056,-0.0262576791074,-0.0147880504478,-1.33248450096
1385575145594534716,-0.735960083003,-0.710833738683,-0.12428266493,-0.0278711998452,-0.0185566069638,-1.33385619517
1385575145604486644,-0.736557534473,-0.71093326083,-0.12556000456,-0.0301924913541,-0.0222375409763,-1.33570791453
1385575145614407620,-0.737045355224,-0.711013650385,-0.126947781253,-0.0303062073686,-0.0263046091126,-1.33773396019
1385575145624421332,-0.737576120019,-0.711263337432,-0.128500294708,-0.0320037467772,-0.0323811714434,-1.33951462304
1385575145634378377,-0.738132976335,-0.711384225957,-0.130090560388,-0.0327429441801,-0.0385293948528,-1.34128942167
1385575145644375236,-0.738810658132,-0.711591174285,-0.131815274621,-0.0324513525224,-0.0435765663888,-1.34404968573
1385575145654472813,-0.739437531634,-0.711734026796,-0.133684640243,-0.0320971531626,-0.0489371480652,-1.3461210754
1385575145664443245,-0.740300330239,-0.712090310652,-0.135764005056,-0.0307711553186,-0.0542425872953,-1.34884514144
1385575145674343667,-0.741072396028,-0.712407312185,-0.137937998442,-0.0292586139112,-0.0588085285607,-1.35177050862
1385575145684388710,-0.741753728676,-0.71265283352,-0.140083185624,-0.0265923075845,-0.0635143493619,-1.35400139482
1385575145694363276,-0.74265914572,-0.713141263997,-0.142287033558,-0.0244549519738,-0.0661807394405,-1.35716870169
1385575145704399705,-0.743553521179,-0.713337438772,-0.145042961922,-0.0219126224555,-0.0691620247071,-1.35858676575
1385575145714373323,-0.744411787933,-0.713722812258,-0.147538884129,-0.0207814426411,-0.070609726297,-1.36064038728
1385575145724397216,-0.745422344562,-0.714141885503,-0.150182509581,-0.0185005630993,-0.070912631079,-1.36272981711
1385575145734374871,-0.746288655975,-0.714639308797,-0.153017326877,-0.017920301057,-0.0697147719072,-1.36433712972
1385575145744373084,-0.747311387023,-0.715258693978,-0.156078783844,-0.0174171971711,-0.0694444468504,-1.3663145094
1385575145754486050,-0.748066816057,-0.715754778772,-0.159107424683,-0.0148959675302,-0.0676591832241,-1.3688343758
1385575145764458640,-0.748853238957,-0.71628509724,-0.162207289446,-0.0120695570917,-0.0649944185148,-1.37060090956
1385575145774360200,-0.749736947691,-0.717129259712,-0.165206916877,-0.00844685343131,-0.0648162067521,-1.37229813491
1385575145784404046,-0.750393998659,-0.717975326791,-0.168520384687,-0.00371275552082,-0.0641398838561,-1.37354485521
1385575145794476061,-0.751079183227,-0.718709042088,-0.172167616354,0.00165020591544,-0.061771473578,-1.37532890218
1385575145804333451,-0.751797922879,-0.71976777565,-0.175483075258,0.00716841769114,-0.0602104874881,-1.37752933702
1385575145814434718,-0.752418626057,-0.720786750457,-0.179018467227,0.0121517546502,-0.058906850225,-1.3792863772
1385575145824371403,-0.753102142177,-0.72176959341,-0.182777273748,0.0159754941066,-0.0542937812838,-1.38120942168
1385575145834360849,-0.75387273718,-0.722829461085,-0.186476206505,0.0174594165121,-0.0524716680302,-1.38346806093
1385575145844412356,-0.754566327397,-0.724180426472,-0.190170943367,0.0183485416549,-0.0501686391354,-1.38478154781
1385575145854369117,-0.755161971693,-0.725370795866,-0.194018511967,0.0185403470458,-0.0462120978701,-1.38588405293
1385575145864549637,-0.755820181462,-0.726929815225,-0.197999607146,0.0181102049977,-0.0459411934229,-1.38690986945
1385575145874341749,-0.75644468735,-0.728417500188,-0.201920971424,0.0176487435419,-0.043078855,-1.38845702502
1385575145884412838,-0.756749855772,-0.72983782296,-0.206119776511,0.018188837009,-0.0426574118135,-1.39038232693
1385575145894411488,-0.757232779728,-0.731405619558,-0.210306708609,0.0207762677519,-0.0401420214556,-1.39242519409
1385575145904402098,-0.757784336343,-0.732976724388,-0.2144009829,0.023733435825,-0.0388863024567,-1.39405928865
1385575145914404395,-0.758216939057,-0.734509071559,-0.218547578495,0.0267131226669,-0.0376222934943,-1.39591521691
1385575145924431691,-0.758615850309,-0.736125394225,-0.22281674746,0.0293983497847,-0.0365513652841,-1.3970216315
1385575145934396203,-0.758791733587,-0.737822654672,-0.227266143521,0.0315946936253,-0.0344337883699,-1.39710671215
1385575145944442209,-0.759301121986,-0.739366156969,-0.231508443779,0.0332235146405,-0.032997636311,-1.3986765797
1385575145954464596,-0.759546589421,-0.740988259339,-0.23585007524,0.0345045497507,-0.0309617406739,-1.39943295436
1385575145964339216,-0.759764871263,-0.74276524689,-0.240499824631,0.0362203866963,-0.0266727146815,-1.399517562
1385575145974330702,-0.760101448411,-0.744375106188,-0.244902694969,0.0370786693386,-0.0237689132936,-1.40074342014
1385575145984463150,-0.760182161549,-0.746028770155,-0.249388043164,0.0386153602828,-0.0198846635067,-1.4008398364
1385575145994666724,-0.760363471182,-0.747656282446,-0.253751631097,0.0403435546452,-0.0170344882446,-1.40089401118
1385575146004508133,-0.76041356119,-0.74946439231,-0.258508253905,0.0438187462036,-0.0131441213389,-1.40173406732
1385575146014517724,-0.760414055836,-0.750959126842,-0.263175416709,0.0461310546865,-0.00850014820753,-1.40211232302
1385575146024410905,-0.760346041023,-0.75250606752,-0.267829362878,0.04930509423,-0.0057016048305,-1.40267569232
1385575146034357513,-0.760321893723,-0.75438170488,-0.272585099774,0.0519684367169,-0.00276387436811,-1.40334261977
1385575146044492163,-0.760036409259,-0.755963092095,-0.277172180919,0.0539398684719,8.69346048792e-05,-1.40439753144
1385575146054404598,-0.759991997613,-0.757621670215,-0.282032371881,0.0556227136316,0.00405505426408,-1.40463061611
1385575146064625794,-0.75979618256,-0.759203958794,-0.286753496516,0.0565847230653,0.00563778071092,-1.40478899202
1385575146074371732,-0.759309948485,-0.760863478111,-0.291503415727,0.0588621036264,0.0082919608014,-1.40552479754
1385575146084387324,-0.759138177746,-0.762585764669,-0.296361619012,0.0602649946985,0.0119809752502,-1.40603703811
1385575146094354929,-0.75857115658,-0.764042388382,-0.301087770257,0.0632219263934,0.0142650425691,-1.40654903985
1385575146104365414,-0.758115649147,-0.765538228447,-0.306123172681,0.0660830029205,0.0171740735159,-1.40719295157
1385575146114351160,-0.75779236609,-0.767124081226,-0.310804098212,0.0686755909592,0.0186879735653,-1.40822025921
1385575146124354480,-0.75704023905,-0.76863682583,-0.315843545163,0.0714575027515,0.0215182692994,-1.40941034925
1385575146134368645,-0.756497354711,-0.769833091631,-0.320855051306,0.074209991202,0.0220127082987,-1.41060400332
1385575146144442800,-0.755772575591,-0.771255055511,-0.325823204856,0.0759755841946,0.0254365004151,-1.41094003987
1385575146154399359,-0.754959057135,-0.772596711243,-0.330592497489,0.0760985201347,0.0269124480228,-1.41191044721
1385575146164422984,-0.754096147681,-0.773818293682,-0.335666244434,0.0782218081178,0.0283038126873,-1.41235237961
1385575146174389095,-0.753193881102,-0.775110346031,-0.340767515435,0.0806552871777,0.0310837797095,-1.41302960555
1385575146184410860,-0.752086107076,-0.776431263086,-0.345874690989,0.0832838272087,0.0331731477929,-1.41320899828
1385575146194377703,-0.750952957863,-0.777359386894,-0.350892218439,0.0853998445378,0.0341478647056,-1.41426023338
1385575146204386848,-0.749887117285,-0.77847022131,-0.356007642962,0.0884230055767,0.0367921178194,-1.41547458783
1385575146214343450,-0.748509782142,-0.779489882324,-0.361251231535,0.0915641108512,0.0388149189628,-1.4165351127
1385575146224434780,-0.747300791631,-0.780578602474,-0.366460046147,0.0947602205959,0.0391703885631,-1.41747323169
1385575146234434710,-0.745775196128,-0.781408102296,-0.371565483643,0.0975023978995,0.040473179088,-1.41842860048
1385575146244372586,-0.744231513612,-0.782371979915,-0.376869965628,0.0990654743799,0.0426701282087,-1.41959422518
1385575146254453204,-0.742852974398,-0.783092083409,-0.382084080462,0.101204512173,0.0431297812657,-1.42020051466
1385575146264356772,-0.741130093404,-0.784016278283,-0.387560254898,0.10191543977,0.0439565597315,-1.42167898988
1385575146274436044,-0.739455080144,-0.784618365637,-0.393045304207,0.101790580223,0.0434852758409,-1.42176235536
1385575146284419020,-0.737688343122,-0.785325546995,-0.398810918245,0.101569846089,0.0447218097575,-1.42338283842
1385575146294358956,-0.735899200027,-0.785819241411,-0.40445169739,0.101139955714,0.044359704458,-1.42446646678
1385575146304478197,-0.733812244683,-0.786503501729,-0.410050276234,0.100206664144,0.0445739162447,-1.42535091126
1385575146314517434,-0.731956581055,-0.786903040596,-0.415239479455,0.0999027973647,0.0450374239182,-1.4256831107
1385575146324561207,-0.729811509275,-0.787307761154,-0.420645685027,0.100273609868,0.0440712874867,-1.42655952306
1385575146334449476,-0.727706467804,-0.787732428432,-0.425794194909,0.100612913281,0.0449600689894,-1.42775752288
1385575146344628787,-0.725609848653,-0.788088128147,-0.430741032709,0.101407074742,0.0448399813904,-1.42839839874
1385575146354507405,-0.723165436496,-0.788326050736,-0.435539458684,0.101561523908,0.0453221319275,-1.42990686233
1385575146364683422,-0.720909233057,-0.788731953625,-0.440082824679,0.10144630428,0.0467957368815,-1.43091435618
1385575146374484182,-0.71841549278,-0.788784026484,-0.444680494069,0.101384325813,0.0469910750467,-1.43101273098
1385575146384511013,-0.715891134664,-0.789032704502,-0.449031621802,0.101177176464,0.0454924271316,-1.43223356785
1385575146394558062,-0.713575429952,-0.789229383234,-0.453501590577,0.0999228799378,0.0466638957405,-1.43355235709
1385575146404582117,-0.710850944393,-0.789035081351,-0.457560518607,0.099402912134,0.0468990558834,-1.43416422565
1385575146414372205,-0.708435162255,-0.789353155559,-0.461361731451,0.098107783061,0.0474786186138,-1.43520046736
1385575146424386167,-0.705634746066,-0.789271180793,-0.465186794238,0.0972439443766,0.0466616192394,-1.43559518228
1385575146434569960,-0.702920867285,-0.789251628007,-0.468870514408,0.0962971897907,0.0453918759241,-1.43668281711
1385575146444331160,-0.699956205852,-0.789105620546,-0.472447179356,0.0952604256144,0.0456457028887,-1.43751576271
1385575146454573622,-0.697099455573,-0.789009574421,-0.475824506603,0.0945713765191,0.0454607290853,-1.4382037839
1385575146464526772,-0.69436492547,-0.788884686265,-0.478977741709,0.092984961648,0.0448578880545,-1.43892726172
1385575146474428730,-0.691295649284,-0.788787116773,-0.482063438149,0.0912327912809,0.0452123983476,-1.44002319428
1385575146484476602,-0.688268234554,-0.788416724871,-0.484932698045,0.0906041975843,0.0481663123732,-1.44079564938
1385575146494929095,-0.685144614248,-0.788240492363,-0.487794044859,0.0902845302433,0.0432009788589,-1.44164796799
1385575146504551573,-0.682009637376,-0.788029422522,-0.490303615866,0.0888576954021,0.0422496110319,-1.44238685926
1385575146514578134,-0.678840022898,-0.787679382592,-0.492816942936,0.0882261844421,0.0421305483065,-1.44296395256
1385575146524541793,-0.675372833557,-0.787243435783,-0.495106847548,0.0862821284028,0.0412135701921,-1.44384567223
1385575146534462163,-0.672360919974,-0.78692285283,-0.497303439842,0.0852857954331,0.0429081567984,-1.44510530761
1385575146544323426,-0.668880885435,-0.786420570047,-0.499288788614,0.084540114105,0.0408261315819,-1.44543049711
1385575146554449840,-0.665646437671,-0.785913708196,-0.501027395942,0.0839762879239,0.0403267174806,-1.44619139302
1385575146565604106,-0.662157671172,-0.785496120929,-0.502873653138,0.0838927577922,0.0394645630248,-1.44718003999
1385575146574454433,-0.658743170854,-0.784930502493,-0.504301138408,0.0830709332968,0.0387096751883,-1.44786876651
1385575146584502082,-0.655127120871,-0.784298277863,-0.505711715532,0.0832780638629,0.0380783462858,-1.44914302316
1385575146594531141,-0.651433225709,-0.783617243746,-0.506985540917,0.0821829733517,0.0368965489835,-1.44951280552
1385575146604448894,-0.648015920451,-0.78313194573,-0.508210329902,0.0831279045723,0.0364225088373,-1.45007363939
1385575146614469820,-0.644131641175,-0.7823425868,-0.509041546705,0.0820372604507,0.0351181897061,-1.45179526546
1385575146624919059,-0.64060962827,-0.781600545557,-0.510002426131,0.0822248636365,0.0349449303261,-1.45232171914
1385575146635858697,-0.633022535005,-0.780180583112,-0.511210047953,0.0806098398752,0.0331913931719,-1.45461749447
1385575146644458865,-0.633022535005,-0.780180583112,-0.511210047953,0.0806098398752,0.0331913931719,-1.45461749447
1385575146654411391,-0.629284737819,-0.779361153499,-0.511877419102,0.0804931480083,0.033718534173,-1.45487413353
1385575146664734908,-0.625151209922,-0.778648925314,-0.512315634027,0.0791929353295,0.0333692172742,-1.45491671832
1385575146674394228,-0.621519759048,-0.777683310612,-0.512459695533,0.077978446114,0.0325493763044,-1.45653410538
1385575146684426488,-0.617442118073,-0.776888203504,-0.512543587269,0.0768227092709,0.0321289044407,-1.45753368422
1385575146694716280,-0.613572587307,-0.776001426079,-0.512744462379,0.0759757178881,0.0317298529815,-1.45874780198
1385575146704572542,-0.609586354457,-0.775078488996,-0.512719052389,0.0750710253655,0.0315407367126,-1.45953567849
1385575146714449662,-0.605504633924,-0.774105580966,-0.512464709893,0.0738208534773,0.0299766126019,-1.46041688252
1385575146724383726,-0.601565945734,-0.773249569749,-0.512452171008,0.0715062648742,0.0310413973706,-1.46171446254
1385575146734484289,-0.597339271382,-0.772321860592,-0.511971651151,0.0691617476045,0.0290255926735,-1.46171664207
1385575146744358910,-0.593271034877,-0.771134272953,-0.511575167838,0.0672000402029,0.0282846806336,-1.46221450386
1385575146754376708,-0.589158551318,-0.770386236107,-0.511155043984,0.0642746908727,0.0266391731932,-1.46278008241
1385575146764625972,-0.584818875073,-0.769179662396,-0.510511287505,0.062011960675,0.0253765296776,-1.46335674474
1385575146774466182,-0.580805375007,-0.768287093953,-0.5098629766,0.0603385287181,0.0256631631838,-1.46460326004
1385575146784598254,-0.576489642236,-0.76722067694,-0.509175772486,0.0584201750686,0.0251246080722,-1.46551497578
1385575146794800780,-0.57222200537,-0.766176177515,-0.508394023675,0.0567425554971,0.0240530740373,-1.46613412641
1385575146804474098,-0.567758748981,-0.765117996325,-0.507423985858,0.0549245354243,0.0226819690043,-1.46680189838
1385575146814507191,-0.563547406794,-0.764118528962,-0.506697036448,0.0535943218026,0.0225200488625,-1.46788256337
1385575146824362989,-0.559194472807,-0.762971044575,-0.505729821007,0.0523575551364,0.0218742952033,-1.46836640115
1385575146834455293,-0.554852547257,-0.76179391502,-0.504608403215,0.0507838573533,0.0209141047217,-1.46895610574
1385575146844390940,-0.550471218821,-0.760721156635,-0.503611759279,0.0476100103062,0.0212862607771,-1.47015635595
1385575146854392727,-0.545991101712,-0.759655169816,-0.502546987821,0.0464737300065,0.0193727700218,-1.47054197483
1385575146864779261,-0.541441520977,-0.758472509234,-0.501306731794,0.0451290952959,0.0189384171854,-1.47093313142
1385575146874434288,-0.53707646856,-0.757132892279,-0.500255481722,0.0429528666233,0.0180970214173,-1.47163131545
1385575146884458805,-0.532612364301,-0.756142483851,-0.498844593596,0.0422682635606,0.0183249298345,-1.47217909245
1385575146894453435,-0.528101853434,-0.754939306515,-0.497488468732,0.0414857323669,0.0164438558981,-1.47286242581
1385575146904478717,-0.523634117816,-0.753785397378,-0.496139111325,0.0394601837453,0.0176734464005,-1.47432095342
1385575146914444532,-0.519154364876,-0.752613532524,-0.494976651993,0.0394890985086,0.0155738434066,-1.47410820294
1385575146924499348,-0.514525999445,-0.751453107615,-0.493468403824,0.0386450913571,0.0152971096693,-1.47477900268
1385575146934503451,-0.509987648315,-0.750020918932,-0.492111739884,0.0380276294992,0.0153468993811,-1.47517772785
1385575146944347550,-0.505433079478,-0.74902954604,-0.490654664956,0.0371915428101,0.014300894188,-1.47575479349
1385575146954703901,-0.500925087378,-0.747812204545,-0.489135677276,0.0356626713423,0.0140829551296,-1.47661399863
1385575146964462764,-0.496326274416,-0.74655776424,-0.487702142241,0.0349928598829,0.0131398538708,-1.47712650793
1385575146974475144,-0.491682009544,-0.745226886126,-0.486234610061,0.0342074766054,0.0145894053709,-1.47821651932
1385575146984374019,-0.487127241501,-0.744229954172,-0.484721804424,0.0332280990318,0.0134855037604,-1.47872893187
1385575146994506609,-0.482655143251,-0.742884714189,-0.483108618774,0.0337118835094,0.0117978437989,-1.47854025804
1385575147004379979,-0.477956839765,-0.741548628928,-0.481780522603,0.032353076502,0.0132982056262,-1.47988014189
1385575147014396665,-0.47341355934,-0.740471131898,-0.480239209783,0.0321093033294,0.0127187714441,-1.48030556604
1385575147024460499,-0.468711880459,-0.739251409099,-0.478583039283,0.031456729292,0.0115056349851,-1.48114396197
1385575147034516211,-0.464250479569,-0.737997926657,-0.477152897764,0.0305462647449,0.011472024534,-1.48179549128
1385575147044439444,-0.45955245033,-0.736873381786,-0.475623753827,0.0301463221186,0.0121974384879,-1.48299940699
1385575147054555438,-0.454994262861,-0.735498081035,-0.474159930987,0.0297495463209,0.0118227923442,-1.48278184736
1385575147064491044,-0.450342067739,-0.734287799297,-0.472610215224,0.028520497847,0.0112538118237,-1.48357480781
1385575147074471572,-0.445712030414,-0.732945641607,-0.47111833675,0.0275180606499,0.0113637197637,-1.48379582947
1385575147084650030,-0.441148082734,-0.731807569389,-0.469683667053,0.026570642229,0.0108157716327,-1.48406809016
1385575147094562873,-0.436540720573,-0.730605458244,-0.468196986412,0.0255290779958,0.0099356598139,-1.48464131327
1385575147104649600,-0.431910313857,-0.729414146762,-0.466701495044,0.0234489103116,0.00950647339184,-1.48492022372
1385575147114558396,-0.427460280864,-0.728208634518,-0.465433800333,0.0223003817452,0.00981378353236,-1.48571760855
1385575147124701346,-0.422707594503,-0.726990016805,-0.463894142304,0.0201938903353,0.00905259004602,-1.4864999692
1385575147134516378,-0.418091733935,-0.725723563915,-0.462453862369,0.0190522317718,0.00856612785177,-1.48714578459
1385575147144474055,-0.413595263553,-0.724534055242,-0.461262228369,0.0173866987564,0.00826356308051,-1.48765128217
1385575147154576338,-0.409000692454,-0.723472828248,-0.459781633811,0.0149454316917,0.00775705130819,-1.48736085002
1385575147164495184,-0.404346618267,-0.722228062709,-0.458681366813,0.0139285170164,0.00728511157919,-1.48782301202
1385575147174445784,-0.39981620862,-0.720927348239,-0.457305983208,0.0119260620476,0.00598538507114,-1.48899303493
1385575147184550414,-0.395278506429,-0.719891520689,-0.455967445466,0.00975927746319,0.00505031239537,-1.48868446403
1385575147194431327,-0.390920331339,-0.718787787434,-0.45486309871,0.00746852703337,0.00406256981384,-1.48939284826
1385575147204475353,-0.386228196976,-0.717697020495,-0.453620195556,0.00570062325715,0.00342596113809,-1.48971195406
1385575147214569675,-0.381726646146,-0.716332751598,-0.452458830239,0.0039104152377,0.00185971062593,-1.49031685808
1385575147224586949,-0.377448783313,-0.715394179154,-0.45135910403,0.00129718235388,0.000501107399234,-1.4906502258
1385575147234480147,-0.372985140544,-0.714291632119,-0.450125690106,-0.00144965393099,-0.00097574091479,-1.49093457613
1385575147244337972,-0.368648550191,-0.713288662799,-0.449164487269,-0.00423073793688,-0.00253818293409,-1.49117945651
1385575147254500690,-0.364214730802,-0.712192356153,-0.447913575064,-0.00706495970191,-0.00363695184318,-1.4915774422
1385575147264634419,-0.359996391327,-0.711210239494,-0.447038397634,-0.00909959163547,-0.00330547034213,-1.49245928842
1385575147274437671,-0.35567731194,-0.70978849106,-0.445980072738,-0.0113455525406,-0.00443898765152,-1.49230813372
1385575147287492115,-0.347213289665,-0.708051094658,-0.444157555311,-0.0148528896445,-0.00724350167645,-1.49330367448
1385575147294355712,-0.347213289665,-0.708051094658,-0.444157555311,-0.0148528896445,-0.00724350167645,-1.49330367448
1385575147304455896,-0.342859919437,-0.706952580653,-0.443208681497,-0.0168415985614,-0.00843413132169,-1.49375068354
1385575147316121640,-0.334648612458,-0.704967742181,-0.441625145133,-0.0190257309878,-0.0113675514263,-1.49418488958
1385575147324306210,-0.334648612458,-0.704967742181,-0.441625145133,-0.0190257309878,-0.0113675514263,-1.49418488958
1385575147334438498,-0.33048285335,-0.704136563516,-0.44078330918,-0.0211627272578,-0.011389944562,-1.49453069727
1385575147344563389,-0.326477819874,-0.703318356153,-0.439967871788,-0.0214036674317,-0.0134114360593,-1.49454881707
1385575147354395847,-0.322460452399,-0.702447297403,-0.439356106173,-0.0232830074228,-0.013983110529,-1.49482424072
1385575147364503061,-0.318641414782,-0.701627859688,-0.438895487402,-0.0240052774138,-0.0139122596285,-1.49524438019
1385575147374602745,-0.314589119696,-0.700597904195,-0.438269104572,-0.0251569986544,-0.014677325233,-1.49558145518
1385575147384434977,-0.310739743377,-0.700000158079,-0.437695300446,-0.0265452785434,-0.0155768790839,-1.49587294846
1385575147394510719,-0.306817893376,-0.699019675386,-0.437288853062,-0.0269752245198,-0.0159207095521,-1.49644232923
1385575147404544835,-0.303114617763,-0.698428556661,-0.436804440683,-0.0282893320837,-0.0156241021112,-1.49711036261
1385575147414539580,-0.299241591316,-0.697731747465,-0.436413308939,-0.0282243129788,-0.0163490772151,-1.49702444503
1385575147424458673,-0.295680331861,-0.697115180857,-0.436224736213,-0.0284941821932,-0.0162511722596,-1.49811023782
1385575147434656708,-0.291861163257,-0.696316385788,-0.435715731747,-0.0284488370417,-0.0171781546093,-1.49806695019
1385575147444435915,-0.28816551365,-0.695533372049,-0.435555320012,-0.028404760371,-0.0159601573695,-1.49811730729
1385575147454483460,-0.284765043635,-0.695054898221,-0.435359181857,-0.0281820883948,-0.0170825772266,-1.49832215955
1385575147464526214,-0.281015088154,-0.694438456536,-0.435020284343,-0.028949334034,-0.0176606958851,-1.49825068678
1385575147474343426,-0.277642850177,-0.693937396308,-0.435091425315,-0.0288299022536,-0.0165607947937,-1.4987687934
1385575147484512350,-0.274118120809,-0.693342533861,-0.434914039304,-0.029952708432,-0.0174366759119,-1.49897554272
1385575147494413152,-0.270760057652,-0.692812770919,-0.434851815214,-0.0314388760878,-0.0176968313592,-1.49911564079
1385575147504407779,-0.267639549233,-0.692388121616,-0.434955334034,-0.0324460919553,-0.0177518973314,-1.49929879695
1385575147514779695,-0.264142905497,-0.691821977268,-0.434890741559,-0.0338074256327,-0.0179615788507,-1.49943620013
1385575147524411723,-0.260927218876,-0.691575953907,-0.435164364238,-0.0353579386043,-0.0180862975185,-1.49946665362
1385575147534507611,-0.257720193406,-0.691152183417,-0.43519255499,-0.0367650352394,-0.0194289872919,-1.4993119776
1385575147544415565,-0.254641399227,-0.690682829997,-0.435318652799,-0.0381656804841,-0.0192429696998,-1.49961392684
1385575147554466193,-0.251634728247,-0.690282647962,-0.435573381567,-0.0389556532816,-0.0195242828371,-1.5000399981
1385575147564447334,-0.248461970756,-0.690186739638,-0.43575907483,-0.040116868463,-0.0196808619343,-1.49974137371
1385575147574452080,-0.245342154604,-0.689609040112,-0.436069080396,-0.0411576213504,-0.0181617391176,-1.50015586979
1385575147584544994,-0.242614048093,-0.689539325656,-0.436238335257,-0.0420459343462,-0.0193025323019,-1.5001437828
1385575147594462379,-0.239681469086,-0.689356138477,-0.43651466561,-0.0428050838651,-0.0198294409408,-1.49990853202
1385575147604557843,-0.236880014119,-0.689196218721,-0.436890551329,-0.0427095901185,-0.0203298208361,-1.50008292554
1385575147614512053,-0.234004907043,-0.689039149914,-0.437344979365,-0.0428529683332,-0.0199217720211,-1.5000267671
1385575147624450540,-0.231333065741,-0.688848258794,-0.437665646786,-0.0433458819594,-0.020115976135,-1.50052120396
1385575147634478538,-0.228601340877,-0.688725813776,-0.438140975242,-0.0436418964785,-0.020886841867,-1.50082683618
1385575147644616628,-0.225955313584,-0.6887286268,-0.438565170354,-0.0447712081952,-0.0199121174819,-1.50086463252
1385575147654535600,-0.223420120989,-0.68839748462,-0.438961683779,-0.046191519093,-0.0205543559159,-1.50097002301
1385575147664525572,-0.220998852846,-0.688720377288,-0.439564049839,-0.0468985344627,-0.0205934494416,-1.50115425322
1385575147674772883,-0.218409182418,-0.688641844034,-0.440065734223,-0.0491196987632,-0.0210593671475,-1.50119505812
1385575147684457369,-0.216103525107,-0.688780836033,-0.440706980921,-0.0504195006755,-0.0210753405034,-1.50143484163
1385575147694456262,-0.213719362761,-0.688618638129,-0.441159668376,-0.0520897445944,-0.020433075823,-1.50177523647
1385575147704712323,-0.211443111915,-0.688975285935,-0.441842882644,-0.0537809347772,-0.0222526946653,-1.50226154696
1385575147714418834,-0.209285283943,-0.689096790313,-0.442400430268,-0.05463466718,-0.0230198495695,-1.50248970443
1385575147724392345,-0.207150317005,-0.689319444701,-0.443029732349,-0.0558086847554,-0.0239960873652,-1.50241231598
1385575147734402812,-0.205093976797,-0.689534603963,-0.443797904124,-0.0563720080386,-0.023709198893,-1.50245040512
1385575147744445392,-0.203108977413,-0.689923524235,-0.444479856464,-0.0573385646966,-0.0245617322182,-1.50291956032
1385575147754495749,-0.20088131664,-0.68988335033,-0.445278487071,-0.0579222292084,-0.0246742105889,-1.50251851253
1385575147764568749,-0.199038319001,-0.690412284912,-0.445884558245,-0.0584867436895,-0.0262667892262,-1.50247013759
1385575147774426007,-0.197281149249,-0.690773762346,-0.446547473981,-0.0591815052849,-0.0266263637222,-1.50257809039
1385575147784435785,-0.195370893784,-0.691131765524,-0.447459396942,-0.0598328660088,-0.0268807249797,-1.50277535405
1385575147794489109,-0.193753453422,-0.691522833332,-0.448279734205,-0.0601790519499,-0.0261771158847,-1.50243675582
1385575147804439415,-0.191938983551,-0.692005964946,-0.449001204407,-0.061356903154,-0.0272878078656,-1.50284901273
1385575147814422603,-0.190532297909,-0.692508032579,-0.449747933925,-0.0614108001483,-0.027794678698,-1.50309121642
1385575147824352431,-0.188883498957,-0.692959808637,-0.450591709624,-0.0606753647658,-0.0269279153819,-1.5029302476
