%time,field.header.seq,field.header.stamp,field.header.frame_id,field.child_frame_id,field.transform.translation.x,field.transform.translation.y,field.transform.translation.z,field.transform.rotation.x,field.transform.rotation.y,field.transform.rotation.z,field.transform.rotation.w
1385575139664655513,1221848,1385575139664655513,/world,vicon/Archie/Archie,-0.736353269311,0.712663915482,0.115171032642,0.00292937671562,-0.00230506961768,0.614092609737,0.789225171971
1385575139674710317,1221849,1385575139674710317,/world,vicon/Archie/Archie,-0.7363423049,0.71266497812,0.115159425234,0.00291900003981,-0.00228787603607,0.614093088702,0.789224887767
1385575139684813324,1221850,1385575139684813324,/world,vicon/Archie/Archie,-0.736344448775,0.712668357097,0.115166005862,0.00293622136292,-0.00232082550341,0.614093447305,0.789224448652
1385575139694686609,1221851,1385575139694686609,/world,vicon/Archie/Archie,-0.736297677761,0.712719473712,0.115166192211,0.00329092850852,-0.00259405381999,0.613871511596,0.789394836521
1385575139704817992,1221852,1385575139704817992,/world,vicon/Archie/Archie,-0.736304810533,0.712693783739,0.115236131599,0.00277094041905,-0.00195469597799,0.614088198848,0.789230121757
1385575139714564193,1221853,1385575139714564193,/world,vicon/Archie/Archie,-0.736347959541,0.712713140569,0.115177192318,0.00290749076005,-0.00224456434837,0.614032710708,0.789272030804
1385575139724719388,1221854,1385575139724719388,/world,vicon/Archie/Archie,-0.736331687279,0.712671194816,0.115166057215,0.00291438041056,-0.00228103863041,0.614089824281,0.789227464654
1385575139734694373,1221855,1385575139734694373,/world,vicon/Archie/Archie,-0.736332171009,0.712672898999,0.115160771799,0.00291092663343,-0.00229291979888,0.614079832526,0.789235217353
1385575139744684945,1221856,1385575139744684945,/world,vicon/Archie/Archie,-0.736341768059,0.712666882179,0.115166472607,0.00291523514418,-0.00228584406029,0.614091875915,0.789225851234
1385575139755001840,1221857,1385575139755001840,/world,vicon/Archie/Archie,-0.736323398507,0.712672622479,0.11516662178,0.00291550229157,-0.00228910787399,0.614066838116,0.789245321911
1385575139764689083,1221858,1385575139764689083,/world,vicon/Archie/Archie,-0.736386097439,0.712690881201,0.115104289339,0.00310218972261,-0.00264663729797,0.613989061915,0.78930399947
1385575139774726562,1221859,1385575139774726562,/world,vicon/Archie/Archie,-0.736324746979,0.712667121778,0.115157229799,0.00290628876352,-0.00230167024066,0.614059583335,0.789250963835
1385575139784810698,1221860,1385575139784810698,/world,vicon/Archie/Archie,-0.736326728215,0.712670340583,0.11515770016,0.00290729833101,-0.00230327469617,0.614067210925,0.789245020896
1385575139794686574,1221861,1385575139794686574,/world,vicon/Archie/Archie,-0.736332902237,0.712663501814,0.115164614983,0.00292028952538,-0.00231011213994,0.614075555028,0.789238460802
1385575139804743102,1221862,1385575139804743102,/world,vicon/Archie/Archie,-0.736336218286,0.712664318981,0.115163585189,0.00292290606682,-0.00228778256845,0.614098332521,0.789220793357
1385575139814641306,1221863,1385575139814641306,/world,vicon/Archie/Archie,-0.736325414483,0.712666944075,0.115157197692,0.00291451769423,-0.00229677240943,0.614069672931,0.789243097664
1385575139824692046,1221864,1385575139824692046,/world,vicon/Archie/Archie,-0.736335396965,0.712666519102,0.115161163989,0.00289169636155,-0.00227651098222,0.614079798035,0.789235362382
1385575139834736609,1221865,1385575139834736609,/world,vicon/Archie/Archie,-0.736331541447,0.712660048445,0.11516307151,0.00293298622155,-0.00231264883106,0.614090680194,0.789226637758
1385575139844656181,1221866,1385575139844656181,/world,vicon/Archie/Archie,-0.736243538818,0.712682864363,0.115220735601,0.00307954906964,-0.00223812364414,0.613952463073,0.789333820552
1385575139854765947,1221867,1385575139854765947,/world,vicon/Archie/Archie,-0.73624421485,0.71267835346,0.115213216856,0.0030709809005,-0.00224616765438,0.613954041681,0.789332603223
1385575139864656279,1221868,1385575139864656279,/world,vicon/Archie/Archie,-0.736388367939,0.712678430253,0.115105931162,0.00310998100887,-0.00260894376334,0.614016127155,0.789283039869
1385575139874691067,1221869,1385575139874691067,/world,vicon/Archie/Archie,-0.736377382073,0.712686421482,0.115103863121,0.0031056704026,-0.00262005546485,0.613997468298,0.789297535182
1385575139884779921,1221870,1385575139884779921,/world,vicon/Archie/Archie,-0.736400202341,0.712669020155,0.115112185744,0.00311131101215,-0.00262072691119,0.614021816958,0.789278569223
1385575139894704386,1221871,1385575139894704386,/world,vicon/Archie/Archie,-0.736306965877,0.712690052248,0.115168158746,0.0032714097691,-0.0025701880311,0.61389193753,0.789379111104
1385575139904848071,1221872,1385575139904848071,/world,vicon/Archie/Archie,-0.736394434871,0.712667469932,0.115110244415,0.00310592235251,-0.00262343626475,0.614017599919,0.789281862086
1385575139914619152,1221873,1385575139914619152,/world,vicon/Archie/Archie,-0.736297744385,0.712697941894,0.115159084883,0.00326565057239,-0.00260205925866,0.613878963212,0.789389120358
1385575139924719088,1221874,1385575139924719088,/world,vicon/Archie/Archie,-0.736248827442,0.71267272733,0.115221425449,0.00307889262799,-0.00224296237316,0.613961778616,0.789326563558
1385575139934893311,1221875,1385575139934893311,/world,vicon/Archie/Archie,-0.736394445806,0.712670014507,0.115104941915,0.00309721344665,-0.00262165464668,0.614017350623,0.789282096167
1385575139945807168,1221876,1385575139945807168,/world,vicon/Archie/Archie,-0.736241255348,0.7126783178,0.115217724076,0.00309010012711,-0.0022474817034,0.61397084654,0.789319453521
1385575139954752097,1221877,1385575139954752097,/world,vicon/Archie/Archie,-0.736396880771,0.712672373324,0.115096107085,0.00311711684449,-0.00262067380335,0.61402812234,0.789273641158
1385575139964658484,1221878,1385575139964658484,/world,vicon/Archie/Archie,-0.736334936782,0.712662199344,0.115159586676,0.00293637658503,-0.00230700110098,0.614092489943,0.789225233526
1385575139974700718,1221879,1385575139974700718,/world,vicon/Archie/Archie,-0.73639505408,0.712671792902,0.115105734498,0.00312777616689,-0.00263487452381,0.614018843999,0.789280769857
1385575139984807750,1221880,1385575139984807750,/world,vicon/Archie/Archie,-0.736326505806,0.712670519162,0.115155065819,0.00294118458406,-0.00229584445736,0.614074084363,0.789239569108
1385575139994685654,1221881,1385575139994685654,/world,vicon/Archie/Archie,-0.736384951521,0.712687318005,0.115098059028,0.00312443477124,-0.0026417342406,0.614008960439,0.789288448951
1385575140005043572,1221882,1385575140005043572,/world,vicon/Archie/Archie,-0.736343440171,0.712656765781,0.115157719315,0.00293560052203,-0.00230855471934,0.614095756069,0.789222690502
1385575140014987668,1221883,1385575140014987668,/world,vicon/Archie/Archie,-0.736301173564,0.71269801478,0.115225627623,0.00276699911798,-0.00195474875612,0.614100412696,0.789220631889
1385575140024728798,1221884,1385575140024728798,/world,vicon/Archie/Archie,-0.736346041899,0.712655297574,0.115167870302,0.00292288426956,-0.00226294271042,0.614107653509,0.789213612236
1385575140034798192,1221885,1385575140034798192,/world,vicon/Archie/Archie,-0.736334085618,0.712677604416,0.115161915152,0.00290276347011,-0.00227874010151,0.614085493415,0.78923088389
1385575140044766186,1221886,1385575140044766186,/world,vicon/Archie/Archie,-0.736342772963,0.712659863799,0.115160782916,0.00291098659302,-0.00228630499985,0.614095113596,0.78922334635
1385575140054775523,1221887,1385575140054775523,/world,vicon/Archie/Archie,-0.736342482612,0.712654935193,0.115163923217,0.00291264458352,-0.00228037686325,0.614092812257,0.789225148052
1385575140064690260,1221888,1385575140064690260,/world,vicon/Archie/Archie,-0.736405291822,0.712678953972,0.115111912167,0.00310338736786,-0.00262044520321,0.614022652398,0.789277951419
1385575140074803825,1221889,1385575140074803825,/world,vicon/Archie/Archie,-0.736346329003,0.712665845729,0.115159193061,0.00293002736743,-0.00229689360604,0.614093994918,0.789224115588
1385575140084784605,1221890,1385575140084784605,/world,vicon/Archie/Archie,-0.736391595815,0.71268450335,0.115097457862,0.00309667667124,-0.00262256908725,0.614006602873,0.789290456266
1385575140094816978,1221891,1385575140094816978,/world,vicon/Archie/Archie,-0.736311520765,0.712689102832,0.115227337411,0.00274257610253,-0.00195668547234,0.614114115851,0.789210049588
1385575140104779103,1221892,1385575140104779103,/world,vicon/Archie/Archie,-0.736252840817,0.712733786958,0.115232297531,0.00308832688366,-0.00217342879761,0.613898768393,0.789375728414
1385575140114773366,1221893,1385575140114773366,/world,vicon/Archie/Archie,-0.736341808572,0.712665370426,0.115157171772,0.00293996800039,-0.00230579557977,0.614096027005,0.789222471494
1385575140124725205,1221894,1385575140124725205,/world,vicon/Archie/Archie,-0.736341733932,0.712663673461,0.115160249173,0.00293040848849,-0.00229068429896,0.614098590057,0.789220556728
1385575140134969745,1221895,1385575140134969745,/world,vicon/Archie/Archie,-0.736303641219,0.712685452837,0.115216536837,0.00274095882981,-0.00193675383063,0.614102566573,0.789219091164
1385575140144801597,1221896,1385575140144801597,/world,vicon/Archie/Archie,-0.736307122653,0.712692901678,0.11521909025,0.00273788566483,-0.0019322843778,0.614099095953,0.789221813313
1385575140154918677,1221897,1385575140154918677,/world,vicon/Archie/Archie,-0.736323983169,0.712684130724,0.1152229736,0.00274589992335,-0.00197652959134,0.614120359786,0.7892051299
1385575140164666821,1221898,1385575140164666821,/world,vicon/Archie/Archie,-0.736352839788,0.712658511529,0.115157826306,0.00292238594964,-0.0023162791774,0.614098363414,0.789220688125
1385575140174990999,1221899,1385575140174990999,/world,vicon/Archie/Archie,-0.736316944995,0.712692117783,0.115222908989,0.00273752058526,-0.00194226782704,0.61409378882,0.789225919563
1385575140184938375,1221900,1385575140184938375,/world,vicon/Archie/Archie,-0.736322135349,0.712687076257,0.115219189986,0.00276183521872,-0.00194243758512,0.614118766986,0.789206398376
1385575140194769411,1221901,1385575140194769411,/world,vicon/Archie/Archie,-0.736321717018,0.712686858735,0.115221203345,0.00273693568606,-0.00195395506292,0.614105233448,0.789216987586
1385575140204765990,1221902,1385575140204765990,/world,vicon/Archie/Archie,-0.736353587015,0.712654489729,0.115154492476,0.00291676856151,-0.00228467541805,0.614086212543,0.789230255555
1385575140214769263,1221903,1385575140214769263,/world,vicon/Archie/Archie,-0.736317701212,0.71269084119,0.115214249495,0.00274910536916,-0.00192272102415,0.614099189282,0.789221725047
1385575140224834127,1221904,1385575140224834127,/world,vicon/Archie/Archie,-0.736324777989,0.712692977508,0.115223818032,0.00274252955089,-0.00196427969458,0.614120013399,0.789205441745
1385575140237013505,1221905,1385575140237013505,/world,vicon/Archie/Archie,-0.736324643351,0.71268085489,0.115217028365,0.00273419790974,-0.00193140288334,0.614120977497,0.789204801583
1385575140244729651,1221906,1385575140244729651,/world,vicon/Archie/Archie,-0.736397781362,0.712686762977,0.115090851389,0.00309860676834,-0.00264078355489,0.614014450705,0.789284282895
1385575140254801642,1221907,1385575140254801642,/world,vicon/Archie/Archie,-0.736344661439,0.712661357889,0.115145368943,0.00292537120245,-0.0022853756615,0.614091050573,0.789226457278
1385575140264717493,1221908,1385575140264717493,/world,vicon/Archie/Archie,-0.7364074748,0.712686880192,0.115090326613,0.00314076860301,-0.00262415617036,0.614023314345,0.789277276259
1385575140274768100,1221909,1385575140274768100,/world,vicon/Archie/Archie,-0.736392959148,0.712691394289,0.115083660287,0.00310970835035,-0.0026360138053,0.614013471026,0.789285017306
1385575140284771244,1221910,1385575140284771244,/world,vicon/Archie/Archie,-0.736397258395,0.712690171485,0.115088279494,0.00310996605689,-0.0026371546317,0.61400143898,0.789294372498
1385575140294729446,1221911,1385575140294729446,/world,vicon/Archie/Archie,-0.736415274079,0.712681215499,0.115098642757,0.00312804874425,-0.00262386986861,0.614029560098,0.789272468761
1385575140308784707,1221912,1385575140308784707,/world,vicon/Archie/Archie,-0.7362656513,0.712718439932,0.11523022508,0.0030659698471,-0.00220741836569,0.613930843228,0.789350775553
1385575140314659078,1221913,1385575140314659078,/world,vicon/Archie/Archie,-0.736291511308,0.712703038783,0.115160436876,0.00329098220454,-0.00259023809069,0.613867822277,0.789397717805
1385575140324768892,1221914,1385575140324768892,/world,vicon/Archie/Archie,-0.736359953003,0.712706610436,0.115182853206,0.00292616030616,-0.00224786733181,0.614053740722,0.789255591164
1385575140334763224,1221915,1385575140334763224,/world,vicon/Archie/Archie,-0.736382990043,0.712683415692,0.115102538692,0.003108384356,-0.00264019739055,0.613999662254,0.78929575069
1385575140344829266,1221916,1385575140344829266,/world,vicon/Archie/Archie,-0.736353682398,0.712699334905,0.115177215304,0.00288368355644,-0.00220525073065,0.614042040668,0.789264970419
1385575140354754244,1221917,1385575140354754244,/world,vicon/Archie/Archie,-0.736388149889,0.712683236654,0.115099957404,0.00309327932365,-0.00259140241083,0.614016030441,0.789283238526
1385575140364666012,1221918,1385575140364666012,/world,vicon/Archie/Archie,-0.736379351592,0.71267851655,0.115104974619,0.00312444607444,-0.00266113045312,0.613999625669,0.789295645433
1385575140374802725,1221919,1385575140374802725,/world,vicon/Archie/Archie,-0.736391318109,0.712680485768,0.115106647493,0.00310063837839,-0.00261345738449,0.61402338223,0.789277417615
1385575140384798119,1221920,1385575140384798119,/world,vicon/Archie/Archie,-0.736374088776,0.712686053722,0.115103821272,0.00310167256851,-0.00264037080788,0.61399800449,0.789297066098
1385575140394698857,1221921,1385575140394698857,/world,vicon/Archie/Archie,-0.7362952202,0.712703414258,0.115156742202,0.00324868536485,-0.00257397387526,0.613886253267,0.789383613177
1385575140404857753,1221922,1385575140404857753,/world,vicon/Archie/Archie,-0.73638951764,0.712682805224,0.115102720183,0.00310321589434,-0.00260829535171,0.614027065212,0.789274559348
1385575140414642998,1221923,1385575140414642998,/world,vicon/Archie/Archie,-0.736385979417,0.712693349476,0.115107430983,0.00311171958487,-0.00264031486581,0.614010601793,0.789287227076
1385575140424770198,1221924,1385575140424770198,/world,vicon/Archie/Archie,-0.736393915138,0.712681598408,0.115104808841,0.00309842542356,-0.00261885833435,0.614022178176,0.789278345103
1385575140434781302,1221925,1385575140434781302,/world,vicon/Archie/Archie,-0.736391285077,0.712680855895,0.115109459097,0.00313001063861,-0.00266455645491,0.614020386659,0.789279461243
1385575140444713045,1221926,1385575140444713045,/world,vicon/Archie/Archie,-0.736386757563,0.71268141378,0.115113830254,0.00311941994492,-0.00263393513169,0.614006988473,0.789290028894
1385575140454771282,1221927,1385575140454771282,/world,vicon/Archie/Archie,-0.73640424759,0.712677315589,0.115117499152,0.00312240039002,-0.00263273330959,0.614028013225,0.789273665027
1385575140464758570,1221928,1385575140464758570,/world,vicon/Archie/Archie,-0.736390449306,0.712681291554,0.115107934247,0.00312531140355,-0.0026417342314,0.614009439247,0.789288073003
1385575140475016545,1221929,1385575140475016545,/world,vicon/Archie/Archie,-0.736217398796,0.712703814589,0.115280033247,0.00291662584479,-0.00191934675673,0.613992444645,0.789304179212
1385575140484768679,1221930,1385575140484768679,/world,vicon/Archie/Archie,-0.736299177636,0.712710289022,0.115168284181,0.00327801104107,-0.00258532768351,0.613862565421,0.789401875789
1385575140494765993,1221931,1385575140494765993,/world,vicon/Archie/Archie,-0.736394871178,0.712671992269,0.115111923961,0.00313528146449,-0.00263126403248,0.61401414007,0.789284411511
1385575140504767812,1221932,1385575140504767812,/world,vicon/Archie/Archie,-0.736364847782,0.71270710588,0.115177042213,0.00290605194577,-0.00223411911132,0.614058558902,0.78925195585
1385575140515000996,1221933,1385575140515000996,/world,vicon/Archie/Archie,-0.736302613283,0.712699550545,0.115163112162,0.00329333838669,-0.00261083446411,0.61388847805,0.789381576921
1385575140524814542,1221934,1385575140524814542,/world,vicon/Archie/Archie,-0.736389210898,0.712679853299,0.115102279262,0.00312603187466,-0.00263955822997,0.614012443307,0.789285740478
1385575140534853123,1221935,1385575140534853123,/world,vicon/Archie/Archie,-0.736365629276,0.712695355313,0.115184156453,0.0029223250633,-0.00224108235729,0.614064453218,0.789247290055
1385575140544661218,1221936,1385575140544661218,/world,vicon/Archie/Archie,-0.736394684915,0.712681840666,0.115115086755,0.00315326923296,-0.00265509103026,0.61401773992,0.789281459587
1385575140554764569,1221937,1385575140554764569,/world,vicon/Archie/Archie,-0.736303961636,0.712703612043,0.115169095563,0.00328151567527,-0.00258064931111,0.613904823669,0.78936901344
1385575140565912423,1221938,1385575140565912423,/world,vicon/Archie/Archie,-0.736340003503,0.712664384011,0.115164107068,0.002939513016,-0.00228412722336,0.614103591037,0.789216650548
1385575140574775141,1221939,1385575140574775141,/world,vicon/Archie/Archie,-0.736367254396,0.712700535427,0.115176908891,0.00290594629089,-0.00223756164502,0.614063365725,0.78924820663
1385575140584813196,1221940,1385575140584813196,/world,vicon/Archie/Archie,-0.736333456757,0.71265917849,0.115154649934,0.00291239319965,-0.00229289496848,0.614081381808,0.789234006563
1385575140594729672,1221941,1385575140594729672,/world,vicon/Archie/Archie,-0.736399508189,0.712678980289,0.115097429989,0.00311068028205,-0.00263408519427,0.61401264675,0.789285661149
1385575140604813755,1221942,1385575140604813755,/world,vicon/Archie/Archie,-0.736401594465,0.712676048781,0.115107393923,0.00314058036904,-0.00264035935133,0.61401340255,0.789284933814
1385575140614668229,1221943,1385575140614668229,/world,vicon/Archie/Archie,-0.736339362063,0.712662412332,0.115155923107,0.002933436574,-0.0022807822341,0.614096878933,0.789221905593
1385575140624773185,1221944,1385575140624773185,/world,vicon/Archie/Archie,-0.73631751269,0.712667303296,0.115157752021,0.00291681310508,-0.00227955038505,0.614081003662,0.789234323121
1385575140634808681,1221945,1385575140634808681,/world,vicon/Archie/Archie,-0.736405059334,0.712675528014,0.115106383911,0.00311514893425,-0.00261048093506,0.614025356581,0.789275834365
1385575140644695389,1221946,1385575140644695389,/world,vicon/Archie/Archie,-0.736394273465,0.71267992902,0.115103257757,0.00313464611356,-0.00264959176996,0.614003167502,0.789292888575
1385575140656502642,1221947,1385575140656502642,/world,vicon/Archie/Archie,-0.736352660923,0.712692305246,0.115162808776,0.00290722096384,-0.00223382657395,0.614053951045,0.789255537384
1385575140664902551,1221948,1385575140664902551,/world,vicon/Archie/Archie,-0.736329876104,0.712664966138,0.115156103167,0.00292184149413,-0.00225343998947,0.614074246345,0.789239637136
1385575140674828522,1221949,1385575140674828522,/world,vicon/Archie/Archie,-0.736339250096,0.712658900002,0.115149979635,0.00292187336232,-0.00230423872473,0.614092083774,0.789225611461
1385575140684849863,1221950,1385575140684849863,/world,vicon/Archie/Archie,-0.736363517922,0.7126877366,0.115169083309,0.00290903309504,-0.0022637349838,0.614049777306,0.789258692711
1385575140694632863,1221951,1385575140694632863,/world,vicon/Archie/Archie,-0.736381960688,0.712644093882,0.115054876321,0.00322875955902,-0.00285587161087,0.614043412432,0.78926048093
1385575140704815547,1221952,1385575140704815547,/world,vicon/Archie/Archie,-0.736335689902,0.712664070251,0.115148747068,0.00293406603071,-0.00228406719839,0.61409781565,0.789221164888
1385575140714894714,1221953,1385575140714894714,/world,vicon/Archie/Archie,-0.736400480353,0.712683988274,0.115102058445,0.00313153330283,-0.00260576063417,0.614016143745,0.789282952262
1385575140724838444,1221954,1385575140724838444,/world,vicon/Archie/Archie,-0.736326291549,0.712665115807,0.115154587648,0.0029328378372,-0.00226834822179,0.614077515906,0.789237009724
1385575140734849187,1221955,1385575140734849187,/world,vicon/Archie/Archie,-0.736336952578,0.712661975128,0.115157844153,0.00292483882462,-0.00230129326947,0.61409334349,0.789224628891
1385575140744639048,1221956,1385575140744639048,/world,vicon/Archie/Archie,-0.73632412057,0.712665186318,0.115160861451,0.00293329286465,-0.00228655783209,0.614077342671,0.789237090274
1385575140754774550,1221957,1385575140754774550,/world,vicon/Archie/Archie,-0.73633340251,0.712661430494,0.115156997244,0.0029271730656,-0.00226271675686,0.61407147221,0.789241749269
1385575140764756577,1221958,1385575140764756577,/world,vicon/Archie/Archie,-0.736333025332,0.712669813096,0.115155822355,0.00292642098879,-0.00230450021544,0.614074833818,0.789239015641
1385575140774794205,1221959,1385575140774794205,/world,vicon/Archie/Archie,-0.736385979237,0.712682437584,0.115094727703,0.00312792590181,-0.00264771257547,0.614000737246,0.789294812069
1385575140784776587,1221960,1385575140784776587,/world,vicon/Archie/Archie,-0.736340726674,0.712713003013,0.115170764037,0.00290025833489,-0.00220072927803,0.614022199921,0.789280357855
1385575140795060810,1221961,1385575140795060810,/world,vicon/Archie/Archie,-0.736328966264,0.712669141576,0.115157274908,0.00293251538735,-0.00228693936601,0.614071196023,0.789241874508
1385575140804821105,1221962,1385575140804821105,/world,vicon/Archie/Archie,-0.736391759195,0.712671280351,0.115102682837,0.00312435286702,-0.00263448846593,0.614006564807,0.789290337115
1385575140814937485,1221963,1385575140814937485,/world,vicon/Archie/Archie,-0.736328290331,0.712657901601,0.115151137988,0.00292927424404,-0.00231259681671,0.614078955367,0.789235774547
1385575140824800988,1221964,1385575140824800988,/world,vicon/Archie/Archie,-0.73638948501,0.712679790777,0.115103003063,0.00312833723678,-0.00261806981693,0.61400713142,0.789289935183
1385575140834802214,1221965,1385575140834802214,/world,vicon/Archie/Archie,-0.736384943675,0.712682830909,0.115099409952,0.003124302257,-0.00263090970331,0.614007188274,0.789289864243
1385575140844660092,1221966,1385575140844660092,/world,vicon/Archie/Archie,-0.736391834664,0.712685144114,0.115095618679,0.00310448561485,-0.00263515908121,0.614014763986,0.789284034877
1385575140854852884,1221967,1385575140854852884,/world,vicon/Archie/Archie,-0.736331386934,0.712655588092,0.115158846919,0.00294036816126,-0.00230963373182,0.614080692312,0.789234390505
1385575140864846202,1221968,1385575140864846202,/world,vicon/Archie/Archie,-0.736202353546,0.712715125784,0.115277717541,0.00292104636878,-0.00185904609098,0.613963432292,0.789326874776
1385575140874899430,1221969,1385575140874899430,/world,vicon/Archie/Archie,-0.736303809262,0.712689719047,0.115217279294,0.00275642404781,-0.00194935396533,0.614109923084,0.789213282019
1385575140884760134,1221970,1385575140884760134,/world,vicon/Archie/Archie,-0.736344868557,0.7127082485,0.115174125297,0.00290549473589,-0.00221151902372,0.614028209039,0.789275633596
1385575140894849085,1221971,1385575140894849085,/world,vicon/Archie/Archie,-0.736298016391,0.712687045216,0.115215583399,0.00272645320754,-0.00194225854481,0.61410326109,0.789218587467
1385575140904751946,1221972,1385575140904751946,/world,vicon/Archie/Archie,-0.736387743204,0.712674625982,0.115102907248,0.00311854929229,-0.00261507872127,0.61401340511,0.789285103343
1385575140915077368,1221973,1385575140915077368,/world,vicon/Archie/Archie,-0.73635494133,0.712703885274,0.115175439397,0.00290470214428,-0.00220426557711,0.61403129765,0.789273253965
1385575140924807404,1221974,1385575140924807404,/world,vicon/Archie/Archie,-0.736356466357,0.712698429242,0.115176259134,0.00290923916373,-0.00221552672835,0.614053933477,0.789255595197
1385575140934987719,1221975,1385575140934987719,/world,vicon/Archie/Archie,-0.736223989539,0.712702196461,0.11527724827,0.00291691553636,-0.00189629233562,0.61399317883,0.789303662749
1385575140944994086,1221976,1385575140944994086,/world,vicon/Archie/Archie,-0.736301792123,0.712699027518,0.115238621836,0.00276470225341,-0.00193838130264,0.614091303365,0.789227768284
1385575140954746370,1221977,1385575140954746370,/world,vicon/Archie/Archie,-0.736351504556,0.712717046528,0.115182579222,0.00292387028216,-0.002210703597,0.614022755853,0.789279810376
1385575140964830383,1221978,1385575140964830383,/world,vicon/Archie/Archie,-0.736217695231,0.712702012342,0.115273606493,0.00291044779805,-0.00192247983533,0.613984336146,0.789310501851
1385575140974760122,1221979,1385575140974760122,/world,vicon/Archie/Archie,-0.736257152079,0.712735237503,0.115234943734,0.00307553746677,-0.00218137430533,0.613880268211,0.789390143704
1385575140984816194,1221980,1385575140984816194,/world,vicon/Archie/Archie,-0.736360939697,0.712700929385,0.115189909412,0.00293053288354,-0.00220713519408,0.614041554942,0.789265170481
1385575140994674193,1221981,1385575140994674193,/world,vicon/Archie/Archie,-0.736367687033,0.712702619891,0.115188845957,0.00294178790953,-0.00221498747228,0.614053936641,0.789255473602
1385575141004799142,1221982,1385575141004799142,/world,vicon/Archie/Archie,-0.736361665597,0.712698120536,0.115186348937,0.00290436543038,-0.00219289103416,0.614055851097,0.78925418442
1385575141014823927,1221983,1385575141014823927,/world,vicon/Archie/Archie,-0.736361073669,0.712713286642,0.115179372932,0.0028937014202,-0.00222679293196,0.614041504729,0.789265290226
1385575141024761975,1221984,1385575141024761975,/world,vicon/Archie/Archie,-0.736366982846,0.712699843995,0.115187347342,0.00290744147948,-0.00220979035781,0.614051712149,0.789257346128
1385575141034777666,1221985,1385575141034777666,/world,vicon/Archie/Archie,-0.736376905292,0.712711975753,0.115190751143,0.00291981356941,-0.00221268385269,0.614061820951,0.789249427475
1385575141044684591,1221986,1385575141044684591,/world,vicon/Archie/Archie,-0.736358787798,0.712705228517,0.115180538297,0.00289268118116,-0.00221190586486,0.614048301598,0.789260047876
1385575141054820799,1221987,1385575141054820799,/world,vicon/Archie/Archie,-0.736360756305,0.712703294558,0.115182788903,0.00291183248998,-0.0022239748196,0.614047039781,0.789260925235
1385575141064742300,1221988,1385575141064742300,/world,vicon/Archie/Archie,-0.73639320815,0.712688316059,0.115114817779,0.00312227862944,-0.00261381997106,0.614015767379,0.789283255068
1385575141074913091,1221989,1385575141074913091,/world,vicon/Archie/Archie,-0.73631918483,0.712691528796,0.115239599963,0.00276272442699,-0.00195037815149,0.61411278537,0.789211030222
1385575141084847292,1221990,1385575141084847292,/world,vicon/Archie/Archie,-0.736349845242,0.712716602115,0.115184365172,0.00290858583723,-0.00223289180699,0.614030593286,0.789273707171
1385575141094772046,1221991,1385575141094772046,/world,vicon/Archie/Archie,-0.736331029088,0.712661378586,0.115158127267,0.00291734091006,-0.00226628993818,0.614082059309,0.789233537989
1385575141104808583,1221992,1385575141104808583,/world,vicon/Archie/Archie,-0.736360587538,0.712705601345,0.115177269165,0.00291839295174,-0.00224378226036,0.614060193746,0.789250610947
1385575141114742744,1221993,1385575141114742744,/world,vicon/Archie/Archie,-0.736343990736,0.712656783423,0.115163955489,0.00291473528325,-0.00227095914561,0.614109195883,0.789212419184
1385575141124775994,1221994,1385575141124775994,/world,vicon/Archie/Archie,-0.736403743116,0.712672704579,0.11511308368,0.00313569980347,-0.00262197619198,0.614014133381,0.789284445961
1385575141134919482,1221995,1385575141134919482,/world,vicon/Archie/Archie,-0.736365524877,0.712706844448,0.115190404951,0.00292004667559,-0.00224383231428,0.614058028022,0.78925228968
1385575141144852423,1221996,1385575141144852423,/world,vicon/Archie/Archie,-0.736314680141,0.712694556975,0.115230807634,0.00273692524954,-0.00193061701239,0.614114519057,0.789209819656
1385575141154769752,1221997,1385575141154769752,/world,vicon/Archie/Archie,-0.736253120233,0.712687634755,0.115230575087,0.00310855281746,-0.00225115428969,0.613968714363,0.789321029105
1385575141165141137,1221998,1385575141165141137,/world,vicon/Archie/Archie,-0.736309311603,0.712694172032,0.115229710514,0.00273622026732,-0.00195994339331,0.614103094651,0.789218639454
1385575141174851152,1221999,1385575141174851152,/world,vicon/Archie/Archie,-0.73622389082,0.712711768902,0.115286376353,0.00293216172775,-0.00192165762332,0.613997852878,0.789299908983
1385575141185016629,1222000,1385575141185016629,/world,vicon/Archie/Archie,-0.736319860463,0.712690748113,0.115233191239,0.00273993942109,-0.00196048804794,0.614124547753,0.789201931742
1385575141194691696,1222001,1385575141194691696,/world,vicon/Archie/Archie,-0.736268836719,0.712721452269,0.115233614616,0.00307553819741,-0.00215842305595,0.613926972683,0.789353884191
1385575141204817317,1222002,1385575141204817317,/world,vicon/Archie/Archie,-0.736363616688,0.71270332666,0.115187472609,0.00290100248887,-0.00223943993817,0.614065797367,0.78924632758
1385575141215622692,1222003,1385575141215622692,/world,vicon/Archie/Archie,-0.73636869891,0.712701741805,0.115186460372,0.00290630398002,-0.00223286022117,0.61405239901,0.789256751002
1385575141225056036,1222004,1385575141225056036,/world,vicon/Archie/Archie,-0.736368868151,0.712707364233,0.115174810046,0.00290321629919,-0.00223040981241,0.614061832637,0.789249429715
1385575141234832263,1222005,1385575141234832263,/world,vicon/Archie/Archie,-0.736366647073,0.712704606718,0.115179008678,0.00292739827883,-0.00222081310726,0.614057609709,0.789252653012
1385575141244871308,1222006,1385575141244871308,/world,vicon/Archie/Archie,-0.736298831107,0.712690437652,0.115225135431,0.00272571263551,-0.00194363656541,0.614105883227,0.7892165463
1385575141254790817,1222007,1385575141254790817,/world,vicon/Archie/Archie,-0.736369564971,0.712707952135,0.11518013449,0.00292370560762,-0.00223955430766,0.614069555429,0.789243319539
1385575141264814170,1222008,1385575141264814170,/world,vicon/Archie/Archie,-0.736314659492,0.7126894774,0.11524141136,0.00275644239431,-0.00196954340089,0.614108527201,0.789214318005
1385575141274751969,1222009,1385575141274751969,/world,vicon/Archie/Archie,-0.736340273132,0.712659069499,0.115176092391,0.0029336502435,-0.00231267373229,0.614086355041,0.789230000563
1385575141284940936,1222010,1385575141284940936,/world,vicon/Archie/Archie,-0.736306036025,0.712694321081,0.115219050325,0.00275367888037,-0.00194912799091,0.614106137622,0.789216237725
1385575141294667360,1222011,1385575141294667360,/world,vicon/Archie/Archie,-0.736357387898,0.712701285138,0.11517852359,0.00291619070827,-0.00223220778984,0.614037229787,0.789268518006
1385575141304785435,1222012,1385575141304785435,/world,vicon/Archie/Archie,-0.736336747089,0.712666811433,0.115167190334,0.00292514728652,-0.00229345599956,0.614099020428,0.789220233321
1385575141314991295,1222013,1385575141314991295,/world,vicon/Archie/Archie,-0.736331997365,0.712661659799,0.115161577275,0.00293103367469,-0.00227954624934,0.614088259877,0.789228624539
1385575141324760151,1222014,1385575141324760151,/world,vicon/Archie/Archie,-0.736399389905,0.712679576467,0.115102879987,0.00311285344705,-0.0026134053656,0.614019106656,0.789280695898
1385575141334841929,1222015,1385575141334841929,/world,vicon/Archie/Archie,-0.736395567975,0.712686662342,0.115106493664,0.00309937053093,-0.00262911985134,0.613999332729,0.789296079453
1385575141344772135,1222016,1385575141344772135,/world,vicon/Archie/Archie,-0.736368299446,0.712692600522,0.11519069383,0.0029203000743,-0.00222246338537,0.614067140191,0.789245259626
1385575141354879248,1222017,1385575141354879248,/world,vicon/Archie/Archie,-0.736220401966,0.712705577247,0.115285728562,0.00293203354491,-0.00190296234023,0.613991090491,0.78930521518
1385575141364789404,1222018,1385575141364789404,/world,vicon/Archie/Archie,-0.736403872346,0.712678964582,0.115112422317,0.00313287286443,-0.00261255283403,0.614012919614,0.789285432668
1385575141374897882,1222019,1385575141374897882,/world,vicon/Archie/Archie,-0.736310699637,0.712697513843,0.115234765532,0.00277001927353,-0.00194759012338,0.614102078503,0.789219342809
1385575141384804865,1222020,1385575141384804865,/world,vicon/Archie/Archie,-0.736397147872,0.712680311219,0.115110336449,0.00311548209244,-0.00260542659209,0.614010195036,0.789287644598
1385575141394689245,1222021,1385575141394689245,/world,vicon/Archie/Archie,-0.736357829409,0.712705125291,0.115185054039,0.00289313351381,-0.00220447797922,0.614048711168,0.789259748352
1385575141404713655,1222022,1385575141404713655,/world,vicon/Archie/Archie,-0.736368124373,0.712708023529,0.115202467345,0.00292208022857,-0.00223716908991,0.614044447543,0.789262866834
1385575141414723069,1222023,1385575141414723069,/world,vicon/Archie/Archie,-0.736411671796,0.712685848081,0.115115754554,0.00311157998434,-0.00260320974551,0.614025730653,0.789275581445
1385575141424745415,1222024,1385575141424745415,/world,vicon/Archie/Archie,-0.736402331093,0.712684295692,0.115105911311,0.00310419224493,-0.00260905782129,0.614014097079,0.789284641556
1385575141434921003,1222025,1385575141434921003,/world,vicon/Archie/Archie,-0.736306782369,0.712695184458,0.115237438367,0.00273688978544,-0.00192019407349,0.614090718973,0.789228364392
1385575141444740234,1222026,1385575141444740234,/world,vicon/Archie/Archie,-0.736246196237,0.712681357473,0.115219223625,0.00307824399997,-0.00223989903199,0.613966506524,0.789322897256
1385575141454875827,1222027,1385575141454875827,/world,vicon/Archie/Archie,-0.736301486877,0.712689330396,0.115233881151,0.00275889914901,-0.00194881348859,0.614096780864,0.789223500876
1385575141464665413,1222028,1385575141464665413,/world,vicon/Archie/Archie,-0.73634142092,0.712662969236,0.115179156531,0.00294938039147,-0.00230047932225,0.614082301996,0.789233131163
1385575141474837112,1222029,1385575141474837112,/world,vicon/Archie/Archie,-0.736363130401,0.712711294955,0.115181519143,0.00289860874696,-0.00221804411623,0.614049988274,0.789258696657
1385575141484907106,1222030,1385575141484907106,/world,vicon/Archie/Archie,-0.736316120228,0.712696462413,0.115239993657,0.00276782250912,-0.00195122882492,0.614113779265,0.789210236871
1385575141494790365,1222031,1385575141494790365,/world,vicon/Archie/Archie,-0.73622072815,0.712709406673,0.115289285309,0.00293338376276,-0.00190763995476,0.613982969217,0.789311516247
1385575141504925240,1222032,1385575141504925240,/world,vicon/Archie/Archie,-0.736308413283,0.712689221273,0.115228215809,0.00275001796168,-0.00195537848736,0.61410424054,0.789217711184
1385575141514655674,1222033,1385575141514655674,/world,vicon/Archie/Archie,-0.736333256218,0.712666171005,0.115169449758,0.00292621734271,-0.00231353562707,0.614091237631,0.789226226547
1385575141524760213,1222034,1385575141524760213,/world,vicon/Archie/Archie,-0.736401751775,0.712676079784,0.115116866133,0.00313764706911,-0.00264267322483,0.614019971185,0.789279827714
1385575141534877585,1222035,1385575141534877585,/world,vicon/Archie/Archie,-0.736360293504,0.712704654635,0.11519574524,0.00293738880512,-0.00225945097182,0.614059980408,0.789250661761
1385575141544663421,1222036,1385575141544663421,/world,vicon/Archie/Archie,-0.736395047467,0.712685398334,0.115110564152,0.0031212857665,-0.00263010864728,0.614003443037,0.789292792342
1385575141554775433,1222037,1385575141554775433,/world,vicon/Archie/Archie,-0.736401451131,0.712681932693,0.115110626402,0.00314780396979,-0.00264288116617,0.614012267674,0.789285779459
1385575141564848575,1222038,1385575141564848575,/world,vicon/Archie/Archie,-0.736307164435,0.712689429069,0.115222653141,0.00273154814288,-0.00193347687671,0.614107918636,0.789214967281
1385575141574798216,1222039,1385575141574798216,/world,vicon/Archie/Archie,-0.736308945625,0.712689326847,0.115230182633,0.00277060433145,-0.00198622450327,0.614103202781,0.789218369653
1385575141584714252,1222040,1385575141584714252,/world,vicon/Archie/Archie,-0.736360192272,0.712701583725,0.115182558872,0.00290435135327,-0.00222272005608,0.614041335807,0.789265394008
1385575141594799730,1222041,1385575141594799730,/world,vicon/Archie/Archie,-0.73630930212,0.71269017718,0.115228512072,0.00274192325609,-0.00195284885764,0.614118905625,0.789206334232
1385575141604790016,1222042,1385575141604790016,/world,vicon/Archie/Archie,-0.736361952445,0.71270613445,0.115186963114,0.00291829528344,-0.00223803827628,0.614041053996,0.789265518533
1385575141614707444,1222043,1385575141614707444,/world,vicon/Archie/Archie,-0.736393981076,0.712677266111,0.115101467387,0.00309892703528,-0.00262060077119,0.61401421174,0.789284534806
1385575141624748886,1222044,1385575141624748886,/world,vicon/Archie/Archie,-0.736347133761,0.712713596381,0.115182302819,0.00291051218867,-0.00223226226742,0.614037136442,0.789268611434
1385575141634993403,1222045,1385575141634993403,/world,vicon/Archie/Archie,-0.736361832853,0.712703936394,0.115185828427,0.00292793899466,-0.00223151005567,0.614058836436,0.78925166641
1385575141644792080,1222046,1385575141644792080,/world,vicon/Archie/Archie,-0.736311137189,0.712683677875,0.115226989625,0.00273886602614,-0.00197095531365,0.614105508704,0.789216724435
1385575141654738196,1222047,1385575141654738196,/world,vicon/Archie/Archie,-0.736363417259,0.712704746828,0.115184291003,0.00290973364783,-0.00223057388824,0.614050577283,0.789258162155
1385575141664672022,1222048,1385575141664672022,/world,vicon/Archie/Archie,-0.736366385602,0.712700960722,0.115192822505,0.00292224892272,-0.00223159245722,0.61405206322,0.789256956961
1385575141674919050,1222049,1385575141674919050,/world,vicon/Archie/Archie,-0.736309487145,0.712686333278,0.115229235312,0.00274817631848,-0.00193032326109,0.614116439334,0.789208287031
1385575141684794109,1222050,1385575141684794109,/world,vicon/Archie/Archie,-0.736396480073,0.712677887431,0.115107248901,0.00312358465484,-0.00261272821996,0.614012270336,0.789285973996
1385575141694705023,1222051,1385575141694705023,/world,vicon/Archie/Archie,-0.736365905018,0.71270235441,0.115188151177,0.00291644891791,-0.00223321738515,0.614048899647,0.789259435109
1385575141704933200,1222052,1385575141704933200,/world,vicon/Archie/Archie,-0.736214996439,0.712704026739,0.11527759367,0.00290020251742,-0.00190753262774,0.613995162347,0.789302154285
1385575141714789322,1222053,1385575141714789322,/world,vicon/Archie/Archie,-0.736208113651,0.712706124276,0.115287479569,0.00294788505287,-0.00191599848876,0.613978030594,0.789315283566
1385575141724801833,1222054,1385575141724801833,/world,vicon/Archie/Archie,-0.736240947739,0.712682196312,0.115218858717,0.00309311474512,-0.00224744942437,0.613966353565,0.789322936637
1385575141734811303,1222055,1385575141734811303,/world,vicon/Archie/Archie,-0.736394192965,0.712676923362,0.115112008818,0.00312028690135,-0.0026080948738,0.614030927569,0.789271487918
1385575141744801026,1222056,1385575141744801026,/world,vicon/Archie/Archie,-0.736300300856,0.712688997945,0.115221144817,0.00275061877466,-0.00195400206631,0.614113995932,0.78921012156
1385575141754848851,1222057,1385575141754848851,/world,vicon/Archie/Archie,-0.736299700846,0.712691417696,0.115226760801,0.00273752680481,-0.00194538300347,0.614102659422,0.789219009606
1385575141764633423,1222058,1385575141764633423,/world,vicon/Archie/Archie,-0.736358359207,0.712703337806,0.115187449413,0.00291084754645,-0.00223504197752,0.614050120768,0.78925850058
1385575141774783081,1222059,1385575141774783081,/world,vicon/Archie/Archie,-0.736352905643,0.712702274141,0.115180039381,0.0029018322504,-0.00224198265101,0.614044364287,0.789262992653
1385575141784925335,1222060,1385575141784925335,/world,vicon/Archie/Archie,-0.736204760968,0.712707029543,0.115277043653,0.00290656732289,-0.00190379600342,0.613982614673,0.789311900523
1385575141794741479,1222061,1385575141794741479,/world,vicon/Archie/Archie,-0.736352586118,0.712707237911,0.115178615737,0.00291311990077,-0.00223274808167,0.614043034975,0.789264011448
1385575141804866192,1222062,1385575141804866192,/world,vicon/Archie/Archie,-0.736300704247,0.712687204164,0.115222198176,0.00273696831839,-0.00193514165823,0.614098407542,0.789222345151
1385575141814762983,1222063,1385575141814762983,/world,vicon/Archie/Archie,-0.736304463597,0.712690110809,0.115219926926,0.00272956283866,-0.00195043545014,0.61410093615,0.789220365619
1385575141824786404,1222064,1385575141824786404,/world,vicon/Archie/Archie,-0.736352580754,0.712701369936,0.11517266841,0.00289237133964,-0.00219440024736,0.614046569656,0.789261445333
1385575141834859629,1222065,1385575141834859629,/world,vicon/Archie/Archie,-0.73639270677,0.712680358199,0.115103915037,0.00312912560137,-0.00261482790604,0.61401179676,0.789286313506
1385575141844667528,1222066,1385575141844667528,/world,vicon/Archie/Archie,-0.736397229771,0.712685726495,0.115102489132,0.0031201986616,-0.00263496444815,0.614021609646,0.789278648014
1385575141854802428,1222067,1385575141854802428,/world,vicon/Archie/Archie,-0.736339391951,0.712660018191,0.11515153299,0.00295408129508,-0.00230825526947,0.614092161464,0.789225419376
1385575141864696946,1222068,1385575141864696946,/world,vicon/Archie/Archie,-0.736391610104,0.712681979532,0.11510068818,0.00312871508523,-0.00262284796748,0.614014371452,0.789284285578
1385575141874743936,1222069,1385575141874743936,/world,vicon/Archie/Archie,-0.736330489375,0.712668719312,0.115156585795,0.0029288709077,-0.00226751845694,0.614082729144,0.789232970574
1385575141884823457,1222070,1385575141884823457,/world,vicon/Archie/Archie,-0.736405913827,0.712684193275,0.115104280359,0.00312690884897,-0.0026087001916,0.61402114057,0.789279073622
1385575141894745634,1222071,1385575141894745634,/world,vicon/Archie/Archie,-0.736354694031,0.712701771156,0.11517660012,0.00290487625519,-0.00223348051679,0.614038554514,0.789267525512
1385575141904722332,1222072,1385575141904722332,/world,vicon/Archie/Archie,-0.736394142585,0.71268038998,0.115103454178,0.00313508414146,-0.00263087892922,0.614031005307,0.789271293185
1385575141914757983,1222073,1385575141914757983,/world,vicon/Archie/Archie,-0.73634736342,0.712713074269,0.115180586522,0.00289636301252,-0.00222486230253,0.614025821857,0.789277486795
1385575141924791077,1222074,1385575141924791077,/world,vicon/Archie/Archie,-0.736384575403,0.712692164739,0.11510158831,0.00312522611363,-0.00262219059147,0.613989843659,0.78930338208
1385575141934796938,1222075,1385575141934796938,/world,vicon/Archie/Archie,-0.736342353681,0.712711738074,0.115179085708,0.00287637301015,-0.00221496191589,0.614025366312,0.789277942139
1385575141944809393,1222076,1385575141944809393,/world,vicon/Archie/Archie,-0.736313291716,0.712693064472,0.115222136889,0.00275279109691,-0.00193876439861,0.614111155511,0.789212361795
1385575141954901860,1222077,1385575141954901860,/world,vicon/Archie/Archie,-0.736295015152,0.712685553285,0.115222223587,0.0027472414266,-0.00196834379572,0.614119431024,0.789205868406
1385575141964640706,1222078,1385575141964640706,/world,vicon/Archie/Archie,-0.736401806643,0.712681156014,0.115106124303,0.00311152526147,-0.00260356816423,0.614031814918,0.789270847119
1385575141974731712,1222079,1385575141974731712,/world,vicon/Archie/Archie,-0.736331922259,0.71267595168,0.115167489899,0.00291702352492,-0.00227749831297,0.61407377236,0.789239954687
1385575141984780891,1222080,1385575141984780891,/world,vicon/Archie/Archie,-0.736353367726,0.712702780298,0.115180627262,0.00293283439619,-0.00224352224448,0.614055702201,0.789254052689
1385575141994615396,1222081,1385575141994615396,/world,vicon/Archie/Archie,-0.736393826261,0.712675374635,0.115103858373,0.00312141740287,-0.00263987585359,0.61401342893,0.789284990927
1385575142005029787,1222082,1385575142005029787,/world,vicon/Archie/Archie,-0.736301605761,0.712699297638,0.115218964473,0.00274627557729,-0.00194705905397,0.614105970516,0.789216398656
1385575142014651294,1222083,1385575142014651294,/world,vicon/Archie/Archie,-0.736362817264,0.712700377655,0.115175175784,0.0029200395244,-0.0022147222546,0.614064251751,0.789247529674
1385575142024798782,1222084,1385575142024798782,/world,vicon/Archie/Archie,-0.736263586093,0.712717181985,0.115230923361,0.00307814641896,-0.00218712953588,0.613931382667,0.789350365082
1385575142034823812,1222085,1385575142034823812,/world,vicon/Archie/Archie,-0.736356390555,0.71271268045,0.115186227223,0.00292649170303,-0.00224316312125,0.614038964394,0.789267099322
1385575142044691525,1222086,1385575142044691525,/world,vicon/Archie/Archie,-0.736346812643,0.712710353396,0.115172938321,0.00291275288676,-0.00225342625825,0.614044622028,0.789262719314
1385575142054780019,1222087,1385575142054780019,/world,vicon/Archie/Archie,-0.736307323727,0.712641531724,0.115117026987,0.00301993823844,-0.00251256082113,0.614109483529,0.789211067618
1385575142064921815,1222088,1385575142064921815,/world,vicon/Archie/Archie,-0.736350143182,0.712711349884,0.115169840985,0.00291688175953,-0.00222844551825,0.614048704703,0.789259598665
1385575142074893922,1222089,1385575142074893922,/world,vicon/Archie/Archie,-0.736292657001,0.712696865133,0.11521809415,0.0027637806373,-0.00197792527318,0.614110884551,0.789212437056
1385575142084895879,1222090,1385575142084895879,/world,vicon/Archie/Archie,-0.736394075816,0.712688061612,0.115102932944,0.00312396127128,-0.00262367201964,0.614029051333,0.789272881411
1385575142094740574,1222091,1385575142094740574,/world,vicon/Archie/Archie,-0.736381580573,0.712682357806,0.115102153188,0.00313694585326,-0.00265740610692,0.614004971209,0.789291450033
1385575142104788125,1222092,1385575142104788125,/world,vicon/Archie/Archie,-0.736343253554,0.712701233622,0.115176131662,0.00293632049094,-0.00225203288367,0.614059002061,0.789251448119
1385575142114674759,1222093,1385575142114674759,/world,vicon/Archie/Archie,-0.736386200705,0.71268427409,0.115106920851,0.00314680470138,-0.00265100078423,0.614017287643,0.789281850983
1385575142124966028,1222094,1385575142124966028,/world,vicon/Archie/Archie,-0.736307812218,0.71268659583,0.115219726767,0.00275489840428,-0.00194499418677,0.614122218766,0.78920373032
1385575142134789125,1222095,1385575142134789125,/world,vicon/Archie/Archie,-0.736356016993,0.712702828871,0.115176671525,0.00291248198229,-0.00222121504271,0.61404868041,0.789259654194
1385575142144673437,1222096,1385575142144673437,/world,vicon/Archie/Archie,-0.736369440795,0.712708024779,0.11517808271,0.00292090684655,-0.00221511487784,0.614062527623,0.789248866796
1385575142154721169,1222097,1385575142154721169,/world,vicon/Archie/Archie,-0.736364636488,0.712703260215,0.115181503563,0.00290848111427,-0.00224729134446,0.614056452671,0.789253548203
1385575142164758242,1222098,1385575142164758242,/world,vicon/Archie/Archie,-0.736296255728,0.712694296463,0.11521283162,0.0027336757185,-0.00193980349138,0.614115845096,0.789208776548
1385575142174732554,1222099,1385575142174732554,/world,vicon/Archie/Archie,-0.736394002614,0.712689785529,0.115114298713,0.00312542276009,-0.00261411447376,0.614037479468,0.789266350446
1385575142184902738,1222100,1385575142184902738,/world,vicon/Archie/Archie,-0.736305209052,0.712701849387,0.115225930938,0.00273990065957,-0.00195545022126,0.614117198023,0.789207663579
1385575142194692541,1222101,1385575142194692541,/world,vicon/Archie/Archie,-0.736360831317,0.712700985949,0.115183610756,0.00290490425909,-0.00222816061841,0.614061766498,0.789249481316
1385575142204921416,1222102,1385575142204921416,/world,vicon/Archie/Archie,-0.736311775435,0.712703488892,0.11522094618,0.00274278725221,-0.00194118222189,0.61412215583,0.789203830863
1385575142214698707,1222103,1385575142214698707,/world,vicon/Archie/Archie,-0.736274020374,0.712720577309,0.115237846985,0.00308897458165,-0.00218820590965,0.613935919109,0.78934679148
1385575142224900369,1222104,1385575142224900369,/world,vicon/Archie/Archie,-0.736368458596,0.712709263992,0.115181212695,0.00290471365246,-0.00222150524081,0.614072253556,0.789241341394
1385575142234877183,1222105,1385575142234877183,/world,vicon/Archie/Archie,-0.736399863313,0.712687306095,0.115116568447,0.00311547772594,-0.00261128554868,0.61403238293,0.789270364133
1385575142244697261,1222106,1385575142244697261,/world,vicon/Archie/Archie,-0.736400068748,0.712687700416,0.115106435267,0.00311563651071,-0.00261389104102,0.614008852216,0.78928866062
1385575142254874577,1222107,1385575142254874577,/world,vicon/Archie/Archie,-0.736343662737,0.712665254201,0.115169707857,0.00290966956474,-0.00228151932727,0.614100775885,0.789218959193
1385575142264724186,1222108,1385575142264724186,/world,vicon/Archie/Archie,-0.736268816091,0.71272897437,0.115225999512,0.00307237712803,-0.00213784675205,0.613930451068,0.78935124714
1385575142274814037,1222109,1385575142274814037,/world,vicon/Archie/Archie,-0.736377194313,0.712707345841,0.115191193791,0.00290091703652,-0.00221898721005,0.614067566893,0.789245008895
1385575142284774687,1222110,1385575142284774687,/world,vicon/Archie/Archie,-0.736337510519,0.712665188111,0.115167501812,0.00293291429598,-0.00228286403295,0.614090484479,0.789226877024
1385575142294806201,1222111,1385575142294806201,/world,vicon/Archie/Archie,-0.736310644189,0.712695423886,0.115227786429,0.00274351784131,-0.00194359950885,0.614107933135,0.789214889616
1385575142304802416,1222112,1385575142304802416,/world,vicon/Archie/Archie,-0.736402115488,0.712681605665,0.115109462228,0.00311858748097,-0.00261670110084,0.614023471763,0.789277266498
1385575142314816313,1222113,1385575142314816313,/world,vicon/Archie/Archie,-0.736342831553,0.712663284165,0.115162565341,0.00290505579198,-0.00227336462362,0.614098527059,0.789220749555
1385575142324829992,1222114,1385575142324829992,/world,vicon/Archie/Archie,-0.736332471264,0.712667810068,0.115162300138,0.00293603380293,-0.00229374302638,0.614083094921,0.789232583577
1385575142334816198,1222115,1385575142334816198,/world,vicon/Archie/Archie,-0.736279491946,0.71272584062,0.115249597323,0.00308924641555,-0.0021742622164,0.613937317929,0.789345740975
1385575142344740488,1222116,1385575142344740488,/world,vicon/Archie/Archie,-0.73640788502,0.712686133678,0.115102223317,0.00311580373253,-0.00260119985533,0.614038200087,0.789265870515
1385575142354788221,1222117,1385575142354788221,/world,vicon/Archie/Archie,-0.73633827871,0.712667685108,0.115167510106,0.00292504048685,-0.00226006172347,0.614088920383,0.789228188879
1385575142364852159,1222118,1385575142364852159,/world,vicon/Archie/Archie,-0.736307316731,0.712689956826,0.115220073536,0.002725468236,-0.00195556075624,0.614105480679,0.789216830919
1385575142374819212,1222119,1385575142374819212,/world,vicon/Archie/Archie,-0.736334464678,0.712666233277,0.115157354513,0.0029145173777,-0.00230055530648,0.61407850017,0.789236218544
1385575142384797683,1222120,1385575142384797683,/world,vicon/Archie/Archie,-0.73636016446,0.712699599198,0.115181007344,0.00291504210534,-0.0022045858806,0.614047455635,0.789260644248
1385575142394761562,1222121,1385575142394761562,/world,vicon/Archie/Archie,-0.736371279349,0.712703733786,0.115196000742,0.00291093763985,-0.0022113383291,0.614053996206,0.789255551877
1385575142404780944,1222122,1385575142404780944,/world,vicon/Archie/Archie,-0.736406204466,0.712686735946,0.115114621818,0.00314003629021,-0.00262508540863,0.614021552099,0.78927864703
1385575142414746447,1222123,1385575142414746447,/world,vicon/Archie/Archie,-0.736315693094,0.712701358707,0.115175551643,0.0032848919036,-0.00256393452844,0.613892987672,0.789378258766
1385575142424814557,1222124,1385575142424814557,/world,vicon/Archie/Archie,-0.736254778169,0.712683825032,0.115227756342,0.00310223609173,-0.00224420431005,0.613974853547,0.789316298381
1385575142434830596,1222125,1385575142434830596,/world,vicon/Archie/Archie,-0.736367368173,0.712697733178,0.115187562932,0.00290787134689,-0.00220735192848,0.614047629384,0.789260527792
1385575142444817711,1222126,1385575142444817711,/world,vicon/Archie/Archie,-0.736311964982,0.712688637356,0.1152321014,0.00274620950634,-0.00193488028271,0.614101996333,0.789219521218
1385575142454760809,1222127,1385575142454760809,/world,vicon/Archie/Archie,-0.736361946053,0.712705299654,0.115183182024,0.0029108383977,-0.00220280851222,0.614042846681,0.789264250485
1385575142464753552,1222128,1385575142464753552,/world,vicon/Archie/Archie,-0.736398185364,0.712678003923,0.115113828891,0.00313948901358,-0.0026151812256,0.614013399009,0.789285024737
1385575142474883264,1222129,1385575142474883264,/world,vicon/Archie/Archie,-0.73639818273,0.712682419663,0.115108387339,0.00309927708486,-0.00260416910816,0.614018979261,0.78928087896
1385575142484749776,1222130,1385575142484749776,/world,vicon/Archie/Archie,-0.7364043192,0.712682790235,0.115108680662,0.00312092725306,-0.00262544605385,0.614024399652,0.789276506351
1385575142494835474,1222131,1385575142494835474,/world,vicon/Archie/Archie,-0.736359876426,0.712703963326,0.115179639504,0.00290110524383,-0.00221656293429,0.614039260153,0.789267038098
1385575142504811070,1222132,1385575142504811070,/world,vicon/Archie/Archie,-0.736263953529,0.712718149792,0.11523060857,0.00307113800207,-0.00219732269033,0.61391836019,0.789360492365
1385575142514721086,1222133,1385575142514721086,/world,vicon/Archie/Archie,-0.736363723779,0.71271000975,0.115181442644,0.00292699963908,-0.00222674665036,0.614059442559,0.789251211767
1385575142524735202,1222134,1385575142524735202,/world,vicon/Archie/Archie,-0.736367325747,0.712707802583,0.115181726362,0.00292690158736,-0.00224156200942,0.614063761554,0.789247809875
1385575142534796303,1222135,1385575142534796303,/world,vicon/Archie/Archie,-0.736359003539,0.712707878886,0.115182292752,0.00292544001772,-0.0022049982466,0.614052120743,0.789256975132
1385575142544684063,1222136,1385575142544684063,/world,vicon/Archie/Archie,-0.736402010757,0.712680436717,0.115109716363,0.00313517011941,-0.00261736780611,0.614023312699,0.789277322338
1385575142554809357,1222137,1385575142554809357,/world,vicon/Archie/Archie,-0.736396899901,0.712679318382,0.11511358583,0.00311712292362,-0.00260905446747,0.614015782936,0.789283279111
1385575142564811967,1222138,1385575142564811967,/world,vicon/Archie/Archie,-0.736306504129,0.712693825313,0.115210670524,0.00274909502111,-0.00195540148999,0.614102366571,0.789219172507
1385575142574733875,1222139,1385575142574733875,/world,vicon/Archie/Archie,-0.736398163468,0.71268181342,0.115104554758,0.00312860152629,-0.00260092095874,0.614024028755,0.78927684571
1385575142584936147,1222140,1385575142584936147,/world,vicon/Archie/Archie,-0.736312005002,0.712689342653,0.11523155842,0.00277227573054,-0.00195597348058,0.614111602007,0.789211903696
1385575142594766261,1222141,1385575142594766261,/world,vicon/Archie/Archie,-0.736358912015,0.712707178163,0.115178019319,0.00292621831641,-0.00225117718619,0.614045008208,0.789262375476
1385575142604760726,1222142,1385575142604760726,/world,vicon/Archie/Archie,-0.736358376378,0.712711828354,0.115183429274,0.00293028390944,-0.00221638950542,0.614052309896,0.789256778093
1385575142614876078,1222143,1385575142614876078,/world,vicon/Archie/Archie,-0.736308734402,0.712692768919,0.115222634842,0.00276068173309,-0.00195956722102,0.614115472727,0.789208923473
1385575142624935367,1222144,1385575142624935367,/world,vicon/Archie/Archie,-0.736322851832,0.712699696711,0.115221903889,0.00275043496919,-0.00194639223564,0.614121724999,0.789204126668
1385575142634779456,1222145,1385575142634779456,/world,vicon/Archie/Archie,-0.736391919305,0.71268682396,0.115107549694,0.00313696173238,-0.00261949328247,0.614011419868,0.789286560127
1385575142644784791,1222146,1385575142644784791,/world,vicon/Archie/Archie,-0.736365754516,0.71271278806,0.115175312706,0.00291918881232,-0.00223260845613,0.614059527007,0.789251158433
1385575142654794236,1222147,1385575142654794236,/world,vicon/Archie/Archie,-0.736367774222,0.712702529763,0.115181233865,0.00292152964457,-0.00225259298724,0.614052643376,0.789256448597
1385575142664663440,1222148,1385575142664663440,/world,vicon/Archie/Archie,-0.736414893133,0.712697550746,0.115109586419,0.00313102406524,-0.00262556997054,0.614024082058,0.789276713025
1385575142674887980,1222149,1385575142674887980,/world,vicon/Archie/Archie,-0.736355999161,0.712711068255,0.115179847524,0.00291971591807,-0.00224389963249,0.614051175179,0.789257622349
1385575142684834982,1222150,1385575142684834982,/world,vicon/Archie/Archie,-0.736398696243,0.712685934137,0.115103741521,0.00312046626421,-0.00262169676444,0.614016059503,0.789283008856
1385575142694737458,1222151,1385575142694737458,/world,vicon/Archie/Archie,-0.736388434752,0.712692813595,0.115097157157,0.00311455185629,-0.00261823588836,0.61400636186,0.789290587809
1385575142704832415,1222152,1385575142704832415,/world,vicon/Archie/Archie,-0.736369702719,0.712709333693,0.115185656891,0.00292119493991,-0.00221496575792,0.614050499208,0.789258224518
1385575142714729664,1222153,1385575142714729664,/world,vicon/Archie/Archie,-0.736358729782,0.712710629051,0.115181004872,0.00290468472586,-0.00219247802875,0.614054994318,0.789254850983
1385575142725511822,1222154,1385575142725511822,/world,vicon/Archie/Archie,-0.73634359923,0.712668561934,0.11516256322,0.00293964196209,-0.00226752655969,0.614093384154,0.78922463999
1385575142734937236,1222155,1385575142734937236,/world,vicon/Archie/Archie,-0.73631441824,0.712691311529,0.115223417782,0.00275905491487,-0.00195483546287,0.614118169529,0.789206842399
1385575142744759218,1222156,1385575142744759218,/world,vicon/Archie/Archie,-0.736385883531,0.712685327654,0.115106937186,0.00313671831769,-0.0026504520259,0.61399900594,0.78929611478
1385575142754844200,1222157,1385575142754844200,/world,vicon/Archie/Archie,-0.736361359607,0.712709720394,0.115175551683,0.00289612874595,-0.00222808293145,0.614044918293,0.789262621948
1385575142764770380,1222158,1385575142764770380,/world,vicon/Archie/Archie,-0.736347771564,0.712714984925,0.115181984329,0.00292097974883,-0.00221733759894,0.614044552434,0.789262845266
1385575142774807434,1222159,1385575142774807434,/world,vicon/Archie/Archie,-0.736270829673,0.712720286424,0.115235096034,0.00308418594499,-0.00218741902239,0.613938481046,0.789344819763
1385575142784836932,1222160,1385575142784836932,/world,vicon/Archie/Archie,-0.736362908592,0.712708054289,0.115180745281,0.00290769512926,-0.0022257499468,0.614061579715,0.789249623164
1385575142794746269,1222161,1385575142794746269,/world,vicon/Archie/Archie,-0.73636153729,0.712697863091,0.115184101741,0.00291607872397,-0.00222003199652,0.6140556337,0.789254234492
1385575142804747884,1222162,1385575142804747884,/world,vicon/Archie/Archie,-0.736269412424,0.712722252123,0.115228602151,0.00308870649339,-0.00220239936523,0.613934397679,0.789347936385
1385575142814786609,1222163,1385575142814786609,/world,vicon/Archie/Archie,-0.736364340132,0.7127126758,0.115180219025,0.00290860314273,-0.00224328324711,0.614055007373,0.789254683628
1385575142824812585,1222164,1385575142824812585,/world,vicon/Archie/Archie,-0.736305430593,0.712704988752,0.115158667611,0.00326539105012,-0.00260573058035,0.613893385796,0.789377893195
1385575142834817331,1222165,1385575142834817331,/world,vicon/Archie/Archie,-0.736358052351,0.712706094449,0.115177906356,0.00290771826562,-0.00222222734748,0.614048927211,0.789259476897
1385575142844723891,1222166,1385575142844723891,/world,vicon/Archie/Archie,-0.736400851397,0.712683420718,0.115108883743,0.0031425493689,-0.00262120513994,0.614035311915,0.789267945243
1385575142854945718,1222167,1385575142854945718,/world,vicon/Archie/Archie,-0.736228085064,0.712711652853,0.115280485993,0.00291613985049,-0.00188318181536,0.614000015806,0.789298378527
1385575142864708188,1222168,1385575142864708188,/world,vicon/Archie/Archie,-0.736329467279,0.712665638558,0.115152951315,0.00293468397498,-0.00226823637211,0.614103030838,0.789217150251
1385575142875049064,1222169,1385575142875049064,/world,vicon/Archie/Archie,-0.736399298894,0.712677570391,0.115103997872,0.00312924161731,-0.00264171199204,0.614024925452,0.789276010105
