%time,field.linear.x,field.linear.y,field.linear.z,field.angular.x,field.angular.y,field.angular.z
1385565781016309760,-0.0,0.0,0.0,1.0,0.0,0.0
1385565781106521445,-0.0,0.0,6.99176155667e-08,1.0,0.0,0.118003145458
1385565781205557247,0.0692068165834,-0.00644289757971,-0.0128551429422,1.0,0.0,0.0485943969689
1385565781305397616,0.0609703207438,-0.00560790146479,-0.0109624327695,1.0,0.0,0.0497595125037
1385565781405388569,0.0705201799224,-0.00647931697865,-0.0100992645975,1.0,0.0,0.0371723831807
1385565781505411558,0.0668416349776,-0.00603646750133,-0.00828849557735,1.0,0.0,0.0296858708636
1385565781605388789,0.062369984823,-0.00555939293521,-0.0059560204545,1.0,0.0,0.0233675994685
1385565781705461782,0.0546733447462,-0.00485516143992,-0.00319131322208,1.0,0.0,0.0183030846094
1385565781806311791,0.0461839927047,-0.00383824035616,6.51294938854e-05,1.0,0.0,0.0144748429772
1385565781905364358,0.0374852526051,-0.00307148897462,0.00362811480749,1.0,0.0,0.0112979669874
1385565782005498626,0.0293581532119,-0.00224424192715,0.00756012084717,1.0,0.0,0.00883044530616
1385565782105304529,0.0222942717983,-0.00156673404325,0.0117032694006,1.0,0.0,0.00684892269219
1385565782205293775,0.016510220658,-0.00100497128235,0.0160976502112,1.0,0.0,0.0052742892075
1385565782305380664,0.0121482352861,-0.00064246539459,0.020659783415,1.0,0.0,0.00399552012896
1385565782405258921,0.00914959712138,-0.000316912621189,0.0254078236058,1.0,0.0,0.00296786469447
1385565782505299412,0.00729015245905,-0.000182355849196,0.030356618076,1.0,0.0,0.00218361325816
1385565782606388051,0.00653266856466,-0.000139915740142,0.0354090640856,1.0,0.0,0.00159741885268
1385565782705306235,0.00660716872803,-0.000168907990079,0.0405466406383,1.0,0.0,0.00102744386792
1385565782805529014,0.00728439573335,-0.000262814895185,0.0457793317419,1.0,0.0,0.000660293846254
1385565782906294039,0.00826751464497,-0.00036598819819,0.0511226938674,1.0,0.0,0.000339816686457
1385565783005529395,0.00951501975624,-0.00048907024036,0.0565038909463,1.0,0.0,6.46400143626e-05
1385565783105521146,0.0108543757121,-0.000706103595632,0.0619776363946,1.0,0.0,-0.000324908643501
1385565783205357302,0.0120584996569,-0.00127842770357,0.0675088957565,1.0,0.0,-0.000926748817902
1385565783305364804,0.0134433200411,-0.00199390183079,0.073056350705,1.0,0.0,-0.00163008967201
1385565783405476745,0.0146518252459,-0.00314020029964,0.0785990173341,1.0,0.0,-0.00260229139292
1385565783505297176,0.0158222379149,-0.00448390749689,0.0842745220516,1.0,0.0,-0.00408488991505
1385565783606405337,0.016720454608,-0.00607477681182,0.0898975619694,1.0,0.0,-0.00581168361146
1385565783705366793,0.0172781264886,-0.00658728621124,0.0955562267923,1.0,0.0,-0.00758148040759
1385565783805764507,0.0174452797592,-0.00646412358255,0.101305663109,1.0,0.0,-0.00925405574368
1385565783906380195,0.0179213057776,-0.00689909178078,0.106774461216,1.0,0.0,-0.0110855995197
1385565784005300588,0.0201946916153,-0.00631311617532,0.111238890548,1.0,0.0,-0.0132926282848
1385565784105353448,0.0230955648055,-0.00689286378956,0.114388047098,1.0,0.0,-0.0157437975061
1385565784206318336,0.0263597309937,-0.0065785395877,0.115976298307,1.0,0.0,-0.0185892041269
1385565784305328390,0.0322259043263,-0.00388846572676,0.115697708535,1.0,0.0,-0.0209466138416
1385565784405296666,0.03848265596,-0.00140559512907,0.114176301902,1.0,0.0,-0.0227828198097
1385565784505430322,0.0451693539409,-0.000642671574022,0.11170127231,1.0,0.0,-0.0241163801166
1385565784606343132,0.0526794114039,0.0017350390548,0.108509552349,1.0,0.0,-0.0249941678168
1385565784705381871,0.0592896391933,0.00288527947869,0.105190171059,1.0,0.0,-0.025531195601
1385565784805288455,0.0682749902904,0.00355290564571,0.100693550252,1.0,0.0,-0.02571754019
1385565784905381842,0.0771453379065,0.00447736783377,0.0973109279925,1.0,0.0,-0.0256641855692
1385565785005386771,0.0860381924523,0.00502041531695,0.0957116835994,1.0,0.0,-0.0253189680375
1385565785105365693,0.0939854226575,0.00514714962741,0.0963628136441,1.0,0.0,-0.0247753367016
1385565785205309170,0.101503762659,0.00551937411878,0.0987171091831,1.0,0.0,-0.0240202564725
1385565785305383061,0.108270760171,0.00520048578271,0.102445234097,1.0,0.0,-0.0231974124046
1385565785405276243,0.113975770735,0.00478749008433,0.107420210454,1.0,0.0,-0.0222626663056
1385565785505516328,0.117348798053,0.00390393724269,0.113965306823,1.0,0.0,-0.0212743619993
1385565785605367069,0.11985713172,0.00412020430933,0.120930247842,1.0,0.0,-0.0201710730232
1385565785705508085,0.119666217159,0.00338810930224,0.128634348518,1.0,0.0,-0.0190440391812
1385565785806525379,0.118253730854,0.00141837520046,0.136189482561,1.0,0.0,-0.0179243561767
1385565785905556995,0.114453608545,0.00153708843081,0.143828824171,1.0,0.0,-0.0167207954092
1385565786005379334,0.111993364866,0.000258277495361,0.149868058659,1.0,0.0,-0.0156648111399
1385565786105517390,0.109634894689,0.00033578128568,0.154991015357,1.0,0.0,-0.014498138796
1385565786205534190,0.106385500814,-0.000423895330658,0.157477447842,1.0,0.0,-0.0135039891323
1385565786305542980,0.101471071181,-0.00128185240721,0.159873547859,1.0,0.0,-0.0124789805926
1385565786405522280,0.0970354122065,-0.00311024560028,0.161270108798,1.0,0.0,-0.0114776913914
1385565786506388300,0.0919140764187,-0.00292054083852,0.162053687578,1.0,0.0,-0.0105218267546
1385565786606372937,0.0876243774163,-0.00439419043926,0.161687011497,1.0,0.0,-0.00955661054801
1385565786705785368,0.0859673985144,-0.00595906796246,0.158980936679,1.0,0.0,-0.00864497760428
1385565786806331584,0.0835131689392,-0.00598774005386,0.156067627601,1.0,0.0,-0.00777287283555
1385565786905390132,0.0812965125546,-0.00688225252508,0.153040147656,1.0,0.0,-0.00694186301408
1385565787005293076,0.0799247374947,-0.00752416471958,0.149454669656,1.0,0.0,-0.00609728021018
1385565787106301109,0.0777891224092,-0.00744894407925,0.14654741336,1.0,0.0,-0.00530213077508
1385565787205309201,0.0759538684362,-0.00749415616218,0.143740149328,1.0,0.0,-0.00450712124641
1385565787305361345,0.0749210880721,-0.00751454764857,0.140409207909,1.0,0.0,-0.00378556098556
1385565787405380326,0.0752166086121,-0.00759361675168,0.136075913662,1.0,0.0,-0.00308885065197
1385565787505444135,0.0754507393178,-0.00787125840586,0.131773642369,1.0,0.0,-0.00245321268985
1385565787605351993,0.0765849594869,-0.0080396182955,0.126961043927,1.0,0.0,-0.00185298473372
1385565787705419134,0.0769987352685,-0.00769481531008,0.122966218634,1.0,0.0,-0.00123527634771
1385565787805369957,0.0772801186633,-0.00735663317952,0.119532503425,1.0,0.0,-0.00065054157445
1385565787905877636,0.0776010650756,-0.00701477305544,0.116164955627,1.0,0.0,-0.000104796872026
1385565788006284121,0.077766278639,-0.00615358874112,0.112889590643,1.0,0.0,0.000506048324365
1385565788106382710,0.0778949488256,-0.00554940664764,0.109530957079,1.0,0.0,0.00108915011547
1385565788205411732,0.0779694287028,-0.00478242773925,0.106018255273,1.0,0.0,0.00168414056905
1385565788306337055,0.0777431296283,-0.00411716222297,0.102585773825,1.0,0.0,0.00222504193291
1385565788405402447,0.0770968485774,-0.00368133381334,0.0994050246758,1.0,0.0,0.00276603164862
1385565788506290531,0.0762278270169,-0.00322726827641,0.0962321036803,1.0,0.0,0.00325674124287
1385565788605374045,0.0752292961616,-0.00301102700823,0.0928622509765,1.0,0.0,0.0037205054477
1385565788705390404,0.0738009083699,-0.0032156758042,0.0897528067646,1.0,0.0,0.00407361159688
1385565788805329521,0.0723483092647,-0.00325890677309,0.0864402057275,1.0,0.0,0.00447468491994
1385565788905455025,0.07055239503,-0.00309714763951,0.0835438822643,1.0,0.0,0.00483891953596
1385565789006313969,0.0688988736744,-0.00358469882314,0.0803367847592,1.0,0.0,0.00512442047477
1385565789105342269,0.0671547951162,-0.00380882657182,0.0772918785177,1.0,0.0,0.00541131648051
1385565789205330844,0.065374097615,-0.00442485066616,0.0744027659556,1.0,0.0,0.00561770553471
1385565789305314531,0.0637368749756,-0.00494930995106,0.0715124104721,1.0,0.0,0.0058042222113
1385565789406497820,0.062076429078,-0.00521763266197,0.068912162437,1.0,0.0,0.00599842522086
1385565789505389939,0.0606446174958,-0.00543696362783,0.0661905275378,1.0,0.0,0.00619204484669
1385565789605579944,0.0591876070028,-0.0058401962174,0.0638420356825,1.0,0.0,0.00635106332488
1385565789706347902,0.0580225304398,-0.00618365120201,0.0613624673706,1.0,0.0,0.00646937038167
1385565789805317702,0.0569435528101,-0.00674854879462,0.0590465788737,1.0,0.0,0.00651673477845
1385565789905435231,0.0559553351676,-0.00690274180991,0.0569701545341,1.0,0.0,0.00656597013504
1385565790005526507,0.0552199657417,-0.00726332829843,0.0547497870989,1.0,0.0,0.00654883561325
1385565790105268623,0.0545542790531,-0.00721603732092,0.0528419716517,1.0,0.0,0.00653934699257
1385565790205341326,0.0540318438097,-0.00734073749156,0.0510878895222,1.0,0.0,0.00645549883543
1385565790305352510,0.0536764357455,-0.00703713645573,0.0493545682188,1.0,0.0,0.00640482039273
1385565790405367328,0.053355225415,-0.006838295478,0.0478451110335,1.0,0.0,0.00632033385651
1385565790505330474,0.0532399979746,-0.00649487722942,0.0461751300259,1.0,0.0,0.00620265463205
1385565790606535365,0.053048770424,-0.00595813559452,0.0448935753463,1.0,0.0,0.00612071255147
1385565790705571007,0.0529509899607,-0.00566232231935,0.0436079213875,1.0,0.0,0.00598930457945
1385565790805423632,0.0528299627228,-0.0052392201584,0.0424091883648,1.0,0.0,0.00583495582276
1385565790905550305,0.0526836176023,-0.00494288175093,0.041320926814,1.0,0.0,0.00568474798339
1385565791005354739,0.0524681527869,-0.00493081139392,0.0404195593255,1.0,0.0,0.00548591777703
1385565791105266863,0.0521718311292,-0.00497036011275,0.0394443322729,1.0,0.0,0.00525503202154
1385565791205335081,0.0517821715831,-0.00488673878736,0.0386407338585,1.0,0.0,0.0050519564934
1385565791305385337,0.0511971940722,-0.00505934974589,0.0380226420521,1.0,0.0,0.00485833191683
1385565791406461620,0.0505304241434,-0.00507188656029,0.0373339728426,1.0,0.0,0.00465447262689
1385565791506275818,0.0497496187061,-0.00523948511424,0.0366863820288,1.0,0.0,0.00445295792699
1385565791605387454,0.0489792389197,-0.00531690253588,0.0359164671511,1.0,0.0,0.00429001664573
1385565791705503099,0.0481766700021,-0.00550632029974,0.0352089398421,1.0,0.0,0.00407595168237
1385565791805522176,0.0473455765637,-0.00580284431913,0.0345522007439,1.0,0.0,0.00383542577229
1385565791905508614,0.0466353965222,-0.00594829701407,0.0339809514692,1.0,0.0,0.00361728205862
1385565792005323709,0.0458187161697,-0.00607127304937,0.0336782746535,1.0,0.0,0.00337399751523
1385565792105251606,0.0451655941367,-0.00620946229391,0.0332356884159,1.0,0.0,0.00312231721212
1385565792205485239,0.04447627301,-0.00620482713432,0.0327959539971,1.0,0.0,0.00290378047634
1385565792305464697,0.0438795475917,-0.00610206707054,0.0321806207864,1.0,0.0,0.00269283564659
1385565792405600970,0.0433242240211,-0.00605854617522,0.0315319943852,1.0,0.0,0.0024924680727
1385565792506289378,0.0427011896171,-0.00605629611492,0.0310363576658,1.0,0.0,0.00225460151747
1385565792605356297,0.0421840203563,-0.0056136242541,0.030461556073,1.0,0.0,0.00210041480772
1385565792705276299,0.0415538096624,-0.00567415129532,0.0300844954657,1.0,0.0,0.00190607277595
1385565792805474256,0.0410096560085,-0.00543145191975,0.0295381016464,1.0,0.0,0.00171228557687
1385565792905470572,0.0405748758018,-0.00541932515612,0.02878245059,1.0,0.0,0.00152411953654
1385565793005764460,0.0400535880124,-0.00549390369706,0.0283300929872,1.0,0.0,0.00130208169478
1385565793106376097,0.0396698914227,-0.00562144562685,0.0278021436396,1.0,0.0,0.00103657210327
1385565793205346666,0.0392599670211,-0.00582318642567,0.0274366583053,1.0,0.0,0.000791805377664
1385565793305500648,0.0388539891114,-0.00606050252096,0.027065266791,1.0,0.0,0.000527282738366
1385565793405446729,0.0385669044415,-0.00627981682604,0.0263714315071,1.0,0.0,0.000293583155493
1385565793505598137,0.038233954027,-0.00639094473638,0.0257428091413,1.0,0.0,0.000120776657187
1385565793605572292,0.0378077918504,-0.00650537293309,0.0254214284305,1.0,0.0,-4.95047786177e-05
1385565793705546105,0.037364742621,-0.00671249099,0.0249844181798,1.0,0.0,-0.000202262391291
1385565793805593132,0.0369570981359,-0.00689009346055,0.0244216711806,1.0,0.0,-0.000347370284416
1385565793905418753,0.0364635651653,-0.00715562935369,0.023899155886,1.0,0.0,-0.000504858681783
1385565794005507093,0.0360606244821,-0.00712246886313,0.0231998313064,1.0,0.0,-0.000565424648466
1385565794105289426,0.0356612132033,-0.00727622219596,0.022500956984,1.0,0.0,-0.000621111260308
1385565794205476717,0.0351641878155,-0.00763244902094,0.0219175192375,1.0,0.0,-0.000691797419165
1385565794305475201,0.0347699655184,-0.00791962170225,0.0212630666168,1.0,0.0,-0.00073103689883
1385565794405408788,0.0343065548184,-0.00825874996067,0.0207894519317,1.0,0.0,-0.000771828292691
1385565794506267488,0.0338704700514,-0.00871213678314,0.020125099998,1.0,0.0,-0.000826899970746
1385565794605371432,0.0333567224159,-0.00923587373615,0.01951603673,1.0,0.0,-0.000888462125468
1385565794705410936,0.032752636782,-0.00957360074779,0.0190992250871,1.0,0.0,-0.000974131602734
1385565794805555929,0.0321617932408,-0.00989522646453,0.0185711772461,1.0,0.0,-0.00102764432452
1385565794905467372,0.0315210092088,-0.0101606939275,0.0178842383599,1.0,0.0,-0.00111233873867
1385565795005353622,0.030770801901,-0.0103055251192,0.0173888282181,1.0,0.0,-0.00118065621408
1385565795105627766,0.0299061806886,-0.0103837602431,0.0168743898476,1.0,0.0,-0.00124017519751
1385565795205590076,0.0290918520265,-0.0103589609215,0.0161708627991,1.0,0.0,-0.00128418898123
1385565795305257142,0.0281452771427,-0.0104826949664,0.0156071429993,1.0,0.0,-0.00130867867439
1385565795405346191,0.0272023918804,-0.010538744432,0.0150601797825,1.0,0.0,-0.00134440545716
1385565795506485844,0.0262481545998,-0.010765179129,0.0144827118327,1.0,0.0,-0.00140668317128
1385565795605511599,0.025286060751,-0.0110553972388,0.0141561444336,1.0,0.0,-0.00145024122342
1385565795706273633,0.0243507756577,-0.0114170144089,0.0135972775061,1.0,0.0,-0.00151814481809
1385565795805513405,0.0234886670016,-0.0116343626178,0.0129973708715,1.0,0.0,-0.00153381762525
1385565795905434156,0.0226305673186,-0.0121007174699,0.0122714520204,1.0,0.0,-0.00155413017859
1385565796005345448,0.0218863997941,-0.0124264940061,0.0115840751174,1.0,0.0,-0.00158170959817
1385565796105407342,0.0213432833484,-0.0128067593918,0.0109250605713,1.0,0.0,-0.00158570459142
1385565796205393464,0.0208609881068,-0.0132621661477,0.01051872411,1.0,0.0,-0.00159065394226
1385565796306348310,0.020649151937,-0.0135577422286,0.0101961630594,1.0,0.0,-0.00155122300178
1385565796405483004,0.0205885882509,-0.0139084338688,0.0100268122448,1.0,0.0,-0.00155169007053
1385565796505369839,0.0206980457947,-0.0141677182507,0.0097301625081,1.0,0.0,-0.00151778063255
1385565796605294860,0.0208773344196,-0.01434027237,0.00968503311948,1.0,0.0,-0.00149519038552
1385565796705291885,0.0210428316705,-0.0145182769216,0.00951071370051,1.0,0.0,-0.00145950111707
1385565796805309036,0.0212588446129,-0.0144904321396,0.00921916198971,1.0,0.0,-0.00137990329218
1385565796905313266,0.0214064451776,-0.014475151394,0.00889181904679,1.0,0.0,-0.00128605452771
1385565797006497878,0.0214730389841,-0.01438192397,0.00862416043323,1.0,0.0,-0.00116823029634
1385565797105298283,0.0214881674914,-0.0141916370288,0.00830600407988,1.0,0.0,-0.00102658430766
1385565797206312332,0.0214402626863,-0.0140362489515,0.00805284421189,1.0,0.0,-0.000914915709502
1385565797305303395,0.0212818946522,-0.0137403017284,0.00785558687432,1.0,0.0,-0.000774135617345
1385565797405333897,0.0211036644599,-0.0134022577579,0.00777534353339,1.0,0.0,-0.000677082559595
1385565797506303835,0.020961986736,-0.0127680309679,0.00759776908304,1.0,0.0,-0.000475519513361
1385565797605308040,0.0206586272997,-0.0123241740006,0.00748182921113,1.0,0.0,-0.000320087206553
1385565797705556368,0.0203595701838,-0.0117295063769,0.00731333226876,1.0,0.0,-0.000144024565796
1385565797806475953,0.0199923731436,-0.0111872249434,0.00701473950135,1.0,0.0,3.00696469229e-05
1385565797905423474,0.0196515769368,-0.0105643037204,0.00663735229936,1.0,0.0,0.000259787228435
1385565798005362218,0.0192679096113,-0.0100961192156,0.00647662640446,1.0,0.0,0.000484092223603
1385565798105364855,0.0188789119584,-0.00966984226128,0.00625385160702,1.0,0.0,0.000686428128153
1385565798205274770,0.0185381788595,-0.00921621287103,0.00604984792676,1.0,0.0,0.000895775234711
1385565798305398392,0.0180955035843,-0.00894496229229,0.00571022244924,1.0,0.0,0.00110449730722
1385565798405484403,0.0176650681369,-0.00865199824388,0.00514712568109,1.0,0.0,0.00129036535941
1385565798505356874,0.0171946967253,-0.00827416653539,0.00468779590745,1.0,0.0,0.00150150063853
1385565798605244599,0.0166941469182,-0.00806434997214,0.00427837865658,1.0,0.0,0.00165257762196
1385565798705412425,0.0163098594661,-0.00775202117242,0.00385792994538,1.0,0.0,0.00188225122883
1385565798806493128,0.0159129691746,-0.00764764224941,0.00349992348763,1.0,0.0,0.00207442122026
1385565798905566013,0.0156492404777,-0.00748058857617,0.00312746894042,1.0,0.0,0.00231073377594
1385565799005343762,0.0153240447669,-0.00751792562518,0.00296886205502,1.0,0.0,0.00249389031092
1385565799105347653,0.0151240983696,-0.00753176856032,0.00294433733227,1.0,0.0,0.00267564080258
1385565799205405373,0.0150254103914,-0.00740573009092,0.00302185545197,1.0,0.0,0.00293181255859
1385565799305340046,0.0149678889339,-0.00722386908856,0.00316357773452,1.0,0.0,0.00317370295643
1385565799405351765,0.0149416008941,-0.00694681272114,0.00324508657969,1.0,0.0,0.00337232606033
1385565799505298017,0.015065804808,-0.0061450409664,0.00332622208225,1.0,0.0,0.00368043524025
1385565799605303864,0.0150780018195,-0.00543502667063,0.00360998585483,1.0,0.0,0.00390876574796
1385565799705288361,0.0152619353108,-0.00439371474618,0.00383744718082,1.0,0.0,0.00420063977937
1385565799805271257,0.0154355135452,-0.00321012039181,0.00411381299596,1.0,0.0,0.00452742559548
1385565799905381995,0.015524525637,-0.00216715682149,0.00448177916532,1.0,0.0,0.00478732783599
1385565800006387202,0.0156665122559,-0.00103023332162,0.00488886004861,1.0,0.0,0.00505629974144
1385565800105299534,0.0157896462751,0.000147382626395,0.00515784044281,1.0,0.0,0.00534975830643
1385565800206283317,0.0159818009287,0.00108739956218,0.00543574783851,1.0,0.0,0.00560572149472
1385565800305349999,0.0161532439949,0.0021057223571,0.00570246585908,1.0,0.0,0.00586975914741
1385565800405305906,0.0163703379486,0.00290763423241,0.00590818456777,1.0,0.0,0.00609354118054
1385565800505306914,0.0166387445584,0.00348486257664,0.00601687381299,1.0,0.0,0.00630231595079
1385565800606299609,0.0168859331893,0.00401003098054,0.0060616333751,1.0,0.0,0.0065116336567
1385565800705413389,0.0171208965864,0.00411790574687,0.00599509589624,1.0,0.0,0.00664866445922
1385565800805350527,0.0174086137265,0.00417847898039,0.0058367885188,1.0,0.0,0.00687496421048
1385565800905340443,0.0176078234439,0.0037694829016,0.00570418489665,1.0,0.0,0.00696955305441
1385565801005335965,0.0178669707019,0.00339266343114,0.00558619600024,1.0,0.0,0.00718487443559
1385565801105332846,0.0180919778787,0.00248936977987,0.00532772844025,1.0,0.0,0.00728587144953
1385565801206560053,0.0182694432888,0.00175787331946,0.00509150489832,1.0,0.0,0.00753172945219
1385565801305273261,0.0184695388732,0.000507039568979,0.00482929181405,1.0,0.0,0.00767666612574
1385565801405370133,0.0186323363013,-0.000693136543251,0.00457933439441,1.0,0.0,0.00785129209043
1385565801505325234,0.0188291967807,-0.00203134893948,0.00425050507254,1.0,0.0,0.00806294417733
1385565801605549988,0.0189243595955,-0.00353575398671,0.00399303351029,1.0,0.0,0.00827390907847
1385565801705251778,0.0190222619818,-0.00497304565477,0.00366414415555,1.0,0.0,0.00848597430836
1385565801805485916,0.0190491967429,-0.00660266172796,0.00346230951762,1.0,0.0,0.0086405815351
1385565801905431868,0.0190477521723,-0.00799224121676,0.00322523870249,1.0,0.0,0.00886014332784
1385565802005354673,0.0189587266905,-0.00929266893939,0.00296914798086,1.0,0.0,0.00906950612606
1385565802105367508,0.0188271912679,-0.0105643106375,0.00269843656675,1.0,0.0,0.00925197668254
1385565802206301763,0.0185798517,-0.0117153689529,0.00243021535611,1.0,0.0,0.00941078274211
1385565802305359485,0.0182306740737,-0.0128154176601,0.00221392436202,1.0,0.0,0.00950152196277
1385565802405525361,0.0179089076554,-0.0137681884203,0.00192125947086,1.0,0.0,0.00962549102167
1385565802505305858,0.0175560039362,-0.014657436331,0.00171184939961,1.0,0.0,0.00964265325643
1385565802605340858,0.0172918050504,-0.015090519804,0.00148088637967,1.0,0.0,0.00974563730874
1385565802705456659,0.0171060661375,-0.0153745644908,0.0012982676394,1.0,0.0,0.00982024520478
1385565802805293316,0.0169922149103,-0.0154051526507,0.00115144468711,1.0,0.0,0.00993014008116
1385565802906295925,0.0169145246092,-0.0151340360896,0.00105898704719,1.0,0.0,0.0100280046547
1385565803005502951,0.0168815384766,-0.0145578837388,0.000996828445506,1.0,0.0,0.0101517966302
1385565803105380586,0.0168440733409,-0.0138572636035,0.000929577292367,1.0,0.0,0.010304832585
1385565803205527736,0.016765725871,-0.0128477767076,0.000792606049087,1.0,0.0,0.0104545517526
1385565803305530688,0.016691501176,-0.0116952486346,0.000571534541272,1.0,0.0,0.0106430891848
1385565803405355273,0.016660460076,-0.010417753678,0.000463794472759,1.0,0.0,0.0108219891391
1385565803505278338,0.0167044412846,-0.00911189221651,0.00034635950084,1.0,0.0,0.0110134891901
1385565803605547379,0.0168012957456,-0.00782260694115,0.000250924854212,1.0,0.0,0.0111856695811
1385565803705321809,0.0170119926956,-0.00680558118027,0.000195923213168,1.0,0.0,0.011329490303
1385565803805310773,0.0172306354809,-0.00581424724649,0.000202815949612,1.0,0.0,0.0114025504736
1385565803905555248,0.0175171194217,-0.00490000032289,0.000176823638489,1.0,0.0,0.0114673230827
1385565804006320210,0.0177677893308,-0.00424602084901,0.000165686975793,1.0,0.0,0.0114893259708
1385565804105377748,0.0180220332516,-0.00353810197229,0.00011734419992,1.0,0.0,0.0115307016768
1385565804205379284,0.018255060664,-0.00297659964878,7.19235760816e-05,1.0,0.0,0.0115637165458
1385565804305391064,0.0183715689744,-0.0025089940504,0.000158638767621,1.0,0.0,0.0115808687115
1385565804405455299,0.0184355456749,-0.00200754786307,0.000338932844131,1.0,0.0,0.011552097759
1385565804505323663,0.0183700371032,-0.00161024221902,0.000466291092083,1.0,0.0,0.0115257627458
1385565804605369001,0.0182535900071,-0.00119518460336,0.000678812183675,1.0,0.0,0.0114486107223
1385565804705374897,0.0180115823392,-0.000786173566295,0.000798965614894,1.0,0.0,0.0113652460015
1385565804805318366,0.017715426682,-0.000440892940459,0.000868768083937,1.0,0.0,0.0112131573719
1385565804905297633,0.017387625644,-4.0966677622e-05,0.00091472320014,1.0,0.0,0.0111212381709
1385565805006299406,0.0170633819459,0.000151142142252,0.000905643645131,1.0,0.0,0.0109979887194
1385565805105471599,0.016774666816,0.000397604793314,0.000956688063481,1.0,0.0,0.0108815576498
1385565805205347464,0.0165370031795,0.000455910893683,0.000991182630397,1.0,0.0,0.0107469491434
1385565805305393126,0.0163357968119,0.000370805127891,0.000977357666275,1.0,0.0,0.0105600858898
1385565805406312225,0.0161931776849,0.00020746680643,0.000899315079221,1.0,0.0,0.0104481733016
1385565805505499770,0.0160390053902,-4.63079927487e-05,0.000987371642759,1.0,0.0,0.0102654174085
1385565805605516219,0.0159198115672,-0.000458865995028,0.00109607207532,1.0,0.0,0.0101280198193
1385565805706377335,0.0158269017096,-0.000843412714565,0.00113964878015,1.0,0.0,0.00998104249125
1385565805805365349,0.0157425940576,-0.00132877727196,0.00110664961886,1.0,0.0,0.00986840969522
1385565805905539441,0.0157061686193,-0.00182960148231,0.0010998675831,1.0,0.0,0.00976291103964
1385565806005313162,0.0156861147022,-0.00236360277459,0.00103050163031,1.0,0.0,0.00971547234898
1385565806106333822,0.0156788368518,-0.00300560538091,0.000980961665472,1.0,0.0,0.0096342575658
1385565806205341938,0.0157088830031,-0.00370384326188,0.000938113682678,1.0,0.0,0.00957505897324
1385565806305334381,0.0157934883265,-0.004339445139,0.000875599692546,1.0,0.0,0.00953799100322
1385565806405516203,0.0158791159441,-0.00504463915628,0.000889200891115,1.0,0.0,0.00949125227176
1385565806505445302,0.0160468791609,-0.00572766239839,0.000904356205547,1.0,0.0,0.00941605784648
1385565806606324822,0.0162179872553,-0.00646326165075,0.000966903854135,1.0,0.0,0.0093541277338
1385565806705571518,0.0164637975142,-0.00719818660927,0.00107181336862,1.0,0.0,0.00930616997161
1385565806806310270,0.0167606321228,-0.0078312288149,0.00115189409798,1.0,0.0,0.0092761168624
1385565806905368069,0.0170956138836,-0.00856047087415,0.00127723182388,1.0,0.0,0.00924538269914
1385565807005360340,0.0174853079741,-0.00926742096778,0.00139297732757,1.0,0.0,0.00920619164342
1385565807105306328,0.0179352822608,-0.00986835906864,0.00150718746112,1.0,0.0,0.00917120488907
1385565807206427069,0.0183793097191,-0.0104291487851,0.00155588518361,1.0,0.0,0.00912621471933
1385565807306295545,0.0187784988569,-0.0108735391131,0.00158578599001,1.0,0.0,0.00907728112721
1385565807405317057,0.0191481461812,-0.0113029080565,0.00157032621571,1.0,0.0,0.00905587121404
1385565807506305775,0.0194051110025,-0.0114415937008,0.00160026831949,1.0,0.0,0.00903356495691
1385565807605397390,0.0195895848591,-0.0117462090705,0.00160414620873,1.0,0.0,0.00905604013677
1385565807706534579,0.0195996209144,-0.0118450068409,0.00161554235929,1.0,0.0,0.00904461832416
1385565807805350142,0.0195152094893,-0.0119165183333,0.00158073478012,1.0,0.0,0.00905720351591
1385565807905506950,0.0192890322525,-0.0118125379555,0.00166443576714,1.0,0.0,0.00908684618983
1385565808006326293,0.0190044204028,-0.01168864459,0.00164022570873,1.0,0.0,0.00911390596647
1385565808105309606,0.0186501595562,-0.0113971545136,0.00169135338009,1.0,0.0,0.00916596378068
1385565808206440713,0.0182802039453,-0.0111015770738,0.00164592436181,1.0,0.0,0.00923815845582
1385565808305395847,0.0178843331197,-0.0106912061875,0.00165920385705,1.0,0.0,0.00931888927433
1385565808405254283,0.0174967875938,-0.010356587854,0.0016316085067,1.0,0.0,0.00941542131492
1385565808505469648,0.0170512768281,-0.010138936754,0.00158375748626,1.0,0.0,0.00945958627899
1385565808605573954,0.0166216728078,-0.010084838946,0.00144880276774,1.0,0.0,0.00947349887742
1385565808705420153,0.0161687713664,-0.010069252475,0.00130741980566,1.0,0.0,0.00945943856606
1385565808805358350,0.0156759958898,-0.0101924116851,0.00116375599477,1.0,0.0,0.00942405165178
1385565808905385801,0.0151984225449,-0.0103349342976,0.000921237326924,1.0,0.0,0.00940831934242
1385565809005345913,0.0147185032184,-0.0105211248971,0.000724636351387,1.0,0.0,0.00942105152132
1385565809105350782,0.0142232545724,-0.0108463501369,0.000656809784422,1.0,0.0,0.0094702301044
1385565809205273831,0.0137504603,-0.0111351129512,0.000582317811658,1.0,0.0,0.00948495041414
1385565809305442418,0.0133014769514,-0.0116001378386,0.000567470606976,1.0,0.0,0.00944176955865
1385565809405353166,0.0128271849124,-0.0118966129988,0.0005969882402,1.0,0.0,0.00947620540656
1385565809505423093,0.0124030908826,-0.0122428818368,0.000651940140622,1.0,0.0,0.00948838800916
1385565809605392412,0.0119486750917,-0.0123980214006,0.00070182414682,1.0,0.0,0.00956784371545
1385565809705285627,0.0114805888587,-0.0124499682771,0.000833207166816,1.0,0.0,0.00962112801827
1385565809805397919,0.0110730379321,-0.0124115143158,0.000966692443797,1.0,0.0,0.00971105144545
1385565809906383783,0.0105997754231,-0.0122696222236,0.00105517390963,1.0,0.0,0.00978997373943
1385565810005475271,0.0102512054088,-0.0120662084665,0.00116563782865,1.0,0.0,0.00983824870553
1385565810105656438,0.00993655700426,-0.0118267277538,0.00124199441745,1.0,0.0,0.00988897658074
1385565810205357507,0.0097292452045,-0.0114741700846,0.00134815016926,1.0,0.0,0.0099719149037
1385565810306583233,0.00960448860126,-0.0112010643149,0.00129686270492,1.0,0.0,0.0100021174809
1385565810406412061,0.00955163648462,-0.0109340188256,0.0011833085403,1.0,0.0,0.010086478697
1385565810505313679,0.00964335778558,-0.0106427381586,0.00110015920881,1.0,0.0,0.0101490401499
1385565810605565312,0.00987163960409,-0.0103273293435,0.00105386339622,1.0,0.0,0.0102306470553
1385565810705484714,0.0101724532035,-0.0100949300804,0.00103070740512,1.0,0.0,0.0103324057638
1385565810805566424,0.0105961186807,-0.00974366948959,0.00107418470695,1.0,0.0,0.0104961766444
1385565810905539147,0.011031630803,-0.00955550078481,0.00117331228532,1.0,0.0,0.0106447951489
1385565811005421606,0.0114694035615,-0.00931130961824,0.00138984017019,1.0,0.0,0.0107814565191
1385565811106463477,0.0118166983926,-0.00916563896428,0.0015110851754,1.0,0.0,0.0109218096921
1385565811205734222,0.0121874365116,-0.00894121701656,0.00162392535266,1.0,0.0,0.0111028559624
1385565811305543260,0.0124839056308,-0.0087539357512,0.00173718378152,1.0,0.0,0.0112513877363
1385565811405531258,0.0127367421951,-0.00842882269735,0.0019033713225,1.0,0.0,0.0113915527278
1385565811505449379,0.0130052618363,-0.00817497056005,0.00199039396922,1.0,0.0,0.0114993099433
1385565811606434989,0.0131508767875,-0.00787413996875,0.00202544963939,1.0,0.0,0.0116358656052
1385565811705433412,0.0132186999464,-0.00762702680486,0.00204114591017,1.0,0.0,0.0117170021782
1385565811806640844,0.0132113361674,-0.0071776759422,0.00203331850591,1.0,0.0,0.0118566597614
1385565811905446599,0.0130717064501,-0.00708556788706,0.00188711749219,1.0,0.0,0.0119027352252
1385565812005410281,0.01293127404,-0.00663245781103,0.00191146211487,1.0,0.0,0.0120571615607
1385565812106394372,0.0126822847657,-0.00652689360923,0.00178411263943,1.0,0.0,0.0121021320722
1385565812205394110,0.0124448335359,-0.0063298841188,0.00171746888365,1.0,0.0,0.0122377107762
1385565812305522019,0.0122288121316,-0.00647159916372,0.0016576397224,1.0,0.0,0.0123619595773
1385565812405491912,0.011906172235,-0.00675812471152,0.00165297435133,1.0,0.0,0.0123646442573
1385565812506392529,0.0116762680748,-0.00699701340373,0.00162192132491,1.0,0.0,0.0124485448881
1385565812605508375,0.0114062495618,-0.00742334710714,0.00157939709743,1.0,0.0,0.0124431869173
1385565812705420658,0.0110972822915,-0.00783622008547,0.00160874709473,1.0,0.0,0.0124259099938
1385565812805474431,0.0108412206961,-0.00836208010786,0.00160091288336,1.0,0.0,0.0123426510347
1385565812905478903,0.0104412159295,-0.009011901242,0.00163086438009,1.0,0.0,0.0122732023959
1385565813005455085,0.0101367050439,-0.00970599462572,0.00162001341459,1.0,0.0,0.0121825652934
1385565813106539999,0.0097664376354,-0.010355069182,0.00167344549816,1.0,0.0,0.0120887718777
1385565813205479357,0.0094189315246,-0.0110183716136,0.00166904211917,1.0,0.0,0.011970598934
1385565813305452322,0.00913803001523,-0.0115537477864,0.00165063650937,1.0,0.0,0.0118364450103
1385565813405480572,0.0089285862765,-0.0119877842285,0.00161249244341,1.0,0.0,0.0117542465694
1385565813505521311,0.0087542959242,-0.0121362076321,0.00155388745594,1.0,0.0,0.0115951206011
1385565813605615990,0.00865517928535,-0.0122098546449,0.00149148676546,1.0,0.0,0.0114417323743
1385565813705558778,0.00853032361628,-0.0120960688724,0.00148177893579,1.0,0.0,0.0112555981458
1385565813805476394,0.00848309287456,-0.0118575553103,0.0014594440329,1.0,0.0,0.0110633119947
1385565813905477783,0.00837819888425,-0.0115085244772,0.00145615061998,1.0,0.0,0.0108253895249
1385565814005466064,0.00829174180372,-0.0110129356299,0.00148475942211,1.0,0.0,0.0105228576996
1385565814105469537,0.00828575240986,-0.0104083225328,0.00151768214511,1.0,0.0,0.0102854924863
1385565814206465385,0.00832750407002,-0.00972633966339,0.0015540737893,1.0,0.0,0.00996980684067
1385565814305393038,0.00844684366694,-0.00897594996684,0.00161904132147,1.0,0.0,0.00971870082509
1385565814405495960,0.00851433122943,-0.00832666846637,0.00171316628894,1.0,0.0,0.00943619100627
1385565814505408536,0.00863253641958,-0.00759702488949,0.00180886560228,1.0,0.0,0.00917120986218
1385565814606483414,0.0086678516269,-0.00712050481748,0.00188669986682,1.0,0.0,0.00885607863038
1385565814705394702,0.00874614720102,-0.00656106124943,0.00192321741453,1.0,0.0,0.00857231976981
1385565814805382323,0.00879629321359,-0.0061952688646,0.00193025959381,1.0,0.0,0.00825415674884
1385565814905455091,0.00886719014957,-0.00572655405488,0.00175326706487,1.0,0.0,0.00802368493268
1385565815005472091,0.00891253656418,-0.00557375171069,0.00155213296757,1.0,0.0,0.00773497782372
1385565815105461507,0.00899491761519,-0.00537173439219,0.0012639668739,1.0,0.0,0.00749296989161
1385565815206461580,0.00905896319452,-0.00545204154597,0.000950913751095,1.0,0.0,0.00722183041959
1385565815305645735,0.00916419493438,-0.00546184044179,0.000656663686752,1.0,0.0,0.0069981031185
1385565815405653998,0.0092164653395,-0.00562582852655,0.000328751853338,1.0,0.0,0.00674896379234
1385565815505517980,0.00930399199393,-0.0057856343874,-1.01694120597e-05,1.0,0.0,0.00650738911606
1385565815606468884,0.00940646145405,-0.00588834422656,-0.000294431656879,1.0,0.0,0.00632273031035
1385565815705472599,0.00942152706998,-0.00606023999129,-0.000476235618734,1.0,0.0,0.00613714598027
1385565815805451184,0.00954466066227,-0.0062406686835,-0.00068703581844,1.0,0.0,0.0059659938873
1385565815905478412,0.00965708517077,-0.00632264270318,-0.000826582679982,1.0,0.0,0.00581952202088
1385565816005470116,0.00983277159807,-0.00647585883803,-0.000936121654685,1.0,0.0,0.00569363237619
1385565816105372147,0.00995877537798,-0.006578123146,-0.000999482054558,1.0,0.0,0.00552984760058
1385565816205389832,0.0100360600836,-0.00680726477407,-0.00117349854228,1.0,0.0,0.00536972797477
1385565816305533774,0.0100733780659,-0.00691168810359,-0.00126597000268,1.0,0.0,0.00522565037773
1385565816405630432,0.0100871742259,-0.00709934402939,-0.00130934793463,1.0,0.0,0.00510958363208
1385565816505433101,0.0101374881975,-0.0072492368139,-0.00130932481559,1.0,0.0,0.00502069244057
1385565816605621004,0.0101882952487,-0.00733235437559,-0.00127244749064,1.0,0.0,0.00495753276132
1385565816705397110,0.0102655083717,-0.0075717473333,-0.00113183189023,1.0,0.0,0.00490161335855
1385565816805422860,0.0103584881262,-0.00775199802169,-0.000887417676678,1.0,0.0,0.00486000368904
1385565816905502295,0.010428146362,-0.00780107029726,-0.000647705296873,1.0,0.0,0.00484437600432
1385565817006503789,0.0105222330012,-0.0078058725951,-0.000466314968533,1.0,0.0,0.004798432334
1385565817105511842,0.0104577877224,-0.00762905375928,-0.000297889157356,1.0,0.0,0.00483318091104
1385565817205412091,0.0103956548952,-0.00748189974532,-0.00019076438549,1.0,0.0,0.00483444271088
1385565817306558030,0.0102629588227,-0.00710829257669,-0.000101338924958,1.0,0.0,0.00488764177992
1385565817405453854,0.0101367287813,-0.0067911495965,-2.85910752656e-05,1.0,0.0,0.00493613133308
1385565817505468358,0.00999884657855,-0.00652542956717,3.8652342005e-05,1.0,0.0,0.00498399737103
1385565817605411982,0.00989719651438,-0.0062591102914,5.31391077823e-05,1.0,0.0,0.00506325550895
1385565817705487934,0.00986217954888,-0.00607669783207,5.11911383503e-05,1.0,0.0,0.00515135164018
1385565817806399625,0.00978938674338,-0.00596256738431,0.000102548766562,1.0,0.0,0.0052837929267
1385565817905682152,0.0097775381494,-0.00593316320007,2.98849084065e-05,1.0,0.0,0.0054339807843
1385565818005446643,0.00973165525498,-0.00596271981244,8.23129758349e-06,1.0,0.0,0.00554779731395
1385565818106597632,0.00974096064209,-0.00596789456567,-3.03630552794e-05,1.0,0.0,0.00571067777236
1385565818206168235,0.00976710988684,-0.00600494079366,-5.86101553204e-05,1.0,0.0,0.00583767624342
1385565818306411072,0.00987870534799,-0.0059553466983,-8.16794779124e-05,1.0,0.0,0.00601900643278
1385565818405384719,0.0100373254716,-0.00598622604942,-9.27581972691e-05,1.0,0.0,0.00615258968113
1385565818506723419,0.0102644977495,-0.00589868533847,-6.78253170183e-05,1.0,0.0,0.00633214174835
1385565818605396142,0.0105391485283,-0.00574242567815,-7.90952880438e-05,1.0,0.0,0.00651082125207
1385565818705374620,0.0108387812877,-0.00548105094763,-0.000158448131002,1.0,0.0,0.00677121020497
1385565818805477388,0.0111405974946,-0.00523972167508,-0.000227123965494,1.0,0.0,0.00700673648322
1385565818905557079,0.0114105992114,-0.00507879941003,-0.000286555586438,1.0,0.0,0.00722738474759
1385565819006457281,0.0117432011122,-0.00493598369866,-0.000319807182611,1.0,0.0,0.00743760139932
1385565819106396032,0.0119751479074,-0.0049662267337,-0.000308271121162,1.0,0.0,0.00763586058853
1385565819205511843,0.012275839665,-0.00500387825081,-0.000282197508344,1.0,0.0,0.0078286502836
1385565819305780019,0.0125574290185,-0.00505439297826,-0.000229926718652,1.0,0.0,0.00799501677398
1385565819405400122,0.0127990640391,-0.00511598558836,-0.00023241985005,1.0,0.0,0.00817398540865
1385565819505365240,0.0130238724438,-0.00506715593718,-0.000232754948912,1.0,0.0,0.00829000307099
1385565819605670202,0.0132129562847,-0.0050622649643,-0.000235090062415,1.0,0.0,0.00837470900754
1385565819706455680,0.0133375061854,-0.00504617611259,-0.000234569629793,1.0,0.0,0.0084332605478
1385565819805587344,0.0134705617093,-0.00500139155306,-0.000185308764884,1.0,0.0,0.00844165607363
1385565819905558020,0.0135900457771,-0.00495355968861,-9.51857271908e-05,1.0,0.0,0.00842375830244
1385565820005557232,0.0137142188554,-0.00494393002944,1.94001445987e-05,1.0,0.0,0.00836655088317
1385565820105554305,0.0138187161693,-0.00491733100056,0.000214870168937,1.0,0.0,0.00831029321865
1385565820205405144,0.0138980213151,-0.0048799116056,0.000356093690002,1.0,0.0,0.00822294463374
1385565820305499880,0.0139521050289,-0.00470995700942,0.000535858133684,1.0,0.0,0.00811149325086
1385565820406583630,0.0140042369557,-0.00433858518372,0.00070186719652,1.0,0.0,0.00803107169715
1385565820505477524,0.0140199370786,-0.00385639863741,0.000862459807463,1.0,0.0,0.00797602449597
1385565820605446969,0.0139893708235,-0.00325438751145,0.00107330164051,1.0,0.0,0.00789639165012
1385565820705440440,0.0139354686813,-0.00245983447296,0.0012720295802,1.0,0.0,0.00778411802917
1385565820805411512,0.0137693453331,-0.00168294450884,0.00147687650359,1.0,0.0,0.00764944631244
1385565820905459733,0.0135834407632,-0.000982642592887,0.00162125600439,1.0,0.0,0.00754832760863
1385565821006371544,0.0133603712779,-0.00042365864642,0.00175579936448,1.0,0.0,0.00741035080005
1385565821105623811,0.0130729082168,3.01087978444e-05,0.00187575827787,1.0,0.0,0.00723048015787
1385565821206508986,0.0126823736925,0.000275626390548,0.00201414400386,1.0,0.0,0.00708759696122
1385565821306519112,0.0122405345706,0.000267553091288,0.00200243716377,1.0,0.0,0.00691381338843
1385565821405408510,0.0117979369498,0.000226439435007,0.0018833592621,1.0,0.0,0.00677063859055
1385565821506585460,0.0112790853254,-0.000163155316729,0.00177213341969,1.0,0.0,0.00654282529473
1385565821605491562,0.0107900287235,-0.000453897395822,0.00161120468229,1.0,0.0,0.00636013215406
1385565821705486970,0.0103788005466,-0.000809931194427,0.00137722709569,1.0,0.0,0.00607523249807
1385565821805492894,0.00995255008836,-0.00121288926292,0.00118427309454,1.0,0.0,0.00580757399565
1385565821905450013,0.00960820374149,-0.00148113934157,0.00100924681147,1.0,0.0,0.00551140882882
1385565822005483615,0.00935413616723,-0.00171744340241,0.000892592595022,1.0,0.0,0.00520178465568
1385565822105396666,0.0090748865564,-0.00201332638819,0.000776330465271,1.0,0.0,0.00485528835352
1385565822205569654,0.008845090154,-0.00219441956412,0.000658241442966,1.0,0.0,0.00452436648316
1385565822306461777,0.00861758692956,-0.0023956568335,0.000547115908864,1.0,0.0,0.00416201089527
1385565822405490645,0.00843579778554,-0.00257560988553,0.000413369708055,1.0,0.0,0.00388374406247
1385565822505385933,0.00824966129432,-0.00302033320515,0.000378585020925,1.0,0.0,0.00351543229323
1385565822606454913,0.00811840622851,-0.00347678292672,0.000482209396548,1.0,0.0,0.00315325997065
1385565822705449948,0.00804430083443,-0.00401395045908,0.000559266323284,1.0,0.0,0.00275713710344
1385565822805482950,0.00791420287732,-0.00462207178032,0.000657722629135,1.0,0.0,0.00245085875087
1385565822905402440,0.00786690813792,-0.0051722404213,0.000745499661763,1.0,0.0,0.00210906296491
1385565823006473737,0.00780556354891,-0.00560181122436,0.000876810464248,1.0,0.0,0.00186586508337
1385565823105539155,0.00766787567618,-0.00611402046981,0.00105884141279,1.0,0.0,0.0015817898614
1385565823205464488,0.00757435991951,-0.00652391350803,0.0012106536821,1.0,0.0,0.00136104662274
1385565823305471361,0.0074502236742,-0.00689362259024,0.00131426982813,1.0,0.0,0.0011624730001
1385565823405706008,0.00728822988008,-0.00725772967667,0.00138990794536,1.0,0.0,0.00100414326343
1385565823505385146,0.00704836198669,-0.00770351626203,0.00125361461403,1.0,0.0,0.000857978754886
1385565823605618465,0.00687093190686,-0.0079780342665,0.00103235425318,1.0,0.0,0.000693729815321
1385565823705597516,0.00658591679164,-0.00838833307596,0.000760012971925,1.0,0.0,0.000577289771452
1385565823806584185,0.00629565463455,-0.00879158270331,0.000454538578557,1.0,0.0,0.000430869863027
1385565823905456978,0.00600685430316,-0.00916366067667,0.000104878716953,1.0,0.0,0.000334271554729
1385565824006393460,0.00571600312942,-0.00944679322843,-0.000286067978151,1.0,0.0,0.000165178461817
1385565824105725283,0.00529947730924,-0.00966393447383,-0.00072860283317,1.0,0.0,2.49873137857e-05
1385565824205562735,0.00498866246833,-0.00968912756897,-0.00111909141941,1.0,0.0,-0.000131295851969
1385565824305609878,0.00473263494,-0.00960672186842,-0.00146025810747,1.0,0.0,-0.000284882353963
1385565824405701908,0.00448404920628,-0.00941557018769,-0.00181289617245,1.0,0.0,-0.000422128474577
1385565824506594580,0.00430377684336,-0.00910665870504,-0.00208690922476,1.0,0.0,-0.000595921426504
1385565824605626298,0.00420499522554,-0.00884481443851,-0.0023340838142,1.0,0.0,-0.000799972138262
1385565824705634444,0.00427223697919,-0.00843928666405,-0.00259060375664,1.0,0.0,-0.000933519469734
1385565824805624689,0.00431333482609,-0.00795601367236,-0.00275286677078,1.0,0.0,-0.00111151007764
1385565824905566418,0.00456856414186,-0.00734103373612,-0.00292510354057,1.0,0.0,-0.00119445407511
1385565825005654943,0.00483872045354,-0.0066492257371,-0.00303639201108,1.0,0.0,-0.00135213095295
1385565825106539396,0.0051483736477,-0.00597259989295,-0.00315333307757,1.0,0.0,-0.00146118729361
1385565825205530312,0.00546379770327,-0.00531618726464,-0.00322191374919,1.0,0.0,-0.00158500887507
1385565825305582384,0.00577454773353,-0.00471466539823,-0.00317360532033,1.0,0.0,-0.00175462316023
1385565825405677451,0.00610685746298,-0.00407039412419,-0.00311477605764,1.0,0.0,-0.00194434503512
1385565825505636950,0.00635991392721,-0.0035107983637,-0.00295352328442,1.0,0.0,-0.00208158362232
1385565825606748984,0.00658698215712,-0.00304011701069,-0.0027095055472,1.0,0.0,-0.00222739408124
1385565825705721768,0.00675214433874,-0.00252987422844,-0.00241079754437,1.0,0.0,-0.00240980966806
1385565825805777542,0.00673779670369,-0.00211842703073,-0.00212942993589,1.0,0.0,-0.00256097242547
1385565825906613301,0.0067463689675,-0.00161565636366,-0.00186881630742,1.0,0.0,-0.00270427294215
1385565826005655277,0.0065285330142,-0.00128127338308,-0.00168738440428,1.0,0.0,-0.00286703324441
1385565826105678639,0.00629446867554,-0.000901676887343,-0.00154792166379,1.0,0.0,-0.0030459989964
1385565826205599590,0.00593363986968,-0.000686696844354,-0.00147144417932,1.0,0.0,-0.00323366093641
1385565826305605890,0.00545216167068,-0.000523859160799,-0.00142342526005,1.0,0.0,-0.00344026582288
1385565826406735265,0.00490638994261,-0.000325325776624,-0.00136617488704,1.0,0.0,-0.00369971653353
1385565826505605039,0.00416535229913,5.02832798736e-05,-0.00119658249908,1.0,0.0,-0.00396321828163
1385565826605685213,0.00331387771292,0.000469939143704,-0.00102140865975,1.0,0.0,-0.00425171798404
1385565826706623484,0.00257651381817,0.00110576042319,-0.000811652322827,1.0,0.0,-0.0045322499033
1385565826805619582,0.00169438167396,0.00182197904491,-0.000518472181647,1.0,0.0,-0.00479016478866
1385565826906535049,0.000907914844727,0.00267794463247,-0.000177686816637,1.0,0.0,-0.00507055842828
1385565827005588528,0.000159076665488,0.00349513537503,0.000143570294128,1.0,0.0,-0.00529606822261
1385565827106628984,-0.000438606481828,0.00429477368136,0.000452103050666,1.0,0.0,-0.00548531861435
1385565827205650944,-0.000825623330153,0.00485306456929,0.000766863714192,1.0,0.0,-0.0056705969951
1385565827306694581,-0.000973190521167,0.00517160970765,0.00108916586663,1.0,0.0,-0.00584871270274
1385565827405676701,-0.000865140060396,0.00529106805282,0.00146916216756,1.0,0.0,-0.00604804090082
1385565827506579715,-0.000433417564572,0.00528435146101,0.00189326004748,1.0,0.0,-0.00621965750814
1385565827605683279,0.00021937699642,0.00505737468849,0.00228276431179,1.0,0.0,-0.00642892907252
1385565827705835805,0.000977186886156,0.00461686913533,0.00259010945825,1.0,0.0,-0.00651760239793
1385565827806601077,0.00189791837125,0.00409385429698,0.00276454939705,1.0,0.0,-0.00670602514728
1385565827905558597,0.00287708060865,0.00342415592511,0.00284296415688,1.0,0.0,-0.00681375431487
1385565828006624810,0.00376678745257,0.0026427080352,0.00280495522592,1.0,0.0,-0.00696450572616
1385565828105622276,0.00471360668464,0.00193785204442,0.00277673211593,1.0,0.0,-0.00712804382213
1385565828206621871,0.00552807588623,0.00123874501229,0.00271729627582,1.0,0.0,-0.00730328265715
1385565828304995389,0.00619664156539,0.000737368113671,0.00259992993711,1.0,0.0,-0.00747011157855
1385565828405613166,0.00680035061942,0.000324724720239,0.00245672541308,1.0,0.0,-0.00759896251574
1385565828505550518,0.00729194286313,0.000110811927356,0.00231791416872,1.0,0.0,-0.00775625236116
1385565828606604302,0.00761370217766,9.8542919506e-05,0.00221157439512,1.0,0.0,-0.00780406692882
1385565828705614563,0.00784874638286,0.0001937700474,0.00216537191317,1.0,0.0,-0.00789298329669
1385565828805569331,0.00790542842879,0.000485299973816,0.00220877066191,1.0,0.0,-0.00799280284516
1385565828905585899,0.0078228422658,0.00079204748973,0.00230872602536,1.0,0.0,-0.00814691200936
1385565829006622232,0.00765909392672,0.00145292322586,0.00235553181388,1.0,0.0,-0.00820006142081
1385565829105641708,0.00728466743322,0.00203649068198,0.00246005144458,1.0,0.0,-0.00831176066585
1385565829205606653,0.00683521530309,0.00266622293174,0.00252649517146,1.0,0.0,-0.00833438555091
1385565829305616811,0.00621679299111,0.00313106589775,0.00261108770838,1.0,0.0,-0.00840929399937
1385565829406549913,0.00565624261161,0.00356571796021,0.00270034034263,1.0,0.0,-0.00846550468912
1385565829505546509,0.00505556947858,0.00372596856525,0.00274102711645,1.0,0.0,-0.00856261807658
1385565829604957161,0.00451325174801,0.00368871397399,0.00269762658528,1.0,0.0,-0.00863721462236
1385565829705624977,0.00404498672762,0.00363527032278,0.00258963664491,1.0,0.0,-0.0086745958284
1385565829806642910,0.00369407317765,0.00341204558387,0.00245373999545,1.0,0.0,-0.00871661419873
1385565829905580961,0.00341945741667,0.00307921188601,0.00223617458465,1.0,0.0,-0.00871752183675
1385565830005586003,0.00333965757625,0.00266134930673,0.0019524170445,1.0,0.0,-0.0086920460403
1385565830106644790,0.00317764591519,0.00228248363554,0.00168158482655,1.0,0.0,-0.00864867809912
1385565830205645241,0.00313396483285,0.00190744188932,0.00138215681989,1.0,0.0,-0.00856916453302
1385565830305020515,0.00309637464684,0.00140385051426,0.00120904233767,1.0,0.0,-0.00850523774162
1385565830404891947,0.00305369883199,0.000970031070809,0.00102084873342,1.0,0.0,-0.0085166216604
1385565830504801874,0.00307808252763,0.000630066700144,0.000848163896899,1.0,0.0,-0.00848933908295
1385565830605573805,0.00304978098643,0.000277289194166,0.000707385384723,1.0,0.0,-0.00846915494805
1385565830706561686,0.00305661823853,4.82080078182e-07,0.000580986746258,1.0,0.0,-0.00846450389135
1385565830804899144,0.00291614983166,-0.000272405155623,0.000460610578425,1.0,0.0,-0.00838876197109
1385565830905571441,0.00276257172514,-0.000429070827032,0.000316230663295,1.0,0.0,-0.00838598958464
1385565831006623325,0.00245186399511,-0.000605013413795,0.000176376726193,1.0,0.0,-0.00836371507587
1385565831104847970,0.00206630630602,-0.000684768488061,3.44799658057e-05,1.0,0.0,-0.00830035013393
1385565831205618683,0.0015558363223,-0.000694476369346,-0.000155862122297,1.0,0.0,-0.00827980300094
1385565831305630956,0.000947635673375,-0.000748432329732,-0.00031890563542,1.0,0.0,-0.00823446087081
1385565831405635866,0.000274557678836,-0.000818446281148,-0.00048936953932,1.0,0.0,-0.008216525794
1385565831505599702,-0.000466714041943,-0.00105284887899,-0.000561658913804,1.0,0.0,-0.00823128692299
1385565831606626847,-0.00119191085565,-0.00147210501157,-0.000559641121567,1.0,0.0,-0.00827384699945
1385565831704708959,-0.00200201455689,-0.00190872498365,-0.000510935293646,1.0,0.0,-0.00828514648583
1385565831805663104,-0.00277969119898,-0.00251155445509,-0.000415564848098,1.0,0.0,-0.00829446127286
1385565831905695993,-0.00345910676883,-0.00306748212403,-0.000259750705979,1.0,0.0,-0.00826798893887
1385565832005636821,-0.00410958742605,-0.00353980456718,-7.87524643255e-05,1.0,0.0,-0.00828872694226
1385565832105703807,-0.00461464959924,-0.0039989933164,2.7971757002e-05,1.0,0.0,-0.00830452969714
1385565832205557020,-0.00500806503368,-0.00434905545288,0.000101037109063,1.0,0.0,-0.00832574719284
1385565832305637887,-0.00527379940319,-0.00456874337919,6.29589260075e-05,1.0,0.0,-0.00835654005762
1385565832406611201,-0.00546475808679,-0.00477190176678,4.86178837074e-05,1.0,0.0,-0.0084040444264
1385565832505535194,-0.00551240933758,-0.00482908986457,4.27339836121e-05,1.0,0.0,-0.0084061743949
1385565832605580200,-0.00552763533864,-0.00473807508877,6.72559117157e-05,1.0,0.0,-0.00847792405957
1385565832706621599,-0.00550930798461,-0.00452296445247,0.000161580629217,1.0,0.0,-0.00849785208633
1385565832805587453,-0.00550068890153,-0.00414830239435,0.000301578793996,1.0,0.0,-0.00855211937124
1385565832906521673,-0.00544208780043,-0.00386869335118,0.000393280729069,1.0,0.0,-0.0086184808739
1385565833005646112,-0.00534704891873,-0.00364089483513,0.000406488267625,1.0,0.0,-0.00866753683361
1385565833105671248,-0.00532500680944,-0.00366107607145,0.000357947614083,1.0,0.0,-0.00874539621321
1385565833206607748,-0.00522161312298,-0.00372634842962,0.000292001798317,1.0,0.0,-0.00880743175794
1385565833305648548,-0.00517053496309,-0.00397479341933,0.000283565154025,1.0,0.0,-0.00893265016587
1385565833405569956,-0.00512520051994,-0.00426836839784,0.000227234077714,1.0,0.0,-0.00908412439042
1385565833506647316,-0.00512004054746,-0.00455654810245,0.000127127513572,1.0,0.0,-0.00927689758728
1385565833605571991,-0.00506507541201,-0.00485344889193,7.11649600629e-05,1.0,0.0,-0.00946579059555
1385565833705614306,-0.00497742985168,-0.00491970899614,6.34243527697e-06,1.0,0.0,-0.00967622943359
1385565833806698832,-0.00481802484251,-0.00488892116373,3.76610369357e-06,1.0,0.0,-0.00989357615139
1385565833904768711,-0.00458709191048,-0.00464149169458,-1.10771311556e-05,1.0,0.0,-0.0100830993029
1385565834005660512,-0.0042157752002,-0.00417839994318,1.0942131658e-05,1.0,0.0,-0.0103278505371
1385565834105616265,-0.00381542085434,-0.00361499120855,9.17514153496e-05,1.0,0.0,-0.01050298052
1385565834206539577,-0.00322553742381,-0.00289634403747,0.000183956647266,1.0,0.0,-0.0107018249377
1385565834305575060,-0.0024338397255,-0.00213501711289,0.000296600872606,1.0,0.0,-0.0108719422892
1385565834405659944,-0.00150088656453,-0.00142653579969,0.000361357428184,1.0,0.0,-0.0110501169955
1385565834505557912,-0.000444532690325,-0.000767041483279,0.000369726264158,1.0,0.0,-0.0112547946021
1385565834606535938,0.000631121137992,-0.000234530393453,0.000338966413972,1.0,0.0,-0.0114260753939
1385565834705616338,0.00171245162739,0.000318533881924,0.000251286637339,1.0,0.0,-0.0115753007678
1385565834806714408,0.00260437102739,0.000654977611998,0.000191610104589,1.0,0.0,-0.0116966730353
1385565834904737127,0.00329125702614,0.00106960427196,6.50828855658e-05,1.0,0.0,-0.0118383522114
1385565835005584035,0.00367803566424,0.00122059913743,-7.66320693118e-05,1.0,0.0,-0.01192411376
1385565835105576583,0.00379401851281,0.001366242711,-0.000287922591918,1.0,0.0,-0.0120591048293
1385565835205565618,0.00361667729627,0.0013096176887,-0.000562416311212,1.0,0.0,-0.0121789051151
1385565835306674674,0.00325318193925,0.00118267223628,-0.000844370995452,1.0,0.0,-0.0124124216572
1385565835405571245,0.00269334594801,0.000844704138987,-0.00115783863679,1.0,0.0,-0.0125920268977
1385565835504759811,0.00207312142012,0.000468019042977,-0.0014017710871,1.0,0.0,-0.0128370126581
1385565835605627334,0.00133890554915,-1.01837774522e-06,-0.00158383773666,1.0,0.0,-0.0130082003357
1385565835705738622,0.000586992235486,-0.000524329784777,-0.00168516498108,1.0,0.0,-0.0132446830495
1385565835806776956,-0.000206774154436,-0.00105225340672,-0.00175711967469,1.0,0.0,-0.0134643392307
1385565835905661526,-0.000963123891005,-0.00167823953183,-0.00176403472921,1.0,0.0,-0.0136808953679
1385565836005572230,-0.00171035073867,-0.00223382557471,-0.0017311599392,1.0,0.0,-0.0138991112675
1385565836105595411,-0.00243056040999,-0.00276086065427,-0.00165856834614,1.0,0.0,-0.0141536291956
1385565836206658609,-0.00308583953847,-0.00318858287723,-0.00161249012346,1.0,0.0,-0.0144122915349
1385565836305788765,-0.00360580127194,-0.00358576270155,-0.00160677560837,1.0,0.0,-0.0145921324154
1385565836406772213,-0.00404295478266,-0.00388834672214,-0.00162831495561,1.0,0.0,-0.0148220986528
1385565836505676710,-0.00438332630817,-0.00414525947743,-0.00165244723847,1.0,0.0,-0.0150472127542
1385565836605539711,-0.00463731430826,-0.00434219113856,-0.00167791485742,1.0,0.0,-0.0153209708838
1385565836705650985,-0.00484965408839,-0.00455703438975,-0.00168303879129,1.0,0.0,-0.0155892457385
1385565836806790136,-0.00483235437055,-0.0047755066701,-0.00167577576616,1.0,0.0,-0.0159018039537
1385565836905656522,-0.0047954366368,-0.00500560396668,-0.00163142882732,1.0,0.0,-0.0162586768183
1385565837005548037,-0.00469349839156,-0.00531906386693,-0.00150652949486,1.0,0.0,-0.0166299860751
1385565837105639619,-0.00450461173879,-0.00553018485444,-0.00132862440831,1.0,0.0,-0.0169287521146
1385565837206529006,-0.00427972832845,-0.00581884373731,-0.00107774896052,1.0,0.0,-0.0173414918001
1385565837305698037,-0.00406418469916,-0.00603329746337,-0.000745258815621,1.0,0.0,-0.017719293111
1385565837405636661,-0.00383858819677,-0.0062249453015,-0.000410250610406,1.0,0.0,-0.0181379124549
1385565837506643695,-0.00358523629015,-0.00636285633371,-8.82216342041e-05,1.0,0.0,-0.0185625451255
1385565837606562889,-0.00328580141412,-0.00650874275193,0.000195774610002,1.0,0.0,-0.0190050020457
1385565837705691734,-0.00296306848182,-0.0065464481143,0.000434713518627,1.0,0.0,-0.0194427427412
1385565837806599889,-0.00257280445211,-0.00662892378386,0.000643597691615,1.0,0.0,-0.0197936622299
1385565837905627818,-0.00217387524193,-0.00680227461679,0.000859460440587,1.0,0.0,-0.0201410945074
1385565838006560117,-0.00177309021427,-0.00698824798574,0.00101807679503,1.0,0.0,-0.0205549500079
1385565838105559591,-0.00143865604745,-0.00713075389875,0.00118084312814,1.0,0.0,-0.020960118605
1385565838206637898,-0.00110678015354,-0.00724450000227,0.00127947149446,1.0,0.0,-0.0213555132144
1385565838304878022,-0.000805033313681,-0.00743819603672,0.00129752780905,1.0,0.0,-0.0217803944559
1385565838405757154,-0.00054086477174,-0.00752824380131,0.00131580103871,1.0,0.0,-0.0221522240999
1385565838505552561,-0.000307606264035,-0.00756090900651,0.00130150932017,1.0,0.0,-0.0225297528674
1385565838606584964,-0.000150034125459,-0.00781280383114,0.00120426681443,1.0,0.0,-0.0228839135933
1385565838705102312,5.30712270214e-05,-0.00797044965368,0.00102633013597,1.0,0.0,-0.0232351161899
1385565838805616449,0.000132404153892,-0.00842690947474,0.000837146899786,1.0,0.0,-0.0234940966521
1385565838905578910,0.000242077023807,-0.00866388302594,0.000610596961566,1.0,0.0,-0.0237472061117
1385565839005684874,0.00029829246752,-0.00956745435362,0.000386933176089,1.0,0.0,-0.0239098964692
1385565839105543702,0.000314739785744,-0.0101633363819,0.000135982159956,1.0,0.0,-0.0241004437227
1385565839205606138,0.000227112970757,-0.0110689007988,-0.000150622068378,1.0,0.0,-0.0242900242594
1385565839305585973,8.24360248789e-05,-0.0120011132602,-0.000457692105508,1.0,0.0,-0.024421584711
1385565839406581529,-7.16304672168e-05,-0.0128760229433,-0.000759124953404,1.0,0.0,-0.0245851384181
1385565839505586936,-0.000200520991778,-0.0138565968581,-0.00108848558872,1.0,0.0,-0.0246508568687
1385565839605576526,-0.000150327894919,-0.0145328039573,-0.00138811492716,1.0,0.0,-0.0246958895108
1385565839706623912,-6.94477161097e-05,-0.0151900159309,-0.00167467409305,1.0,0.0,-0.0246961442084
1385565839805564910,0.000173715825253,-0.0156457731258,-0.0018064200008,1.0,0.0,-0.0246756586061
1385565839905559791,0.000512557006812,-0.0158999281419,-0.00189084573361,1.0,0.0,-0.0246410403844
1385565840005732232,0.00100264578984,-0.0159542899477,-0.00194176739857,1.0,0.0,-0.0245879537538
1385565840106579875,0.00149002494526,-0.0159957006,-0.00193671223492,1.0,0.0,-0.024487785034
1385565840206572197,0.00220117693655,-0.0158370053941,-0.00185129687049,1.0,0.0,-0.0243699050447
1385565840305619264,0.0029405628698,-0.0157602626889,-0.00177828782605,1.0,0.0,-0.0242530678929
1385565840406577760,0.00375210738623,-0.0152995205463,-0.00161271833806,1.0,0.0,-0.0241770400405
1385565840505675123,0.00487544329547,-0.0151271028119,-0.00132992921177,1.0,0.0,-0.0240104123245
1385565840606632887,0.00588235021346,-0.0145579134924,-0.00110913399534,1.0,0.0,-0.0238499553874
1385565840705623886,0.00690017627097,-0.013974294566,-0.000839838658174,1.0,0.0,-0.0236179594959
1385565840805636770,0.00781363807379,-0.0131273899792,-0.000631139410469,1.0,0.0,-0.0234090003454
1385565840905590378,0.00836646865748,-0.0123474115231,-0.000493807767394,1.0,0.0,-0.0231654617891
1385565841005588658,0.00912452503139,-0.0114997844909,-0.000460866535652,1.0,0.0,-0.0227527782817
1385565841105594872,0.00954074850303,-0.0107138814259,-0.000447046135596,1.0,0.0,-0.0223573433893
1385565841206511269,0.00987333484218,-0.010139975354,-0.000418064260937,1.0,0.0,-0.0218889862413
1385565841305704090,0.0100561656049,-0.00971926352623,-0.00040872487311,1.0,0.0,-0.0214140073492
1385565841406538304,0.0101315481761,-0.00937820424576,-0.000446715737546,1.0,0.0,-0.0209523020543
1385565841506611331,0.0100409470524,-0.00926109713573,-0.000389494707061,1.0,0.0,-0.0204769999064
1385565841605692255,0.00981060525526,-0.00929848432908,-0.000261485710714,1.0,0.0,-0.0199997389881
1385565841705608970,0.00938159107743,-0.00942135386338,-0.000184855803508,1.0,0.0,-0.0195552189149
1385565841806686851,0.00879090999313,-0.0096274833239,-0.000133389613769,1.0,0.0,-0.0190629122523
1385565841905692635,0.00804156934404,-0.00971929854439,-0.000128894996222,1.0,0.0,-0.0185658861239
1385565842005624590,0.00717530054283,-0.00982748012842,-3.5493611536e-05,1.0,0.0,-0.0180866899893
1385565842106811801,0.00623082627722,-0.00979177650412,3.77171783151e-05,1.0,0.0,-0.0176235240791
1385565842204650525,0.00532966849706,-0.00960970583736,0.000128867400397,1.0,0.0,-0.0171268727356
1385565842305595954,0.00439394140536,-0.00919070436609,0.000148862939197,1.0,0.0,-0.0166930631081
1385565842406537750,0.00362093087851,-0.00865297485432,0.000200751015527,1.0,0.0,-0.016212261724
1385565842505542098,0.00299204301328,-0.00795763769918,0.000208605499672,1.0,0.0,-0.015847729836
1385565842605674010,0.00265853909632,-0.00701198962417,0.000243371351537,1.0,0.0,-0.0153761374196
1385565842705652118,0.00260881028291,-0.00605861422268,0.000243105641115,1.0,0.0,-0.0149650977308
1385565842806123859,0.00283719592319,-0.00501094690456,0.000300059907608,1.0,0.0,-0.0145230843099
1385565842906584989,0.00331761897848,-0.00409661103616,0.000473882360726,1.0,0.0,-0.0140819173375
1385565843005557817,0.00388498196229,-0.00330942285697,0.000610148625649,1.0,0.0,-0.0136787261693
1385565843106611061,0.00469566991563,-0.00238012462519,0.000688784607208,1.0,0.0,-0.0132356438585
