%time,field.header.seq,field.header.stamp,field.header.frame_id,field.child_frame_id,field.transform.translation.x,field.transform.translation.y,field.transform.translation.z,field.transform.rotation.x,field.transform.rotation.y,field.transform.rotation.z,field.transform.rotation.w
1385565776172469261,302606,1385565776172469261,/world,vicon/Archie/Archie,-0.0168737922942,-0.198332490215,0.111127234723,0.00423247531365,0.00210880920778,0.708359932181,0.705835565523
1385565776182383075,302607,1385565776182383075,/world,vicon/Archie/Archie,-0.0168739390518,-0.19833756286,0.111121268915,0.00423246632925,0.00209421450496,0.708366259076,0.705829259451
1385565776192410428,302608,1385565776192410428,/world,vicon/Archie/Archie,-0.0168678446506,-0.198337658018,0.111127461201,0.00422552151225,0.00209336161926,0.708366873667,0.70582868679
1385565776202375796,302609,1385565776202375796,/world,vicon/Archie/Archie,-0.0168719816577,-0.198345216172,0.111122071514,0.00422955944989,0.00209599065317,0.708375123055,0.705820375653
1385565776212468773,302610,1385565776212468773,/world,vicon/Archie/Archie,-0.0168646175898,-0.198337027801,0.1111241999,0.00422887172095,0.00209379535411,0.708368641266,0.70582689148
1385565776222463356,302611,1385565776222463356,/world,vicon/Archie/Archie,-0.0168752647058,-0.198339590529,0.111120372387,0.0042340082585,0.00209576860993,0.708379647813,0.705815808474
1385565776232232549,302612,1385565776232232549,/world,vicon/Archie/Archie,-0.0168531881277,-0.198363312006,0.111085076863,0.00434521455649,0.00192960365694,0.708378067057,0.705817192942
1385565776242857663,302613,1385565776242857663,/world,vicon/Archie/Archie,-0.0168578080941,-0.19836810586,0.11108148243,0.00436166482661,0.00191544077653,0.708375053991,0.70582015404
1385565776252419579,302614,1385565776252419579,/world,vicon/Archie/Archie,-0.0168719020423,-0.198344171029,0.111121982493,0.00422776379762,0.00210582412886,0.708373305229,0.705822181543
1385565776262387664,302615,1385565776262387664,/world,vicon/Archie/Archie,-0.0168733215744,-0.198339701113,0.111122163133,0.00423163125813,0.0021013941159,0.708371851389,0.705823630661
1385565776272315875,302616,1385565776272315875,/world,vicon/Archie/Archie,-0.0168698432814,-0.198341395815,0.111117484746,0.00422696500628,0.00208243909172,0.708375854697,0.705819697016
1385565776282296311,302617,1385565776282296311,/world,vicon/Archie/Archie,-0.0168622183056,-0.198345939582,0.111119590329,0.00425313342751,0.00207469444845,0.70835971845,0.705835756941
1385565776292396791,302618,1385565776292396791,/world,vicon/Archie/Archie,-0.0168656857776,-0.198337746225,0.111122703761,0.00423549976021,0.00210250415426,0.708371442455,0.705824014562
1385565776302465406,302619,1385565776302465406,/world,vicon/Archie/Archie,-0.0168684730264,-0.198334598574,0.11112367038,0.00422690914701,0.00210421441662,0.708370961017,0.705824544139
1385565776312685611,302620,1385565776312685611,/world,vicon/Archie/Archie,-0.0168689672274,-0.198342723476,0.111123210949,0.00425034761634,0.00208989276886,0.708365600499,0.705829825753
1385565776322580076,302621,1385565776322580076,/world,vicon/Archie/Archie,-0.0168642361463,-0.198343459112,0.111118846173,0.00423932629004,0.00209046167307,0.708369384865,0.705826092369
1385565776332295825,302622,1385565776332295825,/world,vicon/Archie/Archie,-0.0168669371615,-0.198341539793,0.111123046759,0.00422267673442,0.00210473059849,0.70835719213,0.705838386225
1385565776342542100,302623,1385565776342542100,/world,vicon/Archie/Archie,-0.0168644422493,-0.198342199038,0.111124558676,0.00422644651343,0.00209899208326,0.708359783963,0.705835779658
1385565776352427827,302624,1385565776352427827,/world,vicon/Archie/Archie,-0.0169279464767,-0.198327587612,0.111057327053,0.00449462552624,0.00177825962431,0.708318926576,0.705876004967
1385565776362494514,302625,1385565776362494514,/world,vicon/Archie/Archie,-0.0168691455642,-0.198339225364,0.111118985662,0.00423035201437,0.00208889728328,0.708372600673,0.705822923434
1385565776373099510,302626,1385565776373099510,/world,vicon/Archie/Archie,-0.0168728754683,-0.198335882774,0.11112246738,0.00423294021558,0.00209285231612,0.708371992213,0.705823506859
1385565776382438263,302627,1385565776382438263,/world,vicon/Archie/Archie,-0.0168693443529,-0.198336830246,0.111124362307,0.00422012034218,0.00208504434533,0.708369991169,0.705825614997
1385565776392537616,302628,1385565776392537616,/world,vicon/Archie/Archie,-0.0168644796092,-0.198341236365,0.111120751816,0.00422005659617,0.0020863767802,0.708369119733,0.705826486017
1385565776402446486,302629,1385565776402446486,/world,vicon/Archie/Archie,-0.0168716204496,-0.198338056368,0.111118847597,0.00423600920215,0.00208667151488,0.708369473857,0.705826034187
1385565776412386321,302630,1385565776412386321,/world,vicon/Archie/Archie,-0.0168646397481,-0.198345870693,0.11112284171,0.00425349071764,0.00208418320836,0.70836644513,0.705828976035
1385565776422534156,302631,1385565776422534156,/world,vicon/Archie/Archie,-0.016871096053,-0.198340337709,0.111122137625,0.00425648304197,0.00209222591752,0.708361181136,0.705834217081
1385565776432365562,302632,1385565776432365562,/world,vicon/Archie/Archie,-0.0168632615166,-0.198356109223,0.111087068824,0.00437751656586,0.00191246299052,0.708377824787,0.705817283144
1385565776442392973,302633,1385565776442392973,/world,vicon/Archie/Archie,-0.0168633208494,-0.198366877705,0.111083248072,0.00435663504389,0.00192679719744,0.708376010962,0.705819193758
1385565776452408993,302634,1385565776452408993,/world,vicon/Archie/Archie,-0.016868025063,-0.198342377048,0.111118283595,0.00423509687866,0.0020934644714,0.708363994823,0.705831518281
1385565776462468116,302635,1385565776462468116,/world,vicon/Archie/Archie,-0.0168689338402,-0.198341530349,0.111116202271,0.00423013853063,0.00209391408494,0.708367878627,0.705827648921
1385565776472436380,302636,1385565776472436380,/world,vicon/Archie/Archie,-0.0168647194526,-0.198350535306,0.111113347839,0.00423812392193,0.0020784140389,0.708360375946,0.705835176433
1385565776482398816,302637,1385565776482398816,/world,vicon/Archie/Archie,-0.0168678879258,-0.198356204475,0.11111792861,0.00421780917174,0.00211133468062,0.708368523635,0.70582702348
1385565776492356815,302638,1385565776492356815,/world,vicon/Archie/Archie,-0.0169298019441,-0.198354651703,0.111047053169,0.0045092674778,0.0017444523904,0.708327195721,0.705867698082
1385565776502419597,302639,1385565776502419597,/world,vicon/Archie/Archie,-0.0168715120883,-0.198349908228,0.111123056619,0.00422586947976,0.00209888212775,0.708364495266,0.705831055258
1385565776512480315,302640,1385565776512480315,/world,vicon/Archie/Archie,-0.016871200392,-0.198353966561,0.111126763287,0.00421505951064,0.00209379884479,0.708361796585,0.70583384335
1385565776522551604,302641,1385565776522551604,/world,vicon/Archie/Archie,-0.0168719429088,-0.198350153563,0.111123004347,0.00424428323475,0.00207696398075,0.708372742421,0.705822732756
1385565776532325995,302642,1385565776532325995,/world,vicon/Archie/Archie,-0.0169163791426,-0.198421780813,0.111143752923,0.00461149417841,0.00169686776722,0.708441133681,0.705752800115
1385565776542485425,302643,1385565776542485425,/world,vicon/Archie/Archie,-0.0168858437242,-0.198349802582,0.111129940217,0.00423356945347,0.0020739432363,0.708363856082,0.705831724312
1385565776552352674,302644,1385565776552352674,/world,vicon/Archie/Archie,-0.0169169033836,-0.198412592266,0.111145263344,0.00461591774628,0.00168459137905,0.708427698647,0.70576628656
1385565776562441173,302645,1385565776562441173,/world,vicon/Archie/Archie,-0.0168747633938,-0.198363495956,0.111089260999,0.00434426640152,0.00190386765577,0.708379877322,0.70581545183
1385565776572543233,302646,1385565776572543233,/world,vicon/Archie/Archie,-0.0169217120609,-0.198395084137,0.11118049956,0.0044802570141,0.00188032152981,0.708427450235,0.705766915802
1385565776582486252,302647,1385565776582486252,/world,vicon/Archie/Archie,-0.0168728446916,-0.198372219854,0.111093441806,0.00433336235851,0.00191832296474,0.708365462652,0.705829946467
1385565776592509015,302648,1385565776592509015,/world,vicon/Archie/Archie,-0.0168778511265,-0.198347149798,0.111129095867,0.00424061836621,0.00208430899377,0.708368108975,0.705827383288
1385565776602338516,302649,1385565776602338516,/world,vicon/Archie/Archie,-0.016877535746,-0.198347141693,0.111129632407,0.0042428433503,0.0020857231392,0.708362113014,0.705833383233
1385565776612479307,302650,1385565776612479307,/world,vicon/Archie/Archie,-0.0168743110362,-0.198345042031,0.111131709136,0.00422994558617,0.00208137814292,0.708359520785,0.705836074977
1385565776622444454,302651,1385565776622444454,/world,vicon/Archie/Archie,-0.0168665959662,-0.198371213496,0.111091541008,0.00435649180608,0.00193348081788,0.708367568826,0.705827648982
1385565776632396942,302652,1385565776632396942,/world,vicon/Archie/Archie,-0.0168735214696,-0.198344869136,0.111121684187,0.00422170010855,0.00209498009377,0.708365666868,0.705829915992
1385565776642362732,302653,1385565776642362732,/world,vicon/Archie/Archie,-0.0168676915389,-0.198373476102,0.111087269283,0.00437053583938,0.00190867286294,0.708367774742,0.705827423023
1385565776652295258,302654,1385565776652295258,/world,vicon/Archie/Archie,-0.0169247080096,-0.198361570634,0.111014117789,0.00463550337029,0.00157170648592,0.708324343333,0.705870148462
1385565776662571349,302655,1385565776662571349,/world,vicon/Archie/Archie,-0.0168601901927,-0.198364603084,0.111084064768,0.00434929630189,0.00191565896124,0.708370721774,0.705824577644
1385565776672553648,302656,1385565776672553648,/world,vicon/Archie/Archie,-0.0168666756192,-0.198346404539,0.111127923985,0.00420656701624,0.00209304742848,0.708367024632,0.705828649433
1385565776682566196,302657,1385565776682566196,/world,vicon/Archie/Archie,-0.016870176031,-0.198341136184,0.11112279833,0.00422951118285,0.00208643449441,0.708362897462,0.705832673886
1385565776692564034,302658,1385565776692564034,/world,vicon/Archie/Archie,-0.0168736649558,-0.198343730579,0.111127403119,0.00424971580981,0.00208303691548,0.708376783193,0.705818626777
1385565776702475324,302659,1385565776702475324,/world,vicon/Archie/Archie,-0.0168648657055,-0.198344533645,0.111122533678,0.00423990092848,0.00210327745188,0.708360177086,0.705835291681
1385565776712487793,302660,1385565776712487793,/world,vicon/Archie/Archie,-0.0168712950999,-0.198345259446,0.111123480781,0.0042316605338,0.0020827489677,0.708363280927,0.705832287048
1385565776722465072,302661,1385565776722465072,/world,vicon/Archie/Archie,-0.0168776418659,-0.198344465155,0.111131575097,0.00422209575728,0.00211116703267,0.708374379229,0.705821121626
1385565776732478853,302662,1385565776732478853,/world,vicon/Archie/Archie,-0.016875131641,-0.19834004051,0.111118447035,0.00420508108707,0.00209863629482,0.708369676427,0.70582598035
1385565776742382295,302663,1385565776742382295,/world,vicon/Archie/Archie,-0.0168673686057,-0.198366949081,0.111081118451,0.00435525418157,0.0019167543208,0.708362444825,0.705832844642
1385565776752425594,302664,1385565776752425594,/world,vicon/Archie/Archie,-0.0169182666393,-0.198388982499,0.111179411167,0.0044874903783,0.00188257674333,0.708413796412,0.705780568865
1385565776762441058,302665,1385565776762441058,/world,vicon/Archie/Archie,-0.0168607438726,-0.198344803089,0.111122129037,0.00422987762021,0.00210556622212,0.708360583574,0.705834937053
1385565776772491321,302666,1385565776772491321,/world,vicon/Archie/Archie,-0.0168700428539,-0.198368440829,0.111085181336,0.00436218207494,0.00191309603565,0.70837111287,0.705824112568
1385565776782384332,302667,1385565776782384332,/world,vicon/Archie/Archie,-0.0169375562099,-0.198330211809,0.111057028015,0.00449249338765,0.00176216932953,0.708321249019,0.705873728404
1385565776792466933,302668,1385565776792466933,/world,vicon/Archie/Archie,-0.0168719733473,-0.198341864571,0.111121919917,0.00422388788212,0.00210952836527,0.708364068855,0.705831463323
1385565776802480273,302669,1385565776802480273,/world,vicon/Archie/Archie,-0.0168691272664,-0.198345421948,0.111126211668,0.00424123470413,0.00207247388657,0.708363138468,0.705832402798
1385565776812497723,302670,1385565776812497723,/world,vicon/Archie/Archie,-0.0169166407651,-0.198387689153,0.111180105509,0.00448133841276,0.00187808594824,0.708431099102,0.705763252249
1385565776822600657,302671,1385565776822600657,/world,vicon/Archie/Archie,-0.0168683701453,-0.198364346482,0.11108156903,0.00435062326759,0.0019188420536,0.708377207728,0.705818051409
1385565776833013549,302672,1385565776833013549,/world,vicon/Archie/Archie,-0.0168586727196,-0.19837356818,0.111092605735,0.00436310013525,0.00191459943947,0.708364995422,0.705830242287
1385565776842544712,302673,1385565776842544712,/world,vicon/Archie/Archie,-0.0168687261047,-0.198345485511,0.111119653621,0.00421933102282,0.00210839083452,0.708355830676,0.705839761618
1385565776852509845,302674,1385565776852509845,/world,vicon/Archie/Archie,-0.0168810889519,-0.198345836848,0.111115848482,0.00422206592866,0.00210377636328,0.708371423185,0.705824110597
1385565776862988376,302675,1385565776862988376,/world,vicon/Archie/Archie,-0.0168674333391,-0.198344557985,0.11112501483,0.00423369287062,0.00209546691316,0.70836254245,0.705832978343
1385565776872521889,302676,1385565776872521889,/world,vicon/Archie/Archie,-0.0168731180124,-0.198345541553,0.111117258454,0.00423241937888,0.00210058540005,0.708358907121,0.705836619105
1385565776882369896,302677,1385565776882369896,/world,vicon/Archie/Archie,-0.0169315717692,-0.198337828048,0.111047291831,0.00448364461942,0.00177510298388,0.708308675335,0.705886369316
1385565776892413338,302678,1385565776892413338,/world,vicon/Archie/Archie,-0.0169293249139,-0.198344495349,0.111043087075,0.00447768493252,0.0017834854644,0.708319193684,0.705875831415
1385565776902488722,302679,1385565776902488722,/world,vicon/Archie/Archie,-0.0168519375209,-0.198375379976,0.111077634862,0.0043438238523,0.00192392575242,0.708373233467,0.705822068097
1385565776912757738,302680,1385565776912757738,/world,vicon/Archie/Archie,-0.0169152008106,-0.198385971438,0.111179599388,0.00446612607201,0.00188776390285,0.708416702873,0.705777773209
1385565776922551285,302681,1385565776922551285,/world,vicon/Archie/Archie,-0.0169255519421,-0.198363848678,0.11100174715,0.00463763575136,0.00156818085155,0.708322971534,0.705871518863
1385565776932496178,302682,1385565776932496178,/world,vicon/Archie/Archie,-0.0168553308491,-0.198369647642,0.111075913506,0.00434951185388,0.00194075410502,0.708371269217,0.705823958341
1385565776942491944,302683,1385565776942491944,/world,vicon/Archie/Archie,-0.0169379792538,-0.198335071127,0.111054034585,0.00447525285215,0.00178564913221,0.70832126143,0.70587376646
1385565776952424890,302684,1385565776952424890,/world,vicon/Archie/Archie,-0.0168640961874,-0.198361521275,0.111087693075,0.00435242086844,0.00193205182049,0.708374916057,0.705820304262
1385565776962627956,302685,1385565776962627956,/world,vicon/Archie/Archie,-0.0168637655778,-0.198351294667,0.111088671401,0.00434237086058,0.00191366644084,0.708376284513,0.70581904284
1385565776972675487,302686,1385565776972675487,/world,vicon/Archie/Archie,-0.0168765943529,-0.198341245889,0.111114180912,0.00422904744655,0.00209835202274,0.708364760836,0.705830771277
1385565776984056505,302687,1385565776984056505,/world,vicon/Archie/Archie,-0.016867317231,-0.198339502486,0.111121259369,0.00424051211499,0.00210214203584,0.708372884807,0.705822537984
1385565776992439149,302688,1385565776992439149,/world,vicon/Archie/Archie,-0.0168701282742,-0.198339081876,0.111118551947,0.00423267610097,0.00208851886854,0.708368200359,0.705827326803
1385565777002656857,302689,1385565777002656857,/world,vicon/Archie/Archie,-0.0168775580868,-0.198339679888,0.111120839784,0.00423816192203,0.00210854279901,0.708367709458,0.705827727018
1385565777012437901,302690,1385565777012437901,/world,vicon/Archie/Archie,-0.0168634797273,-0.198363191831,0.111079621699,0.00436378222573,0.00191325498539,0.708369343106,0.705825878392
1385565777022543655,302691,1385565777022543655,/world,vicon/Archie/Archie,-0.0168815081202,-0.198340714056,0.111122021343,0.00423132951152,0.0021034861963,0.708364045273,0.70583146045
1385565777032355659,302692,1385565777032355659,/world,vicon/Archie/Archie,-0.0169291134215,-0.198359698627,0.111011078298,0.00465623745462,0.00156386163382,0.708325082561,0.70586928762
1385565777042469660,302693,1385565777042469660,/world,vicon/Archie/Archie,-0.0168671515598,-0.198368102094,0.111081628601,0.00435969234611,0.00192918144174,0.708372052989,0.705823140657
1385565777052427663,302694,1385565777052427663,/world,vicon/Archie/Archie,-0.0168783107315,-0.198339216804,0.111124458085,0.0042286475874,0.00208963935539,0.708370903844,0.705824634406
1385565777062633866,302695,1385565777062633866,/world,vicon/Archie/Archie,-0.0168836468728,-0.198332679508,0.111119516226,0.00422687594144,0.00211439768141,0.70837246296,0.705823006541
1385565777072440872,302696,1385565777072440872,/world,vicon/Archie/Archie,-0.0168723465377,-0.198331852807,0.111115391792,0.00423290721543,0.00209243643649,0.708363566011,0.705831964815
1385565777082460563,302697,1385565777082460563,/world,vicon/Archie/Archie,-0.0168738605785,-0.198339655676,0.111122322635,0.00423335520581,0.00210065147338,0.70837210959,0.7058233634
1385565777092508947,302698,1385565777092508947,/world,vicon/Archie/Archie,-0.0168863933534,-0.198337242466,0.111123468501,0.00424595338232,0.00207613410539,0.708377524277,0.705817925988
1385565777102410825,302699,1385565777102410825,/world,vicon/Archie/Archie,-0.0168752595995,-0.198368054522,0.111078023123,0.0043656020664,0.00192040027882,0.708377951865,0.705817207847
1385565777112531190,302700,1385565777112531190,/world,vicon/Archie/Archie,-0.0168724156553,-0.198360694387,0.11108205338,0.00436352266593,0.00191608105867,0.708378645291,0.705816536501
1385565777122707590,302701,1385565777122707590,/world,vicon/Archie/Archie,-0.0168761853658,-0.198340409887,0.111118420099,0.00423616114948,0.0020922170987,0.708369140973,0.705826350941
1385565777132358436,302702,1385565777132358436,/world,vicon/Archie/Archie,-0.0169266273485,-0.198346052786,0.111013626182,0.00464182656951,0.00157384441494,0.708327421746,0.705867013015
1385565777142519067,302703,1385565777142519067,/world,vicon/Archie/Archie,-0.0168720344514,-0.198338906348,0.111118424556,0.00422462684696,0.00210510727942,0.708367976298,0.705827550615
1385565777152421526,302704,1385565777152421526,/world,vicon/Archie/Archie,-0.0168701846095,-0.198340520883,0.111116487693,0.00423025350949,0.00208519146778,0.708374718165,0.705820809835
1385565777162458983,302705,1385565777162458983,/world,vicon/Archie/Archie,-0.0168747643801,-0.198339495518,0.111115849298,0.00423057749155,0.00210557304987,0.708368126664,0.705827362676
1385565777172517770,302706,1385565777172517770,/world,vicon/Archie/Archie,-0.0168758009341,-0.198337556256,0.111119198806,0.00422323180754,0.00208895659775,0.708365622842,0.705829968866
1385565777182477913,302707,1385565777182477913,/world,vicon/Archie/Archie,-0.0168692290558,-0.198341585128,0.111117175121,0.00423805066281,0.00209378853448,0.708365131533,0.7058303588
1385565777192527063,302708,1385565777192527063,/world,vicon/Archie/Archie,-0.0168771193005,-0.198336890077,0.11112065143,0.00422913221111,0.00210394968516,0.708373481437,0.70582200209
1385565777202384566,302709,1385565777202384566,/world,vicon/Archie/Archie,-0.0168740412298,-0.198335924945,0.11112005225,0.004231462724,0.00209301299197,0.708371984337,0.705823523146
1385565777212509800,302710,1385565777212509800,/world,vicon/Archie/Archie,-0.0168734760949,-0.198338149724,0.111120651214,0.00424565422445,0.00209396790283,0.708365677055,0.705829765091
1385565777222474409,302711,1385565777222474409,/world,vicon/Archie/Archie,-0.0168721245485,-0.198342672459,0.111116068514,0.00423109776588,0.00209775932502,0.708361682945,0.705833849679
1385565777232519779,302712,1385565777232519779,/world,vicon/Archie/Archie,-0.0168643553682,-0.198361660247,0.111081518225,0.00436231540708,0.00191591756064,0.708367504471,0.705827725493
1385565777242636914,302713,1385565777242636914,/world,vicon/Archie/Archie,-0.0168723264784,-0.198340971888,0.111119364338,0.00421681080177,0.0021047727572,0.70837014715,0.705825419679
1385565777252338911,302714,1385565777252338911,/world,vicon/Archie/Archie,-0.0168674228313,-0.198344007374,0.111117638153,0.00422759992198,0.0020921310252,0.708361012795,0.705834559892
1385565777262395142,302715,1385565777262395142,/world,vicon/Archie/Archie,-0.0168714987172,-0.198346774949,0.111115782035,0.00423314253711,0.00209375700259,0.70836250361,0.705833025697
1385565777272508319,302716,1385565777272508319,/world,vicon/Archie/Archie,-0.0168748348724,-0.198343478265,0.111116656515,0.0042160391646,0.00211284509612,0.70836762737,0.705827929026
1385565777282341710,302717,1385565777282341710,/world,vicon/Archie/Archie,-0.0168777921544,-0.198345161481,0.111108464121,0.00422797449728,0.0021015690799,0.708365524227,0.705830002002
1385565777292461592,302718,1385565777292461592,/world,vicon/Archie/Archie,-0.0169214369071,-0.198387687634,0.111168356384,0.00448456754126,0.00186257462102,0.70842803326,0.705766350262
1385565777302597961,302719,1385565777302597961,/world,vicon/Archie/Archie,-0.0168784495991,-0.198347005749,0.111113711444,0.00423142289177,0.00208388312887,0.708360191844,0.705835385272
1385565777312415178,302720,1385565777312415178,/world,vicon/Archie/Archie,-0.0169384591746,-0.198337642225,0.111051320338,0.00450024198927,0.00176638591178,0.708316673124,0.705878260238
1385565777322534238,302721,1385565777322534238,/world,vicon/Archie/Archie,-0.0168747820056,-0.198347688177,0.111120137271,0.00423282661345,0.00210020916245,0.708362738942,0.705832772248
1385565777332291623,302722,1385565777332291623,/world,vicon/Archie/Archie,-0.0169797251666,-0.19840758856,0.111065031583,0.00494929039176,0.00128276945317,0.708378996504,0.705813754711
1385565777342444814,302723,1385565777342444814,/world,vicon/Archie/Archie,-0.0169191640637,-0.198411997652,0.111137091805,0.00462811801529,0.00167570370281,0.70842890616,0.70576501575
1385565777352499070,302724,1385565777352499070,/world,vicon/Archie/Archie,-0.0169252670368,-0.198393566638,0.111166444852,0.00448099078162,0.00188624582568,0.708431525952,0.70576280423
1385565777362646775,302725,1385565777362646775,/world,vicon/Archie/Archie,-0.0168871460124,-0.198345579213,0.111127106688,0.00423894740387,0.0020940707181,0.708369916815,0.705825550078
1385565777372462572,302726,1385565777372462572,/world,vicon/Archie/Archie,-0.0169253589249,-0.198388208549,0.111175976514,0.00446710455357,0.00187153767775,0.708423905247,0.705770580854
1385565777382359553,302727,1385565777382359553,/world,vicon/Archie/Archie,-0.0169499629345,-0.198335299846,0.111055734612,0.00449954658362,0.00174955854448,0.708328466354,0.705866472413
1385565777392378820,302728,1385565777392378820,/world,vicon/Archie/Archie,-0.0169453945441,-0.198335211906,0.111055922997,0.0044985190476,0.001757419869,0.708326639599,0.705868292556
1385565777402322407,302729,1385565777402322407,/world,vicon/Archie/Archie,-0.0168745621197,-0.198363297738,0.111087974185,0.00435615409212,0.00191731782346,0.708375324245,0.705819911744
1385565777412474095,302730,1385565777412474095,/world,vicon/Archie/Archie,-0.0168746941456,-0.198365150667,0.11108660525,0.00435257939884,0.00191895246282,0.708377198487,0.705818048322
1385565777422457933,302731,1385565777422457933,/world,vicon/Archie/Archie,-0.0169909479803,-0.198382305251,0.111112141479,0.00477885424404,0.00150448094273,0.708376119802,0.705817378636
1385565777432514560,302732,1385565777432514560,/world,vicon/Archie/Archie,-0.0168859954451,-0.198341118435,0.111122648265,0.00422674093989,0.00208558040981,0.708368437255,0.70582713331
1385565777442487657,302733,1385565777442487657,/world,vicon/Archie/Archie,-0.0169266631828,-0.198381870569,0.111179832382,0.00449740175662,0.00188403928713,0.708425692112,0.70576856159
1385565777452443720,302734,1385565777452443720,/world,vicon/Archie/Archie,-0.0168819936252,-0.19834120237,0.111125261813,0.00422626648478,0.00208581458007,0.70836681774,0.705828760801
1385565777462435616,302735,1385565777462435616,/world,vicon/Archie/Archie,-0.0169128295598,-0.198407212653,0.111139706298,0.00461164800393,0.00169341735475,0.708432202614,0.70576177237
1385565777472614806,302736,1385565777472614806,/world,vicon/Archie/Archie,-0.0168767418101,-0.198343976521,0.111122741938,0.00420891799139,0.00209169601663,0.708363826442,0.705831849101
1385565777482373692,302737,1385565777482373692,/world,vicon/Archie/Archie,-0.0168758243189,-0.198342812504,0.111122046661,0.0042208216915,0.00211334261264,0.708374257478,0.705821244927
1385565777492542488,302738,1385565777492542488,/world,vicon/Archie/Archie,-0.0168649313956,-0.198367896267,0.11108546437,0.00434525588923,0.00194381604549,0.708367982308,0.705827274884
1385565777502382839,302739,1385565777502382839,/world,vicon/Archie/Archie,-0.0168781574125,-0.198341726578,0.11112571626,0.00421482569302,0.00210338322047,0.708368955083,0.705826632041
1385565777512532016,302740,1385565777512532016,/world,vicon/Archie/Archie,-0.0168878309459,-0.198340247998,0.111124208788,0.00421769757811,0.00209025765928,0.708379061101,0.705816511314
1385565777522554667,302741,1385565777522554667,/world,vicon/Archie/Archie,-0.0168888792905,-0.198336955479,0.111124878482,0.00422628308386,0.0021053941927,0.708381611684,0.705813855117
1385565777532289457,302742,1385565777532289457,/world,vicon/Archie/Archie,-0.0168839400465,-0.198342698831,0.111129914642,0.00422841114517,0.00210168815319,0.708372171696,0.70582332762
1385565777542452719,302743,1385565777542452719,/world,vicon/Archie/Archie,-0.0168791048587,-0.198341676431,0.111124597996,0.0042238326307,0.002099263206,0.708372746195,0.705822785676
1385565777552415075,302744,1385565777552415075,/world,vicon/Archie/Archie,-0.0169982238202,-0.198374462084,0.111113799231,0.00476996674528,0.00153853284563,0.708382872073,0.705810588535
1385565777562675712,302745,1385565777562675712,/world,vicon/Archie/Archie,-0.0169153775889,-0.198387872543,0.111178296407,0.0044751831443,0.00187424089648,0.708426772198,0.70576764476
1385565777572429151,302746,1385565777572429151,/world,vicon/Archie/Archie,-0.016919549852,-0.198385790974,0.111182827898,0.00449433301479,0.00188618692824,0.708421145077,0.705773139526
1385565777582489123,302747,1385565777582489123,/world,vicon/Archie/Archie,-0.0169183248494,-0.198421490261,0.111142143467,0.00462787625248,0.00168302541179,0.708434794869,0.705759088929
1385565777592502039,302748,1385565777592502039,/world,vicon/Archie/Archie,-0.0168736992823,-0.198347579835,0.111120071467,0.0042377738316,0.00210125875151,0.708359285429,0.705836205314
1385565777602446523,302749,1385565777602446523,/world,vicon/Archie/Archie,-0.0169228502707,-0.198398229267,0.111180337121,0.00448814556573,0.00187036545284,0.708428406995,0.705765931768
1385565777612479862,302750,1385565777612479862,/world,vicon/Archie/Archie,-0.0169183586362,-0.198398357942,0.111173695123,0.00449137729835,0.00187113545527,0.708437468636,0.705756813225
1385565777622509986,302751,1385565777622509986,/world,vicon/Archie/Archie,-0.0169742179973,-0.198417790252,0.111069104869,0.00493053958475,0.00130626406072,0.708382939156,0.705809885851
1385565777632426196,302752,1385565777632426196,/world,vicon/Archie/Archie,-0.0169129050502,-0.198428266587,0.111136434058,0.00463117273168,0.00168328974487,0.70842845444,0.705765431085
1385565777642507538,302753,1385565777642507538,/world,vicon/Archie/Archie,-0.0169240090275,-0.198398096888,0.111174903643,0.00448592117356,0.00185989931338,0.708417810166,0.705776610214
1385565777652287193,302754,1385565777652287193,/world,vicon/Archie/Archie,-0.0169107575222,-0.198427188639,0.111138833583,0.00462017542612,0.00167663631631,0.708433734346,0.705760219133
1385565777662441149,302755,1385565777662441149,/world,vicon/Archie/Archie,-0.0169360312943,-0.198344657179,0.111060827203,0.00449028155468,0.00176425435832,0.708322584365,0.705872397291
1385565777672626414,302756,1385565777672626414,/world,vicon/Archie/Archie,-0.0169225351934,-0.198399618174,0.111177569506,0.00449742296513,0.00185713303795,0.708423160302,0.7057711741
1385565777682320929,302757,1385565777682320929,/world,vicon/Archie/Archie,-0.0169824889092,-0.198392412623,0.111110155596,0.00478243644182,0.00151359113051,0.708378201388,0.705815245756
1385565777692495808,302758,1385565777692495808,/world,vicon/Archie/Archie,-0.0168731447103,-0.198377187825,0.111091360219,0.00436498357733,0.00190971198465,0.708380561793,0.705814621266
1385565777702403703,302759,1385565777702403703,/world,vicon/Archie/Archie,-0.0168721388212,-0.198381850535,0.111090317162,0.00434689332428,0.00190320100148,0.708373022097,0.70582231752
1385565777712475221,302760,1385565777712475221,/world,vicon/Archie/Archie,-0.0169150063076,-0.19842407723,0.111137326471,0.00463174368233,0.0016610162108,0.708431454422,0.705762468796
1385565777722450583,302761,1385565777722450583,/world,vicon/Archie/Archie,-0.0168717153902,-0.198385342441,0.1110900218,0.00434918140857,0.00190165451269,0.70836826359,0.705827083264
1385565777732338389,302762,1385565777732338389,/world,vicon/Archie/Archie,-0.0169179115751,-0.198395757714,0.111179264777,0.0045009365384,0.00187505728227,0.708421901496,0.705772367844
1385565777742393717,302763,1385565777742393717,/world,vicon/Archie/Archie,-0.0169121731079,-0.198423933005,0.111139156378,0.00462274409125,0.00166322184059,0.708427212286,0.705766780759
1385565777752386501,302764,1385565777752386501,/world,vicon/Archie/Archie,-0.0169166056082,-0.198402132292,0.111175288191,0.00447301048755,0.00187312737156,0.708425137573,0.705769302269
1385565777762420114,302765,1385565777762420114,/world,vicon/Archie/Archie,-0.0169336594064,-0.198348394038,0.111057979892,0.00450158936148,0.00175059613906,0.708318786032,0.705876170769
1385565777772482981,302766,1385565777772482981,/world,vicon/Archie/Archie,-0.0169252849288,-0.19839628404,0.111180523522,0.00446226527138,0.00191064269165,0.708432663848,0.705761715047
1385565777782442805,302767,1385565777782442805,/world,vicon/Archie/Archie,-0.0168744509776,-0.198376607655,0.111089908952,0.00435510157141,0.00190606139064,0.708376980346,0.705818286626
1385565777792411814,302768,1385565777792411814,/world,vicon/Archie/Archie,-0.0168718286196,-0.198376831342,0.111088531802,0.00435667188358,0.00190943659817,0.708372580146,0.705822683936
1385565777802442122,302769,1385565777802442122,/world,vicon/Archie/Archie,-0.0168976107467,-0.198422001826,0.111136554274,0.00462952105337,0.00167906492838,0.708431451808,0.705762443294
1385565777812467071,302770,1385565777812467071,/world,vicon/Archie/Archie,-0.0169159973141,-0.198419590054,0.111140398617,0.00460511768215,0.00167623807726,0.708434316973,0.705759733658
1385565777822584259,302771,1385565777822584259,/world,vicon/Archie/Archie,-0.0169111101616,-0.198398590276,0.111184510689,0.00446576890483,0.00189065401381,0.708423974444,0.705770468898
1385565777832498420,302772,1385565777832498420,/world,vicon/Archie/Archie,-0.0169313404922,-0.198342006217,0.11106473664,0.0044875470984,0.00177471020404,0.708322580184,0.705872392664
1385565777842494951,302773,1385565777842494951,/world,vicon/Archie/Archie,-0.0169069895556,-0.198417214314,0.111140212901,0.00459821610383,0.00169228168835,0.708432423284,0.705761641229
1385565777852402325,302774,1385565777852402325,/world,vicon/Archie/Archie,-0.0168692157046,-0.198375937934,0.111092258119,0.00437012192321,0.00193299768942,0.708375669469,0.705819436158
1385565777862585244,302775,1385565777862585244,/world,vicon/Archie/Archie,-0.0168737313806,-0.198377962955,0.111092156676,0.00435617155408,0.00192854978942,0.708370678332,0.70582454374
1385565777872494445,302776,1385565777872494445,/world,vicon/Archie/Archie,-0.0169127083926,-0.198397188765,0.111175994758,0.00449016410972,0.00186617534141,0.708422710349,0.705771648111
1385565777882482670,302777,1385565777882482670,/world,vicon/Archie/Archie,-0.0169155198759,-0.1984178792,0.111144123474,0.00461766529158,0.0017052814666,0.708434174928,0.705759724677
1385565777892590715,302778,1385565777892590715,/world,vicon/Archie/Archie,-0.0168790335877,-0.19835369734,0.111126268402,0.0042383548198,0.00209819088441,0.708375468008,0.705819970154
1385565777902462600,302779,1385565777902462600,/world,vicon/Archie/Archie,-0.0168789986339,-0.198356637729,0.111123713258,0.0042165649492,0.00211999203983,0.708371666087,0.705823851183
1385565777912495634,302780,1385565777912495634,/world,vicon/Archie/Archie,-0.016912756286,-0.198418972841,0.111142098901,0.00461142769381,0.0016934116319,0.708424994907,0.705769008729
1385565777922569076,302781,1385565777922569076,/world,vicon/Archie/Archie,-0.0168723832106,-0.198377041615,0.111092383944,0.004358428088,0.00191394314883,0.708369940342,0.705825310219
1385565777932407321,302782,1385565777932407321,/world,vicon/Archie/Archie,-0.0169420614227,-0.198349229387,0.111063709852,0.00448634468358,0.00177195668986,0.708328782912,0.705866182912
1385565777942518758,302783,1385565777942518758,/world,vicon/Archie/Archie,-0.0168623339282,-0.19835891014,0.111120421012,0.00422377493796,0.00209533363729,0.708368609861,0.705826948951
1385565777952415068,302784,1385565777952415068,/world,vicon/Archie/Archie,-0.0169091632994,-0.198397803582,0.111172733117,0.00447130263561,0.00186908097857,0.708424252434,0.705770212288
1385565777962464135,302785,1385565777962464135,/world,vicon/Archie/Archie,-0.0168649270399,-0.198374986222,0.111087854735,0.00434816034233,0.00195187359385,0.708366984249,0.705828236413
1385565777972614458,302786,1385565777972614458,/world,vicon/Archie/Archie,-0.0168754145943,-0.198354726998,0.111124878955,0.00421637842385,0.00211498258987,0.708363342906,0.705832220452
1385565777982434078,302787,1385565777982434078,/world,vicon/Archie/Archie,-0.016878058137,-0.198357584492,0.11112617604,0.00420585876394,0.00210052192332,0.708363678412,0.705831989688
1385565777992746171,302788,1385565777992746171,/world,vicon/Archie/Archie,-0.0168703644519,-0.198380689503,0.111082481934,0.00436971505964,0.0019007995545,0.708373126428,0.705822078364
1385565778002354738,302789,1385565778002354738,/world,vicon/Archie/Archie,-0.0169734450561,-0.198415054916,0.111070798707,0.00491928040141,0.0013157089532,0.708385268029,0.705807609501
1385565778012420964,302790,1385565778012420964,/world,vicon/Archie/Archie,-0.016877567709,-0.198349542437,0.111127658977,0.00423018861576,0.00208608532852,0.708369832038,0.705825711356
1385565778022523390,302791,1385565778022523390,/world,vicon/Archie/Archie,-0.0169109181342,-0.198394890613,0.111178018732,0.00445918891195,0.00189565898801,0.708428501082,0.705765953391
1385565778032499787,302792,1385565778032499787,/world,vicon/Archie/Archie,-0.0169067477468,-0.198399230017,0.111179571659,0.00446086395758,0.00187639088517,0.708418984936,0.705775546213
1385565778042552760,302793,1385565778042552760,/world,vicon/Archie/Archie,-0.0168780811319,-0.198349180264,0.111133753533,0.00423729644926,0.00210659632024,0.708370407882,0.705825029882
1385565778053131634,302794,1385565778053131634,/world,vicon/Archie/Archie,-0.0169066743247,-0.198396536837,0.111179269611,0.0044560704097,0.00187800451094,0.708420240265,0.705774312169
1385565778062573815,302795,1385565778062573815,/world,vicon/Archie/Archie,-0.0168665522347,-0.198357411599,0.111125041089,0.00423823267536,0.00210408353917,0.708360649832,0.705834824861
1385565778072461799,302796,1385565778072461799,/world,vicon/Archie/Archie,-0.0169356238375,-0.198349095616,0.111064937037,0.00447126412522,0.00178008113255,0.708313181545,0.705881913607
1385565778082404227,302797,1385565778082404227,/world,vicon/Archie/Archie,-0.0168710377063,-0.198354970001,0.111128280997,0.0042186035655,0.00212309795558,0.70836315491,0.705832371463
1385565778092568966,302798,1385565778092568966,/world,vicon/Archie/Archie,-0.0168664385413,-0.198385504612,0.111087265394,0.0043436940803,0.00190714917254,0.708377799961,0.705817531396
1385565778102270307,302799,1385565778102270307,/world,vicon/Archie/Archie,-0.0168624421044,-0.198381010069,0.111093516255,0.00435351283174,0.00193367380702,0.708368847937,0.705826383117
1385565778112467877,302800,1385565778112467877,/world,vicon/Archie/Archie,-0.0169775105325,-0.19838667349,0.1111163288,0.00477471800086,0.00153173184193,0.708377044825,0.705816419638
1385565778122450665,302801,1385565778122450665,/world,vicon/Archie/Archie,-0.0168603189444,-0.198379711053,0.111092016441,0.00434015555727,0.00191981617558,0.708368936274,0.705826414551
1385565778132529375,302802,1385565778132529375,/world,vicon/Archie/Archie,-0.0168608994421,-0.198356957381,0.111129636468,0.00421757601559,0.00210088269183,0.70835905184,0.705836561833
1385565778142498245,302803,1385565778142498245,/world,vicon/Archie/Archie,-0.0169103417033,-0.198402022912,0.111182203161,0.00447638660382,0.00186563639847,0.708415744269,0.705778729232
1385565778152484684,302804,1385565778152484684,/world,vicon/Archie/Archie,-0.016875593729,-0.198357063575,0.111124694102,0.00424018668998,0.0020640835256,0.708361423243,0.705834155051
1385565778162546443,302805,1385565778162546443,/world,vicon/Archie/Archie,-0.0168719381423,-0.198354132422,0.111127263624,0.0042040404475,0.00209931125307,0.708373546853,0.705822100146
1385565778172438334,302806,1385565778172438334,/world,vicon/Archie/Archie,-0.0168581267809,-0.198385096928,0.11108707331,0.00433393327563,0.00194167312824,0.70837040178,0.705824922208
1385565778182455108,302807,1385565778182455108,/world,vicon/Archie/Archie,-0.016874746405,-0.198359888414,0.111129695922,0.00421249016155,0.0020996010469,0.708364799702,0.705830827568
1385565778192475279,302808,1385565778192475279,/world,vicon/Archie/Archie,-0.0168527267634,-0.198382572806,0.111090234032,0.00435103288721,0.00191574031156,0.708369170321,0.705826123766
1385565778202368499,302809,1385565778202368499,/world,vicon/Archie/Archie,-0.0168635077881,-0.198358085389,0.111128668083,0.00422362611549,0.0020844266139,0.708370482568,0.705825102681
1385565778212460473,302810,1385565778212460473,/world,vicon/Archie/Archie,-0.0168633960263,-0.198380864586,0.11109253354,0.00435763338723,0.00190973752153,0.708369560284,0.705825707945
1385565778222557544,302811,1385565778222557544,/world,vicon/Archie/Archie,-0.016868204177,-0.198354908394,0.11112727884,0.00422333618999,0.00209933254518,0.708366548929,0.705829008041
1385565778232364784,302812,1385565778232364784,/world,vicon/Archie/Archie,-0.0169305542665,-0.198375964371,0.11100935344,0.00462972441173,0.00155824804149,0.708324510718,0.705870048261
1385565778242485596,302813,1385565778242485596,/world,vicon/Archie/Archie,-0.0168998481002,-0.198422573941,0.111141953324,0.00461390602224,0.00171508303996,0.708432479678,0.705761427183
1385565778252648491,302814,1385565778252648491,/world,vicon/Archie/Archie,-0.0168637885456,-0.198380137623,0.111080150441,0.00434415199875,0.00193294424652,0.708362692744,0.705832620101
1385565778262548666,302815,1385565778262548666,/world,vicon/Archie/Archie,-0.0169882070166,-0.198389616853,0.111108048831,0.00476564069191,0.00151490596927,0.708376745285,0.705816817926
1385565778272499847,302816,1385565778272499847,/world,vicon/Archie/Archie,-0.0169709994345,-0.198390322531,0.111106680303,0.0047670975831,0.0015203966654,0.708371034996,0.705822527236
1385565778282595327,302817,1385565778282595327,/world,vicon/Archie/Archie,-0.0169816395284,-0.198393180503,0.111109372505,0.00473309194906,0.00153368624953,0.708370898193,0.705822864634
1385565778292540673,302818,1385565778292540673,/world,vicon/Archie/Archie,-0.0168824712535,-0.198359293455,0.111118644453,0.00421594301242,0.0020874255097,0.708364860115,0.705830782436
1385565778302429753,302819,1385565778302429753,/world,vicon/Archie/Archie,-0.0169207888947,-0.198414024044,0.111134150538,0.00462589072136,0.00168808709603,0.70843851903,0.705755351557
1385565778312486989,302820,1385565778312486989,/world,vicon/Archie/Archie,-0.0169221885377,-0.198396505096,0.111167370423,0.0044857613182,0.00186046808773,0.708419257819,0.705775156658
1385565778322707014,302821,1385565778322707014,/world,vicon/Archie/Archie,-0.0168792569309,-0.198351639614,0.111124339965,0.00421339033718,0.00210719173001,0.708363490779,0.705832113195
1385565778332622772,302822,1385565778332622772,/world,vicon/Archie/Archie,-0.0169326359713,-0.198394442493,0.111177803628,0.00450261978896,0.001885457287,0.708419389416,0.705774850901
1385565778342460971,302823,1385565778342460971,/world,vicon/Archie/Archie,-0.0169266428968,-0.198388972956,0.111182260959,0.00447923383965,0.00186467988272,0.708411238699,0.70578323607
1385565778352554238,302824,1385565778352554238,/world,vicon/Archie/Archie,-0.0168856948695,-0.198350636852,0.111115991676,0.00423279905555,0.00208385166298,0.708366972981,0.705828571655
1385565778362489399,302825,1385565778362489399,/world,vicon/Archie/Archie,-0.0169237912867,-0.198417558743,0.111131761166,0.00461579498884,0.00167675217692,0.708432842654,0.705761142589
1385565778372458890,302826,1385565778372458890,/world,vicon/Archie/Archie,-0.0169071754956,-0.198339810193,0.11112381162,0.0042349625906,0.00210747029134,0.708369159995,0.705826293665
1385565778382392863,302827,1385565778382392863,/world,vicon/Archie/Archie,-0.0169413257801,-0.198389714577,0.111168415676,0.00447379661098,0.00188830306948,0.708427551013,0.705766834316
1385565778392638967,302828,1385565778392638967,/world,vicon/Archie/Archie,-0.0169554490899,-0.198338578608,0.11105150896,0.00448983685849,0.00179565181505,0.708318003008,0.705876918176
1385565778402426514,302829,1385565778402426514,/world,vicon/Archie/Archie,-0.0168998182363,-0.198341463189,0.111126046902,0.00424576578911,0.00210170514542,0.708368200302,0.705827209103
1385565778412446250,302830,1385565778412446250,/world,vicon/Archie/Archie,-0.0169591459133,-0.198334296009,0.111055937779,0.00448895015363,0.0017737369624,0.708316698344,0.705878288397
1385565778422563563,302831,1385565778422563563,/world,vicon/Archie/Archie,-0.0169019333274,-0.198335231091,0.111134807056,0.00423036686562,0.00212315127382,0.708360440107,0.705835025425
1385565778432439179,302832,1385565778432439179,/world,vicon/Archie/Archie,-0.0168947685646,-0.198346174339,0.111126488832,0.00421037750388,0.00212624077405,0.708378428164,0.705817082772
1385565778442530253,302833,1385565778442530253,/world,vicon/Archie/Archie,-0.0169014786859,-0.19834222855,0.111123625755,0.00422214657444,0.00211482329831,0.708370146924,0.705825357966
1385565778452471114,302834,1385565778452471114,/world,vicon/Archie/Archie,-0.0168906660521,-0.198342817801,0.111129534876,0.0042195769573,0.00211346300701,0.708366606486,0.705828930591
1385565778462423304,302835,1385565778462423304,/world,vicon/Archie/Archie,-0.0168941972037,-0.198346881753,0.111127985353,0.00424346911383,0.00208576634231,0.708375310121,0.705820134708
1385565778472648280,302836,1385565778472648280,/world,vicon/Archie/Archie,-0.016887098229,-0.198344893798,0.111119140627,0.00424612299222,0.002097336049,0.708359442667,0.705836009003
1385565778482463757,302837,1385565778482463757,/world,vicon/Archie/Archie,-0.0169261425369,-0.198382852769,0.111189240073,0.00449594355278,0.00189088103502,0.708434174784,0.705760037873
1385565778492448729,302838,1385565778492448729,/world,vicon/Archie/Archie,-0.0169501189182,-0.198342009698,0.111061278099,0.00451515124199,0.0017689907748,0.708315398962,0.705879437067
1385565778502335978,302839,1385565778502335978,/world,vicon/Archie/Archie,-0.0168716415902,-0.198350161999,0.111122902045,0.00422711760679,0.00211808526338,0.70836819347,0.705827278923
1385565778512529419,302840,1385565778512529419,/world,vicon/Archie/Archie,-0.0168753432618,-0.198346613616,0.111123174537,0.00420830202759,0.00210808125639,0.708371956634,0.705823644576
1385565778522552187,302841,1385565778522552187,/world,vicon/Archie/Archie,-0.0168729117526,-0.198342019306,0.111125057874,0.00422558853303,0.00210076931475,0.708366651544,0.705828887302
1385565778532486393,302842,1385565778532486393,/world,vicon/Archie/Archie,-0.0169394308746,-0.198337378782,0.111054046578,0.00449340777226,0.00175674405665,0.708321517753,0.705873466441
1385565778542487242,302843,1385565778542487242,/world,vicon/Archie/Archie,-0.0168696932543,-0.198345769771,0.111124514436,0.00423285666341,0.00210251849425,0.708363693198,0.705831807515
1385565778552467404,302844,1385565778552467404,/world,vicon/Archie/Archie,-0.0168637147106,-0.198353455704,0.11113022821,0.00424536941485,0.00210238771806,0.708364221863,0.705831202193
1385565778562483193,302845,1385565778562483193,/world,vicon/Archie/Archie,-0.0168505436142,-0.19837522328,0.111089613698,0.00433072402873,0.00193082900857,0.708366111737,0.705829277142
1385565778572528564,302846,1385565778572528564,/world,vicon/Archie/Archie,-0.016873638185,-0.198343337809,0.111131557832,0.00420436106379,0.00212155114533,0.708373531549,0.705822047098
1385565778582459753,302847,1385565778582459753,/world,vicon/Archie/Archie,-0.0169724976378,-0.198385121196,0.11111091533,0.00474543926912,0.00152715402084,0.708378185672,0.705815482028
1385565778592373626,302848,1385565778592373626,/world,vicon/Archie/Archie,-0.0169782532413,-0.198381092533,0.111113645188,0.00476103869504,0.00152989956178,0.708374212176,0.705819358931
1385565778602478513,302849,1385565778602478513,/world,vicon/Archie/Archie,-0.0168655596605,-0.198351709627,0.111118863135,0.00420825323509,0.00210157952712,0.708366551161,0.705829089202
1385565778612474223,302850,1385565778612474223,/world,vicon/Archie/Archie,-0.0169288967192,-0.198347767693,0.111054969363,0.00446989451277,0.00177526019539,0.708317501861,0.7058775992
1385565778622481177,302851,1385565778622481177,/world,vicon/Archie/Archie,-0.016859798413,-0.198353066487,0.111119351149,0.00419311971686,0.00211411591434,0.708355692413,0.705840039447
1385565778632358022,302852,1385565778632358022,/world,vicon/Archie/Archie,-0.0168640106654,-0.1983542367,0.111118218482,0.00419460490631,0.00211400210618,0.708369871105,0.705825801452
1385565778642511010,302853,1385565778642511010,/world,vicon/Archie/Archie,-0.0168676907181,-0.198356844841,0.111132064786,0.00418831198659,0.00211852024969,0.708366758698,0.705828948886
1385565778652400329,302854,1385565778652400329,/world,vicon/Archie/Archie,-0.0168708148409,-0.198354745477,0.11112033042,0.00421649586645,0.00211209855971,0.708363810604,0.705831759011
1385565778662477300,302855,1385565778662477300,/world,vicon/Archie/Archie,-0.0168651430063,-0.198354151724,0.111119782335,0.00419890188798,0.00209828044691,0.708363759002,0.705831956895
1385565778672611810,302856,1385565778672611810,/world,vicon/Archie/Archie,-0.0168692677286,-0.198347352817,0.111130564454,0.00419870095427,0.00211678841573,0.708368609541,0.705827034857
1385565778682527763,302857,1385565778682527763,/world,vicon/Archie/Archie,-0.0168650009195,-0.198352401487,0.111125229403,0.00420526515698,0.00210591713063,0.708369158569,0.705826477292
1385565778692463373,302858,1385565778692463373,/world,vicon/Archie/Archie,-0.0168774219272,-0.198356564939,0.11113334939,0.00420114470605,0.00208726492831,0.708360140384,0.705835607789
1385565778702393211,302859,1385565778702393211,/world,vicon/Archie/Archie,-0.0168755578898,-0.198363116134,0.111127994138,0.00422427564791,0.00206826370824,0.708367126997,0.705828513996
1385565778712455536,302860,1385565778712455536,/world,vicon/Archie/Archie,-0.0169386176084,-0.198349795434,0.111059610114,0.00449985994658,0.00177192958126,0.708312380397,0.70588255631
1385565778722549990,302861,1385565778722549990,/world,vicon/Archie/Archie,-0.0169151988208,-0.198398125445,0.111183036293,0.00447249074924,0.00187096031753,0.708415453847,0.705779031344
1385565778732561360,302862,1385565778732561360,/world,vicon/Archie/Archie,-0.0168789323473,-0.198356521214,0.111129261324,0.00423373059236,0.00207594161767,0.708365170267,0.705830398569
1385565778743116555,302863,1385565778743116555,/world,vicon/Archie/Archie,-0.0168784398227,-0.198352662246,0.111132320075,0.00423095613322,0.00208004823471,0.708372297883,0.705823249831
1385565778752420360,302864,1385565778752420360,/world,vicon/Archie/Archie,-0.0168774143767,-0.198356500197,0.111128155656,0.00420009945506,0.00209344487828,0.708358169421,0.705837573715
1385565778762447815,302865,1385565778762447815,/world,vicon/Archie/Archie,-0.0169332046389,-0.198346625725,0.111068056828,0.00447343314195,0.00175603842647,0.708305777852,0.705889389201
1385565778772552219,302866,1385565778772552219,/world,vicon/Archie/Archie,-0.0169324695053,-0.198395602731,0.11118556393,0.00445961092658,0.00188006477319,0.708425720515,0.705768783484
1385565778782522383,302867,1385565778782522383,/world,vicon/Archie/Archie,-0.0168919831515,-0.198352166581,0.111135482076,0.00421933506584,0.0020873836193,0.708364217821,0.70583140689
1385565778792415492,302868,1385565778792415492,/world,vicon/Archie/Archie,-0.0168817208059,-0.198350365551,0.111140365134,0.00420577928937,0.00210304920436,0.708370989355,0.705824645394
1385565778802530041,302869,1385565778802530041,/world,vicon/Archie/Archie,-0.016882117639,-0.198344899468,0.111133564841,0.00422102132849,0.00208452393069,0.708360682837,0.705834952911
1385565778812547449,302870,1385565778812547449,/world,vicon/Archie/Archie,-0.0168880007635,-0.198341706175,0.111136668014,0.00421202772628,0.00209887373356,0.708363271544,0.705832366132
1385565778822539787,302871,1385565778822539787,/world,vicon/Archie/Archie,-0.0168861698506,-0.198342064866,0.111138815683,0.00422121746572,0.00210280011442,0.708361828193,0.70583374807
1385565778832355769,302872,1385565778832355769,/world,vicon/Archie/Archie,-0.0168892034741,-0.19833964485,0.1111400905,0.00421975819389,0.00209808272249,0.708366061526,0.705829522312
1385565778842485596,302873,1385565778842485596,/world,vicon/Archie/Archie,-0.0169247649579,-0.198365496459,0.111024790396,0.00463113475094,0.00157232925407,0.708325637858,0.705868876722
1385565778852429046,302874,1385565778852429046,/world,vicon/Archie/Archie,-0.0168792444195,-0.198364551348,0.111096024727,0.0043531657329,0.00192003777226,0.708377859725,0.705817378119
1385565778862542912,302875,1385565778862542912,/world,vicon/Archie/Archie,-0.016934967789,-0.198358991733,0.11102803985,0.00465639424655,0.0015568075434,0.708321425017,0.705872972428
1385565778872634095,302876,1385565778872634095,/world,vicon/Archie/Archie,-0.0168791212648,-0.198367619716,0.111099412317,0.00435657901414,0.00190933501145,0.708370579011,0.705824693143
1385565778882459371,302877,1385565778882459371,/world,vicon/Archie/Archie,-0.0168748261356,-0.198363749478,0.111097955837,0.00435080969005,0.00193824071275,0.708368594476,0.705826641632
1385565778892534424,302878,1385565778892534424,/world,vicon/Archie/Archie,-0.0169179513391,-0.1983864304,0.111180797071,0.00446709479556,0.00187772795122,0.708431321876,0.705763119883
1385565778902509749,302879,1385565778902509749,/world,vicon/Archie/Archie,-0.0168880543538,-0.198338850919,0.111127484338,0.00423496067893,0.00208568570635,0.70837442616,0.705821073209
1385565778912516781,302880,1385565778912516781,/world,vicon/Archie/Archie,-0.0168685608228,-0.198370139781,0.111095926194,0.00437453837568,0.00191312740161,0.708367875195,0.705827285353
1385565778922623804,302881,1385565778922623804,/world,vicon/Archie/Archie,-0.0169289997077,-0.198390220922,0.11117676543,0.00447928492553,0.00185451793411,0.708421935232,0.705772525997
1385565778932455973,302882,1385565778932455973,/world,vicon/Archie/Archie,-0.0169847969074,-0.198401247736,0.111067667126,0.00493139181505,0.00128880899266,0.708395903299,0.705796900344
1385565778942541178,302883,1385565778942541178,/world,vicon/Archie/Archie,-0.0168770266972,-0.198362330504,0.111092748974,0.00437340854582,0.00190859009358,0.708381782045,0.705813347457
1385565778952517243,302884,1385565778952517243,/world,vicon/Archie/Archie,-0.0169263513041,-0.198392650027,0.111183219892,0.00448001027421,0.00185487099838,0.708427854508,0.705766578919
1385565778962733799,302885,1385565778962733799,/world,vicon/Archie/Archie,-0.0169203523098,-0.198387540993,0.111192251994,0.00447958729395,0.00189599111225,0.708417446167,0.705776919772
1385565778972628060,302886,1385565778972628060,/world,vicon/Archie/Archie,-0.0168832446472,-0.19836498823,0.111090228548,0.00436592374794,0.0018865210329,0.708363919687,0.705831380029
1385565778982658312,302887,1385565778982658312,/world,vicon/Archie/Archie,-0.0168789522744,-0.198342114687,0.111129633419,0.00423447015614,0.00209350500792,0.708367951622,0.705827550904
1385565778992448835,302888,1385565778992448835,/world,vicon/Archie/Archie,-0.0168791857553,-0.198364217416,0.111092569753,0.00435159397772,0.00190610681948,0.708368623452,0.705826695227
1385565779002499876,302889,1385565779002499876,/world,vicon/Archie/Archie,-0.0168832807339,-0.198340012201,0.111128299963,0.004238893034,0.00207153017046,0.708367927517,0.705827613383
1385565779012522922,302890,1385565779012522922,/world,vicon/Archie/Archie,-0.0168857634933,-0.198345129343,0.111129402708,0.0042357026428,0.00207596245101,0.708363173322,0.705832390787
1385565779022574856,302891,1385565779022574856,/world,vicon/Archie/Archie,-0.0169361676042,-0.198338394743,0.111063247552,0.00450895450139,0.00175831425484,0.70831488732,0.70588001676
1385565779032491312,302892,1385565779032491312,/world,vicon/Archie/Archie,-0.0168687776095,-0.198344800241,0.111128526039,0.00422596769383,0.00210069418039,0.708363932815,0.705831613749
1385565779042483239,302893,1385565779042483239,/world,vicon/Archie/Archie,-0.0168780623166,-0.198339254189,0.111130721501,0.00423662525822,0.00209204377825,0.708372446184,0.705823031536
1385565779052454677,302894,1385565779052454677,/world,vicon/Archie/Archie,-0.0168699176088,-0.198367229921,0.111087638424,0.00437549508827,0.0019010546931,0.708359790527,0.705835425718
1385565779062545492,302895,1385565779062545492,/world,vicon/Archie/Archie,-0.0169207982338,-0.198388412342,0.111179735158,0.00449271499001,0.001877987726,0.70842006479,0.705774256032
1385565779072574616,302896,1385565779072574616,/world,vicon/Archie/Archie,-0.0168841710009,-0.198342180864,0.111120482828,0.00423814520975,0.00208623052542,0.708365712318,0.705829797741
1385565779082545446,302897,1385565779082545446,/world,vicon/Archie/Archie,-0.0168823925554,-0.198347842738,0.111126349935,0.00424654006313,0.00206946655487,0.70836433911,0.705831174774
1385565779092442031,302898,1385565779092442031,/world,vicon/Archie/Archie,-0.0168699609221,-0.19836650942,0.11108644835,0.00437240380671,0.00190610347192,0.708378467456,0.705816687037
1385565779102404824,302899,1385565779102404824,/world,vicon/Archie/Archie,-0.0168682614016,-0.198350367427,0.111123069248,0.00422312842891,0.00209203033249,0.708369159596,0.705826410904
1385565779113142602,302900,1385565779113142602,/world,vicon/Archie/Archie,-0.0169193996181,-0.198418409308,0.111145712586,0.00461586074645,0.0016815063239,0.708426848869,0.705767147272
1385565779122499907,302901,1385565779122499907,/world,vicon/Archie/Archie,-0.0169365172016,-0.198340091978,0.111060730101,0.00448489060621,0.00175523127832,0.708318093796,0.705876960186
1385565779132343037,302902,1385565779132343037,/world,vicon/Archie/Archie,-0.0169385700272,-0.198370292355,0.111017968003,0.0046495212966,0.00154772103218,0.708330091999,0.705864340564
1385565779142558373,302903,1385565779142558373,/world,vicon/Archie/Archie,-0.0169221571229,-0.19838974597,0.11118387612,0.0044819624038,0.00187350948111,0.708415498365,0.705778919813
1385565779152347226,302904,1385565779152347226,/world,vicon/Archie/Archie,-0.016879525258,-0.198370635921,0.111084809571,0.00436251825261,0.00190881473208,0.708381339375,0.705813858525
1385565779162701851,302905,1385565779162701851,/world,vicon/Archie/Archie,-0.0168794483757,-0.198348637444,0.111132643526,0.00422097385655,0.00208317622352,0.708369332529,0.705826276422
1385565779172527049,302906,1385565779172527049,/world,vicon/Archie/Archie,-0.0169148215007,-0.198394563675,0.111179772694,0.00446020740128,0.00188080043245,0.708425255254,0.705769244767
1385565779182440255,302907,1385565779182440255,/world,vicon/Archie/Archie,-0.0168737271355,-0.19834888576,0.111124522933,0.00423712033355,0.00210225638665,0.70836048034,0.705835007082
1385565779192459608,302908,1385565779192459608,/world,vicon/Archie/Archie,-0.0169140576896,-0.198388818629,0.111179050133,0.00447681822846,0.00187944503066,0.708428199717,0.70576618765
1385565779202351636,302909,1385565779202351636,/world,vicon/Archie/Archie,-0.016934096115,-0.198363035041,0.111012026118,0.00465191991083,0.0015509240345,0.708324763394,0.705869664909
1385565779212525905,302910,1385565779212525905,/world,vicon/Archie/Archie,-0.016912134321,-0.198390736512,0.111174884679,0.00448927390625,0.00186497934265,0.708414167305,0.705780231965
1385565779222564330,302911,1385565779222564330,/world,vicon/Archie/Archie,-0.0168722763009,-0.198373612718,0.111085575215,0.0043679092063,0.00190570705969,0.7083701789,0.705825034477
1385565779232393424,302912,1385565779232393424,/world,vicon/Archie/Archie,-0.0168650878537,-0.198371889461,0.111085428997,0.00435545257964,0.00192114980677,0.708364338841,0.705830930659
1385565779242520185,302913,1385565779242520185,/world,vicon/Archie/Archie,-0.0168893224967,-0.198346699033,0.111127941943,0.00424804838249,0.00209564889078,0.708364035349,0.705831393297
1385565779252474672,302914,1385565779252474672,/world,vicon/Archie/Archie,-0.0168698194071,-0.198376365142,0.111089091048,0.00437575210071,0.00188820424099,0.708357338477,0.705837919429
1385565779262537810,302915,1385565779262537810,/world,vicon/Archie/Archie,-0.016874442117,-0.198349807756,0.111131772983,0.00422831962267,0.00208138877646,0.708367543842,0.705828032855
1385565779272594826,302916,1385565779272594826,/world,vicon/Archie/Archie,-0.0169143398175,-0.198389728774,0.111177159528,0.00446692439213,0.00186517868494,0.708420146505,0.705774371681
1385565779282584050,302917,1385565779282584050,/world,vicon/Archie/Archie,-0.0168745515176,-0.198348152373,0.111135375872,0.00422339277091,0.0020896941646,0.70836541753,0.705830171769
1385565779292461442,302918,1385565779292461442,/world,vicon/Archie/Archie,-0.016870887554,-0.1983548322,0.111124830647,0.00424096942375,0.00209224476908,0.708370535726,0.705824922204
1385565779302520665,302919,1385565779302520665,/world,vicon/Archie/Archie,-0.0169115504399,-0.198420452113,0.111142162452,0.00462213916824,0.00169437976866,0.708426313203,0.705767613077
1385565779312614821,302920,1385565779312614821,/world,vicon/Archie/Archie,-0.0168703084306,-0.198372168018,0.111088783258,0.00435152664883,0.00192150820322,0.708369017809,0.705826258105
1385565779322579511,302921,1385565779322579511,/world,vicon/Archie/Archie,-0.0168734140196,-0.19835263621,0.111123725809,0.00425669530587,0.00206169958725,0.708364502227,0.705830972631
1385565779332546328,302922,1385565779332546328,/world,vicon/Archie/Archie,-0.0168760499299,-0.198350485399,0.111119347297,0.00424929374836,0.00206895828177,0.708355798094,0.705839731257
1385565779342430448,302923,1385565779342430448,/world,vicon/Archie/Archie,-0.0169120327573,-0.198390792135,0.111182688734,0.00447175308034,0.00187200651239,0.708431094829,0.705763333487
1385565779352483478,302924,1385565779352483478,/world,vicon/Archie/Archie,-0.0168760635731,-0.19835220641,0.1111247047,0.00423015673411,0.00208289851024,0.708372612122,0.705822930842
1385565779362544801,302925,1385565779362544801,/world,vicon/Archie/Archie,-0.0168771859886,-0.198350366238,0.111121867574,0.00423799506461,0.00207984581813,0.708375403117,0.705820091736
1385565779372409355,302926,1385565779372409355,/world,vicon/Archie/Archie,-0.0169331707501,-0.19836098233,0.111014756826,0.00462263141422,0.00156316269307,0.708330206066,0.705864368682
1385565779382504617,302927,1385565779382504617,/world,vicon/Archie/Archie,-0.0168745732063,-0.198376658368,0.111081316904,0.00437183089144,0.001909617541,0.708367194832,0.705827994444
