%time,field.linear.x,field.linear.y,field.linear.z,field.angular.x,field.angular.y,field.angular.z
1385565780914602674,0.0,0.0,0.0,0.0,0.0,0.0
1385565780914619351,-0.0168714270595,0.198375141234,-0.111092443248,0.00884517612109,0.00348827047814,-1.5743664897
1385565780924533998,-0.0169237879321,0.198400085103,-0.111174690578,0.0089707767779,0.00370671933837,-1.57453414733
1385565780934516649,-0.0169406740806,0.198351301976,-0.111053952428,0.00885654509909,0.00388103192903,-1.57425712565
1385565780944550026,-0.0168922886175,0.19835723897,-0.111124815759,0.00892499491349,0.00303594282191,-1.57438975426
1385565780954523165,-0.0169241571141,0.198400601796,-0.111170662926,0.00896509134714,0.00367716161493,-1.57453978227
1385565780964446125,-0.0168705835488,0.198356723778,-0.111131885419,0.008951114133,0.00307809756486,-1.57434124059
1385565780974481099,-0.0168714008277,0.19837930082,-0.111089991568,0.00885442461944,0.00344698279813,-1.57436386823
1385565780984629958,-0.0168643089498,0.19838020058,-0.111088158721,0.00886312586038,0.00340516803885,-1.57438813738
1385565780994614448,-0.0169161325898,0.198422852386,-0.111137100778,0.0089078933755,0.00415719893792,-1.57454101322
1385565781004682935,-0.0168839278633,0.198359483775,-0.111125069095,0.00895543337432,0.00304284720147,-1.5743874453
1385565781014531381,-0.016937770828,0.198340256458,-0.111058994091,0.00884014735804,0.00388179390674,-1.57422984406
1385565781024466147,-0.0169226040594,0.198425059838,-0.111134045206,0.00890966668658,0.00415913050988,-1.57454872822
1385565781034549000,-0.0168924022569,0.198348208026,-0.111123527697,0.00894120420758,0.00304946063355,-1.57439350934
1385565781044549041,-0.0169269753884,0.198403806975,-0.111173956067,0.00897745120772,0.00373555740615,-1.5745326599
1385565781054492858,-0.0168966814455,0.198372383442,-0.11109019738,0.00891479063013,0.00344296998665,-1.57439822258
1385565781064495982,-0.0169954146429,0.198387771439,-0.111108644105,0.00892377041694,0.00459652,-1.57442055359
1385565781074581217,-0.0168711902055,0.198377235703,-0.111084672283,0.00886112655149,0.00341879965935,-1.57437969874
1385565781084497131,-0.0168921334289,0.198357222808,-0.111119132208,0.00896270521272,0.00304034704737,-1.57438705993
1385565781094448285,-0.0168893396391,0.198346838698,-0.111130028432,0.00895111484024,0.00301450886762,-1.57439659318
1385565781104611714,-0.0168783329482,0.198370366792,-0.111085970929,0.0088902976246,0.00341942929617,-1.5743777619
1385565781114516636,-0.0168744202687,0.198369604924,-0.11108188728,0.00888472312506,0.00347618148376,-1.57442122543
1385565781124502016,-0.0168816406839,0.198353293311,-0.111119523544,0.00891237599242,0.00303659391851,-1.57434551423
1385565781134658827,-0.0168936331202,0.198346213402,-0.111123997986,0.00899120338776,0.00306293307068,-1.57438138393
1385565781144483600,-0.0169038699832,0.19833703949,-0.111128718773,0.00895081340866,0.00300988430632,-1.57437949103
1385565781154516993,-0.0169006153922,0.198359138371,-0.111084666114,0.00889381820361,0.00343262994916,-1.57439199991
1385565781164466741,-0.0168924204857,0.198354746251,-0.111084112157,0.00887711273272,0.00343049623187,-1.57439962413
1385565781174452427,-0.0169028605566,0.198337482985,-0.111129706488,0.00894941971698,0.00301906413972,-1.57435520321
1385565781184473931,-0.016890166464,0.198365189966,-0.111090957164,0.00890398659627,0.00342721438765,-1.57440417676
1385565781194523971,-0.0169060967783,0.198346833217,-0.111116128429,0.00895764623493,0.0030570735065,-1.57438005985
1385565781204520644,-0.0169497265052,0.198379660372,-0.111172725268,0.00901286894391,0.00367813224966,-1.57453126461
1385565781214456323,-0.0168932670284,0.198337611025,-0.111129570719,0.00892072247804,0.00303382628026,-1.57439063171
1385565781224535870,-0.0168952257075,0.198364306062,-0.111086820296,0.00884230320593,0.00349686567095,-1.57439785198
1385565781234490942,-0.0168828629027,0.198335954244,-0.111129910915,0.00892791636876,0.00305788821449,-1.57437482683
1385565781244475899,-0.0169043060728,0.198336533068,-0.1111312914,0.00891667023931,0.00304950878498,-1.57437437711
1385565781254501434,-0.0169327418847,0.198383221452,-0.11118111552,0.00902136213642,0.00368691877373,-1.57454869396
1385565781264488350,-0.0169012051472,0.198345198078,-0.111131642486,0.00891348450835,0.00302233933866,-1.57439223322
1385565781274468914,-0.016899716161,0.198338815318,-0.111134291949,0.00893826628945,0.00307879932078,-1.57438555704
1385565781284491063,-0.0168998386333,0.198338657508,-0.111131953467,0.00891753266928,0.0029991203624,-1.57441322389
1385565781294485474,-0.0168844290857,0.198359685231,-0.111085814479,0.00885749381885,0.00348617381894,-1.57439436155
1385565781304541033,-0.0168967297832,0.198343179384,-0.111128034717,0.00893011103365,0.00307866374225,-1.57440041946
1385565781314554601,-0.0169208318745,0.198407079526,-0.11114512579,0.00890043652763,0.00420998959638,-1.57458633886
1385565781324533837,-0.0169298232086,0.198384610548,-0.111178933579,0.00898393700147,0.00374163151957,-1.57456276029
1385565781334509633,-0.0169369467593,0.19838218303,-0.111182690541,0.00897182296154,0.00372230649315,-1.5745675123
1385565781344532808,-0.016935296131,0.198387257713,-0.11118112619,0.00899690631012,0.00377542139892,-1.57456767041
1385565781354585503,-0.0168854351484,0.198344678531,-0.111128130743,0.00894148850792,0.00306744187685,-1.57438444554
1385565781364458594,-0.0169534711778,0.198331812262,-0.111063613506,0.00885961539721,0.00386871674876,-1.57427518077
1385565781374487678,-0.0168826418244,0.198346976353,-0.111138135813,0.00896707983256,0.00301036609891,-1.57438369212
1385565781384486429,-0.0168905328774,0.198345565347,-0.111130682423,0.00893736254523,0.00306589072798,-1.574408623
1385565781395819342,-0.0169225404175,0.198385122001,-0.111180291421,0.00897855952878,0.00371491149728,-1.57452929148
1385565781404566256,-0.0168674590997,0.19837801998,-0.111090154903,0.00884774085907,0.00346267710714,-1.57445418378
1385565781414496955,-0.0168967829853,0.19834337699,-0.111215802432,0.00893603469206,0.00322023457707,-1.574018793
1385565781424481411,-0.0169520711834,0.19838099547,-0.111288460126,0.00890884893214,0.00406160013986,-1.57453065398
1385565781434504182,-0.0168721727591,0.198386714668,-0.111157581119,0.00867676724769,0.0030671782988,-1.57487505117
1385565781444449804,-0.0169636730421,0.198335712729,-0.111139228059,0.00901737183238,0.0029239644935,-1.5738962423
1385565781454456253,-0.0169448147925,0.198377645216,-0.11114784441,0.00881791307358,0.00325803949802,-1.57323339622
1385565781464475261,-0.0168320210049,0.198422536295,-0.111233954081,0.00930319236717,0.00390859505164,-1.57489600782
1385565781474481772,-0.016802373667,0.198401025755,-0.111234300784,0.00917095637942,0.00433475387698,-1.57534111138
1385565781484429002,-0.0169002703944,0.19836589447,-0.111197245616,0.00855451020679,0.00322253615835,-1.57316482349
1385565781494480986,-0.016914125222,0.198382497605,-0.111180921848,0.00861846870485,0.00329955643018,-1.57312771659
1385565781504513001,-0.0168909216941,0.198489881052,-0.11136084343,0.00935369962016,0.00409488114669,-1.57545765868
1385565781514476002,-0.0168435383724,0.198342274218,-0.11119792203,0.00847521121312,0.00337096513776,-1.57501673076
1385565781524484304,-0.0168863694746,0.198382052381,-0.111215501565,0.00857020226333,0.00311629844431,-1.57329460737
1385565781534475945,-0.016948724592,0.198378752777,-0.111103330905,0.00861734192984,0.00398443690301,-1.57289764574
1385565781544511221,-0.0168505871809,0.198346722212,-0.111175017219,0.00870933099364,0.00342856681843,-1.5745844117
1385565781554457974,-0.0168289801916,0.198331218935,-0.111217114918,0.00863251568536,0.00334708934927,-1.57460802433
1385565781564459208,-0.0168541706518,0.198352444475,-0.111186016805,0.0083650950035,0.00403944005381,-1.57326599778
1385565781574463265,-0.0169230975608,0.198380379928,-0.111111372002,0.00864719277386,0.00396441506217,-1.57309803903
1385565781584463900,-0.0168435159358,0.198356996269,-0.111160255164,0.0085882257198,0.00331009803419,-1.57468325347
1385565781594430459,-0.0169364243333,0.198373617622,-0.111292418934,0.00910057968381,0.00340824927959,-1.57461665724
1385565781604516037,-0.0168335320811,0.198370770898,-0.111218870004,0.00833673390432,0.00360789083882,-1.57325044517
1385565781614534158,-0.0168253290938,0.19836168077,-0.111218326676,0.00846960850015,0.00329633757422,-1.5736896478
1385565781624511607,-0.0169114020088,0.198435301691,-0.111258058198,0.00910428889514,0.00402574027935,-1.57519989324
1385565781634523205,-0.0168236346753,0.198356838346,-0.11119950494,0.0086372526512,0.00329121930016,-1.57397838221
1385565781644597970,-0.0168733033524,0.19837107176,-0.111220034312,0.00861438793812,0.00302588629122,-1.57329260189
1385565781654479055,-0.016944113695,0.198370274385,-0.111113657134,0.00865374630477,0.00395995268172,-1.57372088357
1385565781664513271,-0.0169504343775,0.198461301703,-0.111276861613,0.00898340059962,0.00353796759503,-1.57488032904
1385565781674504815,-0.0168287267326,0.198341333255,-0.111205600469,0.00856725105329,0.00329799122007,-1.57381430435
1385565781684459881,-0.0168620936032,0.198384693763,-0.111223855206,0.00864200708811,0.00309229612148,-1.57345985463
1385565781694466605,-0.0168457095064,0.19834278892,-0.111201277759,0.00862697951957,0.00333291023124,-1.57416768703
1385565781704989324,-0.0168359248358,0.198362873564,-0.111194877727,0.00860857600515,0.00443501833084,-1.57407670725
1385565781714509241,-0.0169268584011,0.198359293157,-0.1111130397,0.00868008086522,0.00391369734895,-1.57356300707
1385565781724533488,-0.0168632437942,0.198322434424,-0.111264324728,0.00878470381187,0.00330774376813,-1.57383188884
1385565781734524900,-0.0168256980096,0.198344711188,-0.111123766873,0.00891749546237,0.00347103860599,-1.57423308307
1385565781744539770,-0.0168397706796,0.198360137998,-0.111197473406,0.00860719823127,0.00444275357167,-1.57388837284
1385565781754475536,-0.0168322422167,0.198350358098,-0.111200360412,0.00862503008975,0.00327361472193,-1.57391765447
1385565781764428242,-0.0169263460411,0.198358899324,-0.111136525309,0.00869218279981,0.00386242604364,-1.57375484587
1385565781774478668,-0.0168181514037,0.198344267475,-0.111217473784,0.00863595189384,0.00326748568881,-1.57401289589
1385565781784446131,-0.0168379731215,0.198338231048,-0.111174423249,0.00874794940702,0.00319043981554,-1.57391174956
1385565781794532415,-0.0168521120749,0.198329324048,-0.111233578527,0.00865433167431,0.00395930481901,-1.57391008981
1385565781804428397,-0.0168725543702,0.198378948712,-0.111180708036,0.00873356859909,0.0030523435743,-1.57386605826
1385565781814524149,-0.0168620888083,0.198320812951,-0.111260373783,0.00878683429525,0.00339380016056,-1.57383420105
1385565781824456052,-0.0168485000171,0.198333080616,-0.111174696323,0.00872781525606,0.00321394924182,-1.57398207305
1385565781834489313,-0.0168431233683,0.198353077239,-0.111179137753,0.0085842215803,0.00336370246047,-1.57395615652
1385565781844509067,-0.0168123665036,0.198339970715,-0.111192345761,0.0084209370685,0.00348835462755,-1.57398215686
1385565781854480530,-0.0168315875157,0.198346627212,-0.111209288634,0.00847925195021,0.00317006495709,-1.57397277376
1385565781864479741,-0.0168209829932,0.198357343071,-0.111204603871,0.00840540165399,0.00342333860061,-1.57389162137
1385565781874482319,-0.0168912461894,0.198345146419,-0.111118911004,0.0084273876626,0.00418264393766,-1.5737394997
1385565781884463333,-0.0169664613057,0.198410302856,-0.111264616152,0.00931673202233,0.0030806528064,-1.5741051896
1385565781894468913,-0.0169299209504,0.198328033462,-0.111117485251,0.00854832164627,0.00413398471092,-1.57395459947
1385565781904552364,-0.0168325282836,0.198366048189,-0.111163775643,0.00859241328108,0.00376627853416,-1.57393404601
1385565781914460126,-0.0169789674977,0.198376523284,-0.111333228945,0.00949630661909,0.0037738940344,-1.57396954229
1385565781924519401,-0.0168259206668,0.198341484485,-0.111197087148,0.008678492946,0.00323418756976,-1.57397687564
1385565781934464614,-0.0168241595252,0.198328382281,-0.111183021184,0.00864548436121,0.00334451403283,-1.57407704186
1385565781944512311,-0.0168630175513,0.19841278625,-0.111220547537,0.00879821561605,0.00344398466835,-1.5740752696
1385565781954460229,-0.0168977202036,0.198335680427,-0.1111454185,0.00837576460367,0.00411516439746,-1.57363115429
1385565781964509377,-0.0169244183218,0.198324240466,-0.111167727848,0.00855990087121,0.00478519845822,-1.57377321965
1385565781974459621,-0.0168905386133,0.198377588244,-0.111195735036,0.00896845096272,0.0041379654693,-1.57393312037
1385565781984464546,-0.0168254279888,0.198343831752,-0.111237718127,0.00887015458168,0.00338169640005,-1.57379400726
1385565781994469359,-0.0169403271665,0.198352774002,-0.11115047243,0.00917712349841,0.00389109293819,-1.57357556057
1385565782004519853,-0.0168813664429,0.198405700938,-0.111278441842,0.00931905259335,0.00324377218012,-1.57399956008
1385565782014488887,-0.0169227631936,0.198337476944,-0.111122449959,0.00858373762129,0.00538233217665,-1.57377378688
1385565782024466319,-0.0169113810401,0.198345809505,-0.111059283643,0.00833448099168,0.00464206722305,-1.57394181308
1385565782034477218,-0.0168951123197,0.198352017115,-0.111142726938,0.00848307230517,0.00320915252594,-1.57383488917
1385565782044714007,-0.0170154481279,0.198416479733,-0.111160686879,0.0087701361038,0.00397015199315,-1.57374096922
1385565782054486915,-0.0168335691817,0.198320739515,-0.111255829536,0.00878417314073,0.00308866496047,-1.57439744957
1385565782064476150,-0.0169300453475,0.198391965688,-0.11130128628,0.00976796971931,0.00360078395228,-1.5744285679
1385565782074463252,-0.0168870886844,0.198364403904,-0.111114286602,0.00883876834655,0.00463335224962,-1.57341703382
1385565782084512843,-0.0167900325172,0.198317585154,-0.111171652977,0.0086650048332,0.00393194235855,-1.57425110813
1385565782094464126,-0.0168421893867,0.198351881355,-0.111249021207,0.00858767340571,0.00335680617524,-1.57419973722
1385565782104532764,-0.0169117499433,0.198386247584,-0.111359384451,0.00886720545517,0.00387360148188,-1.57437501222
1385565782114505555,-0.0169222912777,0.198343626733,-0.111172152852,0.00867493246767,0.00412544911799,-1.57405606947
1385565782124524216,-0.016869375756,0.198428355939,-0.111278084707,0.00968430955722,0.00299195023322,-1.57434005089
1385565782134461327,-0.0168179433876,0.198314278041,-0.111344561313,0.0094572590587,0.00352568299993,-1.57402548401
1385565782144450959,-0.0168332614261,0.198356776959,-0.11132398984,0.00925794454961,0.00452146010541,-1.57413471473
1385565782154488737,-0.0168055738609,0.19835917642,-0.111279620831,0.0091260766452,0.00330015507366,-1.57402808059
1385565782164493104,-0.016916774518,0.198409205392,-0.111318218891,0.00906778036164,0.00302114215681,-1.57463165979
1385565782174449072,-0.0168798625412,0.198429310899,-0.111279842698,0.00882572227138,0.00382443217077,-1.57458258025
1385565782184457221,-0.0168793091247,0.198407274376,-0.111233856915,0.00913835234243,0.00324256481586,-1.57380596334
1385565782194452252,-0.0168686517693,0.198407845116,-0.111312468635,0.00969657731698,0.0029631804623,-1.57449305987
1385565782204554497,-0.0169703035334,0.198438375151,-0.11144673237,0.0102930214831,0.00407375130301,-1.57466480825
1385565782214494681,-0.0168047278486,0.198384317757,-0.111292808056,0.00938733574878,0.00349570352213,-1.57388472729
1385565782224460625,-0.0168684588894,0.198423115831,-0.111336168093,0.00965346554166,0.00288929999537,-1.57457243314
1385565782234502663,-0.0168669048828,0.198451914161,-0.111348469683,0.00939841043289,0.00305212178237,-1.57464446247
1385565782244493303,-0.0169749026558,0.198512896331,-0.11138934613,0.00945405948839,0.00400760460797,-1.57437897313
1385565782254459784,-0.0169003725693,0.198420476633,-0.111225114752,0.00893051735288,0.00340791766238,-1.57425178742
1385565782264482316,-0.0168720575395,0.198447470224,-0.111338575292,0.00904536382217,0.00287798116516,-1.57452119766
1385565782274426292,-0.0168706357304,0.198442345296,-0.111296997314,0.0087776839066,0.003117306683,-1.57456292592
1385565782284497180,-0.0169069227813,0.198425644177,-0.111354318386,0.00853528668388,0.00393623304517,-1.57449714181
1385565782294476624,-0.0168776694821,0.198443788109,-0.111351055839,0.00884674215972,0.00368713836234,-1.57421588677
1385565782304570517,-0.0168270114998,0.198385587158,-0.111274801333,0.00841144641852,0.00327610412796,-1.57430783176
1385565782314460688,-0.0169451536037,0.198387953344,-0.111339292,0.00846930865593,0.00340949557016,-1.5744605422
1385565782324451661,-0.0169238959744,0.198428807861,-0.111241641188,0.00818488843434,0.00291348949166,-1.57384971774
1385565782334440934,-0.0168536003353,0.198385474926,-0.111297356846,0.00803940260106,0.00290595886848,-1.57424991555
1385565782344458113,-0.0169674456346,0.19845237545,-0.11129081445,0.00826376734178,0.00358134259519,-1.57447171609
1385565782354462020,-0.0169261978233,0.198430444642,-0.111228552633,0.00797604291107,0.00298957891383,-1.57361550197
1385565782364496596,-0.0169260497183,0.198430889607,-0.11129795433,0.00796153952157,0.00277308276263,-1.57465655185
1385565782374509815,-0.0169327217273,0.198424838295,-0.111261344859,0.00770943379681,0.00293437126692,-1.57412526638
1385565782384458778,-0.0168838623397,0.198503877934,-0.111283123879,0.00738879036112,0.00289245644259,-1.57412660295
1385565782394457058,-0.0170053412265,0.198471867477,-0.111244458751,0.00763919822683,0.00375845236798,-1.57454918017
1385565782404695671,-0.0169459716992,0.19845048135,-0.111248930119,0.0078016944967,0.00288029184089,-1.57365718534
1385565782414527049,-0.0169437600458,0.19842736231,-0.111220185427,0.00769265533632,0.00295389694793,-1.5738877106
1385565782424508223,-0.0168893441808,0.198373674778,-0.111392724085,0.00816184121244,0.00323567091073,-1.57438764434
1385565782434565327,-0.0168971331595,0.198476857592,-0.111318900007,0.00830654824785,0.00277866661824,-1.57429311517
1385565782444457596,-0.0168804085806,0.198430936538,-0.11129208008,0.0080454479557,0.002879818329,-1.57413251994
1385565782454419740,-0.0170132989074,0.198462820701,-0.111307594811,0.00803098527857,0.00377727827098,-1.57432670847
1385565782464480154,-0.0169165926239,0.198466523863,-0.111237934879,0.00781608882875,0.00312735116348,-1.57372844963
1385565782474469134,-0.0168650207485,0.198435146842,-0.111351715044,0.00787031428638,0.00370549296624,-1.57464291492
1385565782484415778,-0.0169831252492,0.198424455852,-0.11122579583,0.0076624129194,0.00270904552442,-1.57420699274
1385565782494472318,-0.0168716463416,0.19844836714,-0.11128173584,0.00730616294319,0.00306670738816,-1.5740152505
1385565782504508953,-0.0169190129899,0.198534122873,-0.111346421515,0.00853024631825,0.0031405384703,-1.57483371126
1385565782514536360,-0.0169468369018,0.198501253617,-0.111321498818,0.00800343856529,0.00385863973363,-1.57424782018
1385565782524694757,-0.0167800082365,0.198434994753,-0.111294868891,0.00814736761026,0.0032346874416,-1.57401728142
1385565782534531715,-0.0170989249736,0.198537005936,-0.111315663574,0.00853963838912,0.0041743570577,-1.574928831
1385565782544571654,-0.0169582349392,0.198475772499,-0.111190607506,0.00773584653063,0.00331506975328,-1.57379410691
1385565782554490140,-0.0169342319366,0.198458032223,-0.111278814271,0.0074012912102,0.00278648729373,-1.57427732509
1385565782564495330,-0.0169795370005,0.198434532797,-0.111305603683,0.00749311560322,0.00364092972843,-1.57482289428
1385565782574448984,-0.0168908235498,0.198474491254,-0.111322497946,0.00758744661456,0.00320280856218,-1.57414328219
1385565782584448278,-0.0168110999359,0.198426545305,-0.111336625635,0.00780097829964,0.00315552041607,-1.57445719895
1385565782594469579,-0.0169571078259,0.198403800253,-0.11122953861,0.00784188428563,0.00301742129718,-1.57446243134
1385565782604650514,-0.0169219120956,0.198491753567,-0.111334184672,0.00753290072088,0.00382394184961,-1.57419400381
1385565782614503283,-0.0170753312754,0.198547356216,-0.111357553868,0.00800487305371,0.00408821382974,-1.57524946186
1385565782624531033,-0.0169997582252,0.198541448249,-0.111250751791,0.0076386477589,0.0040795720818,-1.57409461712
1385565782634463987,-0.0169399453777,0.198490433657,-0.111280973223,0.00782786024191,0.00365134336404,-1.57437043285
1385565782644482859,-0.0169071780942,0.198514174916,-0.111433173899,0.00867886296734,0.0038150619153,-1.57560178384
1385565782654475482,-0.0169357166188,0.198528091603,-0.111331802658,0.00770327462406,0.00449613295171,-1.57394299427
1385565782664522260,-0.0169014352097,0.198505846387,-0.111502542776,0.00825668471126,0.00400547929534,-1.57549863977
1385565782674539988,-0.0169879533993,0.198506391919,-0.111292785183,0.00776347586364,0.00362451889251,-1.57482321612
1385565782684474120,-0.0170234588222,0.198570953936,-0.111388890747,0.00799194614873,0.00416805477558,-1.57447082088
1385565782694576349,-0.0169708255956,0.19858408215,-0.111452498061,0.00839310767084,0.00304071807131,-1.57541640345
1385565782704489888,-0.0169732859437,0.198485888866,-0.111346739062,0.0076567258422,0.00333163712987,-1.57420871868
1385565782714434281,-0.0170780781448,0.198579452511,-0.111503933648,0.00913454141391,0.00367963483573,-1.5753989178
1385565782724495061,-0.0169589496244,0.198549052209,-0.11129931734,0.00787122946305,0.00353342908801,-1.57526112074
1385565782734534513,-0.0171039064974,0.198597234076,-0.111375176959,0.00834254085214,0.00388466292138,-1.57443887253
1385565782744500484,-0.0169909445864,0.198587951726,-0.111560803387,0.00895098332372,0.00345107685901,-1.57590304624
1385565782754470174,-0.0169938195769,0.198528243706,-0.111395675356,0.00872193443337,0.00290084319739,-1.57485027805
1385565782764458418,-0.0169805454024,0.198577715468,-0.111451396087,0.00917678912124,0.00412244131622,-1.57560933949
1385565782774451600,-0.0170885830933,0.198540597584,-0.11156823767,0.00978373868892,0.00385073487737,-1.57481979537
1385565782784476474,-0.0169549413968,0.198542773471,-0.111434488453,0.00847118871642,0.003497226869,-1.57473772036
1385565782794474582,-0.016977107754,0.19857633682,-0.111474947214,0.00786962787331,0.00355737332292,-1.57480719651
1385565782804716545,-0.0168742994803,0.198539091441,-0.111518807947,0.00744295393915,0.00325354180512,-1.57457154249
1385565782814499889,-0.0171324168743,0.198601989015,-0.111442078417,0.00872028331667,0.00316979808402,-1.57583615646
1385565782824483843,-0.0169223040549,0.198557000922,-0.111419104549,0.00820492158692,0.00374404956607,-1.57505959978
1385565782834536167,-0.0170328334077,0.198633199596,-0.111456205785,0.0084366512469,0.00445428876541,-1.57603614848
1385565782844510831,-0.0170258538623,0.198616834439,-0.111489527314,0.00856264251151,0.00314703427987,-1.57486239344
1385565782854476229,-0.0170449217771,0.198684024539,-0.111552749041,0.00847385457668,0.00363589092245,-1.57569303712
1385565782864468227,-0.0171004550461,0.198690273389,-0.111539654684,0.00882201954562,0.00382076924701,-1.57625247194
1385565782874463892,-0.0170575660779,0.198663915236,-0.111531499808,0.00887250373917,0.0037314311648,-1.57573894393
1385565782884487933,-0.0171475550313,0.198671149546,-0.111451561744,0.00909106647836,0.00365510648707,-1.57737645375
1385565782894453885,-0.0171452081823,0.198721799271,-0.11151907479,0.0092487555285,0.00389852228913,-1.57588994276
1385565782904534817,-0.0170755121803,0.198836843452,-0.111528058722,0.00874020804741,0.00302491651155,-1.57696732889
1385565782914490917,-0.0172056442828,0.198823955325,-0.111599314494,0.00887024553656,0.00279906872241,-1.57683341397
1385565782924490328,-0.0174050603356,0.198917249099,-0.111362511431,0.00866364783629,0.0039343723788,-1.57770277368
1385565782934491485,-0.0174903803817,0.198997989128,-0.11133537401,0.00849141416547,0.00319972834859,-1.57904337701
1385565782944468619,-0.0174068153484,0.198991504531,-0.111447519237,0.00766874664341,0.00302395066665,-1.57768947104
1385565782954481330,-0.0175042887955,0.199092262822,-0.111523112499,0.00792554504223,0.00220368499161,-1.57985079817
1385565782964459128,-0.0175928583433,0.199072443467,-0.111498572552,0.0082182235213,0.00254106830059,-1.57794799526
1385565782974455373,-0.017567960909,0.199137913285,-0.111441451984,0.00778229104892,0.00345685107276,-1.58072675249
1385565782984463159,-0.0174884330913,0.199203482494,-0.111557101835,0.00749292890273,0.00283133751327,-1.5805056274
1385565782994463506,-0.0175490445705,0.199272013844,-0.111572849711,0.00761255529092,0.00203107810899,-1.58100500049
1385565783004526328,-0.0174659955189,0.199282564142,-0.111687388407,0.00851471038898,0.00177386871985,-1.58173712909
1385565783014471250,-0.0176357216759,0.199372641184,-0.111698719944,0.00888795033835,0.00277241934532,-1.58119505044
1385565783024488977,-0.0174907779396,0.199430889271,-0.111663086659,0.00882755674308,0.00394335796382,-1.58310008357
1385565783034522316,-0.0176361150941,0.199464959307,-0.11169318306,0.00851544690167,0.00278263956189,-1.58301595456
1385565783044463269,-0.0177420873138,0.199478561079,-0.111582106672,0.00830985518766,0.00201129001985,-1.58379826939
1385565783054494253,-0.0177840590693,0.199491733801,-0.111575742778,0.00855369756107,0.00228882215036,-1.58358177208
1385565783064474594,-0.0178230177508,0.199637282696,-0.111651630365,0.00876248118866,0.00241840955787,-1.5846351956
1385565783074444612,-0.0180352744128,0.199545842052,-0.111619235639,0.00877502471753,0.00391029174598,-1.58553302702
1385565783084522584,-0.0180742066414,0.199700310494,-0.111503664051,0.00872056750415,0.00394195306218,-1.58541216814
1385565783094505256,-0.01818959304,0.199703566135,-0.111475121945,0.00845383794742,0.00334624441668,-1.58646463076
1385565783104513941,-0.0182584410547,0.199897293781,-0.111617881137,0.00778058339666,0.00283608140479,-1.58632520387
1385565783114465693,-0.0183267708084,0.199882179207,-0.111588691655,0.0076411719518,0.0032210391151,-1.58720807775
1385565783124521003,-0.0182908378672,0.200026110178,-0.111568001285,0.00779516457126,0.00409507433479,-1.58749373344
1385565783134548268,-0.0183638249765,0.20007240722,-0.111610691882,0.00717124950316,0.00415472008373,-1.58792715341
1385565783144568003,-0.0184209561935,0.200178498667,-0.111786319401,0.00685932770319,0.00311236730117,-1.58895773479
1385565783154524422,-0.0185601452311,0.200235250484,-0.111695988675,0.00619453153092,0.00321613984996,-1.58946820426
1385565783164479054,-0.0186508064932,0.200353542774,-0.111567601391,0.00585174287072,0.00363299959852,-1.59097901202
1385565783174427493,-0.018819976061,0.200444034158,-0.111643241031,0.00582223818042,0.00430694240485,-1.59080068626
1385565783184433540,-0.018897578705,0.200462450343,-0.111709399345,0.00521997600405,0.00483684204415,-1.59254384341
1385565783194470393,-0.0189915426267,0.200609858453,-0.111794300281,0.0050610463598,0.00471098226211,-1.59261036527
1385565783204473180,-0.0190450130084,0.200747337254,-0.111859247856,0.00491368585173,0.00373930064155,-1.59315833032
1385565783214444032,-0.0191548092657,0.200908076989,-0.111679297395,0.00471111483762,0.00385528612392,-1.59416995884
1385565783224439565,-0.0192701039799,0.200991604805,-0.111594817208,0.00391306126019,0.00614576275539,-1.59508459617
1385565783234479590,-0.0194911372327,0.201192825544,-0.11153866247,0.00360916123384,0.00449018056464,-1.59636276693
1385565783244475337,-0.0196224322626,0.20126419538,-0.111719545738,0.00427376598859,0.00333406966383,-1.5975562369
1385565783254495600,-0.0197080682609,0.201385907926,-0.111766759908,0.00446414478058,0.00307486206403,-1.59832679916
1385565783264455124,-0.0198206328778,0.201507161064,-0.11188312736,0.00502743633202,0.00220332848253,-1.59952759204
1385565783274453485,-0.0201366597882,0.201679904252,-0.111851911277,0.0054270182803,0.0017244258762,-1.60109930459
1385565783284502109,-0.0203058101235,0.201977595105,-0.111738013891,0.00561840116808,0.00447847900304,-1.60249090976
1385565783294505550,-0.0204630131252,0.20210627206,-0.111519904269,0.00552985100309,0.00474412983529,-1.60397065735
1385565783304467043,-0.0205681147176,0.202290095896,-0.11150855697,0.005016163755,0.00413169838216,-1.60485137822
1385565783314462403,-0.0207701825496,0.202382825299,-0.111847775378,0.00467404598891,0.00212558544531,-1.60507493231
1385565783324490473,-0.0210254506482,0.202697554239,-0.111960465431,0.00264543075802,0.00468105557207,-1.60638464237
1385565783334504244,-0.0210854831428,0.202861849037,-0.11181999761,0.00148167865911,0.00702145970495,-1.60697452376
1385565783344453137,-0.0213137202155,0.202999820653,-0.111598650295,0.000761792396879,0.00701627215155,-1.60896006215
1385565783354604706,-0.0212727184309,0.203018942328,-0.111899127898,0.00024924157354,0.00518280778111,-1.60976700238
1385565783364479838,-0.0214018779537,0.203084687023,-0.11221378408,0.000158119283727,0.00374235179304,-1.61105602355
1385565783374464993,-0.0214885936707,0.203309297515,-0.111849916395,-0.000107681316855,0.00205755613253,-1.61241600842
1385565783384662378,-0.0216274986758,0.203581074806,-0.111273169438,0.00123196407514,0.00344577218366,-1.61374183097
1385565783394485133,-0.0217398583791,0.203862165222,-0.111295153134,0.00178810561073,0.00441740682422,-1.61466974105
1385565783404552311,-0.0217586805352,0.203926160154,-0.111749437343,0.00194655751669,0.0040009805571,-1.61602084101
1385565783414522504,-0.0218096044122,0.204106728996,-0.112173306514,0.00220432684073,0.00424260618037,-1.61702890598
1385565783424614217,-0.0218687941273,0.20427237077,-0.111960943609,0.00298337764318,0.00636430176094,-1.61810778652
1385565783434513050,-0.0220391936928,0.20451899176,-0.111681375203,0.00366791993832,0.00747805647948,-1.61944877738
1385565783444472206,-0.0220605122301,0.204530879279,-0.11182432237,0.00306506956643,0.00782243985773,-1.61999768183
1385565783454491518,-0.0221596916485,0.20460241489,-0.111951281047,0.00360361723698,0.0052849260441,-1.62127008665
1385565783464461743,-0.0222215797166,0.204677038921,-0.111859790145,0.0044023497444,0.00411689553989,-1.62244144199
1385565783474445533,-0.0222321146668,0.204785813977,-0.111485320508,0.00461353507161,0.0038859592502,-1.62375151225
1385565783484476674,-0.0223747075117,0.204811302547,-0.111288249635,0.00413763487459,0.00474496182069,-1.62387688782
1385565783494414251,-0.0224587364919,0.204853717067,-0.111684764082,0.00411301571424,0.00402621365209,-1.62506151608
1385565783504470676,-0.0225766701651,0.204819022923,-0.111965852924,0.00378991899837,0.00446840868506,-1.62455683816
1385565783514431293,-0.0226916280386,0.204916710959,-0.111956736413,0.00419384634787,0.00485420441595,-1.62556119482
1385565783524494947,-0.022636886,0.204981780446,-0.111825893433,0.00373376613004,0.00590338294569,-1.6257201103
1385565783534549094,-0.0226338824755,0.205093499083,-0.111889459651,0.00403767340012,0.00717255301106,-1.62724962662
1385565783544548818,-0.0226384488675,0.205144933713,-0.1119194256,0.00401833508943,0.00704324800899,-1.62814319389
1385565783554524214,-0.0228442839404,0.205206258734,-0.111956823868,0.00464149530839,0.00520507302317,-1.62840560883
1385565783564507198,-0.0228221912025,0.205191863047,-0.111885100418,0.00458233534466,0.00464101942618,-1.62892315277
1385565783574510748,-0.0228356899794,0.205211114428,-0.11180220999,0.00509309537954,0.00484289678176,-1.62936498411
1385565783584529309,-0.0227747594964,0.205294352224,-0.111813059947,0.00541320701039,0.00472320116155,-1.62972334125
1385565783594469086,-0.0228085322882,0.205282919584,-0.111776665199,0.00621401494005,0.00413921505889,-1.63026251166
1385565783604539574,-0.022672045594,0.205331981395,-0.111839462544,0.00688137220875,0.00417643595339,-1.63047452813
1385565783614470038,-0.0226627301267,0.205216465067,-0.112035530028,0.00688552209298,0.00328471128254,-1.63087026517
1385565783624533856,-0.0228898172303,0.205358221007,-0.111873495911,0.00570443063269,0.00342763183322,-1.63234264888
1385565783634500070,-0.0228468378175,0.205370550167,-0.111960672765,0.00520073442054,0.00516282175163,-1.63319072499
1385565783644511299,-0.0228752296548,0.205468286133,-0.112011333659,0.00460222403366,0.00551945220656,-1.63450546124
1385565783654521160,-0.0228192272512,0.205553663882,-0.112094578112,0.00389282961089,0.00630310120717,-1.63476415842
1385565783664496191,-0.0227501860565,0.205603288123,-0.112234878298,0.00438218217942,0.00669931701577,-1.63527292224
1385565783674490191,-0.0229062554867,0.205761535661,-0.112405351743,0.00438006948999,0.0068257117851,-1.63597599289
1385565783684540557,-0.0228028789169,0.205761667226,-0.112600887296,0.00418184028354,0.00612921068654,-1.63656689696
1385565783694501910,-0.0228907532413,0.20587868235,-0.112958070978,0.00523414755819,0.00763290534958,-1.63793400565
1385565783704525225,-0.0227281709986,0.205998320011,-0.113150283691,0.00569002781316,0.00689212971345,-1.63876991079
1385565783714500123,-0.0225231477255,0.206114975037,-0.113518907164,0.00716824910878,0.00763366650042,-1.64018761771
1385565783724523456,-0.0225450771638,0.206394755712,-0.113902000106,0.00852436572738,0.00812643085,-1.64153485822
1385565783734608106,-0.0222967878926,0.206494405201,-0.114393340215,0.00895444769594,0.00870233616911,-1.64321990216
1385565783744503650,-0.0221634310943,0.206856649412,-0.114900309027,0.0098830421132,0.0100241576082,-1.64410461987
1385565783754507643,-0.0219833245622,0.20704562382,-0.115601866235,0.0102547993728,0.0110114160852,-1.64551983821
1385565783764499148,-0.0218354679907,0.20738566081,-0.116309498904,0.00982553193997,0.0113372584662,-1.64664978715
1385565783774442724,-0.0216355190835,0.207652799899,-0.117425429669,0.0103120277602,0.0146965047063,-1.64767113059
1385565783784492439,-0.0214038614524,0.208077447482,-0.117956204047,0.00905633602754,0.0159209314762,-1.64938460915
1385565783794484327,-0.0210634898689,0.208388478959,-0.119186081915,0.00860408325376,0.015572687324,-1.65043167464
1385565783804820320,-0.0208462713546,0.208861222401,-0.120197242628,0.00723023200953,0.0174911022589,-1.65149205023
1385565783814486768,-0.0206354409023,0.209297465006,-0.121348551843,0.00648963210471,0.0188081287047,-1.65312358115
1385565783824589409,-0.020301039313,0.209821533793,-0.122620498078,0.00503636774867,0.0203854965544,-1.65414513263
1385565783834550883,-0.0200752043304,0.210373838022,-0.124030944243,0.00411527185865,0.0216059161528,-1.6559322647
1385565783844522002,-0.019671840044,0.210845192297,-0.125347630594,0.00306950186245,0.0223182178999,-1.65651392495
1385565783854536908,-0.01938205713,0.211538563765,-0.126828728193,0.00211447325266,0.0237793264463,-1.65803507189
1385565783864505392,-0.0189911404151,0.212080284778,-0.128535712774,0.00163094986205,0.0237942813404,-1.65917835238
1385565783874783023,-0.0186947700741,0.212807682623,-0.130160290601,0.000637655158174,0.02742325028,-1.66058737561
1385565783884523530,-0.0182973653869,0.213481346055,-0.13198126217,0.000325474175633,0.0252739239336,-1.66192692374
1385565783894525474,-0.0178395831461,0.214194092642,-0.133976831324,6.18234504491e-05,0.0268322692515,-1.66334740198
1385565783904571843,-0.0174469980174,0.214990463234,-0.136002885335,1.33284870744e-06,0.0263070418001,-1.6649080263
1385565783914554636,-0.0171621614723,0.215890571916,-0.137877229324,-0.000203782232818,0.0295353191604,-1.66614430725
1385565783924460117,-0.0166626954127,0.216621395564,-0.140229765812,-0.000372788957258,0.0275518667036,-1.66784318801
1385565783934515594,-0.016300538727,0.217437470548,-0.142713401676,-0.000713958069654,0.0286549067655,-1.66982460058
1385565783944545951,-0.016022858428,0.218337859372,-0.145297757801,-0.000236367811659,0.0302745168586,-1.67169921787
1385565783954478797,-0.0156001611412,0.219255075085,-0.14758034349,-0.000679970121566,0.0295666519401,-1.67358916568
1385565783964632676,-0.0154042667325,0.220035641091,-0.150240220751,-0.00103921818038,0.0305158317149,-1.67483350082
1385565783974448031,-0.0151732602998,0.221061938301,-0.153431245359,-0.000994628243423,0.0305310009376,-1.67695244832
1385565783984474455,-0.0145244436605,0.221934773739,-0.156227272693,-0.00114130178371,0.0297337573548,-1.67794173044
1385565783994592344,-0.0143773374234,0.222933121692,-0.158922083539,-0.00114342839455,0.0309481687747,-1.67941808481
1385565784004500684,-0.0141784221721,0.223790810488,-0.162058438567,-0.000931045786419,0.0317704557398,-1.68087930221
1385565784014482990,-0.0136895318256,0.224837159677,-0.165176073941,0.000402071423831,0.0305544047018,-1.68215426129
1385565784024506374,-0.0134437677541,0.225728811171,-0.168358867047,0.00145272286153,0.0310569237711,-1.68320867882
1385565784034526387,-0.0129417636736,0.226744676919,-0.171614280452,0.00266435435953,0.0332265886995,-1.68382312324
1385565784044522274,-0.0125657861513,0.227731795414,-0.174680499977,0.00307477839609,0.0349873790714,-1.68526122827
1385565784054462409,-0.0121404547398,0.228897126906,-0.178134138298,0.00495628646299,0.0357840200365,-1.68546686707
1385565784064485305,-0.0116785200746,0.229927447738,-0.181814698991,0.00660609373668,0.036886099049,-1.68646950237
1385565784074901919,-0.0111869345845,0.231126658598,-0.185094329282,0.00783360502041,0.0405393263084,-1.68647593936
1385565784084542790,-0.010823162798,0.232258405135,-0.188723414529,0.0091148792706,0.0426115318312,-1.68707113633
1385565784094518642,-0.0104042301094,0.233435117711,-0.192314488326,0.0095502345659,0.0461512265825,-1.68770466322
1385565784104543814,-0.0101900093513,0.234787813134,-0.195762325134,0.00987402262021,0.0495422851138,-1.68716419389
1385565784114460593,-0.00959189329563,0.236060946001,-0.199394870559,0.0107344561607,0.0500463700773,-1.68768577106
1385565784124500392,-0.0091072240484,0.23733135802,-0.202992957442,0.0112004110786,0.0531298219349,-1.68798758669
1385565784134473840,-0.00871419371815,0.238693149505,-0.206746726137,0.0115555658308,0.0552097249216,-1.68811926886
1385565784144531812,-0.00836860164099,0.240209237864,-0.210585974721,0.012823751703,0.0570632564026,-1.68811453617
1385565784154779819,-0.00773869545736,0.241615932493,-0.214570525888,0.014082976762,0.0602486784591,-1.68871145989
1385565784164486838,-0.0073107991365,0.243340796736,-0.218243289923,0.0155150445386,0.0611944527152,-1.68833154579
1385565784174479249,-0.00679021635856,0.244784466725,-0.222203785329,0.0170139858039,0.0618219989274,-1.68870993467
1385565784184471764,-0.00649769198535,0.246452038488,-0.225940750869,0.0174209657261,0.0650288719755,-1.68802119316
1385565784194493197,-0.00607970382708,0.248220185803,-0.229935790733,0.0178729165013,0.0652658229595,-1.68792990918
1385565784204488380,-0.00529852311461,0.249877389722,-0.234003279447,0.0177923515956,0.0649475071545,-1.68774282594
1385565784214476869,-0.00504967372809,0.251685209458,-0.238071367009,0.0170333725887,0.0657004287241,-1.68757389685
1385565784224469060,-0.00477810129396,0.253606541934,-0.242128454315,0.0167685921163,0.0680301990923,-1.6872656189
1385565784234526304,-0.00414203620444,0.255452546723,-0.246131996185,0.0162565331275,0.0681069411608,-1.68709818971
1385565784244452962,-0.00344713433413,0.257419202483,-0.250308754896,0.0158738279148,0.0676521215821,-1.68753978798
1385565784254477681,-0.00295092253012,0.259379052953,-0.254573208523,0.0155174737775,0.0687911622136,-1.68736820548
1385565784264489624,-0.00247761299527,0.261506542043,-0.258613015449,0.0152770463537,0.0690185342479,-1.68726229329
1385565784274487966,-0.00222003512932,0.26366801001,-0.262645342,0.015356710264,0.0709066168277,-1.68643137487
1385565784284506835,-0.00155237970134,0.265790250865,-0.266941950378,0.0138167490032,0.0713241439839,-1.68626288257
1385565784294488508,-0.000894877645645,0.26811515046,-0.271256993117,0.0133057337739,0.0720081917826,-1.68584578546
1385565784304581597,-0.000489912483117,0.270423552934,-0.275420564464,0.0118338643725,0.0720541796709,-1.68594662707
1385565784314473514,0.00020765265095,0.272823674191,-0.279634371565,0.010976214821,0.0728345626388,-1.68592008706
1385565784324493337,0.000645372134289,0.275320824843,-0.283853391767,0.0107163283839,0.0742946763617,-1.68537488755
1385565784334530525,0.000985732484494,0.277797138579,-0.288046825564,0.0112563309555,0.0749400198727,-1.68534941133
1385565784344563873,0.00176021232312,0.280304876731,-0.292363109438,0.0114189892781,0.0765075726976,-1.68518339181
1385565784354492255,0.00237817923687,0.282946035498,-0.296833985943,0.0122439023792,0.0760679437274,-1.68488566775
1385565784364526010,0.00290316010537,0.285603140964,-0.30108822069,0.0123750888916,0.0757946169278,-1.68475114477
1385565784374503458,0.00353919704981,0.288346760287,-0.305429451499,0.0136167808182,0.0760033297017,-1.68425287669
1385565784384485465,0.00406717076525,0.291046572758,-0.309791347873,0.0149171480449,0.0758308131121,-1.68388715754
1385565784394519369,0.00475479218002,0.293862054607,-0.314158187905,0.015164227972,0.075342449515,-1.68374163693
1385565784404564922,0.00504425990946,0.296759282164,-0.318429747341,0.0158446394181,0.0743215552684,-1.68285872232
1385565784414492417,0.00574063839296,0.29960525183,-0.322884198042,0.0155103548981,0.0728755136721,-1.68342466759
1385565784424500301,0.0063008761282,0.302590904969,-0.32724525606,0.0152264903735,0.0734389462488,-1.68281583824
1385565784434708763,0.0068525683105,0.305573936473,-0.331618938848,0.0143046082964,0.0709879981088,-1.68241714208
1385565784444532089,0.00743968674921,0.308514575704,-0.335902358205,0.0133480308267,0.0694292439994,-1.68233712179
1385565784454506127,0.00819076773529,0.311679368431,-0.340549497144,0.0138482014283,0.0694924203252,-1.68155811868
1385565784464498342,0.00861549277981,0.314753816394,-0.344829742772,0.013411311577,0.0669868530415,-1.68108187403
1385565784474486911,0.00926004525388,0.317943817144,-0.349330951178,0.0141423667232,0.0658122482446,-1.68064143371
1385565784484439521,0.00990896717246,0.321148066191,-0.35383288198,0.014505826589,0.0644588775782,-1.68008939918
1385565784494498112,0.0104360537623,0.324411638948,-0.358317897214,0.0148363399104,0.0630497754908,-1.67981955821
1385565784504533525,0.0112276946351,0.327767275054,-0.362852570117,0.0145822339487,0.0614321469376,-1.67971498818
1385565784514440029,0.0116543529471,0.331165135998,-0.367297172209,0.0143935229175,0.0603593320918,-1.67909328761
1385565784524482702,0.0122813548141,0.334559598961,-0.371918433495,0.0141124062273,0.0602718580918,-1.67880357373
1385565784534434875,0.0130418615057,0.338045114805,-0.376710597676,0.0131435173653,0.0598285684029,-1.67869560402
1385565784544482241,0.0134127599003,0.341607549414,-0.381541011535,0.0131773026849,0.0585775113362,-1.67783093474
1385565784554488931,0.0140488901642,0.345140633856,-0.38644905174,0.0120897370772,0.0585544092092,-1.67805916512
1385565784564529516,0.0146914831846,0.348758401466,-0.391310395333,0.0121545717078,0.057946811098,-1.67739945807
1385565784574437157,0.0152990620892,0.352387601567,-0.395969034217,0.0112829186909,0.0580702281845,-1.67679314065
1385565784584487530,0.0159589876083,0.356028871871,-0.400425431237,0.0105825137579,0.0576375061777,-1.67696845221
1385565784594492091,0.016504852874,0.359809829952,-0.404661952521,0.0106901190061,0.057350820026,-1.67605187791
1385565784604580845,0.0168795702092,0.363503753747,-0.408878093013,0.00991103153861,0.0589368357868,-1.67558033187
1385565784614534954,0.0176410908775,0.367296846739,-0.413162091443,0.00983133154107,0.0584029951117,-1.67525752636
1385565784624515625,0.018164222703,0.371093652035,-0.417045359386,0.00943407699441,0.0580962836914,-1.67483237258
1385565784634708262,0.0188507809299,0.374873201071,-0.420940096704,0.00908979447846,0.0570713965696,-1.67465904328
1385565784644601486,0.0195238076452,0.378688346767,-0.424755704931,0.00863335669686,0.0571236086637,-1.67415782379
1385565784654626333,0.0201384226786,0.382529328243,-0.428222500958,0.008691649808,0.0564807551626,-1.67398238742
1385565784664525972,0.0207589055113,0.386467623539,-0.431823808041,0.0085007739889,0.0570285224961,-1.67332752199
1385565784674515453,0.0211509933674,0.390378947277,-0.43504888352,0.00831925738882,0.0566647371037,-1.67255022989
1385565784684514778,0.0219972564246,0.394291183587,-0.438363175113,0.00805766233866,0.0559689196078,-1.6722237972
1385565784694531919,0.0224725003822,0.398282485108,-0.441488098356,0.00851168226049,0.0564762175492,-1.67142813612
1385565784704531899,0.0231959591293,0.402141937338,-0.444483030475,0.00775839912946,0.0549458952688,-1.67157426676
1385565784714447642,0.0234751597159,0.406284545452,-0.44708388823,0.00864498526469,0.0557082386229,-1.67040962522
1385565784724509926,0.0242886108354,0.410290202301,-0.449993749798,0.00822108178033,0.0545218667756,-1.67056403541
1385565784734526790,0.0247782283073,0.414241446868,-0.452532724893,0.00782212911704,0.052384376048,-1.66992955446
1385565784744495475,0.0252548814263,0.418274483397,-0.455056002283,0.0076436865898,0.0520049583282,-1.66958658066
1385565784754503426,0.0258284411706,0.422360475423,-0.457166692835,0.00667911314992,0.0514721530045,-1.66931533029
1385565784764460461,0.0263773198917,0.426467936805,-0.459350729602,0.00679031437236,0.0495789467634,-1.66836397372
1385565784774458746,0.026939332843,0.430560762238,-0.46130792321,0.00617075061962,0.0486264982747,-1.66803309088
1385565784784510133,0.0272903331794,0.434775780971,-0.463360428536,0.00650337974038,0.0492747541057,-1.66738304703
1385565784794509372,0.0279565175446,0.438745301254,-0.465074796222,0.00614612085181,0.0465757324147,-1.66689387098
1385565784804523858,0.0285353940266,0.443003193722,-0.466786505982,0.00595924018901,0.0468343288411,-1.6663648306
1385565784814501603,0.0290395269183,0.447118997129,-0.468232815933,0.00578329837313,0.0444183232203,-1.6658749605
1385565784824516858,0.0295367949879,0.451256694083,-0.469691707666,0.00506914322394,0.0434356482496,-1.66532941112
1385565784834499620,0.0299455443492,0.455443392792,-0.47090728536,0.00504928164927,0.04202025348,-1.66494220997
1385565784844464682,0.0305187461427,0.45965363463,-0.471954241167,0.00509012347905,0.0410550705503,-1.66444489398
1385565784854484261,0.0310400246307,0.463859418948,-0.473034360428,0.00480976846661,0.0394103328029,-1.66363862659
1385565784864517383,0.031389968913,0.468042976029,-0.474029483208,0.00395872492206,0.0386861653615,-1.66324957526
1385565784874517991,0.0319341411285,0.472303519008,-0.474681333288,0.00318654313506,0.0379705430891,-1.66248901314
1385565784884462979,0.0323532841485,0.476525960433,-0.475410774022,0.00260360557277,0.0362166228769,-1.66208038743
1385565784894458551,0.0327307754432,0.480778900772,-0.4757950108,0.00187631398411,0.0350339481215,-1.66156703573
1385565784904511367,0.0332739936121,0.485013483245,-0.476250012951,0.00192080468343,0.0330888842526,-1.6611131296
1385565784914691023,0.0336392511499,0.489232192013,-0.476596961932,0.00117754249255,0.0328882840304,-1.66024242421
1385565784924496550,0.0342878973745,0.493493058035,-0.476830381531,0.00167357090174,0.0304800813839,-1.65911385694
1385565784934519804,0.0345083707784,0.497691927795,-0.476908388073,0.00109278527544,0.0309921488926,-1.65897693211
1385565784944466448,0.0351345605162,0.501943038283,-0.47697635313,0.000837040043574,0.0288187498341,-1.65876459718
1385565784954500835,0.0354878609073,0.506177623049,-0.476867088042,0.000768859391907,0.0274902436709,-1.65809717962
1385565784964483621,0.0359057226299,0.510394546774,-0.476787994097,0.000542909506715,0.0263918109957,-1.65814755014
1385565784974784736,0.0362336667404,0.514711039952,-0.476451270905,0.000925539657347,0.0255565034768,-1.65700892771
1385565784984452011,0.0366592637379,0.518872246617,-0.476193012527,0.00115001328802,0.0248005522167,-1.65643465565
1385565784994469034,0.0370571911897,0.523169554197,-0.475731374957,0.000732978213112,0.02375739959,-1.65567547107
1385565785004475400,0.0373317146497,0.527399742644,-0.475197129446,0.00137310540623,0.0228548014688,-1.65525011906
1385565785014480004,0.0377101120568,0.531565692317,-0.474530334896,0.000869365455998,0.0229453020383,-1.65501315044
1385565785024452989,0.037935610759,0.535902849206,-0.473913768472,0.00191851542912,0.0218176774647,-1.6540575153
1385565785034555757,0.0384451234798,0.540030177777,-0.473274911785,0.0011416941279,0.0200678850055,-1.6541087279
1385565785044496356,0.0387139299695,0.544302829028,-0.472479840759,0.00142875199264,0.020083951241,-1.65298086249
1385565785054469166,0.0389242087843,0.548441878239,-0.471525405185,0.00119531206017,0.0200591218013,-1.65223591048
1385565785064420239,0.0393117933658,0.552652703682,-0.470632148079,0.000573063372779,0.0186550939157,-1.6522978169
1385565785074464111,0.0395226376881,0.556855426916,-0.469632091667,0.000524869745163,0.0184366098531,-1.651812401
1385565785084454098,0.039752457025,0.561005471243,-0.468533763542,0.00026777350358,0.0179104126443,-1.65146222011
1385565785094463994,0.0400562082921,0.565187295987,-0.467454542658,0.000313324484567,0.0181489307264,-1.65082094058
1385565785104442503,0.0402030454695,0.569388685344,-0.466343821727,0.000415619415341,0.0178079845617,-1.65047066698
1385565785114487793,0.0405208492338,0.573534657149,-0.465149606787,0.000397148365042,0.0173080231158,-1.65000638077
1385565785124490419,0.0407266341508,0.577718705118,-0.463887148938,0.000579083598574,0.0173602008321,-1.6492526072
1385565785134455433,0.0409669917964,0.581746725329,-0.462572761248,-6.08884241781e-05,0.0166042475401,-1.64893356637
1385565785144470707,0.0408812465531,0.585954187432,-0.461223028051,0.000703626853188,0.0161462033143,-1.64854725714
1385565785154461604,0.041217065381,0.590077442462,-0.459803267968,8.0963645569e-05,0.0164171070493,-1.6480415169
1385565785164470311,0.0414243757235,0.59415686897,-0.458429842064,0.00032121409371,0.0156693109876,-1.6471767568
1385565785174459926,0.0414955871395,0.598266841454,-0.456932910704,0.000177347269168,0.0152223348666,-1.64686019513
1385565785184483467,0.0417756426099,0.60232609061,-0.455382974531,-0.000180697757105,0.0156273142562,-1.64629809953
1385565785194516330,0.0416430448335,0.606474311833,-0.453838021495,0.000524153380996,0.014609069904,-1.64590928848
1385565785204516737,0.0418000866738,0.610535304931,-0.452330650077,0.000144690103226,0.0150285832124,-1.64539214566
1385565785214470594,0.0419794949453,0.614545245544,-0.450772171233,0.000211352831712,0.0141120399677,-1.64502817392
1385565785224461319,0.0420369552308,0.618575025666,-0.449229828238,-0.000282358724663,0.013343667989,-1.64492249607
1385565785234471249,0.0422405624314,0.622575409161,-0.447590939771,-0.00082625463371,0.0127930426053,-1.64457439602
1385565785244461778,0.0421716072881,0.626599033692,-0.445930416405,-0.00106662216881,0.012285142359,-1.64351418321
1385565785254468854,0.0422607033678,0.63059964872,-0.44423691116,-0.00202311430228,0.0116431718945,-1.64304637441
1385565785264423953,0.0423759701704,0.634582965645,-0.442623446863,-0.00172742178975,0.0104532896625,-1.6423041909
1385565785274419052,0.0422501591333,0.638546664205,-0.440888934822,-0.00174158912511,0.0097544518894,-1.64153118747
1385565785284470074,0.042475336316,0.642437923016,-0.439224654707,-0.0020914668993,0.00827240390177,-1.64157780151
1385565785294463625,0.0422927528017,0.646387219201,-0.437529987502,-0.00123343360651,0.00822312151043,-1.6407947259
1385565785304546298,0.0424625474613,0.650252239528,-0.435883236913,-0.00121486997705,0.00643020115305,-1.64055545191
1385565785314470434,0.0424108928933,0.654193814312,-0.434082216226,-0.000705527605057,0.00679039983633,-1.63936022337
1385565785324469062,0.0424745720767,0.657994640708,-0.432372392473,-0.000635789192433,0.00535649888344,-1.63870479057
1385565785334583936,0.0427190403021,0.661873787725,-0.430777350402,-0.000268902693241,0.004222067584,-1.63834297449
1385565785344465899,0.0424786449679,0.665705250594,-0.4291032314,0.00066108042831,0.00378534475767,-1.63784672826
1385565785354475984,0.042399985121,0.669465675017,-0.427489733039,0.00155701800005,0.00423011364811,-1.63750496146
1385565785364420306,0.0423772156083,0.673288885165,-0.425705640975,0.00168617480773,0.00379421963928,-1.63685692544
1385565785374427945,0.0423924740928,0.677020810972,-0.424134180767,0.00230973833459,0.00260792047143,-1.63678021229
1385565785384476430,0.0423306133403,0.680786013859,-0.422577745179,0.00292543276057,0.00221434014872,-1.63630222642
1385565785394473480,0.0423860609539,0.684541338519,-0.420967183393,0.00302603931195,0.00192156647669,-1.63581804839
1385565785404518358,0.0421906109529,0.688207284139,-0.419402934197,0.00371838841614,0.0017126391479,-1.63489705084
1385565785414501534,0.0422584767812,0.691809482776,-0.417895131632,0.00403348178606,0.000654429981325,-1.63466182637
1385565785424507156,0.042023429765,0.69553292803,-0.416361278859,0.00470212386377,0.00032111793094,-1.633668061
1385565785434604939,0.0420168173671,0.699060729451,-0.414928302283,0.0052783574008,-0.00147133726265,-1.63324677761
1385565785444508010,0.0420563943007,0.702619718052,-0.41344800384,0.00503724372552,-0.00206336647536,-1.63321319971
1385565785454493486,0.0416770760988,0.706220349293,-0.412015462888,0.00566306698868,-0.00250926775567,-1.63285435674
1385565785464535533,0.0416119223658,0.709661190427,-0.410555288381,0.00527738500236,-0.00360251739692,-1.63206516973
1385565785474450919,0.041480532852,0.713201194893,-0.409395770644,0.00598384268289,-0.0055944514861,-1.63184046196
1385565785484459001,0.0413303280108,0.716633364007,-0.408080208646,0.00508260784564,-0.00545280354983,-1.63075164364
1385565785494445845,0.0412430433475,0.719994002433,-0.406930650084,0.00508673802126,-0.00481495133903,-1.62945842659
1385565785504558894,0.0409677468281,0.723450720154,-0.40577604436,0.00490715708958,-0.00726737631157,-1.62979441633
1385565785514523772,0.0409890745736,0.726829448204,-0.404565810084,0.00416004069793,-0.00882325036594,-1.62960476566
1385565785524588934,0.0406879369548,0.730213196989,-0.403534588257,0.00388629937979,-0.00896592524028,-1.62904362136
1385565785534749273,0.040480951603,0.73354013042,-0.402585230961,0.00419550746824,-0.00922644525706,-1.6288479496
1385565785544529871,0.0401406567733,0.736774120578,-0.401518301803,0.00360289105197,-0.00822605330647,-1.62781371057
1385565785554501602,0.0399446507859,0.740074321102,-0.400647512993,0.00328165289602,-0.00995499769022,-1.62790721939
1385565785564524240,0.0397916428959,0.743257589438,-0.399699761454,0.00254050283473,-0.0112536389676,-1.62701378623
1385565785574522581,0.0395366458461,0.74644286001,-0.398915448229,0.00226674800258,-0.0110102530549,-1.6267983414
1385565785584478444,0.0390828654616,0.749511057117,-0.397995354384,0.00167535412901,-0.0130330725747,-1.62676281573
1385565785594496183,0.0388751403893,0.75257873395,-0.397229295369,0.000600294847402,-0.0138560409768,-1.62573473744
1385565785604537908,0.0385481458688,0.755778999642,-0.39659874038,-5.18743358815e-05,-0.0148084799915,-1.62533666792
1385565785614506517,0.0383978411096,0.758700336474,-0.395872786833,-0.00030741738405,-0.016841169207,-1.62434099511
1385565785624477838,0.0379194694398,0.761648332632,-0.395258852381,-0.00080839733378,-0.0181482907347,-1.62394358513
1385565785634561880,0.0374194662506,0.764655497158,-0.394669149121,-0.000356497202493,-0.0194421366473,-1.62357686215
1385565785644540630,0.0375109033202,0.76750826802,-0.394264712454,-0.000493409212,-0.0212318800559,-1.62342659615
1385565785654461990,0.0371049756603,0.770487684127,-0.393802140074,0.000454092671085,-0.0225720453125,-1.62268232878
1385565785664445292,0.0366828908767,0.773319073926,-0.393420799811,0.00116169245589,-0.0231283774448,-1.62217508288
1385565785674489787,0.0364532054549,0.776156314508,-0.393041099171,0.00171042026421,-0.0249317809578,-1.6204258906
1385565785684505258,0.0359610871921,0.77900222392,-0.392758493848,0.00268170844078,-0.0244993105794,-1.62051293794
1385565785694488716,0.0357677024977,0.781745997832,-0.392683849696,0.00353906059441,-0.0246152975649,-1.62014502233
1385565785704438152,0.0353553230647,0.784444671823,-0.392456113768,0.00426414074038,-0.0251193692553,-1.6198610109
1385565785714463725,0.0349420706628,0.78709356478,-0.392421916346,0.00484283089281,-0.0253263691018,-1.61960497067
1385565785724465422,0.0346160891029,0.789720855135,-0.392253487812,0.0050879402026,-0.024689460257,-1.61924902746
1385565785734548073,0.0342586518643,0.792387267275,-0.39226511953,0.00575646062846,-0.0248545135817,-1.61882334779
1385565785744484010,0.0338527815216,0.794925053996,-0.392238894489,0.00613581163473,-0.0248579180014,-1.61852717323
1385565785754496853,0.0334775321143,0.797406850998,-0.392154980336,0.00577304294404,-0.0238185763433,-1.61807361842
1385565785764458810,0.0329713309149,0.799885342858,-0.39221595833,0.0060131804467,-0.0241044419788,-1.61834295957
1385565785774457920,0.0325546987323,0.802346966578,-0.392211682563,0.00607668172753,-0.0236506804576,-1.61751849611
1385565785784496679,0.0323182164639,0.804728349904,-0.392386966359,0.00653629557352,-0.0238128915571,-1.61776370953
1385565785794466942,0.0316993135744,0.807104267909,-0.392500245189,0.00685103191166,-0.0232312725523,-1.6171648096
1385565785804409459,0.0314795358426,0.809402690336,-0.392497966108,0.0068618140359,-0.0229737828946,-1.61680046971
1385565785814460925,0.0307922853045,0.811713777504,-0.392671282196,0.00745838395096,-0.0218361685213,-1.61567652747
1385565785824490010,0.0306431231646,0.813953094643,-0.392857189352,0.00777332077435,-0.0223727283199,-1.61535765326
1385565785834611727,0.0301851068008,0.816157294049,-0.392915829832,0.00825726815447,-0.0213179535773,-1.61520097831
1385565785844568962,0.0297369367924,0.818365397386,-0.393113749331,0.00853853723419,-0.019967937546,-1.61481352691
1385565785854573638,0.0292181552807,0.820563263753,-0.393244669344,0.00826106983507,-0.0189696192188,-1.6139609878
1385565785864524906,0.0289606684885,0.822673995883,-0.393462131913,0.00854712304486,-0.0191611463429,-1.6141948403
1385565785874485247,0.0285748526669,0.824810511121,-0.393722735915,0.00913215772038,-0.0181366222842,-1.61373489635
1385565785884458876,0.0281107606001,0.826807435956,-0.393856691969,0.00942352063226,-0.016872586868,-1.61267647815
1385565785894473321,0.027495625403,0.828972543992,-0.394032118078,0.00987395983429,-0.0156978734811,-1.61211570621
1385565785904522387,0.0272087385608,0.830940840832,-0.394361070391,0.0105824093096,-0.014338808788,-1.61173221759
1385565785914666986,0.02688678979,0.832871354323,-0.394723885607,0.0114828362606,-0.0134371383718,-1.6119199047
1385565785924550965,0.026525669553,0.834809845033,-0.395045528044,0.011886511427,-0.0132966053055,-1.61140833101
1385565785934711796,0.0261333643461,0.836771948716,-0.39526725653,0.0122225870779,-0.012508243362,-1.61120496733
1385565785944546834,0.0257120192164,0.838626771788,-0.395624521615,0.0122520782392,-0.0121151177958,-1.61105814768
1385565785954497296,0.0253299943759,0.840461866575,-0.396035796757,0.0125062463671,-0.0113334985516,-1.61049714503
1385565785964500128,0.0249660050293,0.842353134151,-0.396416422637,0.0122119695783,-0.0103554359468,-1.61007531022
1385565785974480433,0.0245313134736,0.844096128314,-0.396873626084,0.0125000665471,-0.00967333517108,-1.6099754386
1385565785984472019,0.0241859364891,0.845912581717,-0.397181527227,0.0127332584574,-0.0098310735801,-1.60938317905
1385565785994470267,0.0238855646364,0.847725533229,-0.397842969138,0.0126375132569,-0.00889973931014,-1.60921712464
1385565786004540234,0.02331111721,0.849414797063,-0.398296402333,0.0136250380182,-0.00880737763034,-1.60911548497
1385565786014474750,0.0230710861183,0.851110174199,-0.398800759305,0.0134922921577,-0.00847698482642,-1.60884258416
1385565786024457025,0.0227311845309,0.85285211156,-0.399425714138,0.0136965245092,-0.00855443691585,-1.60843267898
1385565786034487843,0.0223139323705,0.854450117806,-0.399963958528,0.0133479451412,-0.00814056604653,-1.60777595345
1385565786044525361,0.0220143440214,0.856066619158,-0.400567319048,0.0135038726208,-0.00861704788718,-1.60771884547
1385565786054488516,0.0216453180853,0.857747395351,-0.401249443786,0.0132464892735,-0.0091724002477,-1.60689231501
1385565786064578108,0.0212846654901,0.859244599484,-0.401712967303,0.0131932384419,-0.00994608837406,-1.60681815528
