%time,field.linear.x,field.linear.y,field.linear.z,field.angular.x,field.angular.y,field.angular.z
1385574078209900799,-0.0,0.0,0.0,1.0,0.0,0.0
1385574078298856262,-0.0,0.0,4.91828763885e-08,1.0,0.0,0.117939441499
1385574078399941802,0.120219881473,-0.10917353693,-0.0127297780973,1.0,0.0,0.0807841962028
1385574078498904260,0.105180769486,-0.0954571062983,-0.0109271190334,1.0,0.0,0.0952637056819
1385574078599956784,0.121103615651,-0.109861424772,-0.0101281011994,1.0,0.0,0.0963632849458
1385574078698908149,0.11399776067,-0.103295727178,-0.00838964115958,1.0,0.0,0.0988206985398
1385574078799050034,0.105458652553,-0.0955347617282,-0.00610753325262,1.0,0.0,0.0995910763048
1385574078899093777,0.0907563885254,-0.0819125804286,-0.00328571187321,1.0,0.0,0.0996471467767
1385574078999170048,0.0734409685669,-0.0665418828377,-2.77120701226e-05,1.0,0.0,0.0987747046012
1385574079101108591,0.054477091537,-0.0491527144014,0.00361961840138,1.0,0.0,0.0973412639652
1385574079199877224,0.0349799095528,-0.0314281479498,0.00760703523587,1.0,0.0,0.0957663274488
1385574079299684133,0.015835368686,-0.0140601871126,0.0118309369102,1.0,0.0,0.0945817938928
1385574079399552976,-0.00142455799111,0.00161695107277,0.0162397672184,1.0,0.0,0.0934777708111
1385574079500291473,-0.0158050848847,0.0146368378877,0.0208388483685,1.0,0.0,0.0925957513942
1385574079599049901,-0.0264131441886,0.0243867225581,0.0255573514277,1.0,0.0,0.0919130381292
1385574079699018114,-0.0331023165225,0.0301874055884,0.0303108401466,1.0,0.0,0.0913300202919
1385574079799447162,-0.0356267811193,0.032865084566,0.0353033130139,1.0,0.0,0.0910221169896
1385574079899776652,-0.0344907937828,0.0314446955976,0.0402232634681,1.0,0.0,0.0907328068055
1385574079999773959,-0.0298966381731,0.0274363886641,0.0452356219895,1.0,0.0,0.0905814573924
1385574080099744776,-0.0231460272809,0.0205920258208,0.0503760122777,1.0,0.0,0.0902205779003
1385574080199993431,-0.0142977006711,0.0123192971179,0.055510274748,1.0,0.0,0.0899020828613
1385574080299982842,-0.00466145056375,0.00280968756359,0.0607131623359,1.0,0.0,0.0895972858492
1385574080399777299,0.00538435622283,-0.0063699603876,0.0659524831819,1.0,0.0,0.0893012455081
1385574080499990354,0.0151612983154,-0.0154715810667,0.0711247488631,1.0,0.0,0.0891105535976
1385574080598771729,0.0235681964676,-0.0234735457458,0.0762944707245,1.0,0.0,0.0888168424982
1385574080700791221,0.0306168146196,-0.0296863867234,0.081526792441,1.0,0.0,0.0887032253864
1385574080798901395,0.0354946251552,-0.0342192685701,0.0867335165723,1.0,0.0,0.088440363276
1385574080899841913,0.0383491859451,-0.0368818385215,0.0920994344832,1.0,0.0,0.0882519881649
1385574080998775950,0.0395263301674,-0.037709702716,0.0973613268361,1.0,0.0,0.0883489729093
1385574081098870761,0.0388875557493,-0.0370097479799,0.102622851597,1.0,0.0,0.0887681875055
1385574081199915565,0.0366017895823,-0.0330568154279,0.107825955171,1.0,0.0,0.0893115726849
1385574081299792590,0.0344249376779,-0.0305162600411,0.111425025387,1.0,0.0,0.0905512921697
1385574081399015270,0.0309217557733,-0.0258649817227,0.113618719226,1.0,0.0,0.092259590442
1385574081499953798,0.0253364846981,-0.0214497961312,0.114628221825,1.0,0.0,0.0936380970918
1385574081599840001,0.0168080676802,-0.0166167722619,0.114785617058,1.0,0.0,0.0942441864446
1385574081698854579,0.00787701430135,-0.0106324488833,0.113937150549,1.0,0.0,0.0940265748966
1385574081798865677,0.00115683081076,-0.00700565309643,0.111045052048,1.0,0.0,0.0932017161559
1385574081898995864,-0.00678480427783,-0.0038299516197,0.106886461729,1.0,0.0,0.0917721002353
1385574081998833157,-0.0144176227522,-0.00041280321529,0.101422231798,1.0,0.0,0.0897930001539
1385574082098987150,-0.0212978637355,0.00245039091353,0.0957032635157,1.0,0.0,0.0874783607372
1385574082198787912,-0.0270343862608,0.00490269688982,0.0911180082206,1.0,0.0,0.0848539396861
1385574082299935037,-0.0314501432107,0.00792436266193,0.0884238181601,1.0,0.0,0.0819974523144
1385574082398873197,-0.0347920202189,0.010386941839,0.0877152742821,1.0,0.0,0.0790145439857
1385574082500014686,-0.0365581505989,0.0129114507993,0.0888888802916,1.0,0.0,0.07593586258
1385574082598853133,-0.037118236229,0.0151753269147,0.0917019463997,1.0,0.0,0.0727903015522
1385574082699966890,-0.0357159589014,0.0173946219046,0.0958151162035,1.0,0.0,0.0696722252382
1385574082798862848,-0.0333536350329,0.0175574798221,0.100798321968,1.0,0.0,0.0666432802426
1385574082898821482,-0.030617225479,0.0185221762588,0.1067079202,1.0,0.0,0.0637323190206
1385574082998832275,-0.0257663840264,0.0189874755638,0.113017140695,1.0,0.0,0.0609474973394
1385574083099839771,-0.0209950891986,0.0191083028403,0.119635885559,1.0,0.0,0.0583283645205
1385574083199013959,-0.0152712580102,0.0187072125222,0.126085412793,1.0,0.0,0.0557246649645
1385574083299863080,-0.00900818202938,0.0178416762859,0.13219699882,1.0,0.0,0.0533261165753
1385574083399857415,-0.00307722728481,0.0175977940456,0.135665421557,1.0,0.0,0.051082425132
1385574083499839718,0.00121253952759,0.0154227168259,0.138463376123,1.0,0.0,0.0490516305488
1385574083598900887,0.00598067560436,0.0131070235332,0.140426362163,1.0,0.0,0.0471110617488
1385574083698776616,0.00926497459235,0.0100773191121,0.141718746955,1.0,0.0,0.0452888218148
1385574083800024510,0.0118649815089,0.00819219956084,0.14251290751,1.0,0.0,0.0436352488399
1385574083898765744,0.0130488372933,0.00585980591617,0.142710732531,1.0,0.0,0.0421151664191
1385574083999030648,0.0142694961161,0.00426461257596,0.14224798718,1.0,0.0,0.0407292191802
1385574084099822909,0.0136227219824,0.00209533488622,0.141196280532,1.0,0.0,0.0394914565213
1385574084199768814,0.0119984898253,-0.000832746413505,0.139681378153,1.0,0.0,0.0383585755409
1385574084299083507,0.00951346402266,-0.00277787599864,0.137827265167,1.0,0.0,0.0372913700831
1385574084399002066,0.00600213747939,-0.00419796338694,0.135685424627,1.0,0.0,0.0363451902818
1385574084498774909,0.00253247668223,-0.00539310078236,0.133206386029,1.0,0.0,0.0354481153962
1385574084599145561,-0.00157208114151,-0.00624448022381,0.130491528825,1.0,0.0,0.0346090143853
1385574084700862827,-0.00632109622095,-0.00692955165771,0.127633736823,1.0,0.0,0.0337976788802
1385574084798846735,-0.0117833528323,-0.00730478699963,0.124645205021,1.0,0.0,0.0329831944362
1385574084899013636,-0.0165065176942,-0.00761517594303,0.121489590537,1.0,0.0,0.0322478014745
1385574084998896873,-0.0213859604742,-0.00687124931019,0.118251074697,1.0,0.0,0.0315663986548
1385574085098919265,-0.0262073927146,-0.00557141534411,0.114988262052,1.0,0.0,0.0309218464243
1385574085198826075,-0.0302520215639,-0.00401003034008,0.111756304792,1.0,0.0,0.0303434197462
1385574085298859757,-0.033543027572,-0.00255463609745,0.108539993861,1.0,0.0,0.0297941365049
1385574085399755399,-0.0360808834029,-0.000100212696457,0.105379847466,1.0,0.0,0.029290189651
1385574085499505206,-0.0375021663051,0.00190680531593,0.102237998311,1.0,0.0,0.0288026316619
1385574085599496744,-0.0382438507586,0.00442004196701,0.0991952053426,1.0,0.0,0.028377644582
1385574085699554408,-0.0381072014139,0.00702475747473,0.0961660860793,1.0,0.0,0.0280313256543
1385574085799482459,-0.0365186083523,0.008820235942,0.0931983371193,1.0,0.0,0.0276974018062
1385574085899862002,-0.03404911403,0.0108010196128,0.0902089061564,1.0,0.0,0.0274051093915
1385574085999488945,-0.0310153997551,0.0121825628264,0.0871593802646,1.0,0.0,0.0271185369387
1385574086099756350,-0.027102020908,0.0132555146697,0.0841553855415,1.0,0.0,0.0268855773927
1385574086199892306,-0.0224533991745,0.0147484714762,0.0811870357139,1.0,0.0,0.0265900015879
1385574086300701400,-0.0179992826674,0.0152055823504,0.0781934471981,1.0,0.0,0.0262816055787
1385574086399433354,-0.0129221249952,0.0149889520311,0.0753567909841,1.0,0.0,0.0260002240959
1385574086500466408,-0.00817327793039,0.0146055861571,0.0725696614746,1.0,0.0,0.0257280311694
1385574086599451809,-0.0040548528025,0.0138665797783,0.0697663197817,1.0,0.0,0.0254913345243
1385574086699523876,-0.000319188947878,0.0126892620874,0.0670875685423,1.0,0.0,0.0253515010571
1385574086799446050,0.0026119257367,0.0111616399216,0.0645131328686,1.0,0.0,0.0252151318834
1385574086900448747,0.00481415370135,0.00974036303722,0.0620291875327,1.0,0.0,0.0251070906527
1385574087000430954,0.00625844685233,0.00799372298105,0.0597038383829,1.0,0.0,0.0250064864145
1385574087099558653,0.00674657953822,0.00622020104871,0.0574761204012,1.0,0.0,0.0249185642771
1385574087199551394,0.00607530309029,0.00448418472815,0.055311046019,1.0,0.0,0.024826611938
1385574087299490563,0.00436106475518,0.00280832425086,0.0531928843991,1.0,0.0,0.0248283975804
1385574087399426524,0.00207776670366,0.00143290807175,0.0512344283209,1.0,0.0,0.0247943476161
1385574087499467030,-0.000956571355716,0.000216548381333,0.0493962346126,1.0,0.0,0.0247091937871
1385574087599475305,-0.00471143532694,-0.00112034634275,0.0476444815372,1.0,0.0,0.0246963932841
1385574087699530119,-0.00899822833359,-0.001829440459,0.0458709177641,1.0,0.0,0.0247414605127
1385574087799671950,-0.0135450622524,-0.00245898898718,0.0441939319889,1.0,0.0,0.0248028468355
1385574087899392630,-0.0180075965412,-0.00252333256634,0.0426139386485,1.0,0.0,0.024799004369
1385574088000461765,-0.0222968383509,-0.00246136132188,0.0411064782019,1.0,0.0,0.0247726104426
1385574088099529589,-0.0263629384745,-0.00207105102501,0.0397115727228,1.0,0.0,0.0248341751186
1385574088199500403,-0.0297353380154,-0.00126064299818,0.0383960254157,1.0,0.0,0.0247963682055
1385574088300465906,-0.0324788758141,-0.000268247226804,0.0371735434846,1.0,0.0,0.0247682855964
1385574088400522935,-0.0342019117565,0.00119634354332,0.0361068921497,1.0,0.0,0.0246514302227
1385574088499422683,-0.035145587297,0.00302389683349,0.0350566088934,1.0,0.0,0.0244626589979
1385574088600364965,-0.0350147575021,0.00479781580662,0.0342045863843,1.0,0.0,0.0242778747182
1385574088700409532,-0.0339352155313,0.00697574167823,0.0333946594536,1.0,0.0,0.0240454286164
1385574088799445893,-0.0320743645306,0.00918337220765,0.0325266442559,1.0,0.0,0.0237858142864
1385574088899385477,-0.0291659386852,0.0114057241616,0.0317929103281,1.0,0.0,0.0234990052399
1385574088999477297,-0.0255003201098,0.0137870241987,0.0311583044195,1.0,0.0,0.0231683132679
1385574089099460644,-0.0213162565303,0.0158115690888,0.0305624970219,1.0,0.0,0.022938262957
1385574089199432608,-0.0166373214293,0.0178476871794,0.0300303636956,1.0,0.0,0.0226106244001
1385574089299511633,-0.0116752360855,0.0194230073951,0.029584986474,1.0,0.0,0.0222817454073
1385574089400368680,-0.00664088746334,0.020741822557,0.0291117873767,1.0,0.0,0.0219462535259
1385574089499425508,-0.00172555741228,0.021644496537,0.028747007695,1.0,0.0,0.0216510670147
1385574089599442984,0.00265786315453,0.0221628428821,0.0283454614273,1.0,0.0,0.0213992311049
1385574089700412040,0.00667227286686,0.0224523732608,0.0279961004953,1.0,0.0,0.0211149713793
1385574089799534488,0.0100535054814,0.022328705396,0.0277951766385,1.0,0.0,0.0208123661676
1385574089899541730,0.0128708570314,0.0219663034177,0.0277358659036,1.0,0.0,0.0205748594217
1385574089999538232,0.0145864647719,0.0211103759765,0.027612370338,1.0,0.0,0.0204023948462
1385574090099390305,0.0157589633648,0.0202232417756,0.027510637955,1.0,0.0,0.0202906347091
1385574090199411485,0.0160564329187,0.0190637891652,0.0274446441826,1.0,0.0,0.0201722948543
1385574090301866827,0.015787507661,0.0178181777879,0.0273719061849,1.0,0.0,0.0201968264718
1385574090400426014,0.0147456517258,0.0165472062326,0.0271447697167,1.0,0.0,0.020287432759
1385574090500456417,0.0132894102281,0.0154540147325,0.0268691741747,1.0,0.0,0.0203870070073
1385574090600461622,0.0112962111802,0.0142833908739,0.0266229197748,1.0,0.0,0.0206220723576
1385574090699487804,0.00916796815644,0.0134287701602,0.0263912166666,1.0,0.0,0.0209266526953
1385574090800454629,0.00684308654301,0.0129078343346,0.026111064992,1.0,0.0,0.0213058663174
1385574090899455269,0.00444098940797,0.0125976456458,0.0259164660024,1.0,0.0,0.0218021440201
1385574090999505538,0.0022397600562,0.0126315890536,0.0257062193649,1.0,0.0,0.0224146911701
1385574091099461209,0.00010406282717,0.0131761945378,0.0254352226972,1.0,0.0,0.0231009302344
1385574091199435958,-0.00177629191548,0.0138947878909,0.0251799186578,1.0,0.0,0.0238953860219
1385574091299616317,-0.00332518114248,0.0150449442272,0.0249146579076,1.0,0.0,0.0247837336775
1385574091399391093,-0.00431392045021,0.0161600491794,0.0247339880342,1.0,0.0,0.0256697752586
1385574091499354782,-0.00501456099963,0.0174052521632,0.0245630799193,1.0,0.0,0.0265957132797
1385574091599640989,-0.00510023915627,0.0188638748687,0.0242743787847,1.0,0.0,0.0275513067493
1385574091699333236,-0.00490235771339,0.0201496469782,0.023919653112,1.0,0.0,0.0285551980801
1385574091800331346,-0.00413627193371,0.0214188055243,0.023654075053,1.0,0.0,0.0296189614604
1385574091899807448,-0.00312648024746,0.0225604415117,0.0232963124199,1.0,0.0,0.0306847136514
1385574092000077769,-0.0016715905327,0.0234597547333,0.0230187633893,1.0,0.0,0.031754879114
1385574092099363974,-0.000185207578777,0.0243528909015,0.0227407522309,1.0,0.0,0.0329342111694
1385574092200158381,0.00174301828249,0.0248480377905,0.022538500627,1.0,0.0,0.0340556313658
1385574092299349160,0.00357458326275,0.0249168891993,0.0222963388891,1.0,0.0,0.0351912872617
1385574092399584288,0.00555004212371,0.0247840503345,0.0219926699944,1.0,0.0,0.0363500117642
1385574092501473336,0.00746573180467,0.0241995100675,0.0216758177757,1.0,0.0,0.0375815690676
1385574092599459853,0.00915657139602,0.0231712213049,0.0211498971671,1.0,0.0,0.0388184220251
1385574092699628654,0.0105047304553,0.0218829746691,0.0206687809897,1.0,0.0,0.0400938692867
1385574092799373985,0.0117868638969,0.0204120380435,0.0200700077803,1.0,0.0,0.0413176658577
1385574092900393477,0.0124017346841,0.0186885130429,0.0195586940306,1.0,0.0,0.0425533858893
1385574093000365684,0.0126198419667,0.0168514013622,0.0192283470489,1.0,0.0,0.0437650516009
1385574093099593299,0.012445837579,0.0150633403318,0.0187702809434,1.0,0.0,0.0449531216092
1385574093200469065,0.0116259643678,0.0133396324651,0.0182485136962,1.0,0.0,0.046248876521
1385574093299557636,0.0106013793774,0.0116378097909,0.017785502634,1.0,0.0,0.0474816534422
1385574093399465736,0.00910874454162,0.010116267491,0.0172790595172,1.0,0.0,0.0487040261024
1385574093499477118,0.00733033542981,0.00863453805277,0.0168791425333,1.0,0.0,0.0499310594987
1385574093599470028,0.00526582789763,0.00747176446265,0.0162718868182,1.0,0.0,0.0511053901937
1385574093699451367,0.00300047273506,0.00654993377011,0.0157019811494,1.0,0.0,0.0522843073362
1385574093799473466,0.00042125865895,0.00592880846677,0.0150004602416,1.0,0.0,0.0534382729207
1385574093900461498,-0.00212892915757,0.00555828790195,0.0143116883893,1.0,0.0,0.054596389401
1385574094000461082,-0.00463747806299,0.00584032528445,0.0136346239127,1.0,0.0,0.0556791373285
1385574094099456524,-0.00709224873415,0.00631875112889,0.0130394055838,1.0,0.0,0.0567839481659
1385574094199471364,-0.00920673841001,0.00727414864257,0.0123262650277,1.0,0.0,0.0578155735607
1385574094299475558,-0.0111270049713,0.00846368796791,0.0116541254006,1.0,0.0,0.0588548453133
1385574094399406876,-0.0121827147888,0.0101504287059,0.0110349531157,1.0,0.0,0.0597559254369
1385574094499580175,-0.0131363352933,0.0118234650576,0.0104290077783,1.0,0.0,0.06069848683
1385574094599453367,-0.0131350691497,0.0137167802959,0.00982668456963,1.0,0.0,0.0616077189886
1385574094699631658,-0.0126336333505,0.015518298242,0.00908087115534,1.0,0.0,0.0625048004736
1385574094799494556,-0.011256535961,0.0174355255002,0.00843177953394,1.0,0.0,0.0633736074481
1385574094900515169,-0.00937398330667,0.0189706965773,0.00770490365637,1.0,0.0,0.0641976975059
1385574094999467517,-0.00683019796861,0.0205200675629,0.00712847638002,1.0,0.0,0.0649967657594
1385574095099497352,-0.00407670371601,0.0216224071157,0.0065573949686,1.0,0.0,0.0657969626946
1385574095200448367,-0.00109732368781,0.0224271093191,0.0060566180061,1.0,0.0,0.0665197397973
1385574095299468077,0.00195498578224,0.0228580372479,0.00551697315314,1.0,0.0,0.0672345184446
1385574095399498309,0.00465184134276,0.0228300546105,0.0050163874747,1.0,0.0,0.0679649186776
1385574095500466791,0.0071028679355,0.0224895312476,0.00447202558092,1.0,0.0,0.0687057954792
1385574095600442208,0.00908907322476,0.0217203972369,0.00415124833529,1.0,0.0,0.0694801369426
1385574095699454204,0.010612533841,0.0206573665254,0.00389644731659,1.0,0.0,0.0702859019791
1385574095800471028,0.0117165419826,0.019313761811,0.00365761147452,1.0,0.0,0.0711103894398
1385574095899467126,0.0123752422911,0.0177958285826,0.0034739152586,1.0,0.0,0.0718826083222
1385574095999427027,0.0125076313594,0.0161495092077,0.00347418603883,1.0,0.0,0.0727362792267
1385574096099461344,0.0121388968307,0.0143275257155,0.00352645908082,1.0,0.0,0.0736178949191
1385574096199425794,0.0113318894471,0.0124957650607,0.00353924604043,1.0,0.0,0.0745497028945
1385574096299485474,0.0101939891681,0.0106726747801,0.00357498961915,1.0,0.0,0.075432557134
1385574096399575788,0.00864317162191,0.0089506637425,0.00359055647572,1.0,0.0,0.0762743218127
1385574096499614946,0.00643899769284,0.00744989783969,0.00356434520305,1.0,0.0,0.0771919515409
1385574096599440685,0.00400849823362,0.00576464510521,0.00365712444452,1.0,0.0,0.0781094080354
1385574096700455733,0.00139336488966,0.00424257782379,0.00351761027737,1.0,0.0,0.0789530118086
1385574096799500319,-0.00125881718717,0.00286624726986,0.00331685739732,1.0,0.0,0.0797559824239
1385574096899476877,-0.00385427860217,0.00148827372065,0.00303200883043,1.0,0.0,0.0805006559636
1385574096999480680,-0.00624394870081,0.00047770056166,0.00283992880652,1.0,0.0,0.0812139719718
1385574097099621408,-0.00828444215621,-0.000245410072775,0.00261938934992,1.0,0.0,0.0817817817837
1385574097199458621,-0.0100022431985,-0.000280208497528,0.00248006598212,1.0,0.0,0.0822824998989
1385574097300447438,-0.0116101428662,7.18365303836e-05,0.00239970382507,1.0,0.0,0.0827848649379
1385574097400610740,-0.0125814445328,0.00116441976529,0.00232250701551,1.0,0.0,0.083166204649
1385574097499464756,-0.0132373946501,0.00282806368918,0.00220146068439,1.0,0.0,0.0835168322749
1385574097599644119,-0.0133104726152,0.00487552419091,0.00211970241549,1.0,0.0,0.0838261653643
1385574097700627671,-0.0128396010366,0.007574759107,0.0020843984646,1.0,0.0,0.0841197554897
1385574097800206546,-0.0115569525318,0.0106723888396,0.00214480855846,1.0,0.0,0.0843359199662
1385574097899976682,-0.00963014632451,0.0140097157134,0.00215174570291,1.0,0.0,0.0844742325017
1385574097999937178,-0.0073525582932,0.0171726087276,0.0022814825818,1.0,0.0,0.0846762339848
1385574098099423293,-0.00459141914119,0.0202447710813,0.00244498804603,1.0,0.0,0.084891163332
1385574098199469019,-0.00147380825608,0.0228381820481,0.00268834525992,1.0,0.0,0.0851324203453
1385574098299621776,0.00175108729738,0.0247484409828,0.00286778325631,1.0,0.0,0.0854374110415
1385574098399466532,0.00520153035358,0.0256769808149,0.0031581981909,1.0,0.0,0.0857789963334
1385574098499987017,0.00860737069221,0.0257580588174,0.00339546868885,1.0,0.0,0.0860814365223
1385574098600022005,0.011539654429,0.0247841526629,0.00353604195329,1.0,0.0,0.0865224464857
1385574098700210063,0.0141927980275,0.02267131833,0.00359585995522,1.0,0.0,0.086987303865
1385574098800007335,0.0162402769234,0.0196959989992,0.00360971744372,1.0,0.0,0.0874895418005
1385574098899062595,0.0177083860655,0.0155832415292,0.00351447616553,1.0,0.0,0.0879987718783
1385574098999112306,0.01825751886,0.0106814295288,0.00322063368684,1.0,0.0,0.0885459000251
1385574099099351299,0.0178118844387,0.00491433468651,0.00278137942758,1.0,0.0,0.0890632473241
1385574099200270095,0.0165056879741,-0.00132417716997,0.0022230348827,1.0,0.0,0.0895500167591
1385574099299231939,0.0142650866071,-0.00776990451585,0.00164262676661,1.0,0.0,0.0900207397145
1385574099400100622,0.0114203793711,-0.0142353620227,0.00105906857019,1.0,0.0,0.0904422609889
1385574099500222555,0.00807999185999,-0.0202600928203,0.000321624115239,1.0,0.0,0.090657800082
1385574099599326949,0.0042663604074,-0.0257707489794,-0.000574626639117,1.0,0.0,0.0908203989047
1385574099699042255,0.000146338781726,-0.0301974088399,-0.00150511385093,1.0,0.0,0.090892021613
1385574099799307267,-0.0041610396605,-0.0335324009154,-0.00233941825451,1.0,0.0,0.0908174600464
1385574099899135357,-0.00854119792015,-0.0353011758022,-0.00311657253664,1.0,0.0,0.0907170160546
1385574099999126976,-0.0129414738465,-0.0355816181888,-0.00385937044652,1.0,0.0,0.0905959157557
1385574100100023381,-0.0169079955911,-0.0342945308495,-0.0046079958201,1.0,0.0,0.0902782572646
1385574100199111486,-0.0202805463039,-0.0314953266618,-0.00507261864971,1.0,0.0,0.0898755736149
1385574100299076267,-0.0227707364748,-0.0270626252783,-0.00527741929628,1.0,0.0,0.0893292012961
1385574100399267611,-0.0242228163991,-0.021341146978,-0.00531692678947,1.0,0.0,0.088673780576
1385574100499241760,-0.0245864630703,-0.0144113312595,-0.00527898068208,1.0,0.0,0.0879494338058
1385574100599321388,-0.023652821763,-0.00648528546501,-0.00508928157826,1.0,0.0,0.0872300829203
1385574100699098655,-0.0213689900999,0.00192398975034,-0.00472005858551,1.0,0.0,0.0864981078781
1385574100799102927,-0.0176911299201,0.0107543594054,-0.00420188013145,1.0,0.0,0.0858097203356
1385574100899078481,-0.0127454048044,0.0194739952227,-0.00356125200475,1.0,0.0,0.0851513818599
1385574100999084921,-0.00679589468203,0.027744010125,-0.00280418454722,1.0,0.0,0.0846030412561
1385574101099200313,-5.44647992185e-06,0.0351068078708,-0.00194302096727,1.0,0.0,0.0840666422252
1385574101199068975,0.0070802907499,0.0411639506495,-0.00118711829218,1.0,0.0,0.0836502309139
1385574101299116167,0.0142426550123,0.0454303625217,-0.000474101921789,1.0,0.0,0.0832994163945
1385574101399088221,0.0209654541948,0.0478908137318,0.000155610829488,1.0,0.0,0.083116251927
1385574101499164809,0.0270964310597,0.0481089998185,0.000547137495648,1.0,0.0,0.0831002626009
1385574101599124572,0.0321529779623,0.0460610776794,0.000686968065623,1.0,0.0,0.0832414643949
1385574101699060444,0.0359681285356,0.0417234694268,0.000447093606074,1.0,0.0,0.0834944927438
1385574101799066476,0.0382567323774,0.035182101488,-6.17112507596e-05,1.0,0.0,0.0838404737304
1385574101899076239,0.0391157355153,0.026704798489,-0.000838485030864,1.0,0.0,0.0841573051618
1385574101999186879,0.0382663983942,0.016457335628,-0.00190159220534,1.0,0.0,0.0845555729228
1385574102099034168,0.0359498223671,0.00474242884978,-0.00316712266296,1.0,0.0,0.0849360666392
1385574102199180703,0.0320712007226,-0.00792615866503,-0.00442101607019,1.0,0.0,0.0853714205311
1385574102299049160,0.0269135117979,-0.0211629728282,-0.0057068367727,1.0,0.0,0.0857486350923
1385574102400086346,0.0204998159951,-0.0341840885908,-0.00697673873328,1.0,0.0,0.0860629399528
1385574102499087069,0.0129172326641,-0.046578420324,-0.00807630330158,1.0,0.0,0.0861458018115
1385574102599028176,0.00429333533707,-0.0576185254344,-0.00892209878915,1.0,0.0,0.0862128360393
1385574102700124728,-0.00520713793836,-0.0668212079296,-0.00938231100168,1.0,0.0,0.0859975879839
1385574102800085470,-0.0153202793687,-0.0736107687582,-0.00966362190129,1.0,0.0,0.0856531642441
1385574102899025524,-0.0257089046003,-0.0775849899974,-0.00983738243263,1.0,0.0,0.085069257463
1385574103000021400,-0.0359457994748,-0.0779573934904,-0.00963663946563,1.0,0.0,0.0844102502067
1385574103099017514,-0.0456488161593,-0.0747845141681,-0.00895465814774,1.0,0.0,0.0835951431421
1385574103199072329,-0.0538886681868,-0.0677779361538,-0.00779039286345,1.0,0.0,0.0826989095417
1385574103299107142,-0.0601431251171,-0.0570687680906,-0.00617506096225,1.0,0.0,0.0816345072997
1385574103399116045,-0.0637254406523,-0.0430735608377,-0.00412031533845,1.0,0.0,0.0805079703805
1385574103499292278,-0.0643172332965,-0.02632624334,-0.00176602600699,1.0,0.0,0.0793845829118
1385574103599120684,-0.0620643741289,-0.00763930690329,0.000808240323692,1.0,0.0,0.0782112591207
1385574103699251082,-0.0567296017208,0.0121247033619,0.00353591308697,1.0,0.0,0.0771725812636
1385574103799143990,-0.0487786918593,0.0321266795411,0.00621149228917,1.0,0.0,0.0762399799891
1385574103899221284,-0.0383315154151,0.0515145528783,0.00877666858692,1.0,0.0,0.0755066583363
1385574103999070289,-0.0260170010954,0.0694231484425,0.0111176485348,1.0,0.0,0.0749852112656
1385574104100106955,-0.0121764320426,0.0851479238115,0.0131906318111,1.0,0.0,0.0746688056898
1385574104200043408,0.00223971183673,0.097721866695,0.0148032425124,1.0,0.0,0.0746970169623
1385574104300112218,0.0166711303412,0.106536939515,0.0160015770065,1.0,0.0,0.0750211742085
1385574104400052194,0.0302701291501,0.110965137432,0.0167699094267,1.0,0.0,0.0757679259121
1385574104499156270,0.0423165269953,0.1105852598,0.0172134965697,1.0,0.0,0.0768181065102
1385574104599140213,0.0523859255515,0.105739555845,0.0170959504454,1.0,0.0,0.078293505602
1385574104699529634,0.0599910275387,0.0957118083712,0.016559026939,1.0,0.0,0.0800801791665
1385574104799066139,0.0642244596742,0.0808440615373,0.0157042018287,1.0,0.0,0.0819920474459
1385574104899398605,0.0676625731089,0.0630230311942,0.0140782328379,1.0,0.0,0.0841576109173
1385574104999721534,0.0672634343017,0.0409671760471,0.0122760947066,1.0,0.0,0.0863822534735
1385574105099290385,0.0648639725595,0.0168044285647,0.0100706717304,1.0,0.0,0.0886484375047
1385574105199291684,0.0598744492571,-0.0089281269287,0.0076210484554,1.0,0.0,0.0909486922893
1385574105299274033,0.052956238363,-0.0351621451786,0.00505031581297,1.0,0.0,0.0929378347014
1385574105399278238,0.0438883408568,-0.0607882643846,0.00230125628785,1.0,0.0,0.0946501813871
1385574105499292286,0.0329707276197,-0.0850657220849,-0.000449057333709,1.0,0.0,0.0959922417369
1385574105599229221,0.0205081732117,-0.106947576475,-0.00313807780287,1.0,0.0,0.0968451365032
1385574105700388737,0.00639489388119,-0.125458928145,-0.00543271958678,1.0,0.0,0.0972757547528
1385574105800415586,-0.0090445870247,-0.139513394895,-0.00712057647692,1.0,0.0,0.0972847934444
1385574105899297536,-0.0256326739095,-0.148062710758,-0.00822236979225,1.0,0.0,0.0968328365023
1385574106000280625,-0.0427144368479,-0.150321185781,-0.00873178139497,1.0,0.0,0.0959310708635
1385574106099413476,-0.0597359957168,-0.145531074833,-0.00862682960222,1.0,0.0,0.0946655079616
1385574106199332971,-0.0755939106453,-0.134111203051,-0.00769506097386,1.0,0.0,0.0930794061867
1385574106300270942,-0.0894852295164,-0.116143668788,-0.00635012077544,1.0,0.0,0.0912230433577
1385574106400322038,-0.100464378082,-0.0928784719071,-0.00445449429232,1.0,0.0,0.0891625340141
1385574106499276366,-0.107961354552,-0.0651558910458,-0.00226608320203,1.0,0.0,0.0868864624068
1385574106600267039,-0.111511618918,-0.0344856893856,1.6593664757e-05,1.0,0.0,0.0844385529738
1385574106699272693,-0.110940999082,-0.00206392647202,0.00226742534706,1.0,0.0,0.0818196115997
1385574106799366139,-0.105718236875,0.0307252264032,0.0045546083928,1.0,0.0,0.0791948997199
1385574106899299291,-0.0961576024064,0.0624155906238,0.0067472232178,1.0,0.0,0.0765329110325
1385574107000506077,-0.0820905257882,0.0917871068077,0.00881160528999,1.0,0.0,0.0740057231817
1385574107099259547,-0.0642769168849,0.117516628333,0.0105985432342,1.0,0.0,0.0716181240266
1385574107199443998,-0.0430954501008,0.138814941749,0.0121018446071,1.0,0.0,0.0694695377814
1385574107299454011,-0.0195384245444,0.15472265493,0.0133538935587,1.0,0.0,0.0676227919882
1385574107399370731,0.0051627743035,0.164710562872,0.0143206841224,1.0,0.0,0.0661163156811
1385574107499376091,0.0301026280749,0.168371571002,0.0152057360063,1.0,0.0,0.0650736639254
1385574107599371868,0.0540738777864,0.165458507494,0.0163753692286,1.0,0.0,0.0645722617073
1385574107699492012,0.0758148132321,0.155935894609,0.0175393502991,1.0,0.0,0.0646141155536
1385574107799437747,0.0938832281526,0.139900617315,0.0185353725229,1.0,0.0,0.0653842609368
1385574107899292347,0.108129865996,0.118143412374,0.0191385423287,1.0,0.0,0.0667014172319
1385574107999324583,0.117387651202,0.0910134007131,0.0192150477618,1.0,0.0,0.0685853514801
1385574108099306512,0.121722815525,0.0598225805385,0.0188282881689,1.0,0.0,0.0709073151481
1385574108199309497,0.120902614267,0.0252408123148,0.0180386075943,1.0,0.0,0.073555811712
1385574108299453573,0.115254579332,-0.0112328177712,0.0166838829806,1.0,0.0,0.0763894457989
1385574108400448803,0.105378992393,-0.0487299509282,0.0147980729058,1.0,0.0,0.0790582701143
1385574108501482825,0.0919835956804,-0.0859794786836,0.0119698085781,1.0,0.0,0.0812530310729
1385574108599456885,0.0749445521454,-0.121939524532,0.00868638280024,1.0,0.0,0.0830628684807
1385574108699489899,0.0549575925212,-0.154886858657,0.00524103756903,1.0,0.0,0.0844186532751
1385574108799329965,0.032046466238,-0.183525355205,0.00229821108423,1.0,0.0,0.0851659813825
1385574108899276118,0.00658521249227,-0.206025708549,2.70359097985e-05,1.0,0.0,0.0852065427524
1385574108999295470,-0.0213029056924,-0.22056708575,-0.00154585005523,1.0,0.0,0.0846016425805
1385574109099311855,-0.0501821275083,-0.226265675619,-0.0023370257386,1.0,0.0,0.083639659154
1385574109199305779,-0.0787119950322,-0.222523445133,-0.00242497999167,1.0,0.0,0.082426331122
1385574109300288715,-0.105394078013,-0.20969426022,-0.0017581323309,1.0,0.0,0.0809362360654
1385574109399388822,-0.129040972652,-0.188341044997,-0.000410061601644,1.0,0.0,0.079177080574
1385574109499600186,-0.148135769555,-0.159430087674,0.001301816171,1.0,0.0,0.0773113212394
1385574109599315700,-0.162121264802,-0.12439055847,0.00330667453785,1.0,0.0,0.0752939538537
1385574109700458643,-0.170063971619,-0.0847496447828,0.00564721897592,1.0,0.0,0.0731972866148
1385574109799295987,-0.17194802024,-0.0421915779357,0.00794934363903,1.0,0.0,0.0709373446803
1385574109899439193,-0.167312326084,0.000980562827643,0.00970031973468,1.0,0.0,0.0686016968645
1385574109999525941,-0.156606695093,0.0432081892988,0.0110781178551,1.0,0.0,0.0661981179357
1385574110099582864,-0.140177079352,0.0822769918149,0.0120606611143,1.0,0.0,0.0638138026933
1385574110200108091,-0.118572837618,0.116550468626,0.012472351163,1.0,0.0,0.0615363502792
1385574110299828170,-0.0930438580272,0.14474675942,0.0128793343459,1.0,0.0,0.0593632136697
1385574110399652290,-0.064419441081,0.165644039421,0.0129474262415,1.0,0.0,0.0573343420192
1385574110499665777,-0.0340636717808,0.178736950725,0.012421101921,1.0,0.0,0.0553709306955
1385574110600863152,-0.00300387033471,0.18307085002,0.011297113663,1.0,0.0,0.0536532420962
1385574110699897170,0.0272072640457,0.179983415741,0.0101321229074,1.0,0.0,0.0519467306222
1385574110798974733,0.0555402355487,0.168684568696,0.00882472779988,1.0,0.0,0.0503769369045
1385574110899600274,0.0810455228106,0.150512701826,0.00763974774564,1.0,0.0,0.0489634177345
1385574110998659644,0.102892714176,0.126559750198,0.00682776185176,1.0,0.0,0.047632706613
1385574111100734555,0.120133306758,0.0975409452145,0.00586663964035,1.0,0.0,0.0465124776045
1385574111199666027,0.132551759979,0.0651053022026,0.00481456473333,1.0,0.0,0.0456653877163
1385574111299019074,0.139885280438,0.0307516136793,0.00392768573405,1.0,0.0,0.0451711944049
1385574111399076562,0.141966554491,-0.00398668682355,0.00322945448592,1.0,0.0,0.0451957801344
1385574111499961741,0.1385100355,-0.0375562999801,0.00278418178782,1.0,0.0,0.0457623466513
1385574111599753860,0.12978315651,-0.0686213884373,0.00271210791087,1.0,0.0,0.0467430718958
1385574111698766989,0.115440500019,-0.0965256555317,0.00255220252861,1.0,0.0,0.0481113554583
1385574111799624132,0.0960673253583,-0.120730742629,0.00230143115097,1.0,0.0,0.0497144747525
1385574111898797343,0.0720951177215,-0.140922380582,0.00181339829815,1.0,0.0,0.0512456268654
1385574111999765381,0.0443741144733,-0.156565024767,0.00107650196269,1.0,0.0,0.0526269311154
1385574112100800052,0.0139552721483,-0.167586067857,0.00027421885583,1.0,0.0,0.0537816039617
1385574112199644650,-0.0179754368966,-0.173304638095,-0.000404496682672,1.0,0.0,0.0546725386326
1385574112298762067,-0.0504025711962,-0.173104415941,-0.00100290696516,1.0,0.0,0.0552242527417
1385574112398788755,-0.0816599816075,-0.166756456493,-0.00163649314493,1.0,0.0,0.0555107157343
1385574112498763957,-0.110921056614,-0.154119728524,-0.00236196521847,1.0,0.0,0.0554695189049
1385574112599844990,-0.136302812799,-0.135547699496,-0.00308776142085,1.0,0.0,0.0552632760046
1385574112699039744,-0.157241444941,-0.111497526525,-0.00345468197355,1.0,0.0,0.0548181160393
1385574112799637889,-0.172326843344,-0.0831011484979,-0.00347018833592,1.0,0.0,0.0541844396851
1385574112899798415,-0.18098311233,-0.0514199550991,-0.00332863686469,1.0,0.0,0.0533843068554
1385574112998708591,-0.182479746545,-0.0184253493102,-0.0031502512177,1.0,0.0,0.0525560221784
1385574113098700010,-0.176779452993,0.0144167418164,-0.00307776107384,1.0,0.0,0.0516642298504
1385574113199104790,-0.164212152034,0.0453528332465,-0.00285364736194,1.0,0.0,0.0507425693183
1385574113298724132,-0.145474397126,0.073276788089,-0.00243150135601,1.0,0.0,0.0497454320398
1385574113398765069,-0.121359598779,0.0969652403724,-0.00228448512999,1.0,0.0,0.0487151764041
1385574113498903283,-0.0930373782173,0.115928324521,-0.00224758359093,1.0,0.0,0.0475880366951
1385574113598886673,-0.061411317469,0.128991517135,-0.0024000209346,1.0,0.0,0.0464526164179
1385574113698693186,-0.0280507410815,0.13629833127,-0.00265670067646,1.0,0.0,0.0451998695911
1385574113799845846,0.00611444208629,0.137365177125,-0.00331961822649,1.0,0.0,0.043954895798
1385574113899858638,0.0396097147631,0.132658803897,-0.00411371687281,1.0,0.0,0.042647764206
1385574113999661263,0.0712098778364,0.122230628521,-0.00519648171531,1.0,0.0,0.0413729432557
1385574114099773565,0.099726774169,0.106466466356,-0.0063330899077,1.0,0.0,0.0402669152733
1385574114198763260,0.12409912888,0.0865238323748,-0.00737793466548,1.0,0.0,0.0392393021898
1385574114298987792,0.143162620336,0.0626939508157,-0.0083100734916,1.0,0.0,0.0384061734536
1385574114400685865,0.156247751107,0.036365298501,-0.00910085178189,1.0,0.0,0.0378994869241
1385574114499027716,0.16287487711,0.00830720263721,-0.00958892335512,1.0,0.0,0.0378365599029
1385574114599016145,0.162852554552,-0.0200929547164,-0.0100252046011,1.0,0.0,0.0382191066102
1385574114699798066,0.156166519406,-0.0481688624399,-0.0103779815523,1.0,0.0,0.03899769878
1385574114799020525,0.142999055387,-0.0751198764493,-0.0108378895833,1.0,0.0,0.0400858286683
1385574114899643712,0.123744963554,-0.100604328462,-0.0114157469032,1.0,0.0,0.0411604598531
1385574114998765300,0.0990072074386,-0.123952709862,-0.0119947540356,1.0,0.0,0.0421298351638
1385574115098722744,0.069833023086,-0.14419456803,-0.0123889970369,1.0,0.0,0.0428085913029
1385574115199086527,0.0371493017684,-0.160291063695,-0.0127982164546,1.0,0.0,0.0431162498618
1385574115298991904,0.0025578137569,-0.171589268771,-0.0130526736399,1.0,0.0,0.043238562393
1385574115399103071,-0.0325169213564,-0.177452426265,-0.0129227454687,1.0,0.0,0.0431805989589
1385574115498736255,-0.0668396529231,-0.177481484065,-0.0122040652198,1.0,0.0,0.0429330867315
1385574115599694995,-0.0986315507071,-0.171590341939,-0.0106718182866,1.0,0.0,0.0425610117327
1385574115699665016,-0.126259380534,-0.159348175762,-0.00866253639792,1.0,0.0,0.0421983418014
1385574115799693175,-0.148850064294,-0.141377349382,-0.00625058368744,1.0,0.0,0.0418194140671
1385574115899694203,-0.165246818803,-0.11799249977,-0.00358556580289,1.0,0.0,0.0414438244944
1385574115999677299,-0.174994234062,-0.0904063948971,-0.00113781370884,1.0,0.0,0.0410623694138
1385574116098929573,-0.177551097122,-0.0598082000917,0.00118770012308,1.0,0.0,0.0407190800748
1385574116198888160,-0.173082247726,-0.0274378972925,0.0033119585205,1.0,0.0,0.0403590019077
1385574116301447688,-0.16170415533,0.00523749403831,0.0052905228234,1.0,0.0,0.0399589637841
1385574116400691979,-0.143972724698,0.0366264414015,0.00673222140856,1.0,0.0,0.039545209141
1385574116498838069,-0.120478834273,0.0652939140126,0.00763862620662,1.0,0.0,0.0391828076853
1385574116598840502,-0.0925697515459,0.0903950593823,0.00801241543222,1.0,0.0,0.0388177923318
1385574116700001557,-0.0614692811315,0.110563277396,0.00748512916657,1.0,0.0,0.0384565726468
1385574116800963783,-0.0283937345497,0.125524562032,0.006588386942,1.0,0.0,0.0380791691711
1385574116898765335,0.00534718643159,0.134575038327,0.00511113996639,1.0,0.0,0.037669732722
1385574116999760191,0.0385280497019,0.137672250305,0.00303670190656,1.0,0.0,0.0372420190804
1385574117099048857,0.0699285304767,0.134705710735,0.000578482926663,1.0,0.0,0.036791348531
1385574117199962634,0.098664330814,0.126085691697,-0.00180698060778,1.0,0.0,0.0363837434013
1385574117300745829,0.123158914246,0.112026879901,-0.00423304377303,1.0,0.0,0.0361025813436
1385574117399132354,0.142723837106,0.0936373533631,-0.00632714085987,1.0,0.0,0.0359873661164
1385574117499028989,0.156458058504,0.0712836254656,-0.00804968129011,1.0,0.0,0.0361410309501
1385574117599922578,0.163630949428,0.0461461241399,-0.00939902712147,1.0,0.0,0.0364729703201
1385574117700823038,0.164076994735,0.0190404977176,-0.0105167431716,1.0,0.0,0.0369408769381
1385574117799841763,0.157683774787,-0.00910659759418,-0.0114067598377,1.0,0.0,0.0375744198667
1385574117899836398,0.144864914847,-0.0376713542649,-0.0121362382249,1.0,0.0,0.0382188761035
1385574117999726427,0.126262206125,-0.0658181121789,-0.0125833544686,1.0,0.0,0.038865430821
1385574118099834504,0.102617239218,-0.0926626333431,-0.0127654457341,1.0,0.0,0.0394413397902
1385574118200689664,0.0748827499505,-0.117032120908,-0.0126928252781,1.0,0.0,0.039974824973
1385574118299779796,0.0440092510347,-0.137908369814,-0.0121811255024,1.0,0.0,0.0403783933098
1385574118398808570,0.0111063949887,-0.154180834822,-0.011478180743,1.0,0.0,0.0405371008828
1385574118499551970,-0.0225145229798,-0.164927610609,-0.0105327188604,1.0,0.0,0.040577831012
1385574118599059259,-0.0555809341539,-0.169482207491,-0.00969258180791,1.0,0.0,0.0404927420502
1385574118699075848,-0.0867609935904,-0.167437074093,-0.00856816224918,1.0,0.0,0.0403192407275
1385574118799009640,-0.114528774228,-0.158911548286,-0.00734386069018,1.0,0.0,0.0401354321393
1385574118899098105,-0.137886478669,-0.144141143679,-0.0056835462277,1.0,0.0,0.0399167232726
1385574119000252096,-0.155714114635,-0.124005718324,-0.00335690907323,1.0,0.0,0.0396921719475
1385574119099203908,-0.167385747041,-0.0991659271004,-0.000553604434541,1.0,0.0,0.0394237566405
1385574119199231600,-0.172271650708,-0.0705996390969,0.00240631236648,1.0,0.0,0.0391344632821
1385574119299271078,-0.169925085032,-0.03974509718,0.00535711017865,1.0,0.0,0.0389447628464
1385574119399174439,-0.16094162735,-0.00753072291535,0.00788897510956,1.0,0.0,0.038762394464
1385574119499100432,-0.145812103739,0.0243230178272,0.00975591372136,1.0,0.0,0.038600129966
1385574119599248203,-0.124997950966,0.0546211946226,0.0110648234525,1.0,0.0,0.038477131274
1385574119699049041,-0.0997075130168,0.0820437074477,0.0118725992843,1.0,0.0,0.0383580025189
1385574119799103657,-0.0707663983809,0.105324261516,0.0120540086028,1.0,0.0,0.038313487551
1385574119899008921,-0.0398041456873,0.123560171344,0.0116965117051,1.0,0.0,0.0382532348626
1385574119999048865,-0.00773123966813,0.136207399539,0.0105900130051,1.0,0.0,0.038223840506
1385574120099052882,0.0239849720176,0.142918255792,0.00887944740968,1.0,0.0,0.0381617645965
1385574120199160505,0.0545010420261,0.143431657507,0.00664263794756,1.0,0.0,0.0381840701252
1385574120299113877,0.0823439596756,0.138184803517,0.00422551147003,1.0,0.0,0.0381755408249
1385574120399151782,0.106780257978,0.126931775486,0.00183996662717,1.0,0.0,0.038301892424
1385574120500041189,0.126784011659,0.110481106064,-0.00033814508552,1.0,0.0,0.0385224466478
1385574120599082954,0.141642484486,0.0893779794766,-0.00248716630149,1.0,0.0,0.0387783752952
1385574120700034108,0.150673516896,0.0643885804166,-0.00415637687041,1.0,0.0,0.0392293171896
1385574120799207015,0.153391504427,0.0366276886779,-0.0052466725037,1.0,0.0,0.0399100519521
1385574120899114722,0.149578297344,0.0076212725305,-0.00592131701953,1.0,0.0,0.0408295565354
1385574120999065156,0.139619704709,-0.0214665224842,-0.00608202414562,1.0,0.0,0.0420226105763
1385574121099108012,0.123641447153,-0.0493762901144,-0.00597451939626,1.0,0.0,0.043392566565
1385574121199060098,0.102320146425,-0.0756719127181,-0.0058105709281,1.0,0.0,0.0448362817594
1385574121299128554,0.0765971351207,-0.09968618645,-0.00570290159596,1.0,0.0,0.0461909311887
1385574121399155134,0.047364885009,-0.120759773021,-0.00551495555372,1.0,0.0,0.0473161694642
1385574121499416234,0.0158046837751,-0.137804441969,-0.00522939719614,1.0,0.0,0.0482162956101
1385574121599363864,-0.016901516149,-0.149983135465,-0.00494789645769,1.0,0.0,0.0488739181263
1385574121699129429,-0.049890263158,-0.156496245056,-0.00448190668558,1.0,0.0,0.0492031708499
1385574121800136671,-0.0815890377956,-0.156520519144,-0.00398563220109,1.0,0.0,0.049323496774
1385574121899249051,-0.110681392626,-0.14993988647,-0.00319207109501,1.0,0.0,0.0493252722698
1385574121999105881,-0.135986265829,-0.136612869435,-0.00228536840806,1.0,0.0,0.0491469754847
1385574122099268367,-0.156268169058,-0.117178952185,-0.00105515600688,1.0,0.0,0.0488287640531
1385574122199062390,-0.170259462875,-0.0923246243144,0.000303347817378,1.0,0.0,0.0484509614319
1385574122299123074,-0.177382384217,-0.0633000518417,0.00172613051171,1.0,0.0,0.0480534817763
1385574122400245635,-0.177324660444,-0.0311679542424,0.00327660531807,1.0,0.0,0.0476157326761
1385574122499163695,-0.170420090776,0.00251637746505,0.00452934587184,1.0,0.0,0.047086524646
1385574122600016266,-0.15694558919,0.036621737228,0.00550982078307,1.0,0.0,0.0464521617076
1385574122699053777,-0.137535534361,0.0694625951865,0.00625394411589,1.0,0.0,0.0457769976009
1385574122799031064,-0.113192137818,0.100026974156,0.00664821085531,1.0,0.0,0.044981829371
1385574122899157025,-0.0850032740894,0.126769180836,0.0066864741842,1.0,0.0,0.044095518776
1385574123000928958,-0.0539142499792,0.148582434966,0.00635924116615,1.0,0.0,0.0431742055697
1385574123099257530,-0.021112022487,0.164604490949,0.00554233774394,1.0,0.0,0.0422159430964
1385574123199107251,0.0121495505647,0.174191292393,0.00487262259341,1.0,0.0,0.0412892456356
1385574123300039055,0.0448332640167,0.176576983704,0.00432095063167,1.0,0.0,0.0405694017159
1385574123399928453,0.0759061952417,0.171786876246,0.00364937104837,1.0,0.0,0.0400805041371
1385574123502122017,0.103962875481,0.159874781677,0.00266038891603,1.0,0.0,0.0400822760163
1385574123599443079,0.127909071523,0.141858594311,0.00160420681061,1.0,0.0,0.0405911530611
1385574123699823613,0.146475630896,0.118368212349,0.000714839122465,1.0,0.0,0.0416756387139
1385574123799288865,0.159167771823,0.0909205108473,2.1679917449e-05,1.0,0.0,0.0432663895658
1385574123899358398,0.165399653155,0.0602794263487,-0.000797535246647,1.0,0.0,0.0453174995868
1385574124000469623,0.165121832566,0.0279115936825,-0.00161421252606,1.0,0.0,0.0478630286193
1385574124100459635,0.158829021351,-0.00536374135275,-0.00260307761587,1.0,0.0,0.0505997630957
1385574124200474001,0.146525455843,-0.0385559814696,-0.00384535985179,1.0,0.0,0.0536260643066
1385574124299476855,0.129540451727,-0.0707945842191,-0.00560786670276,1.0,0.0,0.0563846196537
1385574124399458374,0.108509168964,-0.10159619635,-0.00782438364019,1.0,0.0,0.0588497303983
1385574124500492220,0.0847317764691,-0.130209864392,-0.0103647598444,1.0,0.0,0.0609266970745
1385574124599563066,0.0587263621074,-0.156240896,-0.0127549677646,1.0,0.0,0.0624421481913
1385574124699456527,0.0310287713804,-0.178393827183,-0.0143992545716,1.0,0.0,0.0634559940892
1385574124799587098,0.00165857726269,-0.195294136714,-0.015137887164,1.0,0.0,0.0638093935184
1385574124899683431,-0.0287999160386,-0.20538619337,-0.0148295925375,1.0,0.0,0.0636250834239
1385574124999508637,-0.0594079611826,-0.207308552399,-0.013804782787,1.0,0.0,0.0630452244518
1385574125100495480,-0.0891343747839,-0.200684957242,-0.0123072323039,1.0,0.0,0.0621844403772
1385574125200394404,-0.116447260221,-0.185580518056,-0.0104946951004,1.0,0.0,0.0612538044786
1385574125299546602,-0.139729498427,-0.162696137805,-0.00820550380698,1.0,0.0,0.0603307751036
1385574125399505735,-0.157799564058,-0.132915129566,-0.0052346242638,1.0,0.0,0.0593330076844
1385574125499577808,-0.16986464161,-0.097554036593,-0.00194892407588,1.0,0.0,0.0582233965184
1385574125599548515,-0.175282848338,-0.0577907880023,0.00125670345877,1.0,0.0,0.0570145439985
1385574125700475555,-0.17361211914,-0.0154912436646,0.00438030846619,1.0,0.0,0.0557996547333
1385574125799536391,-0.165146400564,0.0278070300085,0.00682166892647,1.0,0.0,0.0545434234691
1385574125899561524,-0.149754755083,0.0701511804746,0.00889846870534,1.0,0.0,0.0533057279296
1385574125999556103,-0.128662034835,0.10988260271,0.010127444985,1.0,0.0,0.0519928111518
1385574126099500206,-0.102131819287,0.145389133322,0.0109672553594,1.0,0.0,0.0506907207589
1385574126199437913,-0.0714399462804,0.175357270475,0.0115818755311,1.0,0.0,0.0493775012886
1385574126299620176,-0.0375934758825,0.198402340404,0.0119932814153,1.0,0.0,0.0481883597487
1385574126399836934,-0.00200285787579,0.213444178412,0.0121041460678,1.0,0.0,0.0472424819043
1385574126499548109,0.0338881284665,0.219702775022,0.0118561885357,1.0,0.0,0.0466220613196
1385574126599497527,0.068211078118,0.217664529405,0.0112957317278,1.0,0.0,0.046268009497
1385574126700503944,0.0995708814267,0.206920245507,0.0103837594264,1.0,0.0,0.0463870416178
1385574126799440621,0.126243599982,0.188328223313,0.00943277631519,1.0,0.0,0.0469480395302
1385574126900534656,0.147226934472,0.162723557768,0.00873180439319,1.0,0.0,0.0480326208009
1385574126999488947,0.161704085421,0.131343416351,0.00824983516116,1.0,0.0,0.0494228546883
1385574127099451616,0.169441662626,0.0952358954665,0.00767697380141,1.0,0.0,0.0511671061591
1385574127200466755,0.170513340425,0.0555970544606,0.00686622678751,1.0,0.0,0.0531848424628
1385574127300411915,0.165134413994,0.0135820021601,0.0061348233947,1.0,0.0,0.0555738281543
1385574127399603249,0.153844176408,-0.0296331037811,0.00525727722227,1.0,0.0,0.0581277883774
1385574127499619612,0.137307703354,-0.0724562587776,0.00393509079449,1.0,0.0,0.0605793017813
1385574127600650260,0.116245486826,-0.113444499676,0.00201559179958,1.0,0.0,0.0627423080058
1385574127699624984,0.0915588128788,-0.150886110529,8.37127055749e-06,1.0,0.0,0.0645573362745
1385574127799425967,0.0644163743061,-0.183301599181,-0.00245445182406,1.0,0.0,0.0658785212866
1385574127899430432,0.0356288477239,-0.209574906538,-0.00482501586083,1.0,0.0,0.0667200983688
1385574127999557960,0.00608963464223,-0.228832263548,-0.00646212504909,1.0,0.0,0.0670327653204
1385574128099491508,-0.0239847502291,-0.239741831593,-0.00761633307604,1.0,0.0,0.0667458970868
1385574128199506037,-0.0538210892606,-0.241573669054,-0.0079275290735,1.0,0.0,0.0660164462227
1385574128300478709,-0.0828060727031,-0.233976799074,-0.0074283229788,1.0,0.0,0.064898997817
1385574128400502217,-0.10937327919,-0.216684265405,-0.00636655764442,1.0,0.0,0.0636607646925
1385574128499507678,-0.132276403671,-0.190613610893,-0.0045931158809,1.0,0.0,0.0624444704246
1385574128599540442,-0.150463844144,-0.15657324716,-0.00207914307576,1.0,0.0,0.0611908737999
1385574128699441146,-0.162918718977,-0.116136268157,0.000778112959522,1.0,0.0,0.0599429576272
1385574128801715674,-0.169080814224,-0.0707327553653,0.00350896555736,1.0,0.0,0.05867373636
1385574128899775598,-0.168646279397,-0.0225519191655,0.00583516314446,1.0,0.0,0.0573745892931
1385574129001432017,-0.161474337388,0.0265641708397,0.00757620154588,1.0,0.0,0.0560960155905
1385574129099921926,-0.148312530269,0.0747013716995,0.00858272034001,1.0,0.0,0.0547019494947
1385574129199844448,-0.12951296983,0.120118734709,0.00920443801429,1.0,0.0,0.0532142987552
1385574129299992428,-0.105539457488,0.160683676835,0.00928808798726,1.0,0.0,0.0517826977676
1385574129399247692,-0.0773176336027,0.195073885516,0.00908380815025,1.0,0.0,0.0503566520585
1385574129499266715,-0.0457660585139,0.221604423146,0.00870335231553,1.0,0.0,0.0490427179838
1385574129599200009,-0.0122692842287,0.239249252764,0.00815584301172,1.0,0.0,0.0478898518975
1385574129699923147,0.0219509236896,0.247601755535,0.00760717847684,1.0,0.0,0.0469565262034
1385574129799777594,0.0552636920364,0.246518510696,0.0070319021517,1.0,0.0,0.0462776147535
1385574129899943852,0.0861178645651,0.236262760255,0.00652627225073,1.0,0.0,0.0459615479631
1385574130000120067,0.113155247657,0.217443336074,0.00668041180043,1.0,0.0,0.0459570612499
1385574130100205677,0.135423938035,0.190627538029,0.00741480053357,1.0,0.0,0.0463014515186
1385574130199938460,0.152268216769,0.156753002105,0.00800482290467,1.0,0.0,0.0469377382989
1385574130298895016,0.163126854998,0.116911051969,0.00842463939136,1.0,0.0,0.0480037496514
1385574130399991203,0.168515036079,0.0726551709634,0.00865591539186,1.0,0.0,0.0492376319109
1385574130500086227,0.167270766781,0.0253141533428,0.00876830160695,1.0,0.0,0.051001956204
1385574130599309637,0.160125110027,-0.0236132727548,0.00877337797764,1.0,0.0,0.0530453911321
1385574130698924845,0.147021695243,-0.0719611114204,0.00793205323948,1.0,0.0,0.0552684645119
1385574130798983593,0.128901624755,-0.117994958355,0.0058704907357,1.0,0.0,0.0573468699713
1385574130898990780,0.106334567179,-0.159633912389,0.00360961250483,1.0,0.0,0.0592834661961
1385574130999028589,0.080611262528,-0.195246009721,0.00106087157997,1.0,0.0,0.0610284546617
1385574131099983284,0.0529770928373,-0.223525388884,-0.00161759810193,1.0,0.0,0.0623545715928
1385574131198907784,0.0244379621774,-0.243809772044,-0.00387886763442,1.0,0.0,0.0633502361149
1385574131299926609,-0.00457150739489,-0.255511722027,-0.0053570318743,1.0,0.0,0.0637932148672
1385574131399987712,-0.0335372508421,-0.257675859098,-0.00588943810221,1.0,0.0,0.06374755613
1385574131499982975,-0.0617759037128,-0.250120613124,-0.00557809214122,1.0,0.0,0.0632807758045
1385574131599979453,-0.088301686226,-0.232628064322,-0.00469413582464,1.0,0.0,0.0625927770815
1385574131700038760,-0.11161002567,-0.205385369334,-0.00294267949098,1.0,0.0,0.0618417833131
1385574131799912259,-0.130548914066,-0.169740273211,-0.000629181932503,1.0,0.0,0.0610498260558
1385574131899052319,-0.144154670845,-0.126878848375,0.0017176954499,1.0,0.0,0.0602903640644
1385574131999160295,-0.151651599426,-0.0788854957371,0.00425516901377,1.0,0.0,0.0595951915022
1385574132098991035,-0.153129269119,-0.0277973855475,0.00652772562522,1.0,0.0,0.0588845586568
1385574132199008585,-0.148135037836,0.0243530824527,0.00816571883493,1.0,0.0,0.0582140626606
1385574132298940406,-0.137107124592,0.0754688600131,0.00912094339715,1.0,0.0,0.0574810283142
1385574132399978460,-0.120258260846,0.123511623139,0.00916493178249,1.0,0.0,0.0567330250466
1385574132499052061,-0.0982135646791,0.166771476062,0.00877243000237,1.0,0.0,0.0559728532389
1385574132599000330,-0.0717963579455,0.203694001845,0.0079766709098,1.0,0.0,0.0552368522732
1385574132699969365,-0.0418568006849,0.23292021007,0.00702135886544,1.0,0.0,0.054589059726
1385574132799982231,-0.00953344429394,0.253157145279,0.00586930935206,1.0,0.0,0.0541688539531
1385574132898976125,0.0238113911234,0.264006081688,0.00477992086816,1.0,0.0,0.0539500483935
1385574132999955427,0.0567407086538,0.264917663222,0.00405540548472,1.0,0.0,0.0539768815342
1385574133098939756,0.08754227894,0.25625392673,0.00358348290107,1.0,0.0,0.0543486745514
1385574133198939667,0.115017639548,0.238110295805,0.00353849050976,1.0,0.0,0.0550465340165
1385574133299011477,0.137985808206,0.211227569049,0.0045846128863,1.0,0.0,0.0560786308462
1385574133398931061,0.156101961178,0.176502160953,0.00600217282061,1.0,0.0,0.0572372425762
1385574133498941708,0.168767624919,0.134768115641,0.00762459059262,1.0,0.0,0.058559006194
1385574133599975385,0.1756108002,0.0870978522254,0.00966964242625,1.0,0.0,0.0599904666469
1385574133698983190,0.176155726933,0.0353971858307,0.0112346488752,1.0,0.0,0.061591300647
1385574133799151421,0.170984172554,-0.0186017644284,0.012065748204,1.0,0.0,0.0630948820289
1385574133899981214,0.159444354033,-0.07247757178,0.0120641698767,1.0,0.0,0.0645623780341
1385574133998887554,0.142672100241,-0.124174883513,0.0109204214643,1.0,0.0,0.0657618830686
1385574134099013150,0.120741798902,-0.171235587798,0.00923085775312,1.0,0.0,0.066792894181
1385574134199018405,0.0950773607832,-0.211896110757,0.00676768543292,1.0,0.0,0.0674093462342
1385574134300019425,0.0664006180894,-0.244190167988,0.00423641409419,1.0,0.0,0.0676779781936
1385574134398924160,0.0356962969068,-0.267085442857,0.00254365455872,1.0,0.0,0.0675680623301
1385574134499082509,0.00379061245791,-0.279727581819,0.00122886910434,1.0,0.0,0.0669923603051
1385574134598930274,-0.0285951722295,-0.281192072898,0.000940716191042,1.0,0.0,0.0660372982312
1385574134699911471,-0.0603498893905,-0.271225645044,0.00115213626205,1.0,0.0,0.0647962453825
1385574134798900997,-0.0904935053143,-0.249673697921,0.00194723231858,1.0,0.0,0.0634049045252
1385574134900164158,-0.1174027371,-0.217343814348,0.00287133690382,1.0,0.0,0.0619987706641
1385574134999172856,-0.13980497257,-0.17544588237,0.00443781138202,1.0,0.0,0.0606262990471
1385574135102437039,-0.156513960311,-0.126056248254,0.00586813241761,1.0,0.0,0.0593251791291
1385574135199513385,-0.167199920261,-0.0714672553066,0.00699725591834,1.0,0.0,0.0579888710068
1385574135299507055,-0.170879087011,-0.014042131285,0.00763184763275,1.0,0.0,0.0567404469443
1385574135399541801,-0.167739395132,0.0439982858834,0.00811431965427,1.0,0.0,0.0555032463566
1385574135499476750,-0.157814171139,0.1001376242,0.00761741939694,1.0,0.0,0.0542551451607
1385574135599537691,-0.141330380254,0.152575902424,0.00648471883827,1.0,0.0,0.0530594662599
1385574135701155331,-0.118935521546,0.199334753723,0.00469210652608,1.0,0.0,0.0518890021672
1385574135799790059,-0.0912665007745,0.238797181963,0.00273440321504,1.0,0.0,0.0508450331908
1385574135899782251,-0.059437980528,0.269418328695,0.000992185632617,1.0,0.0,0.0500637993387
1385574135999570333,-0.0246440306947,0.289772237422,-0.000611328367416,1.0,0.0,0.0495794285649
1385574136099238831,0.0115173775383,0.299674795357,-0.00223641297346,1.0,0.0,0.049254927512
1385574136199366503,0.0472413020062,0.298512336335,-0.00372900173348,1.0,0.0,0.0492203084151
1385574136300401330,0.0810217347492,0.287262439167,-0.00400035507798,1.0,0.0,0.0493042268122
1385574136399449181,0.111865134355,0.26557584445,-0.00319227171697,1.0,0.0,0.0494755395523
1385574136499452037,0.139154211268,0.234407033251,-0.00206143444577,1.0,0.0,0.0497126357389
1385574136599499142,0.162164578863,0.194689784377,-7.65321632983e-05,1.0,0.0,0.0501436764787
1385574136700464527,0.179527678586,0.147344647708,0.00245552734962,1.0,0.0,0.0509509589172
1385574136799445829,0.191988231419,0.0941884797996,0.00487857031517,1.0,0.0,0.0517882933927
1385574136899434057,0.197760661693,0.0367521005469,0.00702606007152,1.0,0.0,0.0527642460935
1385574136999635033,0.19726939963,-0.0224200662999,0.00848380551816,1.0,0.0,0.0537055629561
1385574137099420467,0.190334385682,-0.0814994866794,0.00927505116798,1.0,0.0,0.0543591118026
1385574137199460628,0.176552077589,-0.138219514331,0.00947525627449,1.0,0.0,0.0547441108442
1385574137300561491,0.155854738874,-0.189768767212,0.00882663883749,1.0,0.0,0.0549778406525
1385574137400565744,0.129298315046,-0.23417559781,0.00743636415381,1.0,0.0,0.0549707789295
1385574137499396989,0.0977776661425,-0.270011998853,0.00608931761027,1.0,0.0,0.0547268878514
1385574137599473021,0.0623261935143,-0.295695152243,0.00526496801169,1.0,0.0,0.0541491581745
1385574137699617011,0.0240877014408,-0.310219296954,0.00481036750866,1.0,0.0,0.0531510284613
1385574137800379172,-0.0158729506413,-0.31237204767,0.00535411354964,1.0,0.0,0.0518206708418
1385574137899609135,-0.0558293582621,-0.30136672405,0.00600790650386,1.0,0.0,0.0504166886565
1385574138000452203,-0.0937651130938,-0.27795088809,0.00710744367394,1.0,0.0,0.0490185556061
1385574138100669719,-0.128238028224,-0.243010491975,0.00842419542359,1.0,0.0,0.0477012398964
1385574138199491358,-0.157580030837,-0.198489151622,0.00993933801334,1.0,0.0,0.0465080873927
1385574138299731515,-0.180445042109,-0.14596185567,0.0116527329171,1.0,0.0,0.0455206439081
1385574138399382549,-0.196148406314,-0.0882269051735,0.0128893276395,1.0,0.0,0.0446639698106
1385574138499521455,-0.204231095928,-0.0275031027918,0.0134471553183,1.0,0.0,0.0439253659307
1385574138599494130,-0.20424560367,0.0334662103573,0.0129520093285,1.0,0.0,0.0433439776422
1385574138699483051,-0.196861750274,0.0924864004988,0.0118644950041,1.0,0.0,0.0427723443839
1385574138800358289,-0.182387521816,0.147540712055,0.0101445054894,1.0,0.0,0.042145864299
1385574138900436355,-0.161347919761,0.196390661145,0.00813001367328,1.0,0.0,0.0415007889581
1385574139000648203,-0.134133667197,0.237075452946,0.00622866654641,1.0,0.0,0.0410851216658
1385574139100467097,-0.101989023317,0.268160562681,0.00432708255513,1.0,0.0,0.0409009692716
1385574139199586891,-0.0662022284392,0.288233973009,0.00249551169473,1.0,0.0,0.0409499520668
1385574139299436577,-0.0284272804391,0.297532850078,0.00058686821083,1.0,0.0,0.0411463248056
1385574139399458945,0.00970465788962,0.295945591011,-0.00147931474505,1.0,0.0,0.0414607712785
1385574139499571966,0.0465050358803,0.28434440882,-0.0026863401768,1.0,0.0,0.041822507859
1385574139600506035,0.0806389712386,0.26322963824,-0.00275720995614,1.0,0.0,0.0422389762339
1385574139699607974,0.11198051283,0.233418805108,-0.0026357718276,1.0,0.0,0.0425260879687
1385574139799425198,0.139133829506,0.195103727328,-0.00232771538215,1.0,0.0,0.0428961412141
1385574139900426998,0.162035853122,0.150299220844,-0.00207166025237,1.0,0.0,0.0432930282817
1385574139999449492,0.179117681123,0.0998721485742,-0.0019887212643,1.0,0.0,0.0439567242933
1385574140099552603,0.190401947418,0.0460262469885,-0.00162660417462,1.0,0.0,0.0446942391221
1385574140199489027,0.194463081806,-0.00969939705997,-0.000381462392586,1.0,0.0,0.0457574518464
1385574140300428192,0.191315209665,-0.0654043422953,0.000275484657675,1.0,0.0,0.0470934639974
1385574140399465897,0.180442437605,-0.119189054247,0.000225977811948,1.0,0.0,0.0484384123041
1385574140500425499,0.162325476506,-0.169172013656,-0.000927936630279,1.0,0.0,0.0496047702754
1385574140600351155,0.137201192428,-0.213405073435,-0.00272833817361,1.0,0.0,0.050429396527
1385574140699448076,0.106222667294,-0.250008085976,-0.00474182194168,1.0,0.0,0.0509257274686
1385574140799437217,0.070596846389,-0.277522238257,-0.00625882386344,1.0,0.0,0.0510209450251
1385574140899442559,0.0313924807725,-0.294103812028,-0.00703152632889,1.0,0.0,0.050799372517
1385574140999379412,-0.0100528002974,-0.299214004927,-0.00690203670764,1.0,0.0,0.0501743381909
1385574141099489051,-0.0523273751639,-0.29218140262,-0.00628519964683,1.0,0.0,0.0492954314988
1385574141200522926,-0.0932997435547,-0.272747510864,-0.00525366518047,1.0,0.0,0.0483260757276
1385574141299545953,-0.130949930116,-0.241804616012,-0.00360181142299,1.0,0.0,0.0474169763358
1385574141399504811,-0.163321636359,-0.2008176617,-0.00175216332835,1.0,0.0,0.0466109925717
1385574141500399057,-0.188852564351,-0.151556586419,0.000472743983524,1.0,0.0,0.0459862450289
1385574141600446195,-0.206078745854,-0.0962658050663,0.00270467473676,1.0,0.0,0.0456169138589
1385574141700282000,-0.214992371078,-0.0373768592159,0.00485969409429,1.0,0.0,0.0453473933748
1385574141799560449,-0.214715465179,0.0229436768934,0.00645192121345,1.0,0.0,0.0451906827969
1385574141899655716,-0.205952449972,0.0819899396817,0.00689716761221,1.0,0.0,0.0450244547407
1385574141999682045,-0.189282927158,0.137801550551,0.00630278258556,1.0,0.0,0.0447725249818
1385574142100432380,-0.165490386168,0.188424334079,0.00482050491869,1.0,0.0,0.0444747826816
1385574142199864413,-0.136163756866,0.232026291747,0.00327424879332,1.0,0.0,0.0441142104115
1385574142299172346,-0.102008724422,0.267111023046,0.00223193712525,1.0,0.0,0.0438007937897
1385574142399615286,-0.0644970061405,0.292127772906,0.00159352923919,1.0,0.0,0.0434894856646
1385574142499517075,-0.0247449080452,0.305794933143,0.000622052928573,1.0,0.0,0.0433134890102
