%time,field.linear.x,field.linear.y,field.linear.z,field.angular.x,field.angular.y,field.angular.z
1385574077708576555,0.0,0.0,0.0,0.0,0.0,0.0
1385574077708593458,-0.356077370982,0.154821600292,-0.112420968376,0.00441831875878,0.00365462280423,-1.14599716642
1385574077718460652,-0.356097916444,0.154793954419,-0.112455516233,0.00453133785547,0.00322320203353,-1.14593484923
1385574077728525320,-0.356087986219,0.15482718977,-0.11241840986,0.00441697232744,0.00362023472892,-1.14600711228
1385574077738521493,-0.356009199117,0.154860690979,-0.112500735384,0.00489943600919,0.00380795419305,-1.14599987913
1385574077748453753,-0.356086128941,0.154825488668,-0.112414924112,0.00440902911202,0.00366635883996,-1.14602481693
1385574077758535013,-0.35609153658,0.154818730914,-0.112411960301,0.00443973634502,0.00364391679462,-1.14599229117
1385574077768470578,-0.356116246541,0.154793386161,-0.112450047447,0.00453489873597,0.00319546167381,-1.14596086596
1385574077778513080,-0.356081396944,0.154823244483,-0.112415298069,0.00441550074821,0.00363925544691,-1.14603168138
1385574077788560235,-0.356083553747,0.15482489404,-0.112419663297,0.00443915201311,0.0036664009733,-1.14601376454
1385574077798670517,-0.356082420627,0.154819933114,-0.112417667182,0.00443314909788,0.00370690657961,-1.14600097166
1385574077808477862,-0.356046834764,0.154819046742,-0.11253683517,0.00500040084247,0.00332370481108,-1.14590123999
1385574077818465132,-0.356026211732,0.154857051503,-0.112490261919,0.00485764485567,0.0037694089829,-1.14598476344
1385574077828534722,-0.356085020994,0.154823472549,-0.112421717441,0.00443324823507,0.00368456359095,-1.14600130324
1385574077838458244,-0.356015134984,0.15486150363,-0.112495592403,0.00486942202302,0.0037703337351,-1.1459978413
1385574077848470172,-0.356022831812,0.154854003379,-0.112493855594,0.00485946446491,0.00376805911144,-1.14600389687
1385574077858564747,-0.356016521147,0.154867307681,-0.112493165236,0.00488930401459,0.00377634823005,-1.14601210023
1385574077868478826,-0.35602335132,0.154857926505,-0.112495152158,0.00487805179918,0.00376694166312,-1.14599719936
1385574077878467156,-0.356119371236,0.154785614905,-0.112456672259,0.00452241991362,0.00321174914237,-1.14590421176
1385574077888494777,-0.356045132126,0.154827253346,-0.112531417615,0.00495864831618,0.0033248771295,-1.14590934612
1385574077899027323,-0.356119483018,0.154781222445,-0.112460312605,0.00451451393096,0.00317890228487,-1.14595726015
1385574077908637690,-0.356087301978,0.154817903587,-0.112421787006,0.00443875317687,0.00368543888359,-1.14602060588
1385574077918523708,-0.356087821473,0.154816872353,-0.112423546297,0.00445099509777,0.0037566604502,-1.14602625809
1385574077928545381,-0.356089979732,0.154814134842,-0.112408454029,0.00444353869665,0.00360418254071,-1.14601355231
1385574077938559716,-0.356084001513,0.154820726122,-0.112414633155,0.00443500162227,0.00361501741005,-1.14600851071
1385574077948485114,-0.356109119368,0.154790058302,-0.112457839542,0.00451402433953,0.00319527566013,-1.1459155221
1385574077958556581,-0.356012410854,0.154852755134,-0.11250202428,0.00489541359681,0.00386976695877,-1.1459755312
1385574077968528732,-0.356050393865,0.154819710708,-0.112537357536,0.00497301090727,0.00336249616923,-1.14590059081
1385574077978589460,-0.35601504512,0.154852460374,-0.112505601201,0.0048949320473,0.00386966837216,-1.14594350148
1385574077988840322,-0.356115527242,0.154786702218,-0.112461486078,0.00452940748197,0.00321587878166,-1.14592318285
1385574077998585747,-0.356101824861,0.154811371181,-0.112413033713,0.00443845921743,0.00362536721658,-1.14600673483
1385574078008532044,-0.356093514703,0.154811826519,-0.112419678464,0.00444941015566,0.00362374841838,-1.14600153794
1385574078018668097,-0.356085692052,0.154812491659,-0.112417395181,0.00442658484827,0.0036176073898,-1.14600291939
1385574078028588756,-0.356009231594,0.154857470879,-0.112501274314,0.00485623938548,0.00390504967206,-1.14596356909
1385574078038479125,-0.356016320972,0.154857431582,-0.112496678851,0.00485798931288,0.00377734210014,-1.14601288872
1385574078048489692,-0.356045166551,0.154821211015,-0.11253900089,0.00496358639909,0.00335255281874,-1.14584980081
1385574078058558114,-0.356088608197,0.154810738202,-0.112417006957,0.00445951750665,0.00365045603648,-1.14602633483
1385574078068512157,-0.356086059809,0.154817539329,-0.112415154957,0.00439144389056,0.00363836164299,-1.14600598797
1385574078078550737,-0.356024202663,0.154849414755,-0.11249957946,0.00487795381528,0.0037890938423,-1.14594894954
1385574078088533887,-0.356016667689,0.154856899603,-0.112492781689,0.00484780852063,0.00379125271515,-1.14596910676
1385574078098673168,-0.356041849876,0.154832694692,-0.112540834982,0.00498835733666,0.00338423435806,-1.14587657866
1385574078108536617,-0.356089971225,0.154820248147,-0.112418282059,0.00445472033662,0.00372147115088,-1.14599699668
1385574078118521656,-0.356014503583,0.154848846708,-0.112495746633,0.00487676787287,0.00386049647347,-1.14599667934
1385574078128515210,-0.356017727719,0.154855033425,-0.112499406153,0.00484063831359,0.00389998628708,-1.14595318961
1385574078138522683,-0.356013127439,0.154856806076,-0.112507307446,0.00488533002606,0.0038792956474,-1.14592910748
1385574078148468905,-0.35609491605,0.154810264398,-0.112418415782,0.00442536334389,0.00365222142488,-1.14601881324
1385574078158557547,-0.356018358883,0.154860012063,-0.112498147875,0.00484908815344,0.00380829171471,-1.1460057757
1385574078168525621,-0.356086042692,0.154818817569,-0.112417232512,0.00440177446527,0.0036160873105,-1.1460257766
1385574078178533377,-0.356091460674,0.154812010544,-0.112419574186,0.00441516237679,0.00361098120933,-1.14603079813
1385574078188716243,-0.356123261593,0.154776913311,-0.11246204342,0.00450659624465,0.00318514014525,-1.14592277539
1385574078198616235,-0.356094716954,0.154813028033,-0.112418267625,0.0044506697259,0.00364166716438,-1.14602015438
1385574078208511162,-0.356022126811,0.154841515284,-0.112494728984,0.0048638838428,0.00380473351351,-1.14599411155
1385574078218538142,-0.356094253842,0.154804467418,-0.112414431274,0.00443990003047,0.00363789896669,-1.14600315026
1385574078228461341,-0.356012066956,0.15485552182,-0.11250588014,0.00489211390164,0.00389292976754,-1.14594437125
1385574078238501739,-0.356101276352,0.154815309613,-0.112426532398,0.00443406085036,0.00375539335532,-1.14600252951
1385574078248512593,-0.356073147439,0.15482312882,-0.11242780658,0.00437911824433,0.00375651190465,-1.14606427179
1385574078258467294,-0.356140076574,0.154738626488,-0.11249807096,0.00459595267427,0.00287375770312,-1.14583322915
1385574078268557301,-0.356085169713,0.154809027469,-0.112427596524,0.00439355988288,0.00360922201064,-1.14561058272
1385574078278531761,-0.356086921145,0.154824939957,-0.112421325439,0.00451604075449,0.00361104548548,-1.1460821416
1385574078288565060,-0.356116185101,0.154825266583,-0.112461428617,0.00451726114561,0.00422657999412,-1.14645148452
1385574078298561200,-0.356045583274,0.15484126825,-0.112543929865,0.00483868031052,0.00339142643086,-1.14522203791
1385574078308539192,-0.356143349057,0.154790469697,-0.112469551797,0.00411835041801,0.0030227424248,-1.14581967944
1385574078318582795,-0.356104105007,0.154818528121,-0.112409593299,0.00438884853891,0.00363265219412,-1.14614209753
1385574078328613162,-0.356050912982,0.154865274182,-0.112506698084,0.00493145358977,0.00389977017208,-1.14642587121
1385574078338470848,-0.35615640249,0.15482718883,-0.11245870327,0.00439810962493,0.00357186446661,-1.1460698614
1385574078348454132,-0.356196240489,0.154872794435,-0.112414491249,0.00467093035265,0.00338033211778,-1.14566144498
1385574078358527833,-0.356186347531,0.154888117864,-0.112406950599,0.00452244696924,0.00352857804615,-1.14590371796
1385574078368500989,-0.356183271859,0.154845411181,-0.112488083298,0.00531367062871,0.00274524039989,-1.14637908218
1385574078378527601,-0.356198995892,0.154817833801,-0.112447517769,0.00455954757742,0.00377423336267,-1.14669570631
1385574078388473041,-0.356224431065,0.154810898991,-0.112375816819,0.00461832780155,0.00365648611666,-1.14627734949
1385574078398541261,-0.356216363353,0.154795195473,-0.112333254595,0.00456071428256,0.00394527965818,-1.14663763319
1385574078408857435,-0.356270875121,0.154684856703,-0.112521553511,0.00490270569969,0.00324708046847,-1.14633841105
1385574078418527412,-0.356285787713,0.15488762872,-0.112547005186,0.00531532433583,0.00373789853791,-1.14639721127
1385574078428748042,-0.356159797553,0.154863326294,-0.112546105178,0.0049859522928,0.00308858562787,-1.14651495063
1385574078438577037,-0.356123476355,0.154867305999,-0.11249766343,0.00481088402767,0.00375638541384,-1.14714377143
1385574078448489843,-0.356180927677,0.154841540715,-0.112430043627,0.00436971201102,0.00357693085077,-1.1466588442
1385574078458529691,-0.356230290471,0.154822699542,-0.112408861115,0.00436017093282,0.003894080569,-1.14619845726
1385574078468460691,-0.356184434057,0.15483535747,-0.112435787445,0.00444939780737,0.00343475146672,-1.14691190329
1385574078478540752,-0.356235652054,0.154857164912,-0.112496455857,0.00563968670352,0.00285799282145,-1.14670262805
1385574078488552107,-0.356184079157,0.154811158021,-0.112455448623,0.00505947850343,0.00404205472087,-1.14615954785
1385574078498612077,-0.356155576157,0.154899696753,-0.112573088713,0.00518314022892,0.00355411768721,-1.1467333726
1385574078508563698,-0.356138063535,0.154870602266,-0.112515255204,0.00478234908881,0.00361921084359,-1.14686547548
1385574078518518383,-0.3561438846,0.154872252192,-0.11250272739,0.00493400863524,0.00375668159861,-1.14688764906
1385574078528466273,-0.356133098623,0.154849033932,-0.112565899098,0.0049655720259,0.00414025600773,-1.14650031546
1385574078538546253,-0.356174432498,0.154871897678,-0.112495323102,0.00486603658608,0.00403665669176,-1.14646021703
1385574078548526230,-0.356212829378,0.154855364147,-0.112455823204,0.00539397850353,0.00302889063566,-1.14652380902
1385574078558471914,-0.356182775692,0.154901510289,-0.112536198702,0.00542160854798,0.00364530422977,-1.14698856385
1385574078568524129,-0.356163288832,0.154867052806,-0.112538831785,0.00479492128295,0.00353852323487,-1.1465189232
1385574078578506800,-0.356149451789,0.15484975655,-0.112526115883,0.0048769344505,0.00355562285705,-1.14673342985
1385574078588510995,-0.356137349863,0.154875294949,-0.11251358114,0.00492645064446,0.00369664787204,-1.14668077693
1385574078598710137,-0.356177123169,0.154830942907,-0.112537520033,0.00511044044747,0.00308393216025,-1.14624767035
1385574078608555030,-0.356277146997,0.154819846668,-0.112399092606,0.00467087284168,0.00368159627452,-1.14667726658
1385574078618471434,-0.356176194071,0.154863927596,-0.112527661913,0.00488959950568,0.00366373636308,-1.14659814802
1385574078628535419,-0.356179100158,0.154854571537,-0.112462086667,0.004931048124,0.00415132946728,-1.14669437856
1385574078638587873,-0.356198713368,0.154844360049,-0.112518959235,0.0051646953357,0.00431019667637,-1.14659674803
1385574078648524362,-0.356232006766,0.154884273565,-0.112512190903,0.00579832059869,0.00309209563313,-1.14692966814
1385574078658508963,-0.356221041872,0.154822294716,-0.112528657729,0.00492012919362,0.00359343350561,-1.14666233181
1385574078668502533,-0.356155818113,0.154839031335,-0.11254362307,0.00499545476185,0.00322857598856,-1.14643244586
1385574078678518030,-0.356145292976,0.154835395665,-0.112438838256,0.00477522058813,0.00419940907658,-1.14643613224
1385574078688474149,-0.356231642779,0.154891892923,-0.112481736475,0.00541676819817,0.00261590472954,-1.14667907356
1385574078698635262,-0.356177061997,0.154838161465,-0.112552847847,0.00500175495972,0.00314548794938,-1.14646337448
1385574078708460637,-0.356139037238,0.154849342887,-0.112489041203,0.00495276429995,0.00372231647897,-1.14675993541
1385574078718497955,-0.35621612312,0.154933403296,-0.112546934546,0.00510590661,0.0029442086481,-1.14702390222
1385574078728644147,-0.356179923974,0.154833947338,-0.112482333595,0.00503650883376,0.00453672015347,-1.14676941556
1385574078738521454,-0.356125751407,0.154869924534,-0.112518149315,0.00477983048949,0.00361635602155,-1.14649265856
1385574078748486678,-0.356111906282,0.154831751481,-0.112488519652,0.00477581725269,0.00373238588637,-1.14648910795
1385574078758504910,-0.356320474545,0.154856032514,-0.112314357928,0.00492765771315,0.00351123119574,-1.1463627778
1385574078768505592,-0.356127951385,0.154866250473,-0.112500589428,0.0049876268798,0.00368267058701,-1.14659579639
1385574078778501307,-0.356192753944,0.154857692692,-0.112519557449,0.00510383233101,0.00422625476822,-1.14667525767
1385574078788532545,-0.356110511872,0.15487027178,-0.112534732519,0.00467187074463,0.00369636410016,-1.14677958071
1385574078798714283,-0.356193555333,0.15484526926,-0.112455596488,0.00492368585349,0.00382935993197,-1.14665441366
1385574078808650705,-0.35617440183,0.154926438929,-0.11255734445,0.00513417964401,0.00357751493582,-1.14679419105
1385574078818607246,-0.356130648747,0.154877968654,-0.11256034327,0.00499806857576,0.003641852956,-1.14658952441
1385574078828685464,-0.35621269743,0.15485635538,-0.112548076165,0.00500266803664,0.00336891334474,-1.14717485108
1385574078839067193,-0.356169321123,0.154852581667,-0.112519193963,0.00475161440877,0.00343336316952,-1.14674776311
1385574078850512131,-0.356146514177,0.154857838669,-0.112611209199,0.00535358887035,0.00424373728357,-1.14621607154
1385574078858622715,-0.356145277113,0.154835758023,-0.112500160316,0.0053000468616,0.00377380568397,-1.14626808518
1385574078868650534,-0.356217998189,0.154824807161,-0.112494648797,0.00446310720981,0.00309017631664,-1.14695360956
1385574078880131471,-0.35616096681,0.154843475454,-0.112524081382,0.00494338856878,0.00324003033096,-1.14654402861
1385574078888539791,-0.356203664688,0.154923510708,-0.112587482573,0.00544532330524,0.00323437922923,-1.14643270346
1385574078898690013,-0.356212352487,0.154836118606,-0.112552936398,0.00503851418056,0.00318766522695,-1.14673384182
1385574078908573178,-0.356251482937,0.154814500244,-0.112528585025,0.00582438384208,0.00291788770984,-1.14681029734
1385574078918462203,-0.356285888588,0.154890183501,-0.112483646095,0.00605393326868,0.00284444656165,-1.14629513208
1385574078928693058,-0.356193846104,0.154871381101,-0.112565435857,0.00534033007529,0.00391013774092,-1.14664285369
1385574078938583753,-0.356220237525,0.154864868844,-0.112487633609,0.00463004692388,0.00351454716534,-1.14644792146
1385574078948507035,-0.356180149913,0.154895891174,-0.112497899985,0.00507295763039,0.00358299340003,-1.14657192677
1385574078958456449,-0.356242497238,0.154892983058,-0.112479954194,0.0053620242801,0.00283948599396,-1.146564188
1385574078968604518,-0.356351319311,0.154901937926,-0.112486786083,0.00543992698008,0.00357361074667,-1.14656986141
1385574078978562341,-0.356211885348,0.154879207933,-0.112555318873,0.00541937428427,0.00369404432598,-1.14671362382
1385574078988482762,-0.356299272397,0.154827125871,-0.112526477236,0.0059632150281,0.003432706597,-1.14696625828
1385574078999158233,-0.356231125253,0.154908326882,-0.112537393965,0.00526511712451,0.00331435627679,-1.14649512332
1385574079008732406,-0.356199500706,0.154843380121,-0.112449499167,0.00423379345701,0.00341654163637,-1.14662207164
1385574079018564862,-0.356267560833,0.154880434882,-0.112457152595,0.00384365138071,0.00372260955817,-1.14682644042
1385574079030580770,-0.356295427379,0.154946140834,-0.112502810975,0.00510096646825,0.00324946104674,-1.14613609232
1385574079038451942,-0.356251760155,0.154885322842,-0.112532944612,0.00513686103766,0.00300909616291,-1.1473277184
1385574079048586716,-0.356282474409,0.154851615443,-0.112561952785,0.00557556007829,0.00301666129595,-1.14678102385
1385574079058457453,-0.356271444019,0.154847352299,-0.1125101826,0.00622777192356,0.0031057964257,-1.14634805859
1385574079068802221,-0.356237371603,0.154865431924,-0.112487605656,0.00526227294155,0.00397796117289,-1.14704170349
1385574079078634216,-0.356253077354,0.154849544539,-0.112473064299,0.00422103355286,0.00341852910677,-1.1465551748
1385574079088582438,-0.356268396717,0.154869435866,-0.112448496672,0.00360760126735,0.00355383346621,-1.14639573394
1385574079098697127,-0.356308281999,0.154832862379,-0.11242181988,0.00407792495686,0.00440422172129,-1.14736103027
1385574079108482816,-0.356318065535,0.154876923859,-0.112555540018,0.00512258355502,0.00308369344719,-1.1466152783
1385574079118534191,-0.356257592453,0.154844934467,-0.112558311391,0.00550882455757,0.00314689154696,-1.14631598551
1385574079130174630,-0.356316433493,0.154820590198,-0.112508146736,0.00583764031977,0.00337959985857,-1.14710967089
1385574079138532292,-0.356279136098,0.154880712748,-0.112561081748,0.00532558461848,0.00308162784019,-1.1464758637
1385574079148750622,-0.356232034526,0.154852824722,-0.112440666597,0.00445267469273,0.0033181334148,-1.1467545821
1385574079158762706,-0.356191844897,0.154888031399,-0.11246072475,0.00493049861419,0.0034257013192,-1.14718114535
1385574079168661976,-0.356191173816,0.15490691229,-0.11250690892,0.00497100276047,0.00374896814755,-1.14645711017
1385574079178500501,-0.356220237424,0.154895207383,-0.112514927957,0.00442512071322,0.0033108358866,-1.14703243434
1385574079188785211,-0.356279863438,0.154844715756,-0.11242798624,0.00461039157452,0.00403644052024,-1.14659980631
1385574079198869240,-0.356231531615,0.154892106872,-0.112558385012,0.00568945989733,0.00309583555311,-1.14622126255
1385574079208776374,-0.356225806817,0.154899538811,-0.112487217765,0.00487490636684,0.00327299864746,-1.14724087031
1385574079218609623,-0.356314486538,0.154911987529,-0.112481717123,0.00491917795773,0.00405292538004,-1.14699854197
1385574079228745055,-0.356211053666,0.154915984541,-0.112550927343,0.00490387319493,0.00431674151878,-1.14619182581
1385574079238645857,-0.356331262266,0.154866532539,-0.112410095735,0.0050526383769,0.00288070043483,-1.1470192151
1385574079248679221,-0.356318132486,0.154877601801,-0.112421944772,0.00455933083699,0.00398686141698,-1.14652414022
1385574079258496518,-0.356230188753,0.154979669336,-0.112513931395,0.00463578410654,0.00421350944273,-1.14680408266
1385574079268510554,-0.356276264357,0.154845831647,-0.112446436738,0.00483561709871,0.00333841306271,-1.14749736984
1385574079278796170,-0.35630805172,0.154892395373,-0.11244890348,0.00489917409973,0.00395354682568,-1.14640612112
1385574079288572937,-0.356272177014,0.154892580268,-0.112428156257,0.00458095083128,0.00407962404103,-1.14687173776
1385574079298795485,-0.356311082966,0.154810862853,-0.112443851288,0.00418755897935,0.0035090584449,-1.14695697857
1385574079308536498,-0.356401887434,0.154874500476,-0.112422034601,0.00416709510785,0.00242116996622,-1.14619358651
1385574079318884604,-0.356241828243,0.154892322151,-0.112486109331,0.00402669460728,0.00394154766452,-1.14714032154
1385574079328574930,-0.356323302907,0.154897847879,-0.11248108703,0.00419774155857,0.00373437321743,-1.14731518889
1385574079338608651,-0.356243081177,0.154907431249,-0.112519787276,0.00519717645321,0.00371014076343,-1.14637984843
1385574079348603774,-0.356277797909,0.154881850925,-0.112475403504,0.00518930198458,0.00274736400979,-1.14729695362
1385574079358586526,-0.35631382745,0.154881272127,-0.112554068865,0.00506675409475,0.00391104282617,-1.14709455858
1385574079368533064,-0.356257624812,0.154990971273,-0.112547226982,0.0049422796779,0.00380805588933,-1.14698036527
1385574079378563869,-0.356401825344,0.154887357838,-0.112382616436,0.00464880943529,0.00299995283717,-1.14737350242
1385574079388495025,-0.356348484357,0.154895636147,-0.112472656547,0.00418181718525,0.00321052388155,-1.14693216873
1385574079398826414,-0.35633173674,0.154888438012,-0.112448496246,0.00405595539789,0.0039971776173,-1.14694604919
1385574079408566358,-0.356322852977,0.154815708131,-0.112432659998,0.00468690845312,0.00358949580376,-1.14749731218
1385574079418578180,-0.356412314168,0.154875706073,-0.112461326288,0.00521194483233,0.00343648524228,-1.14722091457
1385574079428559371,-0.356386374177,0.154891435243,-0.112541598463,0.00462283864483,0.00339635230278,-1.1492061912
1385574079438718147,-0.356307643846,0.154980536453,-0.112529803445,0.0051692966911,0.00317312190792,-1.14956052571
1385574079448590533,-0.356472726167,0.154867382454,-0.112292741807,0.00495282348429,0.00322014759144,-1.14914933642
1385574079458538354,-0.356443170954,0.154877629938,-0.112329194769,0.00423640534782,0.00333024441941,-1.15004915286
1385574079468545213,-0.356433397418,0.154847764549,-0.112542016351,0.00435734971125,0.00281706660637,-1.14898465707
1385574079478543444,-0.356384805577,0.155027878426,-0.112685254359,0.00556097732958,0.00299403207386,-1.15032116649
1385574079488442572,-0.356425541074,0.155008047791,-0.11252991961,0.00608527960332,0.00313011915908,-1.15080486638
1385574079498744753,-0.356594905876,0.15497333646,-0.112461387315,0.00575175023861,0.00380423572197,-1.15059266672
1385574079508553226,-0.35663609149,0.155027423504,-0.112486512569,0.00580460467702,0.00280899248631,-1.15133104343
1385574079518658937,-0.356749198016,0.154959526226,-0.112548770268,0.00552993920091,0.00296715918172,-1.15045299103
1385574079530581325,-0.356730506101,0.155039968844,-0.112641611366,0.00518522415378,0.00257992116478,-1.15164086904
1385574079539809448,-0.356689389271,0.155009641522,-0.112553654011,0.00508787960918,0.00347463296327,-1.15107137187
1385574079548626961,-0.356772916459,0.155036571574,-0.112574855186,0.00566358488744,0.00294573407194,-1.15174892229
1385574079558533174,-0.35689186019,0.155140523485,-0.112647109699,0.00566848055144,0.00361655955151,-1.15216273837
1385574079568684129,-0.356813892578,0.155129085926,-0.112674430315,0.00554533488684,0.00274574943706,-1.1521719166
1385574079578805381,-0.356781844437,0.155114054375,-0.112574335159,0.00564763216438,0.00290820606276,-1.15262454633
1385574079588514445,-0.356904037831,0.155145157372,-0.112615291022,0.00662637280961,0.00217693057175,-1.15251838316
1385574079598683147,-0.356920504619,0.155269977688,-0.112784529112,0.00681330805752,0.00317654194323,-1.15285851515
1385574079608539008,-0.356989162481,0.1552081119,-0.112681621651,0.00588054440472,0.00240427224082,-1.15280093188
1385574079618476828,-0.357094222598,0.155232640269,-0.112556830807,0.00546938491353,0.00237834852231,-1.15345280571
1385574079628556561,-0.35715943869,0.155218135048,-0.112624700881,0.00528483156096,0.0030489645596,-1.15314671641
1385574079638942518,-0.357164923484,0.155312358054,-0.112617474332,0.00582730497795,0.0014263518295,-1.15420540287
1385574079648861648,-0.357146625381,0.155300573439,-0.112759450936,0.00651449311323,0.00297617017791,-1.15386645878
1385574079658529823,-0.357126591866,0.155224247462,-0.112617294545,0.00722779862459,0.00186970240939,-1.15357688689
1385574079668625662,-0.35717857884,0.155328374912,-0.112585498798,0.00747567924626,0.00167121760441,-1.15431028177
1385574079678530848,-0.357257139032,0.155311479247,-0.112625191286,0.00595452613733,0.00189742161291,-1.15367905111
1385574079688512280,-0.357324116672,0.155353988382,-0.112653119565,0.00516666238062,0.00178747006906,-1.15552939335
1385574079698807357,-0.357379488409,0.155292829101,-0.112627526728,0.0057280118391,0.00150384357701,-1.15440587109
1385574079708606552,-0.357394673434,0.155308362722,-0.112552610924,0.00667410626108,0.00156345122265,-1.15484793047
1385574079718684530,-0.35735885797,0.155350327598,-0.11261067402,0.00691998832791,0.00172372175448,-1.15468401771
1385574079728735282,-0.357396929072,0.155303408457,-0.112634524565,0.0069347570013,0.00240933636867,-1.15470836007
1385574079738623609,-0.357385566694,0.155314538393,-0.112680727039,0.00684598754012,0.00218023996086,-1.15551459834
1385574079749251875,-0.357403414629,0.155324332462,-0.112588526168,0.00658581987139,0.00207757538921,-1.15533955744
1385574079758449949,-0.357556792508,0.155312650997,-0.112566401161,0.0067797101117,0.00148161527926,-1.155646361
1385574079768451909,-0.357582736225,0.155384660912,-0.112518003615,0.00598310921912,0.0016666899866,-1.15596813222
1385574079779205691,-0.357598039039,0.155257328456,-0.112555920018,0.00515825006781,0.0026285864113,-1.15492174234
1385574079788448089,-0.357598678955,0.15526827486,-0.112702487182,0.00612787682316,0.00174718841096,-1.1549277865
1385574079798615133,-0.357564043382,0.155237706714,-0.112621322367,0.00737925393275,0.00161057996258,-1.15582605488
1385574079808419004,-0.357608763085,0.155275368867,-0.112534912849,0.00807345134765,0.00128737440076,-1.15436323677
1385574079818622821,-0.357529881879,0.15529218251,-0.112667303222,0.00695583089268,0.00191572784421,-1.15616725923
1385574079828520566,-0.357723286167,0.155263953714,-0.112592026157,0.00671867732069,0.00188314994465,-1.15465737487
1385574079838575615,-0.357711764038,0.15526524135,-0.112640429577,0.00580647367241,0.0012219997975,-1.15567166016
1385574079848714489,-0.357753521832,0.155219338112,-0.112533802518,0.00588903580824,0.00194689532077,-1.15568003665
1385574079858471271,-0.357807364754,0.155253541554,-0.112511372076,0.00628201309419,0.00213655134048,-1.15556706664
1385574079868631644,-0.35779169311,0.155290253447,-0.112606581881,0.00639544873804,0.00214781307452,-1.15571195319
1385574079878658616,-0.357837782145,0.155269637485,-0.112759234866,0.00635194538741,0.00223147638797,-1.15531495188
1385574079888756661,-0.357981268191,0.155293306721,-0.112674535738,0.00705364976412,0.0023547569429,-1.15621377474
1385574079898686442,-0.358082161404,0.155291665114,-0.112460617974,0.00601805215362,0.00190057362371,-1.1558580366
1385574079908657250,-0.358085647267,0.155222698086,-0.112481010121,0.00551257064781,0.00211794330104,-1.15641054074
1385574079918631462,-0.358224524355,0.155261887145,-0.112588451627,0.00595470169224,0.00134937291276,-1.15649921219
1385574079928557395,-0.358203523086,0.155225699126,-0.112623316701,0.00636381549379,0.00252742218029,-1.15654052206
1385574079938479861,-0.358252665169,0.155286180247,-0.112552264047,0.00700970306621,0.00207780703545,-1.15718608342
1385574079948667505,-0.358247401053,0.155123688982,-0.112550312324,0.00709714836655,0.00181338138833,-1.15688781149
1385574079958447998,-0.358305321575,0.155161436762,-0.11262708064,0.00640657595032,0.00142694558385,-1.15760088419
1385574079968557268,-0.358344422781,0.155086100084,-0.112652928815,0.00602027871699,0.00219292002667,-1.1573299854
1385574079978716341,-0.358369561549,0.155098532891,-0.112658477457,0.00569711900096,0.00195876861867,-1.15753863848
1385574079988516152,-0.358428260642,0.155149936528,-0.11253228136,0.00600748372116,0.00206650416591,-1.15789617244
1385574079998593418,-0.358437881199,0.155071761404,-0.112548292415,0.00573352475681,0.00281098441661,-1.15782294119
1385574080008467690,-0.3585408144,0.155092940791,-0.112523680303,0.00610330986462,0.00273112216562,-1.15827443477
1385574080018581487,-0.35856853684,0.155003535226,-0.112542875331,0.00619831827363,0.00213607915953,-1.15724056712
1385574080030516658,-0.358708969781,0.155121034826,-0.112547035196,0.00690282024202,0.00237209670873,-1.15729179671
1385574080038498778,-0.358644487566,0.15499205772,-0.112702463424,0.00600419106593,0.00261246706453,-1.15731652845
1385574080048633555,-0.358740521977,0.154929953096,-0.112811859451,0.00634394947837,0.00330579885052,-1.15763263243
1385574080058449821,-0.358717575762,0.154887035186,-0.11263038396,0.00631602507494,0.00164706219083,-1.15776039428
1385574080068415749,-0.358804926956,0.154918175714,-0.112448271255,0.00641608389795,0.00205375101432,-1.15744876379
1385574080078650479,-0.358846012179,0.154983980711,-0.112695573914,0.00670632413844,0.00209774231481,-1.15784933874
1385574080088564264,-0.358917243375,0.154887317562,-0.112772944984,0.00592994940924,0.00311476446105,-1.15713108571
1385574080098505395,-0.35888193824,0.15495679722,-0.112645756726,0.00572791754727,0.0023381110588,-1.1571463244
1385574080108592878,-0.358756403241,0.154826068841,-0.112512364735,0.00589274019598,0.00226192384802,-1.15701147075
1385574080118814045,-0.358778465004,0.154894126121,-0.112726386213,0.00706338359964,0.000958873868716,-1.15719506812
1385574080128550069,-0.358746948713,0.154793488375,-0.112712602796,0.00803227512063,0.00196763878536,-1.15717286626
1385574080139053776,-0.358881253103,0.15484745273,-0.112607030323,0.00804979360539,0.00312625589578,-1.15762913859
1385574080148455857,-0.358905612672,0.154821166216,-0.112791386928,0.00792424418033,0.0037228313466,-1.15799014421
1385574080158499222,-0.358982997655,0.15465016644,-0.112810083128,0.00680773827687,0.0013767765452,-1.15829751917
1385574080168562299,-0.359059231217,0.154768740542,-0.112715561794,0.00738378771618,0.00109706031893,-1.15808399287
1385574080178416997,-0.359135111085,0.154617853302,-0.112366793241,0.00690815231007,0.00206197536905,-1.15798152595
1385574080188473192,-0.359311106177,0.154636643307,-0.112534429754,0.00711014972457,0.00424830434908,-1.15808125772
1385574080198660722,-0.359263794848,0.154418865243,-0.113037083811,0.00765252473947,0.00345904886293,-1.15915045122
1385574080208467966,-0.359401661352,0.15441546847,-0.112861768448,0.00819203213709,0.000272108203525,-1.15844935409
1385574080218433478,-0.359266267333,0.154282875569,-0.112565696894,0.00961431076587,0.000700818219993,-1.158714554
1385574080228690554,-0.359512531758,0.154334933397,-0.112368565904,0.00897965025367,0.00392671581144,-1.1584882175
1385574080238517031,-0.359548291741,0.154189119061,-0.112855297776,0.00802846811961,0.0046343126823,-1.15968043275
1385574080248414601,-0.359631588611,0.154194162718,-0.11320715416,0.00673675073894,0.00234741304845,-1.15984164356
1385574080258459479,-0.359857084736,0.154126283052,-0.112862177028,0.00597640550905,0.00261487771355,-1.16016038083
1385574080268484716,-0.359959495295,0.154023043318,-0.112506739692,0.00702413280967,0.00206233276214,-1.16016166049
1385574080278571695,-0.360137837879,0.153914928977,-0.112662921754,0.00839044788024,0.0018934044775,-1.1603056073
1385574080288494972,-0.360121036923,0.153989428842,-0.112990546248,0.00916209638642,0.00312873531621,-1.16041664783
1385574080298926623,-0.360283622885,0.153846120209,-0.112773820203,0.00943041476609,0.00283097635739,-1.1598952292
1385574080308498752,-0.360480260133,0.153899192765,-0.112776520215,0.0106260366432,0.00174332343053,-1.15884124661
1385574080318437993,-0.360637406715,0.153676577934,-0.112733861541,0.00926802881557,0.00294383134716,-1.15939596812
1385574080328465280,-0.360856028031,0.153662135269,-0.112637907297,0.00825376657896,0.00281882934889,-1.15858090473
1385574080338420125,-0.360865350551,0.153548270243,-0.11246363101,0.0079052494084,0.00266465861451,-1.15870534024
1385574080348416324,-0.361022859654,0.15363322834,-0.112501025388,0.00874669835251,0.00229700896727,-1.15752893403
1385574080358540220,-0.361028349051,0.153452241859,-0.112946234918,0.00849226683241,0.00423488371186,-1.15882820042
1385574080368617859,-0.361160730162,0.153452287179,-0.112932292786,0.00907604200214,0.00237103174321,-1.15774180276
1385574080378580591,-0.361298521993,0.153217957016,-0.112718808049,0.00998598326873,0.00224378765376,-1.15802345659
1385574080388473626,-0.361424162709,0.153193874441,-0.112736797761,0.010035262261,0.00195505480299,-1.1571240626
1385574080398501775,-0.361747795666,0.153017023837,-0.112914100572,0.00943061605799,0.00212317388222,-1.15683854076
1385574080408561243,-0.361895624904,0.152941388683,-0.112905037166,0.00800754521191,0.00192723208884,-1.15604817131
1385574080418559925,-0.362103452838,0.152742176805,-0.112718165981,0.00707159509271,0.00164581588261,-1.15532992925
1385574080428513577,-0.362235391608,0.152562205175,-0.112724296681,0.00784676892214,0.00206551850835,-1.15421296101
1385574080439293780,-0.362432734697,0.152372224313,-0.112661995842,0.00786740185054,0.00192066304637,-1.15420910811
1385574080448535200,-0.362631268403,0.152194499578,-0.112822753686,0.00943897118665,0.00199988507165,-1.15343367851
1385574080458510275,-0.362934900684,0.151990791148,-0.112764556819,0.00929636415841,0.00291214798718,-1.15337112719
1385574080468465003,-0.363168995714,0.151795459839,-0.112788764024,0.00921541346612,0.00299109858521,-1.15251234745
1385574080478556991,-0.363432667863,0.151610346456,-0.112785364077,0.00913893341182,0.00314042185435,-1.15221862583
1385574080488528289,-0.363706009933,0.151432958571,-0.112830875669,0.00885806772636,0.0047001362366,-1.1514787832
1385574080498687788,-0.364017804429,0.151154682537,-0.11305367194,0.00930416596941,0.00182372666944,-1.15122972337
1385574080508554662,-0.364277625862,0.150897322932,-0.113153280412,0.00973166921569,0.0018579211227,-1.15015355815
1385574080518597531,-0.364615520482,0.150646993064,-0.113330939313,0.0108046398322,0.00172375359398,-1.15039088623
1385574080528645186,-0.364933293892,0.150391611394,-0.113570837725,0.0115766355008,0.00160738540053,-1.14997869534
1385574080538561463,-0.365210697555,0.150091178058,-0.113909184037,0.0135024833169,0.000900479108658,-1.1494327968
1385574080548597033,-0.365437622296,0.149914597664,-0.114175667625,0.0166811773064,0.000834350772075,-1.14949365673
1385574080558532858,-0.365765060105,0.149640932278,-0.114645079527,0.0183252145203,0.00138923064508,-1.14877006229
1385574080568523775,-0.366239983001,0.149362887544,-0.114980391046,0.0186691527573,0.00175366388018,-1.14851906474
1385574080578527998,-0.366636551258,0.149112342716,-0.115613988494,0.0196799479713,0.00243193897215,-1.14796902076
1385574080588511866,-0.367153435473,0.14886993833,-0.116058583881,0.020371271294,0.00212372377268,-1.14714404512
1385574080598705009,-0.367471864446,0.148587119422,-0.116899210835,0.0219507978811,0.00204801303776,-1.14672397947
1385574080608499129,-0.36791490074,0.148251545032,-0.117646002005,0.0228736988353,0.00293032065391,-1.14660462846
1385574080618485402,-0.368276451809,0.147957681484,-0.118416073834,0.0238086999811,0.00160533273713,-1.14489292337
1385574080628532625,-0.368653355835,0.147741211139,-0.119151626972,0.0227364079262,0.00280182196643,-1.14472072282
1385574080638512578,-0.369123959599,0.147315288734,-0.120173996705,0.0224566548626,0.00202669316231,-1.1430704315
1385574080648473586,-0.369619913451,0.146992697129,-0.121274195138,0.0225184594321,0.00198833130132,-1.14159582762
1385574080658487383,-0.370088052068,0.146701484469,-0.122441381203,0.0225799455925,0.00327439974225,-1.14026266076
1385574080668592852,-0.370509886392,0.146334366832,-0.123709283126,0.0217032949471,0.00387363449816,-1.13841437371
1385574080678511783,-0.370996793062,0.145975459811,-0.124943429209,0.020347304892,0.00413572730445,-1.13690127258
1385574080688512885,-0.371474087767,0.14552550411,-0.126376047645,0.0208062276137,0.00413513305484,-1.13594963473
1385574080698649854,-0.371869763943,0.145372859421,-0.128020988504,0.0205584876394,0.00515740577401,-1.13485082889
1385574080708506861,-0.372312964798,0.145034384864,-0.129749385443,0.0211675803629,0.00508124261334,-1.13318087387
1385574080718581530,-0.372810901021,0.144635876651,-0.13163075092,0.0216531361517,0.0058178660066,-1.13238781527
1385574080728726660,-0.3732253226,0.144388089611,-0.133434016613,0.0223662091314,0.00653970050596,-1.13048517104
1385574080738595963,-0.373638072794,0.144110513051,-0.135313608106,0.0235636262576,0.00645056920202,-1.12924896605
1385574080748583907,-0.373885460176,0.143852215535,-0.137511771959,0.0245582935698,0.0066857451804,-1.12743490168
1385574080758544510,-0.374222511353,0.14336008683,-0.139883283541,0.0238703176449,0.00546759169794,-1.12633305883
1385574080768479840,-0.374603897376,0.143139374458,-0.142166915631,0.0236419386551,0.00655717074039,-1.12469989595
1385574080778497894,-0.374981913951,0.14273128773,-0.144539961054,0.0241357115393,0.00640914433187,-1.12386505045
1385574080788620468,-0.375321210714,0.14242409976,-0.146986616389,0.0228499865927,0.00570813038178,-1.12214445246
1385574080798689514,-0.375619236749,0.142045154007,-0.149705787712,0.021396004111,0.00647338398832,-1.12114471493
1385574080808515726,-0.376029493777,0.141738174341,-0.152306441137,0.0198599754663,0.0062078492458,-1.12063677011
1385574080818529552,-0.376304916723,0.141448769017,-0.15475198615,0.0175613882959,0.00679609840093,-1.11928156818
1385574080828456922,-0.376551333814,0.141117068828,-0.157550814142,0.016271640224,0.00719048394641,-1.11920698569
1385574080838444120,-0.376880305691,0.140905237369,-0.160538862599,0.0162584516407,0.00799627958704,-1.11877628067
1385574080848526450,-0.377059613164,0.1405502153,-0.163483829515,0.0167156713382,0.0082273267384,-1.11849733707
1385574080858485214,-0.377199853735,0.140298030168,-0.166545820352,0.0182378080016,0.00736269129986,-1.11749194409
1385574080868481556,-0.377544357133,0.140103625459,-0.169481300618,0.0204987425419,0.00693667038524,-1.1169773788
1385574080878574370,-0.377673740374,0.139772571538,-0.172498649485,0.0211534762634,0.00705115358888,-1.11609038909
1385574080888486428,-0.377738814279,0.13955725097,-0.175919115951,0.0227379904079,0.0052879029746,-1.11632444254
1385574080898542298,-0.37795833847,0.139368328561,-0.179226380694,0.0244095343127,0.003967238977,-1.11677769404
1385574080908469717,-0.377879259641,0.139206307746,-0.182543942026,0.0252913446025,0.0034484572352,-1.11710588849
1385574080918531292,-0.378162877908,0.138978364579,-0.185720867488,0.0253046766726,0.00363260427521,-1.11754392084
1385574080928786341,-0.378235994382,0.138713724672,-0.189363310099,0.0261474550634,0.00117189235358,-1.11760417911
1385574080938462380,-0.378421949561,0.138625746181,-0.193046436301,0.0272558826872,0.000361088462134,-1.11771712628
1385574080948602138,-0.378307285823,0.138433114225,-0.196663125513,0.0288394216644,-1.47442124032e-05,-1.1178891013
1385574080958455761,-0.378587743027,0.138249719813,-0.200325837822,0.0294737012318,-0.00181607889303,-1.11922239377
1385574080968473516,-0.378696464173,0.138046228166,-0.204142921012,0.0297096554447,-0.00365981872496,-1.12044667632
1385574080978753105,-0.378644546127,0.137888542785,-0.207948524182,0.029383308535,-0.00510211243122,-1.12108800785
1385574080988546898,-0.378827405241,0.137608234287,-0.211731794847,0.0307525601054,-0.00511653549898,-1.12235968027
1385574080998534491,-0.378854432521,0.137535819983,-0.215636859491,0.0319755941035,-0.00849262343056,-1.12271833691
1385574081008482540,-0.37865174444,0.137268113704,-0.21961844171,0.0335705107068,-0.00966095149235,-1.12379771352
1385574081018513440,-0.378699477503,0.137058934473,-0.223717253432,0.0360104092652,-0.0113287480027,-1.12475540484
1385574081028555843,-0.37861069633,0.136844162316,-0.227777430582,0.0371737234893,-0.0133870488124,-1.12576366104
1385574081038513634,-0.378575426011,0.136532821182,-0.231909422549,0.0393166858579,-0.0143827603588,-1.12731384209
1385574081048424045,-0.378414526158,0.136419957602,-0.236032523287,0.0413867490625,-0.0163676361151,-1.12802604167
1385574081058514567,-0.378260122537,0.136283005557,-0.240190987077,0.04343104281,-0.0163679865148,-1.12911264583
1385574081068426363,-0.378246889956,0.135901216255,-0.244660532002,0.0454723790898,-0.0180525142643,-1.13048958192
1385574081078453059,-0.377858572321,0.135936355967,-0.248972580771,0.0468178538857,-0.0182728390486,-1.13131057466
1385574081088448300,-0.377713224411,0.135722995269,-0.253246753479,0.0483127445025,-0.0199515728103,-1.13250383058
1385574081098551675,-0.377522879609,0.135457506817,-0.257584336632,0.0484254641064,-0.0195920736383,-1.13436513391
1385574081108494309,-0.377264178272,0.13522465969,-0.262101940185,0.0486616874602,-0.0198189883073,-1.13533109025
1385574081118501002,-0.377081069189,0.135022520089,-0.266560777801,0.0486394145192,-0.0201963919368,-1.13693969315
1385574081128572863,-0.376829346823,0.134892331259,-0.271032929039,0.0481349190241,-0.0202076807288,-1.13791079217
1385574081138494235,-0.376273224425,0.134566387831,-0.275661545835,0.0479764955317,-0.0191173889787,-1.13923155117
1385574081148547449,-0.376048271964,0.134348719362,-0.280132523575,0.047773035415,-0.018368657352,-1.14070864396
1385574081158562673,-0.375390167541,0.134129442167,-0.284887926411,0.0482277364232,-0.0183111725584,-1.14150199222
1385574081168518300,-0.375047043484,0.13397711422,-0.289371521825,0.0488119063269,-0.01875348504,-1.14263946242
1385574081178570145,-0.374433481958,0.133726626098,-0.294029506216,0.0493264453931,-0.0180420756216,-1.14412942228
1385574081188496449,-0.373798493864,0.133586904319,-0.298741114246,0.0504779282119,-0.0169764356004,-1.14515842506
1385574081198484960,-0.373196243584,0.13333641059,-0.30351219037,0.0517128665182,-0.0167381957439,-1.14655688449
1385574081208500476,-0.372581636111,0.133125373832,-0.308303439267,0.0521550559627,-0.015802309123,-1.14787386142
1385574081218485666,-0.371772374749,0.132738746658,-0.313002893623,0.0522415578741,-0.0160898008583,-1.14944867263
1385574081228518027,-0.371166640819,0.132639982222,-0.317912487538,0.0520488591634,-0.0152047327571,-1.15101370092
1385574081238466844,-0.3702010162,0.132377605223,-0.323030846504,0.0521778748389,-0.0155001240443,-1.15226846828
1385574081248456854,-0.369576149412,0.132102290433,-0.327960897358,0.0516537705762,-0.0159221238288,-1.15307506705
1385574081258452667,-0.368733586091,0.131736548072,-0.333058235821,0.0506103879977,-0.0167758022615,-1.15421117147
1385574081268416930,-0.36778541911,0.131417035975,-0.337967175524,0.0488257702291,-0.0164290760603,-1.15516731213
1385574081278453009,-0.366967116813,0.131137696232,-0.343108777056,0.0485211190273,-0.0177136636946,-1.15684406694
1385574081288451447,-0.365899495505,0.130805331788,-0.348435619758,0.0477674923322,-0.017739416746,-1.15834800714
1385574081298578829,-0.364848312754,0.130457103845,-0.353545304936,0.0472628190743,-0.0183423090873,-1.16001996398
1385574081308516550,-0.363808932662,0.130143788006,-0.358817069289,0.0472992823998,-0.0183142663161,-1.16146450714
1385574081318520453,-0.362672685935,0.129799373554,-0.364226861436,0.0470651856464,-0.0198858595111,-1.16318517585
1385574081328734468,-0.361620054817,0.129413042911,-0.369446593564,0.0471205353512,-0.021158347762,-1.16414779379
1385574081338530863,-0.360402588232,0.129057862082,-0.374936733151,0.0461263668337,-0.0200531365311,-1.165914692
1385574081348490962,-0.359180407914,0.128690210287,-0.38026101095,0.0459400418085,-0.01957861339,-1.16700249694
1385574081358447916,-0.357981911143,0.128247713488,-0.385871950687,0.0459863102534,-0.02093442221,-1.16843468225
1385574081368459482,-0.356764131648,0.127877648125,-0.391523106039,0.0459263914816,-0.0213935731625,-1.16998146627
1385574081378495761,-0.355290500602,0.127498458156,-0.397218532735,0.0454832421369,-0.0211854144997,-1.17163035924
1385574081388499455,-0.354096504819,0.126890682043,-0.403162026304,0.0444659514472,-0.0222585986185,-1.17323981226
1385574081398576229,-0.352632530077,0.126471718767,-0.408959435878,0.0440328509065,-0.0225504908628,-1.17481908759
1385574081408503878,-0.351347170463,0.126047205988,-0.414593905303,0.0441054150535,-0.0238601129695,-1.17607244882
1385574081418512212,-0.349866581017,0.12558468267,-0.420177616787,0.0438626501073,-0.0238593710858,-1.17752186088
1385574081428757073,-0.348346266787,0.125006440946,-0.425565908302,0.0434152796738,-0.0236168014368,-1.17898283289
1385574081438509082,-0.34693687779,0.124422069598,-0.430805751614,0.0426905766038,-0.0237847996808,-1.18022354589
1385574081448466843,-0.345417904696,0.123874366245,-0.436048253514,0.0417171492357,-0.0243990579356,-1.18148675071
1385574081458442739,-0.343932727294,0.123355736385,-0.441016375548,0.0411707561402,-0.0235632925154,-1.18322635542
1385574081468489171,-0.342401111455,0.122791798661,-0.445758533442,0.0403063547123,-0.0240404373259,-1.18408209105
1385574081478527230,-0.340904076461,0.122007652832,-0.450601415104,0.0396461922806,-0.0246517980966,-1.18602980755
1385574081488423208,-0.339238887886,0.121445695097,-0.455183445862,0.0377239217644,-0.0234718503182,-1.18714765512
1385574081498564847,-0.33778882297,0.120711854433,-0.459685488591,0.0370004439008,-0.0248554350205,-1.18867445647
1385574081508440619,-0.336222286061,0.1201353445,-0.463912835225,0.0357145470473,-0.0243293354011,-1.19046781656
1385574081518537950,-0.334439853709,0.11950358927,-0.467991008904,0.0346538453666,-0.0247980351243,-1.19119717239
1385574081528470078,-0.33302885621,0.118680160843,-0.472152817374,0.0336528539126,-0.0248442395652,-1.19270321696
1385574081538412366,-0.331295610998,0.117848578081,-0.476056009826,0.0314756065387,-0.0235496461767,-1.19423777315
1385574081548476328,-0.329626037045,0.117220128372,-0.479453760755,0.0303427989855,-0.0241146763692,-1.19566546173
1385574081558477441,-0.32790261372,0.116489446936,-0.482994063033,0.0291639222942,-0.0231020282554,-1.1968566751
1385574081568444474,-0.32627915788,0.11565257586,-0.486484671019,0.0285892493358,-0.0230303443615,-1.19826456824
1385574081578549026,-0.324657288133,0.114846101814,-0.489764809591,0.028158978331,-0.0228877961326,-1.19965160757
1385574081588458795,-0.32286871287,0.114025977866,-0.492770678692,0.027241236485,-0.0222925944166,-1.20126435965
1385574081598637841,-0.321166596083,0.113163797445,-0.495644637599,0.0266514007277,-0.0217734434437,-1.20277363044
1385574081608456312,-0.319404506655,0.112405842703,-0.498460682769,0.0266020116002,-0.0204144902588,-1.20401378554
1385574081618477760,-0.317673077449,0.111516821205,-0.500971224532,0.0260519731685,-0.0192633700423,-1.20582441432
1385574081629086855,-0.316023931731,0.110690020851,-0.503375101092,0.0256181859483,-0.0199083928228,-1.20674158004
1385574081638533133,-0.31423506136,0.109711794161,-0.505758399019,0.0256674732516,-0.0195548208571,-1.20843526716
1385574081648555160,-0.312486747827,0.108850795883,-0.507961277576,0.025411805988,-0.0175314720681,-1.20992286418
1385574081658509350,-0.310602978684,0.10794371808,-0.50991155953,0.0245420392804,-0.017855505753,-1.21147793711
1385574081668481291,-0.308849853962,0.106940395071,-0.511731210246,0.0246385855195,-0.016263517966,-1.21261188591
1385574081678522079,-0.307065622496,0.105978250894,-0.51340626049,0.0239032046696,-0.0157259188294,-1.21413239877
1385574081688482828,-0.305256602807,0.104958582063,-0.514874804511,0.0242608074491,-0.0155354372102,-1.21566786119
1385574081698565283,-0.303499333618,0.104097154461,-0.516441113263,0.0238727219645,-0.0140269872191,-1.21715550138
1385574081708521605,-0.301769598056,0.102980977588,-0.517678987976,0.0232854435059,-0.0133281228349,-1.21853133
1385574081718432051,-0.300064654235,0.102009750907,-0.518751174039,0.0234125351903,-0.0133988656681,-1.21968976843
1385574081728501776,-0.297942731166,0.101021357219,-0.519836442082,0.0223947820549,-0.0115341838258,-1.22143893759
1385574081738490169,-0.296217016043,0.0999236707651,-0.52077879956,0.0218989692981,-0.0109163775095,-1.22261603028
1385574081748489012,-0.294344139058,0.0989239107816,-0.521497898365,0.0215935399685,-0.010161449128,-1.22419899363
1385574081758457226,-0.292520991574,0.0978333209629,-0.522034855064,0.0212545122334,-0.00962309079437,-1.2255117867
1385574081768451126,-0.290608804472,0.0968339243849,-0.522674283444,0.0213668170621,-0.00820706914371,-1.22735517623
1385574081778514021,-0.288848251714,0.0957711887581,-0.523060590472,0.0212725604398,-0.00720982900826,-1.22867265385
1385574081788499570,-0.286871846383,0.0946267460729,-0.523285754557,0.0209766355354,-0.00656151654827,-1.22985452748
1385574081798587562,-0.285104142834,0.0935003139321,-0.523371882166,0.0211523873968,-0.00597729411239,-1.2311748342
1385574081808487002,-0.283169870996,0.092430160559,-0.523529452965,0.0212589094602,-0.00466946466739,-1.23265542639
1385574081818458699,-0.281180752083,0.0914256385399,-0.523572926696,0.020321164146,-0.00291280583427,-1.23443926397
1385574081828557881,-0.27949862574,0.0902528510008,-0.523337489361,0.0207626840826,-0.00287899510369,-1.23552089071
1385574081838476313,-0.277590373064,0.0891015882425,-0.523188250437,0.0211410065552,-0.00180050245567,-1.23686067065
1385574081848463850,-0.275633963076,0.0880530646226,-0.522985745154,0.0211039520067,-0.00130627997898,-1.2386337314
1385574081858527084,-0.273652737586,0.0869229059498,-0.522564336947,0.0205843282159,-0.000688004903736,-1.23984627617
1385574081868420713,-0.271782328669,0.0857599925146,-0.522123460263,0.0207083421249,-0.000496901668527,-1.2412045383
1385574081878521426,-0.270030293299,0.0846633028274,-0.521474437081,0.0210825328621,0.000182943980709,-1.24257178074
1385574081888466649,-0.267934520225,0.0835649911886,-0.521028471689,0.0204531195275,0.00119032587045,-1.24411235603
1385574081898561776,-0.266220080932,0.0823787115,-0.520333679736,0.0209051191531,0.00233367049702,-1.24531531441
1385574081908515850,-0.264141090404,0.0813485013038,-0.51968646376,0.0212559867849,0.00277571523269,-1.24695581225
1385574081918792557,-0.262196336474,0.0802390006404,-0.518723601689,0.0209468487421,0.00298722702666,-1.24837848384
1385574081928689035,-0.260331577726,0.0790381485041,-0.517933069864,0.0209166009801,0.00331560207128,-1.24970306124
1385574081938469211,-0.258351254661,0.0779645385526,-0.517013938097,0.0205907434199,0.00399177400686,-1.25109907309
1385574081948629803,-0.256604379218,0.0768484506004,-0.515986190939,0.0208848039099,0.00421567080902,-1.25213904873
1385574081958569025,-0.254564697477,0.0756931292986,-0.515001291707,0.0207557880384,0.00561526560928,-1.25359784473
1385574081968478280,-0.252737309936,0.0746700232263,-0.514053624044,0.0212692226697,0.00580644409438,-1.25527902942
1385574081978496275,-0.250664414465,0.0734662530267,-0.512962891017,0.0207112679631,0.00664479455941,-1.25697542665
1385574081988462244,-0.2486008623,0.0724916712555,-0.511740461925,0.0208680387529,0.00661890123855,-1.25828748459
1385574081998603510,-0.246730373316,0.0712912253565,-0.51063760375,0.0207568761288,0.00804425482111,-1.25970832369
1385574082008700244,-0.244885139317,0.0702469354713,-0.509342978546,0.0208326284,0.00772041523592,-1.26060214288
1385574082018524240,-0.242956736357,0.0691657914806,-0.508180032816,0.0206668669699,0.00949825316447,-1.26178168221
1385574082028471571,-0.240921381144,0.0680770768055,-0.506921146223,0.02089911139,0.00946882283413,-1.26344761235
1385574082038537648,-0.23887919406,0.0671188415453,-0.505624971749,0.0208062530595,0.0106809260301,-1.26492413338
1385574082048470552,-0.236981851927,0.0659640198372,-0.504178155339,0.0209930002016,0.0109542814878,-1.26626058964
1385574082058477276,-0.235003837285,0.0649467222384,-0.502874233295,0.0212009580351,0.0117233529839,-1.26771559686
1385574082068496686,-0.233064691448,0.063887728916,-0.501514876067,0.0210823609012,0.0134294317049,-1.2694116508
1385574082078472103,-0.231219234803,0.0629118096357,-0.5000359479,0.0220952513725,0.0132223824069,-1.27080503177
1385574082088429733,-0.229087371795,0.0619624940196,-0.498700692741,0.0216863072951,0.0145552234034,-1.27177921667
1385574082099164655,-0.227129513598,0.0608096887807,-0.497193435736,0.0216001724148,0.0146199882081,-1.27334679872
1385574082108487384,-0.225115938976,0.0598600191836,-0.495794001698,0.0219464643102,0.0153905236344,-1.27471490307
1385574082118485182,-0.223230390199,0.0588324425457,-0.494331785147,0.0214079957261,0.0160588654338,-1.27606259205
1385574082128583513,-0.221251788667,0.0578513131817,-0.492843441353,0.0215630684808,0.0165599062934,-1.27763095877
1385574082138473089,-0.219272710266,0.0569609591148,-0.491203293189,0.0193797818549,0.0163967857487,-1.27871704767
1385574082148488689,-0.217440654004,0.0559175944175,-0.489767329452,0.0190872344446,0.0165994458023,-1.28005602595
1385574082158547639,-0.215492493692,0.0548868624871,-0.488148252999,0.0165721733639,0.0165960761082,-1.28144808416
1385574082168448488,-0.213525050851,0.0539485646138,-0.486599137631,0.0159001780624,0.0171506563286,-1.28268824877
1385574082178449889,-0.211643344971,0.0530051308816,-0.484981463161,0.0148037936679,0.0170660862647,-1.28366735084
1385574082188461153,-0.209761875359,0.0519885423261,-0.483544385017,0.0138516028708,0.0171877874228,-1.28471442271
1385574082198570446,-0.207984897419,0.0511478013096,-0.48192891023,0.0129099421355,0.0172821644462,-1.28598068851
1385574082208511273,-0.205897194414,0.050210697463,-0.480386016738,0.0118737846137,0.0169150493345,-1.28745874267
1385574082218567565,-0.203920470688,0.0494159682797,-0.47891912327,0.0120265361521,0.0176866683985,-1.28898458654
1385574082228599786,-0.202159884834,0.04836912466,-0.477316648337,0.0111521517677,0.0161795934515,-1.29012663623
1385574082238588063,-0.20014606461,0.047558431685,-0.475958042566,0.0106898869735,0.0171938908047,-1.2912747591
1385574082248527899,-0.198370458593,0.0466568213437,-0.474237052797,0.00987677961154,0.0162316794397,-1.29221861801
1385574082258458584,-0.196423569298,0.0458668277074,-0.472781855124,0.0100179937764,0.0159497650045,-1.29309975628
1385574082268512119,-0.194422826457,0.0449581974044,-0.471233734877,0.00953020357826,0.0151159720635,-1.29450909407
1385574082278504996,-0.192786484373,0.0441513215977,-0.469788930451,0.00990049796016,0.0159519133412,-1.29573426087
1385574082288490097,-0.190665390011,0.0433460368996,-0.468307437342,0.00978860768348,0.0147804017216,-1.29674292596
1385574082298551626,-0.188998154871,0.0424083636767,-0.466774108665,0.0098869555896,0.0144000029934,-1.29782898691
1385574082308461406,-0.186996648555,0.041861837038,-0.465337034511,0.00996480248014,0.0144472570337,-1.29934358955
1385574082318638302,-0.185132386937,0.040878241886,-0.463861202008,0.00973445476852,0.0134792708763,-1.3003364978
1385574082328586431,-0.183523310288,0.0400415595381,-0.462428734699,0.00995456617297,0.0136759720762,-1.30138091642
1385574082338585151,-0.181421802678,0.0393997605304,-0.461018581861,0.0100274520431,0.0142075993998,-1.30264329869
1385574082348485566,-0.179823298861,0.0384771543863,-0.459548586787,0.00968192275456,0.0138683227043,-1.30344232142
1385574082358560307,-0.177857270019,0.0377997241095,-0.458384931912,0.0100350104825,0.0151686582201,-1.30491332257
1385574082368452035,-0.176111705526,0.0369568472227,-0.456898020085,0.0100611867731,0.0137376177962,-1.30624607277
1385574082378532913,-0.174522226022,0.0362667138644,-0.455509299791,0.00983874495083,0.0142285782915,-1.30668786245
1385574082388472664,-0.172437244435,0.0355827571663,-0.454192280469,0.0098234521069,0.013767239476,-1.30822302772
1385574082398662767,-0.17089663032,0.0348918967932,-0.453000596423,0.00909115036903,0.0167122166797,-1.30913584165
1385574082408554194,-0.169183225711,0.0340019348773,-0.451564941692,0.00832770037799,0.0137569185881,-1.31040673463
1385574082418555586,-0.167318558172,0.0334651438448,-0.450205349306,0.00854433373651,0.0141880059997,-1.3113025622
1385574082429418996,-0.165752069039,0.0326847160809,-0.449023427582,0.00787552279275,0.015412693903,-1.31244685023
1385574082438561402,-0.163873321013,0.0321045640883,-0.447664885674,0.00779898206775,0.0142028444301,-1.3136558859
1385574082448446823,-0.162182550963,0.0313320310798,-0.44654307327,0.00730682414942,0.0144389028065,-1.3148206331
1385574082458512106,-0.160460364905,0.0305952530496,-0.445476551639,0.00686606775367,0.0147633391121,-1.31595771547
1385574082468511628,-0.158694221515,0.0300779701122,-0.444120654039,0.00744118897994,0.0147731938606,-1.31679311056
1385574082478524915,-0.156936003731,0.029453993571,-0.443185842422,0.0080344089192,0.0164702278887,-1.31808233736
1385574082488542635,-0.155265219512,0.0287686401572,-0.442120043737,0.00810541073847,0.0167836958236,-1.3190301804
1385574082498634082,-0.153589877782,0.0281276858742,-0.440859533869,0.0081801374725,0.0168518688305,-1.31950052173
1385574082508506917,-0.151972779994,0.0275805583316,-0.440097875613,0.00803049294465,0.017757287442,-1.32118136642
1385574082518584007,-0.150282481741,0.0270547823808,-0.438985514099,0.00814775736642,0.0172277456199,-1.322202076
1385574082528747506,-0.148495507035,0.0263692340488,-0.438083361284,0.00782672385677,0.0175148452172,-1.32329226232
1385574082538523292,-0.1469746316,0.0257362706463,-0.437239862636,0.00767988259222,0.0181991556996,-1.32454769599
1385574082548485181,-0.145334567177,0.0252513593609,-0.436178044334,0.00755174593187,0.0182987837871,-1.32513021078
1385574082558464355,-0.143631167751,0.0247347123218,-0.435523370018,0.00679874652683,0.0191375514944,-1.32646158428
1385574082568536283,-0.142012491088,0.0241875914678,-0.434617702793,0.00747407212081,0.0178602539258,-1.3274583022
1385574082578443530,-0.140330157481,0.0235919361707,-0.433979192233,0.00737754070923,0.0185554488094,-1.32854848518
1385574082588492350,-0.138796800639,0.023103346273,-0.433346855532,0.00764682203625,0.0193623127582,-1.33006702687
1385574082598590399,-0.137233546666,0.0225135168106,-0.432577121215,0.00696998092212,0.0187697058962,-1.33113491146
1385574082608505110,-0.135588575851,0.0220080014099,-0.432147998407,0.00681059176946,0.0189583228447,-1.33153758603
1385574082618588724,-0.134156907047,0.0215517701978,-0.431375943109,0.0064018400878,0.0182176082126,-1.33253582144
1385574082628586149,-0.132511695441,0.0210616961169,-0.430848617545,0.00521823266377,0.0200125421137,-1.33376772511
1385574082638548142,-0.131146088474,0.0206246359868,-0.430455970575,0.00564978438142,0.0197817583278,-1.33499126637
1385574082648476720,-0.129554052781,0.020062198321,-0.429979346402,0.00474843268637,0.0208472162241,-1.3360320705
1385574082658461592,-0.128007606434,0.0196879228375,-0.429607467748,0.00415279779004,0.0220072186694,-1.33706342169
1385574082668515544,-0.1265866063,0.0192472188894,-0.429272008136,0.00433169365946,0.0214687407251,-1.3381225846
1385574082678678839,-0.124953112779,0.0188275914707,-0.428879573784,0.00415757294119,0.0217721782743,-1.33900526789
1385574082688444731,-0.123471039878,0.0183964290696,-0.428585831025,0.0043692083635,0.0221651277196,-1.3402998193
1385574082698537303,-0.121885419993,0.0179376106144,-0.428460762729,0.0052138687127,0.0226842451801,-1.34077376118
1385574082708565866,-0.120336389183,0.0176564948425,-0.428220276126,0.0051036360484,0.0239508105617,-1.34184884494
1385574082718590517,-0.118983885198,0.0173545018495,-0.427951523961,0.00565256576757,0.024610773373,-1.34237971205
1385574082728665914,-0.117498843299,0.0168937949318,-0.427817545263,0.00586483685347,0.0247649356186,-1.34384029222
1385574082738618052,-0.115935157796,0.0166096485274,-0.427601376681,0.0065522162405,0.0257621437398,-1.34484752234
1385574082748487070,-0.114396309575,0.0162984175714,-0.427590810356,0.00770955868897,0.0258591090832,-1.34540564996
1385574082758507542,-0.112919800983,0.0159842357039,-0.427466318696,0.00767945513887,0.0264034964279,-1.34657378922
1385574082768452693,-0.111559924167,0.0157127922342,-0.427280412332,0.00799421524055,0.0258882782009,-1.34724465423
1385574082778490525,-0.110124060574,0.0153626155915,-0.427063407544,0.00705357752351,0.0262167443816,-1.34830768337
1385574082788497840,-0.108731754324,0.0150937561381,-0.426993415175,0.00682144394334,0.0259438719169,-1.34925343571
1385574082798744065,-0.107315486409,0.0148596169796,-0.427033654022,0.00701296257048,0.0257589115025,-1.34960888025
1385574082808549090,-0.105931457411,0.0145763625266,-0.426911171347,0.00630709504481,0.0249681619983,-1.35064086209
1385574082818683789,-0.104446160548,0.014384461344,-0.426923828109,0.00611592809655,0.0249061517215,-1.35133655511
1385574082828550332,-0.102994970312,0.0141111217741,-0.426767282668,0.00475288361276,0.0245515946183,-1.35196927922
1385574082838516617,-0.101664860636,0.013872337456,-0.426793279413,0.00469323380258,0.0241482882462,-1.35311562579
1385574082848501325,-0.100284282684,0.0136700536728,-0.4267898582,0.00328939372425,0.0244579539205,-1.35409947235
1385574082858525580,-0.0991116322383,0.0135671226104,-0.426738154035,0.00277970046652,0.0233153005101,-1.35468149211
1385574082868519494,-0.097610687264,0.0133983232275,-0.426661859033,0.00181876606325,0.0231259447808,-1.35522241752
1385574082878469716,-0.0962117802662,0.0132646266766,-0.426799607915,0.00169532201043,0.0230902704317,-1.35616299224
1385574082888474857,-0.0948719694252,0.0131058763998,-0.426922806333,0.00230258434035,0.0229917402731,-1.35661773521
