%time,field.header.seq,field.header.stamp,field.header.frame_id,field.child_frame_id,field.transform.translation.x,field.transform.translation.y,field.transform.translation.z,field.transform.rotation.x,field.transform.rotation.y,field.transform.rotation.z,field.transform.rotation.w
1385574074282123949,1116475,1385574074282123949,/world,vicon/Archie/Archie,-0.356017061764,-0.154847450684,0.112513564956,0.00311184885651,-0.000317262896078,0.54214127746,0.840281530807
1385574074291919619,1116476,1385574074291919619,/world,vicon/Archie/Archie,-0.35601894495,-0.15485518361,0.112506215219,0.00309141955024,-0.000301684349307,0.542150430762,0.840275706263
1385574074301872754,1116477,1385574074301872754,/world,vicon/Archie/Archie,-0.356022849123,-0.154850938844,0.112501562948,0.00308042078374,-0.000276453552274,0.542152923213,0.840274147188
1385574074311902167,1116478,1385574074311902167,/world,vicon/Archie/Archie,-0.356092985487,-0.154808832875,0.112424437441,0.00285648134183,-0.000362916586634,0.542173687632,0.840261507654
1385574074321783580,1116479,1385574074321783580,/world,vicon/Archie/Archie,-0.356016241962,-0.15485058361,0.112502877713,0.00305838705881,-0.00029548379998,0.542156228822,0.840272088378
1385574074332007948,1116480,1385574074332007948,/world,vicon/Archie/Archie,-0.356013946092,-0.154845778613,0.112498046592,0.00306280466879,-0.000287348036804,0.542160256015,0.840269476689
1385574074341926856,1116481,1385574074341926856,/world,vicon/Archie/Archie,-0.356013994243,-0.154838412469,0.112504069788,0.00307215858471,-0.000279856624664,0.542153386279,0.840273877536
1385574074351873428,1116482,1385574074351873428,/world,vicon/Archie/Archie,-0.35609227163,-0.15480891377,0.112428536471,0.00285170053276,-0.000345531903583,0.542171385859,0.840263016422
1385574074361834015,1116483,1385574074361834015,/world,vicon/Archie/Archie,-0.356012700304,-0.154843912387,0.112501490654,0.00307554025794,-0.000279408429087,0.542159315493,0.840270039694
1385574074371841287,1116484,1385574074371841287,/world,vicon/Archie/Archie,-0.356084094875,-0.154804527645,0.112421462693,0.00282892601488,-0.000328999735531,0.542162546084,0.840268803753
1385574074381962016,1116485,1385574074381962016,/world,vicon/Archie/Archie,-0.356080213104,-0.154807908549,0.112421596665,0.00284763614445,-0.00033472714919,0.54217851466,0.840258434749
1385574074391926090,1116486,1385574074391926090,/world,vicon/Archie/Archie,-0.356089821214,-0.1548089712,0.112424574289,0.00285083925985,-0.000360393748972,0.542176942289,0.840259427844
1385574074401788903,1116487,1385574074401788903,/world,vicon/Archie/Archie,-0.356023122025,-0.154843804627,0.112504316145,0.00307595772954,-0.00029120931743,0.542151443686,0.840275113156
1385574074411888873,1116488,1385574074411888873,/world,vicon/Archie/Archie,-0.356021154152,-0.154841816709,0.112499576478,0.00305944262805,-0.000278579888403,0.542156080159,0.84027218623
1385574074421852534,1116489,1385574074421852534,/world,vicon/Archie/Archie,-0.3560223226,-0.154854886703,0.112494035018,0.00307531006065,-0.000274466833592,0.54215878016,0.840270387573
1385574074432329565,1116490,1385574074432329565,/world,vicon/Archie/Archie,-0.356091254149,-0.154808648211,0.112420402706,0.00284720000907,-0.000323344342789,0.542167514996,0.840265538139
1385574074441976413,1116491,1385574074441976413,/world,vicon/Archie/Archie,-0.356086491863,-0.154810312831,0.112415544591,0.00285207182566,-0.000331606033379,0.542166377529,0.840266252327
1385574074451808920,1116492,1385574074451808920,/world,vicon/Archie/Archie,-0.356095741816,-0.154805770551,0.112418289794,0.00285999377019,-0.000341286930386,0.542173299528,0.840261755192
1385574074461943626,1116493,1385574074461943626,/world,vicon/Archie/Archie,-0.356013271115,-0.154842024993,0.112503721353,0.00309601487969,-0.000302284339968,0.542150724279,0.84027549975
1385574074471873651,1116494,1385574074471873651,/world,vicon/Archie/Archie,-0.356020423332,-0.154833500091,0.112491742413,0.003071572792,-0.000229298679503,0.542143750262,0.840280112174
1385574074482045495,1116495,1385574074482045495,/world,vicon/Archie/Archie,-0.356088877644,-0.15479877318,0.112413025503,0.00283293113039,-0.000335860475186,0.542151060412,0.840276198278
1385574074491960272,1116496,1385574074491960272,/world,vicon/Archie/Archie,-0.356080832281,-0.154807923856,0.11242089912,0.0028615502874,-0.000361957350363,0.5421665877,0.840266071967
1385574074501899240,1116497,1385574074501899240,/world,vicon/Archie/Archie,-0.356113483236,-0.154828346355,0.112457886065,0.00300157794826,-0.000548191160366,0.542220838313,0.840230475831
1385574074511960008,1116498,1385574074511960008,/world,vicon/Archie/Archie,-0.356093198902,-0.15480267881,0.112417128044,0.0028421439689,-0.000335927650682,0.542161116248,0.840269678972
1385574074521948906,1116499,1385574074521948906,/world,vicon/Archie/Archie,-0.356087099464,-0.154800627764,0.112416128863,0.0028485618292,-0.00031861780216,0.542161781567,0.840269234702
1385574074531930258,1116500,1385574074531930258,/world,vicon/Archie/Archie,-0.356013138493,-0.154838476594,0.112498844083,0.00307988534953,-0.000283038631293,0.542155625094,0.840272403673
1385574074542039962,1116501,1385574074542039962,/world,vicon/Archie/Archie,-0.356090730948,-0.15479772269,0.112421864617,0.0028535387663,-0.000364361197475,0.542166971957,0.840265850238
1385574074551955466,1116502,1385574074551955466,/world,vicon/Archie/Archie,-0.3560150619,-0.15483424958,0.112492807693,0.00306742228636,-0.000271861814318,0.542153980065,0.840273514346
1385574074561992910,1116503,1385574074561992910,/world,vicon/Archie/Archie,-0.3560914595,-0.154797883536,0.112412377876,0.00283615583171,-0.000329805677593,0.542160855168,0.840269870084
1385574074571754942,1116504,1385574074571754942,/world,vicon/Archie/Archie,-0.356078870313,-0.154803741238,0.112416479064,0.00284129283721,-0.000310570218923,0.542166640809,0.840266127007
1385574074581908138,1116505,1385574074581908138,/world,vicon/Archie/Archie,-0.356092023096,-0.154806979018,0.112409272366,0.00283723435743,-0.000321665836077,0.542161386871,0.840269526532
1385574074592004188,1116506,1385574074592004188,/world,vicon/Archie/Archie,-0.356008708223,-0.154843516256,0.112497281321,0.00309869124301,-0.000325897801548,0.54214310177,0.840280399097
1385574074601834679,1116507,1385574074601834679,/world,vicon/Archie/Archie,-0.356085855725,-0.154806357741,0.112412607895,0.00283825840957,-0.000329723609185,0.542167934145,0.840265295461
1385574074611884713,1116508,1385574074611884713,/world,vicon/Archie/Archie,-0.356117516653,-0.154764199588,0.112453532615,0.00276210750164,-0.000109030610387,0.54213558563,0.840286478332
1385574074621830149,1116509,1385574074621830149,/world,vicon/Archie/Archie,-0.356021735147,-0.154842827381,0.112489147348,0.00307715890775,-0.000291283392127,0.542159187307,0.840270112444
1385574074632039654,1116510,1385574074632039654,/world,vicon/Archie/Archie,-0.356116081528,-0.15477542005,0.112455052703,0.0027585957322,-0.000117533156263,0.542116835395,0.840298585692
1385574074642122600,1116511,1385574074642122600,/world,vicon/Archie/Archie,-0.356019119045,-0.154837814544,0.112493411399,0.00306394499873,-0.000269505780856,0.542149382303,0.840276494302
1385574074651882105,1116512,1385574074651882105,/world,vicon/Archie/Archie,-0.356013857,-0.154841016198,0.11249008948,0.00306371776241,-0.000277981624473,0.542169236492,0.840263682044
1385574074661991984,1116513,1385574074661991984,/world,vicon/Archie/Archie,-0.356088026326,-0.154805320734,0.112408485255,0.00284242237799,-0.000330909334446,0.542167550177,0.840265528669
1385574074671703861,1116514,1385574074671703861,/world,vicon/Archie/Archie,-0.356089873999,-0.154807545751,0.112413329208,0.00283298517731,-0.000329958652348,0.542176514728,0.840259776616
1385574074682260416,1116515,1385574074682260416,/world,vicon/Archie/Archie,-0.356088071864,-0.154805330101,0.112411820361,0.00284119273704,-0.000321582405349,0.542166043088,0.840266508871
1385574074692046146,1116516,1385574074692046146,/world,vicon/Archie/Archie,-0.356018144854,-0.154843137082,0.112489837562,0.00306711672195,-0.000263983787992,0.542152346442,0.840274572003
1385574074701851055,1116517,1385574074701851055,/world,vicon/Archie/Archie,-0.356122401399,-0.154782436988,0.112454506209,0.00275962459406,-0.000136931668836,0.542128241916,0.840291220375
1385574074711894248,1116518,1385574074711894248,/world,vicon/Archie/Archie,-0.356086266927,-0.154817913545,0.112411772796,0.00285072236304,-0.000331408257349,0.542163844374,0.840267891452
1385574074721920090,1116519,1385574074721920090,/world,vicon/Archie/Archie,-0.356021556407,-0.154853374307,0.112487974501,0.00307152160434,-0.000279442641617,0.542158778681,0.840270400744
1385574074731934554,1116520,1385574074731934554,/world,vicon/Archie/Archie,-0.356116351171,-0.154782695931,0.112448711064,0.00275718199845,-0.000119555714638,0.542123564882,0.840294248495
1385574074741968639,1116521,1385574074741968639,/world,vicon/Archie/Archie,-0.356111807171,-0.154782991925,0.112456135409,0.0027619106847,-0.000106001464076,0.542130409015,0.84028981919
1385574074751904896,1116522,1385574074751904896,/world,vicon/Archie/Archie,-0.356018948798,-0.154849628222,0.112487782274,0.00307286339058,-0.000282721427642,0.542156497245,0.840271866763
1385574074761924176,1116523,1385574074761924176,/world,vicon/Archie/Archie,-0.356105160683,-0.154773601645,0.112495838573,0.00288396580309,-0.000294739787202,0.542133529083,0.840287351156
1385574074771838624,1116524,1385574074771838624,/world,vicon/Archie/Archie,-0.356117319012,-0.15478205871,0.11245001905,0.00277865303244,-0.000107391078717,0.542134582577,0.840287071142
1385574074781946500,1116525,1385574074781946500,/world,vicon/Archie/Archie,-0.356101276609,-0.154787864394,0.112449898351,0.00276895020546,-0.000126800867907,0.542131098435,0.840289348347
1385574074791942932,1116526,1385574074791942932,/world,vicon/Archie/Archie,-0.356038672692,-0.154829518111,0.112521766361,0.00299440492874,-6.18454043861e-05,0.542118617848,0.840296634467
1385574074801827092,1116527,1385574074801827092,/world,vicon/Archie/Archie,-0.356038977199,-0.154827038347,0.112527693889,0.0029902610135,-7.42203653176e-05,0.542116460724,0.84029803989
1385574074811992640,1116528,1385574074811992640,/world,vicon/Archie/Archie,-0.35601754609,-0.154861034788,0.112497795046,0.00308728728171,-0.000300775386291,0.542149843624,0.840276100606
1385574074821808607,1116529,1385574074821808607,/world,vicon/Archie/Archie,-0.356045903933,-0.154829147575,0.112523102426,0.00298155084626,-7.63749893714e-05,0.542108765128,0.840303035394
1385574074831887282,1116530,1385574074831887282,/world,vicon/Archie/Archie,-0.356012447842,-0.154862619685,0.112486557183,0.00307333223644,-0.000302730774612,0.542140239105,0.840282347861
1385574074841977329,1116531,1385574074841977329,/world,vicon/Archie/Archie,-0.356019312596,-0.154865642441,0.112490885613,0.00308855237505,-0.000311709814038,0.542143618975,0.840280108111
1385574074851861825,1116532,1385574074851861825,/world,vicon/Archie/Archie,-0.356083359189,-0.154831294329,0.112415313812,0.00284428135757,-0.000317241835664,0.542159909713,0.840270457485
1385574074861882266,1116533,1385574074861882266,/world,vicon/Archie/Archie,-0.356088672459,-0.154828878599,0.112408340928,0.00284420601923,-0.000349957317692,0.542145684165,0.840279623199
1385574074871703995,1116534,1385574074871703995,/world,vicon/Archie/Archie,-0.356014251715,-0.154875713664,0.112493746115,0.00307536453579,-0.000305490605726,0.542150962262,0.840275420875
1385574074881978257,1116535,1385574074881978257,/world,vicon/Archie/Archie,-0.356078821172,-0.154834708672,0.112417042669,0.00285602888839,-0.00036505694149,0.542162110182,0.840268978432
1385574074891949067,1116536,1385574074891949067,/world,vicon/Archie/Archie,-0.356107092951,-0.154807328279,0.112451956232,0.0026794708903,-0.000259009308741,0.542154109638,0.840274761463
1385574074901859135,1116537,1385574074901859135,/world,vicon/Archie/Archie,-0.356097997246,-0.154835843547,0.11241918999,0.00287682044206,-0.000362341028125,0.542161148695,0.840269529055
1385574074911877439,1116538,1385574074911877439,/world,vicon/Archie/Archie,-0.356027468467,-0.154866926317,0.112491693931,0.00308242760818,-0.000260224674448,0.542138819331,0.840283244803
1385574074921998337,1116539,1385574074921998337,/world,vicon/Archie/Archie,-0.35609597749,-0.154828712279,0.112424394561,0.00286236917296,-0.000343934739325,0.542147187745,0.840278593903
1385574074931926610,1116540,1385574074931926610,/world,vicon/Archie/Archie,-0.356092473925,-0.154838570936,0.112421748077,0.00287090649848,-0.000351108563575,0.542163471859,0.840268055087
1385574074941952675,1116541,1385574074941952675,/world,vicon/Archie/Archie,-0.356093989211,-0.154837012142,0.112414374331,0.00286748322655,-0.000338455898979,0.542164649933,0.840267311842
1385574074951868026,1116542,1385574074951868026,/world,vicon/Archie/Archie,-0.356021390403,-0.154851012817,0.112543277338,0.00325163505651,-0.000464075810984,0.542144110698,0.840279105261
1385574074961935248,1116543,1385574074961935248,/world,vicon/Archie/Archie,-0.356022296298,-0.154879123314,0.112497849929,0.00309237841114,-0.000261852560295,0.542147896302,0.840277351334
1385574074971780287,1116544,1385574074971780287,/world,vicon/Archie/Archie,-0.356023271471,-0.154865791346,0.112501721962,0.00307630270513,-0.000254637552662,0.542143300484,0.840280377768
1385574074981947501,1116545,1385574074981947501,/world,vicon/Archie/Archie,-0.356088916401,-0.154838403385,0.112416263076,0.00284693569405,-0.000347742147882,0.542156960085,0.84027233958
1385574074992002730,1116546,1385574074992002730,/world,vicon/Archie/Archie,-0.356092549304,-0.154834343642,0.112414350632,0.00284936083828,-0.000330869881005,0.542158162886,0.840271562106
1385574075001811450,1116547,1385574075001811450,/world,vicon/Archie/Archie,-0.356090302746,-0.154823603684,0.112415003102,0.00286273769807,-0.000320416267523,0.542145955825,0.840279396777
1385574075011947367,1116548,1385574075011947367,/world,vicon/Archie/Archie,-0.356089947253,-0.154833761947,0.112414300507,0.0028611106996,-0.000344881589945,0.542158503918,0.840271296506
1385574075021816623,1116549,1385574075021816623,/world,vicon/Archie/Archie,-0.356023995942,-0.154861997099,0.112498925737,0.00307599185996,-0.00026368619539,0.542130124103,0.840288877282
1385574075031985460,1116550,1385574075031985460,/world,vicon/Archie/Archie,-0.356046895159,-0.154830911161,0.112542975455,0.00300189145722,-2.55535577711e-05,0.54209204841,0.840313750361
1385574075041995152,1116551,1385574075041995152,/world,vicon/Archie/Archie,-0.356086643371,-0.154830033734,0.112412834687,0.00285363345717,-0.000318341924278,0.542153899444,0.84027430328
1385574075052016615,1116552,1385574075052016615,/world,vicon/Archie/Archie,-0.356048697602,-0.154823965184,0.112580735229,0.00314239066786,-0.000256627752066,0.542115079187,0.84029834014
1385574075061983159,1116553,1385574075061983159,/world,vicon/Archie/Archie,-0.35612016207,-0.154797654903,0.112451807228,0.00276425578153,-0.000113407777343,0.542114523769,0.840300058995
1385574075071837493,1116554,1385574075071837493,/world,vicon/Archie/Archie,-0.356106241143,-0.154810360304,0.112451957849,0.00277843987591,-0.000128546663971,0.542113304845,0.840300796416
1385574075082009056,1116555,1385574075082009056,/world,vicon/Archie/Archie,-0.356042354134,-0.154834387371,0.112532604712,0.00301735466271,-8.08192659399e-05,0.542108405047,0.840303139478
1385574075092053454,1116556,1385574075092053454,/world,vicon/Archie/Archie,-0.356112525967,-0.154795267455,0.112449760331,0.00278622851078,-0.000132376285628,0.542103108079,0.840307348307
1385574075101852292,1116557,1385574075101852292,/world,vicon/Archie/Archie,-0.35611271415,-0.154797804849,0.11245157894,0.00276363069841,-0.000108617908437,0.542126289674,0.840292470864
1385574075112067619,1116558,1385574075112067619,/world,vicon/Archie/Archie,-0.356091099982,-0.154825721315,0.112415016145,0.00284187594625,-0.000318845073981,0.542150856716,0.840276306129
1385574075121777399,1116559,1385574075121777399,/world,vicon/Archie/Archie,-0.35601873767,-0.154874035286,0.112498500785,0.00307177314647,-0.000277069899345,0.542143625156,0.840280177765
1385574075132024168,1116560,1385574075132024168,/world,vicon/Archie/Archie,-0.356089321155,-0.154825942725,0.112413308146,0.00284409322152,-0.000340253007483,0.542159980956,0.840270403151
1385574075142026777,1116561,1385574075142026777,/world,vicon/Archie/Archie,-0.356093660332,-0.154827826865,0.112415589478,0.00285121152916,-0.000336580764743,0.542156374628,0.840272707373
1385574075151863921,1116562,1385574075151863921,/world,vicon/Archie/Archie,-0.356018922298,-0.154863489808,0.112495610844,0.00308836137497,-0.000288718178503,0.542156472818,0.840271823667
1385574075161971671,1116563,1385574075161971671,/world,vicon/Archie/Archie,-0.35609512962,-0.154821621412,0.112414501969,0.00285705670655,-0.000334386973264,0.542158625985,0.840271235782
1385574075171857775,1116564,1385574075171857775,/world,vicon/Archie/Archie,-0.356022908523,-0.154859605275,0.112500962598,0.00307729138858,-0.000295268440014,0.542150593526,0.840275655385
1385574075182011198,1116565,1385574075182011198,/world,vicon/Archie/Archie,-0.356090379495,-0.154819002322,0.112422449971,0.00285356919381,-0.00034180782435,0.542165115667,0.840267057348
1385574075191989879,1116566,1385574075191989879,/world,vicon/Archie/Archie,-0.356092223114,-0.154824617951,0.112419316773,0.00284121749316,-0.000338813155691,0.542152407763,0.840275299795
1385574075201792527,1116567,1385574075201792527,/world,vicon/Archie/Archie,-0.356092342942,-0.154820152502,0.112420316672,0.00285084325731,-0.000339650541614,0.542158112789,0.840271585898
1385574075212030573,1116568,1385574075212030573,/world,vicon/Archie/Archie,-0.356116624181,-0.154847330857,0.112462815659,0.0030051479723,-0.000534273416396,0.542197846844,0.840245308535
1385574075221830870,1116569,1385574075221830870,/world,vicon/Archie/Archie,-0.356082419876,-0.154820607258,0.112416841637,0.00285609619824,-0.000327842459383,0.542165898663,0.840266549114
1385574075231915160,1116570,1385574075231915160,/world,vicon/Archie/Archie,-0.356097052131,-0.154815871219,0.112417522018,0.00285282937052,-0.000337556231011,0.54214766241,0.840278322679
1385574075241965933,1116571,1385574075241965933,/world,vicon/Archie/Archie,-0.35602147687,-0.154857010056,0.112489236199,0.00306918032675,-0.000277197994516,0.54215019236,0.840275950041
1385574075251912529,1116572,1385574075251912529,/world,vicon/Archie/Archie,-0.356092004459,-0.154817835117,0.112417301681,0.00284777863419,-0.000343174823392,0.542152518475,0.840275204382
1385574075261907598,1116573,1385574075261907598,/world,vicon/Archie/Archie,-0.356017200141,-0.154852673606,0.112493645714,0.00307092056017,-0.000267878947956,0.54216038391,0.840269370979
1385574075271818674,1116574,1385574075271818674,/world,vicon/Archie/Archie,-0.356083281058,-0.154821887997,0.112412471322,0.00284544266101,-0.000312653347425,0.542162692165,0.84026865997
1385574075282100569,1116575,1385574075282100569,/world,vicon/Archie/Archie,-0.356017855927,-0.154854170012,0.112497880951,0.00308437990738,-0.000277293200102,0.542148221809,0.840277165761
1385574075292037106,1116576,1385574075292037106,/world,vicon/Archie/Archie,-0.356083937765,-0.154820021165,0.112417101701,0.00285706277359,-0.000332163927402,0.542177787115,0.840258873216
1385574075301891767,1116577,1385574075301891767,/world,vicon/Archie/Archie,-0.356041413413,-0.154825112155,0.112533789003,0.00300439034035,-6.09223023162e-05,0.542108544562,0.840303097603
1385574075311985946,1116578,1385574075311985946,/world,vicon/Archie/Archie,-0.356048856043,-0.154821025671,0.112537249575,0.00299521679906,-4.74114924783e-05,0.542117259693,0.840297508726
1385574075321834332,1116579,1385574075321834332,/world,vicon/Archie/Archie,-0.356019767085,-0.154855793164,0.112500016116,0.00307448617357,-0.000281780763716,0.542154977135,0.84027284194
1385574075331978656,1116580,1385574075331978656,/world,vicon/Archie/Archie,-0.356013304447,-0.1548517383,0.112493623106,0.00308031773768,-0.000274048940148,0.542160031016,0.840269562289
1385574075342050707,1116581,1385574075342050707,/world,vicon/Archie/Archie,-0.356117050196,-0.154779158696,0.112457112548,0.00276346850473,-0.000133055052285,0.542127372911,0.840291769018
1385574075351837059,1116582,1385574075351837059,/world,vicon/Archie/Archie,-0.356043447327,-0.154823523318,0.112541622584,0.00299925168969,-6.90432899541e-05,0.542112633585,0.840300477347
1385574075361943879,1116583,1385574075361943879,/world,vicon/Archie/Archie,-0.356110028101,-0.154788194137,0.11245637638,0.0027649370824,-0.000102302548692,0.542122955813,0.840294618237
1385574075371791922,1116584,1385574075371791922,/world,vicon/Archie/Archie,-0.356019782488,-0.154837975498,0.112501602163,0.00306549328355,-0.000268951021879,0.542145761887,0.840278824727
1385574075381962968,1116585,1385574075381962968,/world,vicon/Archie/Archie,-0.356074910874,-0.154821485632,0.112422684788,0.00285967084406,-0.000355845953239,0.542165780433,0.84026660185
1385574075391944868,1116586,1385574075391944868,/world,vicon/Archie/Archie,-0.356084189124,-0.15482259842,0.11241901417,0.00284669830234,-0.000342595466675,0.542159007596,0.840271021409
1385574075401747110,1116587,1385574075401747110,/world,vicon/Archie/Archie,-0.356086196811,-0.154816715604,0.112421092984,0.00284193922484,-0.000336308692932,0.542151404949,0.840275945383
1385574075411863521,1116588,1385574075411863521,/world,vicon/Archie/Archie,-0.356085614875,-0.154817108947,0.112418350634,0.00284244460862,-0.000325842045459,0.542163085084,0.840268411585
1385574075421736495,1116589,1385574075421736495,/world,vicon/Archie/Archie,-0.356004633727,-0.154855802735,0.112515699799,0.00309241382853,-0.000314719016363,0.54214277001,0.840280640533
1385574075431906214,1116590,1385574075431906214,/world,vicon/Archie/Archie,-0.356078404397,-0.154819088057,0.112422336146,0.00284194382036,-0.000351121370513,0.542165765945,0.840266673328
1385574075441999171,1116591,1385574075441999171,/world,vicon/Archie/Archie,-0.356037192072,-0.154826491335,0.112548145092,0.00301673023168,-8.14224358891e-05,0.542101273327,0.840307742536
1385574075451869150,1116592,1385574075451869150,/world,vicon/Archie/Archie,-0.356075828145,-0.154824209727,0.112419566104,0.0028407798118,-0.000342566277372,0.542163816994,0.840267938315
1385574075461992065,1116593,1385574075461992065,/world,vicon/Archie/Archie,-0.356078713308,-0.154822619862,0.112427709947,0.00287832874516,-0.000399099175572,0.542157678347,0.840271746373
1385574075471845932,1116594,1385574075471845932,/world,vicon/Archie/Archie,-0.355999150369,-0.154857481051,0.112495953606,0.0030585512513,-0.000261834948621,0.542160886401,0.840269093781
1385574075481922821,1116595,1385574075481922821,/world,vicon/Archie/Archie,-0.356005847986,-0.154856160561,0.112501531494,0.00306761242433,-0.000276075182703,0.542172072797,0.840261838367
1385574075491892149,1116596,1385574075491892149,/world,vicon/Archie/Archie,-0.356005604507,-0.154847405545,0.112496201503,0.00305890128844,-0.000276614722611,0.542145591925,0.840278955921
1385574075501876873,1116597,1385574075501876873,/world,vicon/Archie/Archie,-0.356083374141,-0.154818812121,0.112424542949,0.00284155232682,-0.000334066489902,0.542167515364,0.840265552825
1385574075511929811,1116598,1385574075511929811,/world,vicon/Archie/Archie,-0.356089695679,-0.154817546208,0.112428019002,0.00285598312191,-0.000348604369491,0.542168068619,0.840265141015
1385574075521875809,1116599,1385574075521875809,/world,vicon/Archie/Archie,-0.356097157515,-0.154790749078,0.112462605892,0.00276608759574,-0.000114825522694,0.542111545697,0.840301974052
1385574075531958471,1116600,1385574075531958471,/world,vicon/Archie/Archie,-0.35604813359,-0.154888259985,0.112549643764,0.00324924197369,-0.000491393303545,0.542199598767,0.840243295752
1385574075541939682,1116601,1385574075541939682,/world,vicon/Archie/Archie,-0.356015716803,-0.154842047474,0.112557579458,0.00325219014776,-0.00052400280297,0.542144683792,0.840278698121
1385574075551906181,1116602,1385574075551906181,/world,vicon/Archie/Archie,-0.356076680244,-0.15482418959,0.112425555703,0.00285571784056,-0.000363145292512,0.542159323597,0.840270778284
1385574075561975892,1116603,1385574075561975892,/world,vicon/Archie/Archie,-0.35608554038,-0.154818531851,0.112430300419,0.00284161824663,-0.00034264927742,0.54216660501,0.840266136536
1385574075571849775,1116604,1385574075571849775,/world,vicon/Archie/Archie,-0.356082117132,-0.154813889286,0.112430249115,0.00285478962351,-0.000359188807864,0.542157566624,0.84027191677
1385574075581914786,1116605,1385574075581914786,/world,vicon/Archie/Archie,-0.356006008645,-0.154859386034,0.112503422573,0.00307368709745,-0.000308132069207,0.542162782734,0.840267799288
1385574075592064707,1116606,1385574075592064707,/world,vicon/Archie/Archie,-0.356075745224,-0.154811122305,0.112426912847,0.00282663973084,-0.00032341708212,0.542159620213,0.840270701453
1385574075601854673,1116607,1385574075601854673,/world,vicon/Archie/Archie,-0.356073233139,-0.154822226933,0.112421161638,0.00284389146329,-0.000317539678117,0.542159001202,0.840271044881
1385574075611924425,1116608,1385574075611924425,/world,vicon/Archie/Archie,-0.356071612247,-0.154816783888,0.112423888329,0.00283336360765,-0.000346992664413,0.542157673499,0.840271925458
1385574075621955827,1116609,1385574075621955827,/world,vicon/Archie/Archie,-0.355995425619,-0.154852148365,0.112498479313,0.00306655461299,-0.000278732744452,0.542164109365,0.840266979636
1385574075631987288,1116610,1385574075631987288,/world,vicon/Archie/Archie,-0.356074259226,-0.15481728032,0.112417180697,0.00283529151601,-0.000322674275215,0.542151863711,0.840275677191
1385574075642282162,1116611,1385574075642282162,/world,vicon/Archie/Archie,-0.356011966968,-0.154844929146,0.112506195862,0.00309667668501,-0.000337172872851,0.542138719722,0.840283229326
1385574075651889068,1116612,1385574075651889068,/world,vicon/Archie/Archie,-0.356015830866,-0.154848584571,0.112499263728,0.00308291818897,-0.000307617102176,0.542144425884,0.840279609695
1385574075662612712,1116613,1385574075662612712,/world,vicon/Archie/Archie,-0.356035936583,-0.154806328555,0.112540392599,0.0029858481574,-6.65006982361e-05,0.542119333105,0.840296203111
1385574075672133926,1116614,1385574075672133926,/world,vicon/Archie/Archie,-0.356010379653,-0.154852341645,0.112495402897,0.00306900423491,-0.000267986365156,0.542152643391,0.84027437225
1385574075682026447,1116615,1385574075682026447,/world,vicon/Archie/Archie,-0.356089120881,-0.154808789477,0.112415960284,0.00284693493203,-0.000312287533217,0.542156230385,0.840272824321
1385574075692073496,1116616,1385574075692073496,/world,vicon/Archie/Archie,-0.35608466557,-0.154811093758,0.112415784819,0.00284487298848,-0.00033527795186,0.542168296538,0.840265037066
1385574075701926985,1116617,1385574075701926985,/world,vicon/Archie/Archie,-0.356015057803,-0.154851483368,0.112505664359,0.00311235474054,-0.000323101472493,0.542149089278,0.84027648655
1385574075712439963,1116618,1385574075712439963,/world,vicon/Archie/Archie,-0.356083998507,-0.154813863686,0.112417853873,0.00284850876955,-0.000342260037806,0.542155667806,0.840273170297
1385574075721808850,1116619,1385574075721808850,/world,vicon/Archie/Archie,-0.356126473396,-0.154767295088,0.11246348945,0.00276324643133,-0.000125966448911,0.542124803189,0.840293428731
1385574075732008655,1116620,1385574075732008655,/world,vicon/Archie/Archie,-0.356115016897,-0.15476758346,0.112460994099,0.00276439273519,-0.000130127440149,0.542115174426,0.840299636354
1385574075742106988,1116621,1385574075742106988,/world,vicon/Archie/Archie,-0.356094060787,-0.154804976747,0.1124202942,0.00285021537288,-0.000341264694427,0.542156286857,0.840272765495
1385574075751906657,1116622,1385574075751906657,/world,vicon/Archie/Archie,-0.356081855128,-0.154816308864,0.112414690832,0.00284538546088,-0.000337502272932,0.542170132357,0.840263849903
1385574075761980274,1116623,1385574075761980274,/world,vicon/Archie/Archie,-0.356085904175,-0.154814308276,0.112417306845,0.00284839992443,-0.000345599479933,0.542157890848,0.840271734959
1385574075771795579,1116624,1385574075771795579,/world,vicon/Archie/Archie,-0.356082027701,-0.154803815195,0.11241096127,0.0028444479779,-0.000309362720539,0.542149694324,0.840277050951
1385574075781990274,1116625,1385574075781990274,/world,vicon/Archie/Archie,-0.356088216697,-0.154810797196,0.112420448875,0.00284208416978,-0.000332169985921,0.542167433948,0.84026560431
1385574075791962116,1116626,1385574075791962116,/world,vicon/Archie/Archie,-0.356089726199,-0.154798425743,0.112414327608,0.00283376843867,-0.000296904621013,0.542152699308,0.840275152695
1385574075801845755,1116627,1385574075801845755,/world,vicon/Archie/Archie,-0.356020016785,-0.154840172838,0.112494901609,0.00307116343008,-0.000261831715406,0.542142000152,0.840281233321
1385574075812024216,1116628,1385574075812024216,/world,vicon/Archie/Archie,-0.356089016965,-0.154806961371,0.112415869076,0.00284141983961,-0.000320380771934,0.542156556317,0.840272629646
1385574075821856871,1116629,1385574075821856871,/world,vicon/Archie/Archie,-0.356114806691,-0.154773247556,0.112465731302,0.00279184478483,-0.00013961414211,0.542117962293,0.840297745487
1385574075831982951,1116630,1385574075831982951,/world,vicon/Archie/Archie,-0.356089413161,-0.154800088218,0.112421015596,0.0028349422383,-0.000312661979589,0.542165182264,0.840267088779
1385574075842353667,1116631,1385574075842353667,/world,vicon/Archie/Archie,-0.356086116403,-0.154798869623,0.112413996481,0.00284449493763,-0.000338575175512,0.542155844585,0.840273071327
1385574075851864304,1116632,1385574075851864304,/world,vicon/Archie/Archie,-0.356126499703,-0.154828520819,0.112459267208,0.00300495680695,-0.000533974564405,0.542187039615,0.840252283055
1385574075861969846,1116633,1385574075861969846,/world,vicon/Archie/Archie,-0.356015254777,-0.154841656278,0.112502847152,0.0030845357614,-0.00028698567996,0.542139902784,0.840282529324
1385574075871751065,1116634,1385574075871751065,/world,vicon/Archie/Archie,-0.35609328921,-0.154805662519,0.112414045527,0.00285893377414,-0.000338299765601,0.542159592433,0.84027060426
1385574075881913780,1116635,1385574075881913780,/world,vicon/Archie/Archie,-0.35608717308,-0.154801344489,0.112414146625,0.00283490438856,-0.000310557155615,0.542160202908,0.840270302495
1385574075891938329,1116636,1385574075891938329,/world,vicon/Archie/Archie,-0.356026947426,-0.154837482293,0.112496462532,0.00306422965411,-0.000251461239417,0.542145815905,0.8402787999
1385574075901817992,1116637,1385574075901817992,/world,vicon/Archie/Archie,-0.356020815992,-0.154839026781,0.112497257259,0.0030663294436,-0.000266291245738,0.542147002845,0.840278021859
1385574075912020796,1116638,1385574075912020796,/world,vicon/Archie/Archie,-0.356022305249,-0.154844016677,0.112494251799,0.0030675623774,-0.000264815859848,0.542142874823,0.840280681208
1385574075921861101,1116639,1385574075921861101,/world,vicon/Archie/Archie,-0.356049824937,-0.154803165929,0.112541138517,0.00299466320774,-5.99804583422e-05,0.542109014376,0.840302829298
1385574075932011069,1116640,1385574075932011069,/world,vicon/Archie/Archie,-0.356079357277,-0.154803053975,0.112415443713,0.00285542462317,-0.000324226863665,0.542161366748,0.840269476914
1385574075942028093,1116641,1385574075942028093,/world,vicon/Archie/Archie,-0.356089983176,-0.154804007985,0.112415095608,0.00284489601758,-0.000322708366216,0.542153680996,0.840274472186
1385574075951889682,1116642,1385574075951889682,/world,vicon/Archie/Archie,-0.356083176532,-0.154797052029,0.112413238945,0.00282814701649,-0.000334997371424,0.542163369192,0.840268272915
1385574075961981170,1116643,1385574075961981170,/world,vicon/Archie/Archie,-0.356115354781,-0.15477051432,0.112454360693,0.00275008544944,-0.000101964188116,0.54212006069,0.84029653482
1385574075971806398,1116644,1385574075971806398,/world,vicon/Archie/Archie,-0.356016855477,-0.154835837146,0.112495630803,0.00306098383411,-0.000265212821948,0.542132691481,0.840287275203
1385574075981951945,1116645,1385574075981951945,/world,vicon/Archie/Archie,-0.356089488461,-0.154800320448,0.112414695483,0.00284394588324,-0.000336687890699,0.542160869908,0.840269831514
1385574075991985948,1116646,1385574075991985948,/world,vicon/Archie/Archie,-0.35608898226,-0.154797151249,0.112407244365,0.00282687233074,-0.00032681312454,0.542153838169,0.840274430019
1385574076001845503,1116647,1385574076001845503,/world,vicon/Archie/Archie,-0.356089509321,-0.154801286832,0.112414166534,0.0028341692358,-0.0003419641257,0.542154561066,0.840273932989
1385574076011982649,1116648,1385574076011982649,/world,vicon/Archie/Archie,-0.35601511971,-0.154834795336,0.112490488455,0.00306752411401,-0.000277216013365,0.542149113507,0.840276652163
1385574076021841621,1116649,1385574076021841621,/world,vicon/Archie/Archie,-0.356090574735,-0.154805014318,0.112416216326,0.00283982102052,-0.000330140578665,0.54217008376,0.840263903009
1385574076031854945,1116650,1385574076031854945,/world,vicon/Archie/Archie,-0.35602406933,-0.154832196079,0.112489564759,0.00305789178482,-0.000245277027861,0.542143258831,0.840280474628
1385574076041986917,1116651,1385574076041986917,/world,vicon/Archie/Archie,-0.356085283902,-0.154800018619,0.112410517145,0.00283640648898,-0.000339083345321,0.542160409426,0.840270153148
1385574076051820707,1116652,1385574076051820707,/world,vicon/Archie/Archie,-0.356022686053,-0.154834691729,0.112490100867,0.00306362441822,-0.000269149646124,0.542150260646,0.840275928874
1385574076061994154,1116653,1385574076061994154,/world,vicon/Archie/Archie,-0.356088979593,-0.154794474289,0.112414960332,0.002840239626,-0.000326525450145,0.542157172517,0.840272233689
1385574076071853624,1116654,1385574076071853624,/world,vicon/Archie/Archie,-0.356019869757,-0.154839261499,0.112491176922,0.00306333370696,-0.000277113145359,0.542143570126,0.840280244065
1385574076081984819,1116655,1385574076081984819,/world,vicon/Archie/Archie,-0.356082717092,-0.154802117705,0.112413604271,0.0028212907767,-0.000318965012824,0.54216565965,0.840266824334
1385574076091987137,1116656,1385574076091987137,/world,vicon/Archie/Archie,-0.356088256911,-0.154803747152,0.11240875298,0.00283111249919,-0.000335451384426,0.542156864264,0.840272459864
1385574076101858219,1116657,1385574076101858219,/world,vicon/Archie/Archie,-0.356093792259,-0.154800996701,0.112417430638,0.00282475107935,-0.000325429785001,0.542153759257,0.840274488605
1385574076111935113,1116658,1385574076111935113,/world,vicon/Archie/Archie,-0.356089611122,-0.154800222339,0.112415234269,0.00283580964594,-0.000330073411309,0.542159604784,0.840270677922
1385574076121870247,1116659,1385574076121870247,/world,vicon/Archie/Archie,-0.356012698404,-0.154837742858,0.112498635344,0.0030926113646,-0.000327975607014,0.542145889242,0.840278622223
1385574076131964884,1116660,1385574076131964884,/world,vicon/Archie/Archie,-0.356089984056,-0.154801890594,0.112415300402,0.00284252754414,-0.00036071423947,0.542158626411,0.840271273893
1385574076141972051,1116661,1385574076141972051,/world,vicon/Archie/Archie,-0.356091810746,-0.154802083228,0.112420052326,0.00283169565137,-0.000313859055258,0.542168182418,0.840265163484
1385574076151906876,1116662,1385574076151906876,/world,vicon/Archie/Archie,-0.356012218601,-0.154839432738,0.112493088126,0.00304734767232,-0.00027639395935,0.542149852996,0.840276248727
1385574076161931852,1116663,1385574076161931852,/world,vicon/Archie/Archie,-0.356014597052,-0.15483336577,0.112508172284,0.00307023234012,-0.000324309740158,0.542135897678,0.840285152163
1385574076171824172,1116664,1385574076171824172,/world,vicon/Archie/Archie,-0.356016055885,-0.154837016396,0.112494848252,0.00304531684311,-0.000278355001312,0.542137089808,0.840284490169
1385574076182012081,1116665,1385574076182012081,/world,vicon/Archie/Archie,-0.35607231054,-0.154799625144,0.11241731033,0.00283355432834,-0.000349300906873,0.54217040507,0.840263709097
1385574076192014199,1116666,1385574076192014199,/world,vicon/Archie/Archie,-0.356015330916,-0.154815658154,0.112545104965,0.00298675218958,-6.51075353145e-05,0.542109588848,0.840302486461
1385574076201858358,1116667,1385574076201858358,/world,vicon/Archie/Archie,-0.356005311467,-0.154834775767,0.112495367024,0.00303361910224,-0.000271440125338,0.542145351681,0.840279204268
1385574076211992391,1116668,1385574076211992391,/world,vicon/Archie/Archie,-0.356032970272,-0.154810737528,0.112535667003,0.00295458218414,-4.26005017252e-05,0.542114804672,0.840299236692
1385574076221894214,1116669,1385574076221894214,/world,vicon/Archie/Archie,-0.356113788679,-0.15476727234,0.112456069929,0.00275206300429,-0.000142903172816,0.542114860697,0.840299877151
1385574076231977287,1116670,1385574076231977287,/world,vicon/Archie/Archie,-0.356105292284,-0.154832452214,0.112471897843,0.00301090197252,-0.000575411106497,0.54219265287,0.840248612344
1385574076242019741,1116671,1385574076242019741,/world,vicon/Archie/Archie,-0.356002738099,-0.154840059043,0.112493237029,0.00304645216777,-0.000281835376701,0.542151254591,0.84027534585
1385574076251814800,1116672,1385574076251814800,/world,vicon/Archie/Archie,-0.356073068424,-0.154806414147,0.112419524051,0.00281476595065,-0.000326106761128,0.542163052105,0.840268525936
1385574076261932235,1116673,1385574076261932235,/world,vicon/Archie/Archie,-0.356042892563,-0.154811309028,0.11253755469,0.00296930962324,-8.0106407508e-05,0.542116906603,0.840297825987
1385574076271860302,1116674,1385574076271860302,/world,vicon/Archie/Archie,-0.356104704853,-0.154832199046,0.112471586283,0.00302654353404,-0.000598099856703,0.542205442861,0.840240287086
1385574076282013877,1116675,1385574076282013877,/world,vicon/Archie/Archie,-0.356106055847,-0.154766968699,0.112451731256,0.00273615805553,-0.0001192257271,0.542119656648,0.840296838683
1385574076292013885,1116676,1385574076292013885,/world,vicon/Archie/Archie,-0.356037961811,-0.154805132023,0.112535461909,0.00298587599679,-6.12714952295e-05,0.54211352872,0.840299948096
1385574076301829200,1116677,1385574076301829200,/world,vicon/Archie/Archie,-0.35603376299,-0.154806233111,0.112539353043,0.00297796288802,-5.5874876245e-05,0.542107190292,0.84030406571
1385574076312139646,1116678,1385574076312139646,/world,vicon/Archie/Archie,-0.356088517661,-0.154802062093,0.112417295018,0.00283196614936,-0.000324896299508,0.542147115101,0.840278751366
1385574076321830564,1116679,1385574076321830564,/world,vicon/Archie/Archie,-0.356013002955,-0.154839253474,0.112490312962,0.00305542436499,-0.000277923636171,0.54214059037,0.840282195107
1385574076331944265,1116680,1385574076331944265,/world,vicon/Archie/Archie,-0.356084066382,-0.154803316289,0.112407478948,0.0028348148584,-0.000334827720871,0.542163104354,0.840268421394
1385574076342001962,1116681,1385574076342001962,/world,vicon/Archie/Archie,-0.356084188569,-0.154802084064,0.11241542111,0.00284700056888,-0.000324627695319,0.542175715812,0.840260246821
1385574076351884661,1116682,1385574076351884661,/world,vicon/Archie/Archie,-0.356079163318,-0.15480469856,0.112409156571,0.00283402368939,-0.000329869214224,0.542159323921,0.840270865246
1385574076361924477,1116683,1385574076361924477,/world,vicon/Archie/Archie,-0.356016493731,-0.154841348308,0.112489339189,0.00307263199624,-0.00026367660899,0.542158591804,0.840270522356
1385574076371830339,1116684,1385574076371830339,/world,vicon/Archie/Archie,-0.356084302266,-0.154802057661,0.112411966132,0.0028497274849,-0.00035570240914,0.542155280005,0.840273410796
1385574076381930487,1116685,1385574076381930487,/world,vicon/Archie/Archie,-0.356019650111,-0.154842602954,0.112490122099,0.003074080623,-0.000268720782662,0.542141648319,0.840281447478
1385574076392093161,1116686,1385574076392093161,/world,vicon/Archie/Archie,-0.356082220807,-0.154805957688,0.112408679133,0.00282698591902,-0.000334515960551,0.54215358392,0.84027459065
1385574076401869541,1116687,1385574076401869541,/world,vicon/Archie/Archie,-0.356024935111,-0.154833007503,0.112493715278,0.00306763845653,-0.000294115508896,0.542142674485,0.840280800443
1385574076411982723,1116688,1385574076411982723,/world,vicon/Archie/Archie,-0.356087942929,-0.154799146399,0.112407834968,0.00283903121555,-0.000319450079851,0.5421642328,0.840267685042
1385574076421889930,1116689,1385574076421889930,/world,vicon/Archie/Archie,-0.356077418415,-0.154804851099,0.112406875405,0.00283311126828,-0.000333227659553,0.542160540457,0.840270082063
1385574076431848641,1116690,1385574076431848641,/world,vicon/Archie/Archie,-0.3560798426,-0.154808543591,0.112411829194,0.00284562139404,-0.000350150350042,0.542150034351,0.840276811584
1385574076441932539,1116691,1385574076441932539,/world,vicon/Archie/Archie,-0.356091896088,-0.154803313729,0.112417232981,0.00285244887109,-0.000321971079,0.542159016425,0.840271004367
1385574076451889733,1116692,1385574076451889733,/world,vicon/Archie/Archie,-0.356082401943,-0.154802169457,0.112407920266,0.00284748089249,-0.000339640626974,0.542164415856,0.840267530419
1385574076462005166,1116693,1385574076462005166,/world,vicon/Archie/Archie,-0.356108640816,-0.154772254227,0.112444704441,0.00274250609229,-8.5813490925e-05,0.542117291674,0.840298347829
1385574076471804294,1116694,1385574076471804294,/world,vicon/Archie/Archie,-0.356081492275,-0.154804179253,0.112412840766,0.00284597385653,-0.00030718635609,0.542163780909,0.840267957701
1385574076481984199,1116695,1385574076481984199,/world,vicon/Archie/Archie,-0.356075847732,-0.154799563322,0.112408810278,0.00283571691213,-0.000310454070701,0.542160386045,0.840270181627
1385574076491947212,1116696,1385574076491947212,/world,vicon/Archie/Archie,-0.356008275362,-0.154837593852,0.112481178719,0.00306609465689,-0.000292793275333,0.54214599704,0.840278662843
1385574076501856517,1116697,1385574076501856517,/world,vicon/Archie/Archie,-0.356080937173,-0.154804228491,0.112403323467,0.00284426464351,-0.000327582098211,0.542156149505,0.840272879725
1385574076512070889,1116698,1385574076512070889,/world,vicon/Archie/Archie,-0.356099009583,-0.154774850123,0.11244737287,0.00275242723646,-0.000110349427143,0.542122034986,0.840295252367
1385574076521865128,1116699,1385574076521865128,/world,vicon/Archie/Archie,-0.356078660317,-0.154805443089,0.112406570963,0.00283301487194,-0.000311520287976,0.542153330467,0.840274742715
1385574076531916831,1116700,1385574076531916831,/world,vicon/Archie/Archie,-0.356008521309,-0.154844888846,0.112482456269,0.00306329043005,-0.000261821031865,0.542142782044,0.840280757592
1385574076542029773,1116701,1385574076542029773,/world,vicon/Archie/Archie,-0.356006534313,-0.154844620978,0.112483998325,0.00304977056803,-0.000246695801104,0.542130514445,0.840288726182
1385574076551930350,1116702,1385574076551930350,/world,vicon/Archie/Archie,-0.356026262254,-0.154821497256,0.112532143673,0.00298818754689,-4.97338428142e-05,0.542121231559,0.840294971159
1385574076562007185,1116703,1385574076562007185,/world,vicon/Archie/Archie,-0.356078916934,-0.154807612142,0.112410036032,0.00283294789008,-0.000318744900122,0.542152163337,0.840275493274
1385574076572107276,1116704,1385574076572107276,/world,vicon/Archie/Archie,-0.356018896697,-0.154834735639,0.112492969673,0.00307932811192,-0.000253387556532,0.542148341822,0.840277114405
1385574076582040131,1116705,1385574076582040131,/world,vicon/Archie/Archie,-0.356107134191,-0.154773585073,0.112449255959,0.00274448832384,-8.06231865313e-05,0.542124558566,0.840293653602
1385574076592057608,1116706,1385574076592057608,/world,vicon/Archie/Archie,-0.356073260741,-0.154809423603,0.112405107603,0.00283363898208,-0.000291223306913,0.542156425437,0.840272750978
1385574076601991105,1116707,1385574076601991105,/world,vicon/Archie/Archie,-0.356103573231,-0.154784365675,0.112451797903,0.00275479813145,-0.000105083456653,0.542124920889,0.840293383406
1385574076611886261,1116708,1385574076611886261,/world,vicon/Archie/Archie,-0.356078314972,-0.154804511768,0.112417651925,0.00284749291982,-0.000338051615524,0.542150414586,0.84027656487
1385574076621954509,1116709,1385574076621954509,/world,vicon/Archie/Archie,-0.356074104182,-0.154816553802,0.112406209681,0.00284600848331,-0.000309051269006,0.542151449322,0.840275913448
1385574076631972140,1116710,1385574076631972140,/world,vicon/Archie/Archie,-0.356077234392,-0.154807388949,0.112414519454,0.00282769576159,-0.000298495599591,0.542154984726,0.840273698013
1385574076642164457,1116711,1385574076642164457,/world,vicon/Archie/Archie,-0.356114308527,-0.154782860637,0.112449826276,0.00274603060712,-8.09555920921e-05,0.542121021222,0.840295930676
1385574076651868540,1116712,1385574076651868540,/world,vicon/Archie/Archie,-0.356036874671,-0.154813760653,0.112538978249,0.00300133923716,-8.3651846199e-05,0.542110949857,0.840301554806
1385574076661967090,1116713,1385574076661967090,/world,vicon/Archie/Archie,-0.356083044011,-0.15481278492,0.112415225814,0.00284467807773,-0.000326142709857,0.542167244793,0.840265719943
1385574076671926099,1116714,1385574076671926099,/world,vicon/Archie/Archie,-0.356086704579,-0.154814634073,0.112413984185,0.00285126469849,-0.000323141190958,0.54217025928,0.840263753724
1385574076682024075,1116715,1385574076682024075,/world,vicon/Archie/Archie,-0.35611828014,-0.154777098552,0.112456805296,0.00275841052733,-8.63297145475e-05,0.542123202099,0.840294482586
1385574076692052039,1116716,1385574076692052039,/world,vicon/Archie/Archie,-0.356106158006,-0.154779249508,0.112450848002,0.00274536947413,-0.000112983945161,0.542135907797,0.840286324807
1385574076701918367,1116717,1385574076701918367,/world,vicon/Archie/Archie,-0.356011411603,-0.154847186599,0.112488865739,0.00308004703818,-0.000284690039095,0.542167715549,0.840264601467
1385574076712063359,1116718,1385574076712063359,/world,vicon/Archie/Archie,-0.356076224406,-0.154812938027,0.112410736429,0.00285267822401,-0.000331360001987,0.542155271529,0.840273416205
1385574076721790766,1116719,1385574076721790766,/world,vicon/Archie/Archie,-0.356105247301,-0.154784831319,0.112458357774,0.00276820337803,-0.000131115112762,0.542124852104,0.84029338007
1385574076732068144,1116720,1385574076732068144,/world,vicon/Archie/Archie,-0.356113502052,-0.154780928569,0.112452381971,0.00273023498774,-9.71719145506e-05,0.542129356842,0.840290602604
1385574076742028443,1116721,1385574076742028443,/world,vicon/Archie/Archie,-0.356081146513,-0.154815213957,0.112417553354,0.00284045019872,-0.000329739251239,0.542155284582,0.840273449845
1385574076751827680,1116722,1385574076751827680,/world,vicon/Archie/Archie,-0.356082665335,-0.154814788379,0.112412461519,0.00284032650017,-0.000330377754053,0.542171427457,0.840263034201
1385574076761938275,1116723,1385574076761938275,/world,vicon/Archie/Archie,-0.356010373509,-0.154857634878,0.112498113771,0.00308094607782,-0.0002745944266,0.542157342598,0.840271294426
1385574076771906618,1116724,1385574076771906618,/world,vicon/Archie/Archie,-0.356081527081,-0.154822776518,0.112414663104,0.00285390336307,-0.000326055775417,0.54216462589,0.840267378491
1385574076781976894,1116725,1385574076781976894,/world,vicon/Archie/Archie,-0.356014830289,-0.154853616836,0.11249499572,0.00307785692043,-0.000269447359305,0.542147328362,0.840277768684
1385574076792095769,1116726,1385574076792095769,/world,vicon/Archie/Archie,-0.356012903398,-0.154856112549,0.112489460355,0.0030737977775,-0.000249537136234,0.542148276569,0.840277177907
1385574076801791813,1116727,1385574076801791813,/world,vicon/Archie/Archie,-0.356016945821,-0.154855609802,0.112492543941,0.00307775882091,-0.000264049574211,0.542146627082,0.840278223223
1385574076812007044,1116728,1385574076812007044,/world,vicon/Archie/Archie,-0.356100934647,-0.154789606851,0.112452827868,0.00276395388466,-0.000108691546559,0.542118944897,0.840297208331
1385574076821868018,1116729,1385574076821868018,/world,vicon/Archie/Archie,-0.35601139429,-0.15485537249,0.112490757298,0.00306793706709,-0.000258711201558,0.542151161217,0.840275335364
1385574076831982459,1116730,1385574076831982459,/world,vicon/Archie/Archie,-0.356080995536,-0.154818791861,0.112415670915,0.00286143186056,-0.000345983613447,0.542161344796,0.840269461966
1385574076842020591,1116731,1385574076842020591,/world,vicon/Archie/Archie,-0.356084184606,-0.154818604193,0.112408176207,0.00283734511834,-0.000306034073449,0.542154451589,0.840274006761
1385574076851863468,1116732,1385574076851863468,/world,vicon/Archie/Archie,-0.356012330251,-0.154856030463,0.112494686275,0.00307550895061,-0.000266635841338,0.542146704634,0.840278180607
1385574076861976826,1116733,1385574076861976826,/world,vicon/Archie/Archie,-0.356087780695,-0.1548135015,0.11241594838,0.00285979672017,-0.000333349249855,0.542158092162,0.840271571305
1385574076871938968,1116734,1385574076871938968,/world,vicon/Archie/Archie,-0.356082629699,-0.154815511238,0.112418757759,0.00286041041609,-0.000339229924202,0.54216590849,0.840266523578
1385574076881977171,1116735,1385574076881977171,/world,vicon/Archie/Archie,-0.356010518235,-0.15485351369,0.112494799346,0.00308842517585,-0.000287059577479,0.542149795135,0.840276132508
1385574076892031755,1116736,1385574076892031755,/world,vicon/Archie/Archie,-0.356085241801,-0.15481150362,0.112412788457,0.00283903258391,-0.00030889774888,0.542157050639,0.840272323071
1385574076902211718,1116737,1385574076902211718,/world,vicon/Archie/Archie,-0.35608228668,-0.154815688581,0.112409046758,0.00285304610506,-0.000325421436948,0.542169131997,0.840264474162
1385574076911885648,1116738,1385574076911885648,/world,vicon/Archie/Archie,-0.35608828512,-0.154818755279,0.112420817398,0.00287286726503,-0.000359139353657,0.54215806645,0.840271532682
1385574076921971998,1116739,1385574076921971998,/world,vicon/Archie/Archie,-0.356086071351,-0.154819009519,0.112409384072,0.00284375640835,-0.000296425582873,0.542161103898,0.840269696349
1385574076931980102,1116740,1385574076931980102,/world,vicon/Archie/Archie,-0.356076813418,-0.154821341478,0.112414405344,0.00284667552214,-0.00033367528936,0.542159662089,0.840270602784
1385574076942046595,1116741,1385574076942046595,/world,vicon/Archie/Archie,-0.356087533779,-0.154814057647,0.112416986083,0.00284956351398,-0.000340166502538,0.542160595553,0.840269988102
1385574076951824375,1116742,1385574076951824375,/world,vicon/Archie/Archie,-0.35612252389,-0.154815077692,0.112380248176,0.00296133121419,-0.000539010848971,0.542136233715,0.84028521591
1385574076962045295,1116743,1385574076962045295,/world,vicon/Archie/Archie,-0.356018745282,-0.154848770421,0.112488082885,0.00307191368597,-0.000295602036896,0.542145480975,0.84027897357
1385574076971875100,1116744,1385574076971875100,/world,vicon/Archie/Archie,-0.356081243507,-0.154820942806,0.112419853306,0.00284641941409,-0.000350467443696,0.542165244722,0.840266994761
1385574076981933628,1116745,1385574076981933628,/world,vicon/Archie/Archie,-0.356009004475,-0.154859856134,0.112491963318,0.00305854904104,-0.000256066335439,0.542150465895,0.840275819025
1385574076992012066,1116746,1385574076992012066,/world,vicon/Archie/Archie,-0.356085451489,-0.154816740582,0.112412129439,0.00283597218695,-0.000341039359139,0.542149138873,0.840277425719
1385574077001857234,1116747,1385574077001857234,/world,vicon/Archie/Archie,-0.356022704626,-0.154861981719,0.112503755609,0.00308191670287,-0.000269751789588,0.542157310507,0.840271313141
1385574077012050137,1116748,1385574077012050137,/world,vicon/Archie/Archie,-0.356111668028,-0.154789030848,0.112455938155,0.00275538508538,-0.000103011077413,0.542122833749,0.840294728277
1385574077021863485,1116749,1385574077021863485,/world,vicon/Archie/Archie,-0.356118111985,-0.15485021045,0.112468898014,0.00303138612368,-0.000594485573319,0.542196090009,0.840246307498
1385574077031968402,1116750,1385574077031968402,/world,vicon/Archie/Archie,-0.356077315442,-0.154818359888,0.112424861312,0.00286275051329,-0.000373370367444,0.542160182407,0.84027019575
1385574077042180886,1116751,1385574077042180886,/world,vicon/Archie/Archie,-0.356081491273,-0.154820968604,0.112415799563,0.00283914634615,-0.000309165245708,0.542168829889,0.840264722312
1385574077051904148,1116752,1385574077051904148,/world,vicon/Archie/Archie,-0.356042646458,-0.154823991239,0.112540011165,0.00299752570157,-6.73395852038e-05,0.542119822824,0.840295845525
1385574077061968249,1116753,1385574077061968249,/world,vicon/Archie/Archie,-0.356042273913,-0.154894259827,0.112551803743,0.00328209526915,-0.000548783606613,0.542191489679,0.840248365191
1385574077071956913,1116754,1385574077071956913,/world,vicon/Archie/Archie,-0.356005814136,-0.15486400032,0.112499940882,0.00309724146793,-0.000297358056483,0.542146018108,0.840278533418
1385574077081998127,1116755,1385574077081998127,/world,vicon/Archie/Archie,-0.356081498393,-0.154817914877,0.112415072422,0.00283103644804,-0.000306963414644,0.542161789927,0.840269292876
1385574077092001929,1116756,1385574077092001929,/world,vicon/Archie/Archie,-0.356120756485,-0.154785072929,0.11246300747,0.0027648056037,-0.000115538300332,0.542120005432,0.840296520409
1385574077101947379,1116757,1385574077101947379,/world,vicon/Archie/Archie,-0.356078891077,-0.15482419686,0.112428775824,0.00284587005962,-0.000382214875068,0.54217091448,0.840263324457
1385574077111983661,1116758,1385574077111983661,/world,vicon/Archie/Archie,-0.356041440744,-0.154818066369,0.112534952544,0.00298578511752,-3.68131535507e-05,0.54210613898,0.840304717238
1385574077121896879,1116759,1385574077121896879,/world,vicon/Archie/Archie,-0.356083012221,-0.154825352448,0.112422504513,0.00287604713814,-0.000364754169642,0.542161900208,0.840269045765
1385574077132030439,1116760,1385574077132030439,/world,vicon/Archie/Archie,-0.356082013572,-0.154820387128,0.112413978527,0.00284316886912,-0.000327321505085,0.54215773499,0.840271860556
1385574077141953701,1116761,1385574077141953701,/world,vicon/Archie/Archie,-0.356088622855,-0.154821887801,0.112421181652,0.00286308569206,-0.000341835723888,0.542150590025,0.84027639716
1385574077151884500,1116762,1385574077151884500,/world,vicon/Archie/Archie,-0.356019460581,-0.154852797527,0.112496835829,0.00308839625152,-0.000267093511924,0.542156317839,0.840271930685
1385574077161965768,1116763,1385574077161965768,/world,vicon/Archie/Archie,-0.356082693108,-0.154812452336,0.112406193091,0.00284354751258,-0.000312253074616,0.542147457879,0.840278495888
1385574077171812752,1116764,1385574077171812752,/world,vicon/Archie/Archie,-0.356088444299,-0.154812472955,0.112407818368,0.0028432163655,-0.000315134443481,0.54215471873,0.840273811189
1385574077182001544,1116765,1385574077182001544,/world,vicon/Archie/Archie,-0.356119623783,-0.154781843611,0.112455986705,0.00276859376249,-0.000105617790311,0.542127696927,0.840291546999
1385574077191960072,1116766,1385574077191960072,/world,vicon/Archie/Archie,-0.356030163457,-0.15484707945,0.112486736772,0.00307095796726,-0.000268338975393,0.542145270953,0.840279121718
1385574077201991830,1116767,1385574077201991830,/world,vicon/Archie/Archie,-0.356075431325,-0.15484396128,0.112583205085,0.0031426768682,-0.000248762023062,0.542151621804,0.840274764988
1385574077212006755,1116768,1385574077212006755,/world,vicon/Archie/Archie,-0.356087268381,-0.154818232353,0.11241219606,0.00284531888838,-0.000323075345333,0.542160113223,0.84027032044
1385574077221848753,1116769,1385574077221848753,/world,vicon/Archie/Archie,-0.35601632023,-0.154849081963,0.112491235578,0.00307672743403,-0.000276466678569,0.542158559194,0.8402705243
1385574077232043937,1116770,1385574077232043937,/world,vicon/Archie/Archie,-0.356019104915,-0.15485690914,0.112492114021,0.00306384960182,-0.00026535954576,0.542150433481,0.840275817744
1385574077242193477,1116771,1385574077242193477,/world,vicon/Archie/Archie,-0.356089714026,-0.15481850828,0.112416841272,0.00284895700563,-0.000327283056178,0.54215479528,0.84027373771
1385574077251868484,1116772,1385574077251868484,/world,vicon/Archie/Archie,-0.356116667283,-0.154837449133,0.112454345247,0.00299435575476,-0.000535596003572,0.542198569624,0.840244879823
1385574077262069427,1116773,1385574077262069427,/world,vicon/Archie/Archie,-0.356036232757,-0.154825617559,0.112534657389,0.00300230294942,-3.93915256852e-05,0.542110058826,0.840302129442
1385574077271920683,1116774,1385574077271920683,/world,vicon/Archie/Archie,-0.356110697739,-0.154791563516,0.112453070368,0.00276945984311,-0.000105368155653,0.542128501217,0.840291025275
1385574077281945666,1116775,1385574077281945666,/world,vicon/Archie/Archie,-0.356120000871,-0.154839989497,0.11245455443,0.00301942882188,-0.000542183369054,0.542203912778,0.840241337983
1385574077292161503,1116776,1385574077292161503,/world,vicon/Archie/Archie,-0.356082150755,-0.154820254859,0.112409227663,0.00285137374573,-0.000313196273635,0.542164798418,0.840267280651
1385574077301916486,1116777,1385574077301916486,/world,vicon/Archie/Archie,-0.356077357168,-0.154820434954,0.112403328291,0.00284628057691,-0.000330435879619,0.542168011487,0.840265218142
1385574077311946332,1116778,1385574077311946332,/world,vicon/Archie/Archie,-0.356087530281,-0.154817566269,0.112411808128,0.0028456378881,-0.000337823002583,0.542149673264,0.84027704955
1385574077321823843,1116779,1385574077321823843,/world,vicon/Archie/Archie,-0.35611426089,-0.154796856018,0.112461228667,0.0027733136539,-0.000114753880349,0.542125241772,0.840293114215
1385574077332001985,1116780,1385574077332001985,/world,vicon/Archie/Archie,-0.356083791209,-0.154826384575,0.112410699704,0.00282407422819,-0.000324861597098,0.542150926194,0.840276319015
1385574077342059863,1116781,1385574077342059863,/world,vicon/Archie/Archie,-0.356011708513,-0.154863948608,0.112490748987,0.00306040586804,-0.000269046176377,0.542147202559,0.840277913721
1385574077351880210,1116782,1385574077351880210,/world,vicon/Archie/Archie,-0.356089701011,-0.154830561853,0.112418761755,0.00284268701879,-0.000343411276053,0.542163148079,0.840268363122
1385574077361965522,1116783,1385574077361965522,/world,vicon/Archie/Archie,-0.356084017453,-0.154815783504,0.112415744569,0.00285654302643,-0.000331620484819,0.542174284228,0.840261135429
1385574077371850818,1116784,1385574077371850818,/world,vicon/Archie/Archie,-0.356082994448,-0.154825808305,0.112421158338,0.00287268214302,-0.000369847150274,0.542153712257,0.840274338057
1385574077382081479,1116785,1385574077382081479,/world,vicon/Archie/Archie,-0.356085169322,-0.154826117506,0.112410451527,0.00285291423495,-0.000329306037408,0.542154723588,0.840273769749
1385574077392022110,1116786,1385574077392022110,/world,vicon/Archie/Archie,-0.356085958387,-0.154822723292,0.112414014816,0.00284264234814,-0.000324336568259,0.542141831595,0.840282124423
1385574077401944027,1116787,1385574077401944027,/world,vicon/Archie/Archie,-0.356079610724,-0.154814933953,0.112416011057,0.00284935078044,-0.00030785315095,0.542164088079,0.840267747819
1385574077411959836,1116788,1385574077411959836,/world,vicon/Archie/Archie,-0.356023295997,-0.154860295249,0.112500290395,0.00307949474516,-0.000274787135819,0.542137507622,0.840284097216
1385574077421838032,1116789,1385574077421838032,/world,vicon/Archie/Archie,-0.356023404623,-0.15485738163,0.11249512367,0.00307289745625,-0.000300993830586,0.542149963786,0.840276075746
1385574077431935750,1116790,1385574077431935750,/world,vicon/Archie/Archie,-0.356014926758,-0.154862028302,0.1124978245,0.00307765823062,-0.000262578533564,0.542145416639,0.840279005027
1385574077442045045,1116791,1385574077442045045,/world,vicon/Archie/Archie,-0.35608948843,-0.154821444286,0.112419527568,0.00284858061858,-0.000339410277197,0.542150131848,0.840276743059
1385574077451871020,1116792,1385574077451871020,/world,vicon/Archie/Archie,-0.356089079311,-0.15482272612,0.112418209848,0.00286343048987,-0.000365456954681,0.542159888826,0.840270386337
