%time,field.linear.x,field.linear.y,field.linear.z,field.angular.x,field.angular.y,field.angular.z
1385569423005344245,-0.0,0.0,0.0,1.0,0.0,0.0
1385569423195319320,-0.0,0.0,5.37190192114e-08,1.0,0.0,0.153491786214
1385569423394810123,-0.20961037051,0.0241413829632,-0.0112304313109,1.0,0.0,0.123585381162
1385569423594811296,-0.220266066149,0.0253410933421,-0.00753239505369,1.0,0.0,0.107728760762
1385569423794780452,-0.185760301483,0.0212899951433,-0.00265193942741,1.0,0.0,0.0959966810399
1385569423994721832,-0.124000967535,0.0143742364076,0.00432242627255,1.0,0.0,0.088972553069
1385569424193825657,-0.0629680020289,0.00728474298425,0.0123730939746,1.0,0.0,0.0848613981286
1385569424394671395,-0.0190982645278,0.00222537296327,0.021269924261,1.0,0.0,0.0824504724465
1385569424594767340,0.00241666354848,-0.000177501835905,0.0308477902458,1.0,0.0,0.0810097232779
1385569424794756885,0.00443319815077,-0.000405450314536,0.0408684048339,1.0,0.0,0.0801727960273
1385569424994698752,-0.00603511063935,0.00148505420461,0.0511157357417,1.0,0.0,0.0793697210039
1385569425194755413,-0.0208593998258,0.00359013254385,0.0618801374591,1.0,0.0,0.0786986084089
1385569425393702869,-0.0342629640888,0.00643911027051,0.072638066589,1.0,0.0,0.0776105995988
1385569425594738527,-0.0424948099457,0.0112399747574,0.0834336256119,1.0,0.0,0.0748554314654
1385569425793691504,-0.0436720722961,0.0180411518763,0.0945215786768,1.0,0.0,0.0691409609379
1385569425994766475,-0.0419701229603,0.0233774360262,0.10380127084,1.0,0.0,0.0607468580669
1385569426194707723,-0.0406709825811,0.0252227251084,0.107814195622,1.0,0.0,0.0537917561909
1385569426394722515,-0.0399973200359,0.0260992679252,0.105660365945,1.0,0.0,0.0477265154529
1385569426595048540,-0.0403589167519,0.0255601550773,0.102268228835,1.0,0.0,0.0425876055554
1385569426794726425,-0.0480419588256,0.024547616028,0.0926267799359,1.0,0.0,0.0384353035583
1385569426994747621,-0.0574563884475,0.024041637819,0.0854598633238,1.0,0.0,0.0349711561168
1385569427194801842,-0.0646035545409,0.0254324981922,0.0853757052303,1.0,0.0,0.0320774193771
1385569427394783024,-0.069436813198,0.027200400621,0.0912453919596,1.0,0.0,0.029788246904
1385569427594787249,-0.0713397145176,0.0276123866475,0.102297706144,1.0,0.0,0.0281375838858
1385569427795003450,-0.0716328128425,0.0285129939628,0.115262973431,1.0,0.0,0.0269624326699
1385569427994805557,-0.0676781748106,0.0285317694977,0.130171336093,1.0,0.0,0.0261896198475
1385569428194991591,-0.0656387808397,0.0278483804892,0.142047772921,1.0,0.0,0.0254460233814
1385569428394702819,-0.0608992241804,0.0272746153761,0.148022549849,1.0,0.0,0.0248855121447
1385569428594760792,-0.0579802092633,0.0276188438942,0.149549478234,1.0,0.0,0.0243273742144
1385569428794900960,-0.0565543179008,0.0266266336898,0.148101747199,1.0,0.0,0.0240617354316
1385569428994865137,-0.0593722306332,0.0245998634113,0.143245801164,1.0,0.0,0.0239257590059
1385569429194747871,-0.0608552827958,0.0241587967859,0.139138266347,1.0,0.0,0.02363783772
1385569429394792187,-0.0630758345656,0.0261078524817,0.134527079156,1.0,0.0,0.0228360099736
1385569429594777956,-0.0664216466522,0.0286077431791,0.129531628279,1.0,0.0,0.0218076160854
1385569429794756952,-0.0695443094878,0.0311189334989,0.125217633844,1.0,0.0,0.0206532614769
1385569429994805481,-0.0716079223468,0.0335250661484,0.12202347202,1.0,0.0,0.0195321594351
1385569430194762452,-0.0712006861433,0.0363126293773,0.119768660848,1.0,0.0,0.0181521371408
1385569430394799245,-0.0697128512848,0.0373112082175,0.116726093839,1.0,0.0,0.0169001126882
1385569430594762421,-0.0660660372571,0.0380351648807,0.112756263721,1.0,0.0,0.0157103458253
1385569430795747967,-0.0623052358871,0.0377021124463,0.106586874757,1.0,0.0,0.0145643068094
1385569430994673210,-0.0590851322567,0.0349713488315,0.0996964239514,1.0,0.0,0.0135249103979
1385569431194721801,-0.0551996665645,0.0323401860457,0.0935371983263,1.0,0.0,0.0124806590254
1385569431394774567,-0.0532692472681,0.0276574517495,0.0870450090462,1.0,0.0,0.011575756797
1385569431594717684,-0.0521283644896,0.0224904576407,0.0807777909912,1.0,0.0,0.0106234351039
1385569431794791924,-0.0514826041195,0.0179860491147,0.0745192669141,1.0,0.0,0.00937708150102
1385569431994778459,-0.0518871939165,0.0130759743738,0.0684576894532,1.0,0.0,0.00822849998043
1385569432194754727,-0.0524893424027,0.00869699595089,0.0628970352382,1.0,0.0,0.00712481441073
1385569432394715191,-0.0526584715294,0.00488678496775,0.0581648634555,1.0,0.0,0.00604519736936
1385569432594762371,-0.0520540081558,0.00245213132056,0.0534036176011,1.0,0.0,0.00483410418338
1385569432794774685,-0.0504078614391,-0.000134687107757,0.049563821827,1.0,0.0,0.00361379087401
1385569432994927994,-0.0480737653348,-0.00244177595877,0.0447673548535,1.0,0.0,0.00236272369475
1385569433194748957,-0.0450663065946,-0.0051387026293,0.041354447655,1.0,0.0,0.00110330368226
1385569433394668119,-0.0419434437373,-0.00750689061664,0.0378786314923,1.0,0.0,-0.000271898081569
1385569433594760365,-0.0390124003623,-0.00992664488253,0.034881817228,1.0,0.0,-0.00167349926394
1385569433794713098,-0.0360570236447,-0.011260941718,0.0318985649408,1.0,0.0,-0.00333857824797
1385569433994693094,-0.0333517476734,-0.0122557040696,0.0297688678049,1.0,0.0,-0.00497384825267
1385569434194719310,-0.0303197105695,-0.0117533834112,0.0280531342454,1.0,0.0,-0.00680014636184
1385569434394860474,-0.0272449806784,-0.0101638593832,0.0258896899007,1.0,0.0,-0.00875451359495
1385569434594792850,-0.0243617595877,-0.00778900971906,0.0234355030659,1.0,0.0,-0.0108428493167
1385569434794785708,-0.022051846267,-0.00498809892966,0.0215379574936,1.0,0.0,-0.0130559956328
1385569434994927158,-0.0208732595248,-0.00294739822956,0.0199773889542,1.0,0.0,-0.0151300698152
1385569435194716925,-0.0207206248368,-0.00114601844283,0.0193606790442,1.0,0.0,-0.0172515941937
1385569435394773549,-0.0212621880214,-0.000636665195241,0.0184248006765,1.0,0.0,-0.0191770447915
1385569435594794629,-0.0221063348957,-0.00108457006332,0.0174286081351,1.0,0.0,-0.0209084225733
1385569435794737180,-0.0230297283155,-0.00300196131304,0.0168107854934,1.0,0.0,-0.0222932515685
1385569435994697677,-0.0235777514492,-0.00563526925711,0.0160698013628,1.0,0.0,-0.0235149927307
1385569436194695477,-0.0234938263482,-0.008605956319,0.015329279264,1.0,0.0,-0.0246764553782
1385569436394736418,-0.0229052979897,-0.011805078579,0.01437512847,1.0,0.0,-0.0257343037936
1385569436594773584,-0.0217678450561,-0.0145647695106,0.0139041216451,1.0,0.0,-0.026791857135
1385569436794786767,-0.0205880842843,-0.0167646441025,0.01338272047,1.0,0.0,-0.0277458156874
1385569436994721438,-0.0193491303442,-0.0176363528486,0.013100059329,1.0,0.0,-0.0286144473879
1385569437194737001,-0.0187493610718,-0.0176733764367,0.0126240136489,1.0,0.0,-0.0293929178998
1385569437394937919,-0.0184464811206,-0.0171383695812,0.012552984843,1.0,0.0,-0.0300168651783
1385569437594871641,-0.018463283346,-0.0163429027791,0.0123405184144,1.0,0.0,-0.0304706169607
1385569437794928691,-0.0185047781858,-0.0148502290054,0.0123170633779,1.0,0.0,-0.0308154293296
1385569437994676737,-0.0184430080817,-0.0129750774016,0.0119313502892,1.0,0.0,-0.0310117499571
1385569438194715202,-0.0186415575888,-0.010670177494,0.0117139292344,1.0,0.0,-0.031284282794
1385569438394724191,-0.0187163561991,-0.00890058990675,0.0115301153327,1.0,0.0,-0.0313172827431
1385569438594867736,-0.0184831162997,-0.00798721924489,0.0111568885779,1.0,0.0,-0.0309586282325
1385569438794726311,-0.0180885537528,-0.00790928966397,0.0106281556333,1.0,0.0,-0.0302449539309
1385569438994955741,-0.0179059334445,-0.00856962039273,0.010284973618,1.0,0.0,-0.029319828071
1385569439194696034,-0.0182832696448,-0.00996338111396,0.0102544247799,1.0,0.0,-0.0280316930817
1385569439394845055,-0.0190832642175,-0.0109432011352,0.0101063502597,1.0,0.0,-0.0265407167206
1385569439594871678,-0.0200414312684,-0.0111887649962,0.00989610537275,1.0,0.0,-0.025026397946
1385569439794760008,-0.0211049354139,-0.0105651299943,0.00933048137955,1.0,0.0,-0.0235376655526
1385569439995009292,-0.0226453527704,-0.00917515045507,0.00846230042091,1.0,0.0,-0.0221937349965
1385569440194938008,-0.0247086750149,-0.00726705865411,0.00744858116759,1.0,0.0,-0.0207887253339
1385569440394757904,-0.0271095743569,-0.0051553680051,0.00632961478996,1.0,0.0,-0.0193830661991
1385569440594833444,-0.0294145043074,-0.00329155503875,0.00487744052957,1.0,0.0,-0.0181044336582
1385569440794763012,-0.0310192630952,-0.00174416718047,0.00369574588677,1.0,0.0,-0.0168443129589
1385569440994733099,-0.0318613586484,-0.000275639159397,0.0028791103267,1.0,0.0,-0.0156405010056
1385569441194781681,-0.0318719983266,0.000742323384407,0.00231660826843,1.0,0.0,-0.0144599422725
1385569441394842073,-0.0310973290089,0.00170851202337,0.00244202409422,1.0,0.0,-0.013264219293
1385569441594728003,-0.029772321463,0.00275480412936,0.00262558195295,1.0,0.0,-0.0121428544131
1385569441794849495,-0.0279317775645,0.003898763561,0.00299307898285,1.0,0.0,-0.0111768315226
1385569441994753584,-0.0256533184415,0.00550751519475,0.00320453044238,1.0,0.0,-0.0104234219815
1385569442194685067,-0.0227984616369,0.00772104614614,0.00287967939815,1.0,0.0,-0.00983102220072
1385569442394773487,-0.0196723538963,0.0104378008025,0.00331374192656,1.0,0.0,-0.00929229932132
1385569442594842828,-0.0168919523424,0.0134730933167,0.00357622937465,1.0,0.0,-0.00879718808427
1385569442794846838,-0.0149332888968,0.0167719330811,0.00402219883122,1.0,0.0,-0.00847156989087
1385569442994706336,-0.0138546139148,0.019799561596,0.0045043904723,1.0,0.0,-0.00834058555686
1385569443194821185,-0.0138579881175,0.0221622775072,0.00491739935881,1.0,0.0,-0.00834127472309
1385569443394696758,-0.014571435436,0.0239785553938,0.00528064243439,1.0,0.0,-0.00857758268513
1385569443594997025,-0.0156684927127,0.0245947519024,0.00555598381382,1.0,0.0,-0.00877945738074
1385569443794709811,-0.0162580431984,0.0243979252496,0.00565985796501,1.0,0.0,-0.00913671254735
1385569443994760680,-0.0161450956325,0.0233214179805,0.00539805402391,1.0,0.0,-0.009526549
1385569444194937375,-0.0153502494417,0.0213266260125,0.00502707662869,1.0,0.0,-0.0100874944523
1385569444394770081,-0.0140285879821,0.01834736949,0.00506111349141,1.0,0.0,-0.0105839153918
1385569444594702291,-0.0120735831943,0.0150800921341,0.00513051401209,1.0,0.0,-0.0110503754201
1385569444794708642,-0.00952636793952,0.0120144003369,0.00522990623468,1.0,0.0,-0.0113909040856
1385569444994248817,-0.00689047769851,0.0097078287317,0.00514826840792,1.0,0.0,-0.0116667902594
1385569445194776833,-0.00441583801305,0.00845705271781,0.00513705635159,1.0,0.0,-0.0117998484882
1385569445394764816,-0.00211748316648,0.00864094434986,0.00520745443409,1.0,0.0,-0.0118681919988
1385569445594928516,-0.000384389190654,0.00927725029199,0.00512931569761,1.0,0.0,-0.0115453948698
1385569445794753778,0.000867278811648,0.0100737621957,0.00487028457962,1.0,0.0,-0.0110537271499
1385569445994736649,0.0010820552917,0.0102929959798,0.00466167106013,1.0,0.0,-0.0102077953995
1385569446194771813,3.86312865113e-05,0.00959689945716,0.00429756302691,1.0,0.0,-0.00917187920952
1385569446394769873,-0.00219933213004,0.0077907626045,0.00393478490989,1.0,0.0,-0.00794023647928
1385569446594946346,-0.00498606729236,0.00548605232864,0.00365915282314,1.0,0.0,-0.00665925849243
1385569446794740380,-0.00813079367065,0.00282683169369,0.00364608132855,1.0,0.0,-0.00530280321483
1385569446994756240,-0.0109429922925,0.000318729362171,0.00362279128736,1.0,0.0,-0.00403962678588
1385569447194659038,-0.0130260661761,-0.00181350648593,0.00335820748043,1.0,0.0,-0.00277449287707
1385569447394853944,-0.0139635382663,-0.0032760312584,0.0027925670706,1.0,0.0,-0.00150439992603
1385569447594697591,-0.0134555292208,-0.00398112783773,0.00219137161609,1.0,0.0,-0.000441336893231
1385569447794705567,-0.0116634527405,-0.0041483155082,0.00163144997288,1.0,0.0,0.000588212285046
1385569447994803633,-0.00902529459934,-0.00391516284226,0.000851718417941,1.0,0.0,0.00128121636043
1385569448193817085,-0.00623023516053,-0.00377955681057,6.20035275595e-05,1.0,0.0,0.00191382348898
1385569448394824431,-0.00388859028987,-0.00380902790709,-0.000541787382391,1.0,0.0,0.00243974138972
1385569448594803360,-0.00219044833344,-0.00423725642587,-0.0012053084399,1.0,0.0,0.00292642294862
1385569448793991060,-0.0011067416659,-0.00493889262433,-0.00196195824815,1.0,0.0,0.00352785676287
1385569448994737647,-0.000809962840968,-0.00529018631559,-0.00275654346274,1.0,0.0,0.00415493836245
1385569449194773788,-0.00124115063799,-0.00487031986228,-0.00356481182749,1.0,0.0,0.00447808549789
1385569449394789785,-0.00218267221049,-0.0040182346048,-0.00422902417109,1.0,0.0,0.00456291112735
1385569449594072391,-0.00324979163797,-0.00285779295522,-0.00486167083811,1.0,0.0,0.00470847148159
1385569449793837163,-0.00427070840787,-0.00190813363637,-0.00543034065148,1.0,0.0,0.00491625943451
1385569449994707787,-0.00509688218613,-0.00145712154949,-0.00573045837017,1.0,0.0,0.00519441263404
1385569450194824942,-0.00524087808025,-0.000998238625673,-0.00561183066852,1.0,0.0,0.00537057740208
1385569450394764020,-0.00453962498183,-0.000476594412862,-0.00544639710001,1.0,0.0,0.00555748736276
1385569450594938383,-0.00276262232753,0.000213651447489,-0.00505403872383,1.0,0.0,0.00575633789168
1385569450794780216,-0.000311497431056,0.00111244439615,-0.00450101027902,1.0,0.0,0.00601151689872
1385569450994794907,0.00222844355783,0.00218044521711,-0.00349070980575,1.0,0.0,0.00643207879424
1385569451194943676,0.00432398350818,0.00338692668641,-0.00230058559655,1.0,0.0,0.00713593041401
1385569451393845650,0.00538172859806,0.00490629565276,-0.00129971177148,1.0,0.0,0.00821329235764
1385569451594929073,0.00522775418751,0.00636775211454,-0.000436673338245,1.0,0.0,0.00972993019732
1385569451794930168,0.00429767909091,0.0075632517379,0.000382139285631,1.0,0.0,0.0113001948652
1385569451994760663,0.00309892246521,0.00880152212944,0.00125480364641,1.0,0.0,0.0129910653996
1385569452194712705,0.00198861490275,0.0102217304625,0.00196022143115,1.0,0.0,0.0148909880138
1385569452394718092,0.00118645769396,0.0116573914431,0.00229605522193,1.0,0.0,0.0168241240008
1385569452594763684,0.000414325726445,0.0129069569233,0.00253153293356,1.0,0.0,0.0189600102725
1385569452794688385,-0.000453426428914,0.0142252389007,0.00257593796114,1.0,0.0,0.0212718175495
1385569452994800741,-0.00143780728198,0.0156581480382,0.00249660955489,1.0,0.0,0.0235455799802
1385569453194692742,-0.00229559254172,0.0174481121019,0.0022811215851,1.0,0.0,0.0258079239619
1385569453394900312,-0.00309323983644,0.019538502543,0.00191816886457,1.0,0.0,0.028173144797
1385569453593782091,-0.00371014936752,0.0216976052408,0.00170858302942,1.0,0.0,0.0304661375266
1385569453794961738,-0.004273983837,0.0234070757578,0.00147531238442,1.0,0.0,0.0327060108477
1385569453994930198,-0.00489181259779,0.0244097297931,0.00120365096369,1.0,0.0,0.0348872254115
1385569454194692806,-0.00523297934657,0.0246307544559,0.00101256093948,1.0,0.0,0.0369309245655
1385569454394924343,-0.00523497272065,0.0241952701517,0.000793170048254,1.0,0.0,0.0388702649095
1385569454594768700,-0.00502102919663,0.023651611895,0.000722506927545,1.0,0.0,0.0408627736948
1385569454794758386,-0.0047911214606,0.0232380807186,0.00070441598532,1.0,0.0,0.0426639359787
1385569454994695240,-0.00490951396924,0.0231448572928,0.000673112841445,1.0,0.0,0.0445155094205
1385569455194701807,-0.0048607690526,0.0231960990823,0.00057944430918,1.0,0.0,0.0461371154449
1385569455394984787,-0.00482631132418,0.0235464453114,0.000523997522048,1.0,0.0,0.0477426933564
1385569455594724591,-0.00463158398681,0.0239983728251,0.000701955356745,1.0,0.0,0.0493311143875
1385569455794793331,-0.00433033147641,0.0244973404773,0.00108364689424,1.0,0.0,0.0510487452304
1385569455994733513,-0.00365394575147,0.0246115523712,0.00147053168031,1.0,0.0,0.0528035469724
1385569456194793295,-0.00275967621091,0.0242533360013,0.00191066986996,1.0,0.0,0.0545015076159
1385569456394762546,-0.00150609702558,0.0235247206774,0.00222620007727,1.0,0.0,0.0560221605606
1385569456594694289,0.000104915588263,0.0227391984766,0.00248821454562,1.0,0.0,0.0571279280109
1385569456794825981,0.0013638305866,0.0219223785821,0.00250848243998,1.0,0.0,0.0580503599282
1385569456994734262,0.00195157231776,0.0213390061662,0.00251311231611,1.0,0.0,0.0588784961663
1385569457193798458,0.00194447467264,0.021050493256,0.00254395803929,1.0,0.0,0.059659889686
1385569457394752415,0.00187175554024,0.020797821459,0.00240539160759,1.0,0.0,0.0602064369043
1385569457594704762,0.00176034137658,0.0202593835697,0.00202534351516,1.0,0.0,0.0604884655554
1385569457794719141,0.00147448941122,0.0192541665286,0.00167560147393,1.0,0.0,0.0605308004875
1385569457994745113,0.000669646523439,0.0181451522608,0.0012881837714,1.0,0.0,0.0605114028143
1385569458194815022,-0.00025387038927,0.0169833770914,0.000872304063264,1.0,0.0,0.0602894313836
1385569458393797544,-0.00143034663208,0.0162528940656,0.000421367977732,1.0,0.0,0.0599337410508
1385569458594940719,-0.0026785692964,0.0159356192631,0.000123990076227,1.0,0.0,0.0594334673915
1385569458794680552,-0.00368671861895,0.016158703823,-0.000499439379756,1.0,0.0,0.0587938309203
1385569458994752612,-0.00422029620633,0.0168679587498,-0.00127837454367,1.0,0.0,0.0580398149248
1385569459194848481,-0.00415550522764,0.0178737096434,-0.001732913906,1.0,0.0,0.0572380654578
1385569459394950494,-0.00337752831634,0.0188143957998,-0.00226563017402,1.0,0.0,0.0563950626461
1385569459594760718,-0.00260571163957,0.0192638950407,-0.00246817931474,1.0,0.0,0.0556568733277
1385569459794880896,-0.00198033520691,0.0187586885683,-0.00244382046648,1.0,0.0,0.0550340030315
1385569459994741642,-0.00149206433838,0.0171478568453,-0.00240779815472,1.0,0.0,0.0544902998851
1385569460194751502,-0.00115548791902,0.0146272677837,-0.00249831264638,1.0,0.0,0.0539581050106
1385569460394751544,-0.0011909548019,0.0119614593257,-0.00239480098589,1.0,0.0,0.0534989843255
1385569460594931036,-0.00143274041978,0.0094985624652,-0.0025554747491,1.0,0.0,0.0529229257698
1385569460794909445,-0.00221514493094,0.00756190089765,-0.00252024854015,1.0,0.0,0.0524719642392
1385569460994924234,-0.00352194491028,0.00612608876258,-0.00237678740069,1.0,0.0,0.051995545312
1385569461194962538,-0.00548169573191,0.00537346471091,-0.00210755521308,1.0,0.0,0.0516836915982
1385569461394908716,-0.00780672687505,0.00483973348716,-0.00177525666024,1.0,0.0,0.0515072066288
1385569461594679526,-0.0100015517631,0.00413388915386,-0.00126759046839,1.0,0.0,0.0514207722895
1385569461794875300,-0.0114906905287,0.0033206409895,-0.000889852162629,1.0,0.0,0.0513429863656
1385569461994720551,-0.0122606720048,0.00249953446468,-0.000708362414718,1.0,0.0,0.0513181311717
1385569462194703316,-0.0121887810839,0.00166007767647,-0.000797917630253,1.0,0.0,0.0511982906405
1385569462394860610,-0.0118133848975,0.000552512146301,-0.000789805476683,1.0,0.0,0.0510996169734
1385569462594722555,-0.0113164143473,-0.00067501155379,-0.000487666929981,1.0,0.0,0.0507163874506
1385569462794913971,-0.0106194246283,-0.00209174326277,-0.000352150583439,1.0,0.0,0.0500952306789
1385569462994760904,-0.00970041888504,-0.00332202694035,-0.000285519761996,1.0,0.0,0.049429172132
1385569463194688298,-0.00880223988364,-0.00410869124513,-0.000464523308287,1.0,0.0,0.0486822324891
1385569463394774771,-0.00817746639124,-0.00465832698544,-0.000726924239752,1.0,0.0,0.047754639104
1385569463594702209,-0.00821829788738,-0.00495648568948,-0.000882319065482,1.0,0.0,0.0467020569943
1385569463795442129,-0.00894956336442,-0.0049375341869,-0.000876218465985,1.0,0.0,0.0454895768907
1385569463995469203,-0.0101969496708,-0.00481374037778,-0.000935881023634,1.0,0.0,0.0443645940651
1385569464194531947,-0.0118026857794,-0.00472007818584,-0.000817549964587,1.0,0.0,0.0433968044178
1385569464395378005,-0.0137153772339,-0.00487524918869,-0.000607025251054,1.0,0.0,0.0425592027521
1385569464595476339,-0.0156875304808,-0.00539020973997,-0.000392702182306,1.0,0.0,0.0418569331255
1385569464795476520,-0.0171816296015,-0.0060993418743,6.36290919972e-06,1.0,0.0,0.0412679832432
1385569464994651845,-0.0178916523893,-0.00673128216498,0.000541225163775,1.0,0.0,0.0407181835093
1385569465194478667,-0.0176180090603,-0.00735231846927,0.00109095486148,1.0,0.0,0.0401665229457
1385569465394397709,-0.01644993967,-0.00790053949519,0.00182635071786,1.0,0.0,0.0395713869713
1385569465594703909,-0.0146571128656,-0.00813080675926,0.00247021793888,1.0,0.0,0.038865664114
1385569465795479154,-0.0127011740977,-0.00776033243525,0.00297713974896,1.0,0.0,0.0382039168464
1385569465995497189,-0.0106142909705,-0.00659344010307,0.00343866597098,1.0,0.0,0.0376218434975
1385569466195626409,-0.00831827368203,-0.00481136122121,0.00362967258132,1.0,0.0,0.0371260056249
1385569466394614004,-0.00595414898956,-0.002881444903,0.00382641923805,1.0,0.0,0.0367311222727
1385569466595496038,-0.00366635597564,-0.00117680231667,0.00391176004176,1.0,0.0,0.0364437589045
1385569466794375787,-0.00184973137345,-0.000155823683303,0.00410400566734,1.0,0.0,0.0362826394009
1385569466995665429,-0.000451483295464,0.0001905707477,0.00416359174697,1.0,0.0,0.0361347744447
1385569467195418134,0.000548906830345,6.63107916991e-05,0.00406620335043,1.0,0.0,0.0358844954727
1385569467394448020,0.000811467829546,-0.000456386236909,0.00400472937378,1.0,0.0,0.0356911440176
1385569467594467290,7.12008941516e-05,-0.00109028241481,0.004017558516,1.0,0.0,0.0355561199762
1385569467795456828,-0.0016886114144,-0.00176113349876,0.00395303144661,1.0,0.0,0.0356590075906
1385569467995552993,-0.00406233414457,-0.00229681231612,0.00397389513025,1.0,0.0,0.035932922531
1385569468195466688,-0.00648985352145,-0.0025444970979,0.00384364844047,1.0,0.0,0.0361431343831
1385569468394458735,-0.0086120008696,-0.00209457511887,0.00348337433194,1.0,0.0,0.0363528887564
1385569468595566275,-0.0099890607111,-0.000618488659855,0.00303778545905,1.0,0.0,0.0364555493739
1385569468794568858,-0.0104972870918,0.00156692723818,0.00257479860661,1.0,0.0,0.0365234865164
1385569468994382391,-0.00991128001249,0.00402769326166,0.00217066493381,1.0,0.0,0.0367257938863
1385569469194539683,-0.00845845624383,0.0063511644093,0.00170966321307,1.0,0.0,0.0367869517258
1385569469395475915,-0.00666133812317,0.00751615952285,0.00115522526187,1.0,0.0,0.0367728818135
1385569469595492468,-0.00490159994005,0.00758133285461,0.000809664403748,1.0,0.0,0.0367116945907
1385569469794459421,-0.00341697625435,0.00663561533011,0.000412391888352,1.0,0.0,0.0364207878851
1385569469994529146,-0.00259755475423,0.00488345442098,0.000166438081405,1.0,0.0,0.036089037684
1385569470195399245,-0.00232733931441,0.00258641828909,-7.72135606943e-05,1.0,0.0,0.0358394889419
1385569470394588536,-0.00262494478763,-0.000100805850641,-0.000416927420655,1.0,0.0,0.0356835582691
1385569470595408649,-0.00352143708515,-0.00269824951527,-0.000446176678999,1.0,0.0,0.0354972987898
1385569470795441726,-0.00490781313684,-0.00481077026321,-0.000384699385114,1.0,0.0,0.0356009541897
1385569470995420993,-0.00635070067635,-0.0060810504653,-0.000341379336662,1.0,0.0,0.035969373318
1385569471194524285,-0.00775945009427,-0.00616682197777,-0.000283398492385,1.0,0.0,0.0363906911754
1385569471395423984,-0.0091173755142,-0.00500731921769,-0.000155675351225,1.0,0.0,0.0369297066152
1385569471594498457,-0.0102164928759,-0.00284458651839,0.000233852989275,1.0,0.0,0.0376553934905
1385569471795408642,-0.0110218726638,-9.23977072153e-05,0.000440503060666,1.0,0.0,0.038378575105
1385569471995544650,-0.0115634476197,0.00276916393961,0.000542575224901,1.0,0.0,0.0392049335701
1385569472195414599,-0.0118380058741,0.00521303381133,0.000574736099985,1.0,0.0,0.0401312272773
1385569472395448154,-0.0113465288215,0.00676707716985,0.000869049905356,1.0,0.0,0.0411471090807
1385569472595414445,-0.00978478201226,0.00682238106755,0.00124210230091,1.0,0.0,0.0424711750795
1385569472795480952,-0.00714526410263,0.0054577736091,0.00132306646936,1.0,0.0,0.0438887019008
1385569472994414324,-0.00393927566589,0.00288853929941,0.000965385961769,1.0,0.0,0.045317883595
1385569473195605536,-0.00109361819472,-0.000185218968028,0.000240800709882,1.0,0.0,0.0467031032337
1385569473395498604,0.00074365393904,-0.00365584425737,-0.000668438607136,1.0,0.0,0.047913046328
1385569473595550829,0.00108213649886,-0.007009178856,-0.00158118849498,1.0,0.0,0.0488903851271
1385569473795490144,-0.000191225628679,-0.0100622687108,-0.00218958841168,1.0,0.0,0.0498437126233
1385569473995586208,-0.00308214649724,-0.0120158554109,-0.00257798317578,1.0,0.0,0.0505044508471
1385569474195593622,-0.00685181846178,-0.0123568164424,-0.00277315967917,1.0,0.0,0.0510349480406
1385569474394389239,-0.0105647619773,-0.0112783313257,-0.0029122987021,1.0,0.0,0.0515092266589
1385569474595426777,-0.0138099034006,-0.00870434388307,-0.00295004099297,1.0,0.0,0.0518022125012
1385569474793896106,-0.0158469488508,-0.0051282170012,-0.00260101363011,1.0,0.0,0.0521311624564
1385569474994532462,-0.0162403642643,-0.00135940705077,-0.00228645553012,1.0,0.0,0.0525141849048
1385569475194575941,-0.014761448419,0.00191631167236,-0.00195136420535,1.0,0.0,0.0530878778355
1385569475395491932,-0.0116526503865,0.0042609846027,-0.00166970857521,1.0,0.0,0.0539873737806
1385569475594480563,-0.00793981912644,0.00552452784845,-0.00144463948638,1.0,0.0,0.0552484164612
1385569475794381537,-0.00461271860707,0.00549466737548,-0.00155492277622,1.0,0.0,0.0567514016732
1385569475995508486,-0.00201239732097,0.00456455334544,-0.00195336738586,1.0,0.0,0.0584471583361
1385569476194522909,-0.000388066399484,0.00336943472963,-0.00265219466857,1.0,0.0,0.0601743795109
1385569476395519404,7.65040945517e-05,0.00169418892454,-0.0033644085334,1.0,0.0,0.0620521574608
1385569476595394716,-0.000814113824184,-0.000372344578704,-0.00437790857546,1.0,0.0,0.0638725688235
1385569476795386478,-0.00289700374354,-0.00232950272849,-0.00542995796229,1.0,0.0,0.0656392578176
1385569476995508042,-0.00595323056757,-0.00347467828116,-0.00586638654536,1.0,0.0,0.067353910114
1385569477194390893,-0.00967605723307,-0.00376852319493,-0.00615161803737,1.0,0.0,0.0689777230053
1385569477394437013,-0.013467208192,-0.00358144024791,-0.00647605579974,1.0,0.0,0.0707200507997
1385569477594562791,-0.0166280404413,-0.00307732836222,-0.00644151527873,1.0,0.0,0.0722363271913
1385569477795466807,-0.018619881005,-0.0019163394873,-0.0059902070026,1.0,0.0,0.0735809995012
1385569477994473649,-0.0190865112224,-0.000360310649641,-0.00527824021086,1.0,0.0,0.0747922341515
1385569478194407920,-0.0181449844288,0.00156245833425,-0.00418450392424,1.0,0.0,0.0760099891862
1385569478395457722,-0.0157159846276,0.00358024304852,-0.00303810262673,1.0,0.0,0.0771539967639
1385569478595470379,-0.0122535385184,0.00467697086689,-0.00232577820198,1.0,0.0,0.0784764914423
1385569478795407473,-0.0087496944952,0.00425546977042,-0.00186041085619,1.0,0.0,0.0798602444734
1385569478995426394,-0.00637064970653,0.00233386257647,-0.00153247820753,1.0,0.0,0.0810900246699
1385569479195482566,-0.00555297018647,-0.000778443343734,-0.00117710110364,1.0,0.0,0.0821457005706
1385569479395461532,-0.00648490355156,-0.00465625917924,-0.000755642154525,1.0,0.0,0.0830414048691
1385569479595463425,-0.00895449882427,-0.00823504175776,-0.000321709980679,1.0,0.0,0.0838230405538
1385569479795459348,-0.0122864761768,-0.0102210444109,-8.73496348464e-05,1.0,0.0,0.0842204506444
1385569479994421958,-0.0159992961547,-0.0101238332292,-0.000210863056453,1.0,0.0,0.0843680747835
1385569480195580322,-0.0192750187571,-0.00669231103067,-4.13575612381e-05,1.0,0.0,0.0840802092168
1385569480395678308,-0.0213736871926,-0.000151058824634,0.00015440432256,1.0,0.0,0.0834524393103
1385569480595531838,-0.0215191853384,0.00848712039468,0.000108830863207,1.0,0.0,0.0826874166146
1385569480794414956,-0.0194669359987,0.017063521894,-6.70815799716e-05,1.0,0.0,0.0819700060393
1385569480995423423,-0.0152801052922,0.0235673734704,-0.000166653427333,1.0,0.0,0.0815828932318
1385569481195454152,-0.0094153480724,0.0267164837668,-0.000335469920327,1.0,0.0,0.0813973985012
1385569481395446325,-0.00290012955585,0.0257915884188,-0.000593007106182,1.0,0.0,0.0814335604791
1385569481595474174,0.00270391661885,0.0210400654229,-0.000987738219293,1.0,0.0,0.0817124167278
1385569481795493486,0.00638143468704,0.0135685656868,-0.00144787262246,1.0,0.0,0.0821176566854
1385569481995462420,0.00760376052549,0.00482840462416,-0.00215105865421,1.0,0.0,0.0824930614645
1385569482194452292,0.0064211954689,-0.00372615879183,-0.00282125143394,1.0,0.0,0.0827209397393
1385569482394493414,0.00295159531064,-0.0103154282301,-0.00342923098762,1.0,0.0,0.0828426642616
1385569482595474449,-0.00231554774987,-0.0134651733753,-0.00436721685329,1.0,0.0,0.0825586021415
1385569482795478671,-0.00892802969124,-0.0122468411099,-0.00483356341249,1.0,0.0,0.0820710571762
1385569482995402529,-0.0157909897914,-0.00639702694011,-0.004514193362,1.0,0.0,0.0814276157697
1385569483195610355,-0.0213703930389,0.00326925317401,-0.00363051673783,1.0,0.0,0.0807534316459
1385569483394417079,-0.0240957055108,0.0151581164847,-0.00225046031022,1.0,0.0,0.0802946045346
1385569483595667481,-0.022729468918,0.0271186385544,-0.00101803270884,1.0,0.0,0.0801583275571
1385569483794420443,-0.0175658295432,0.036864624182,0.000122789613693,1.0,0.0,0.0803021554624
1385569483995467263,-0.00962105933431,0.0424236886232,0.00109834263383,1.0,0.0,0.0808349060315
1385569484195557184,-0.000420459367551,0.0422789995392,0.00194090939113,1.0,0.0,0.0817258034676
1385569484395409186,0.00818605417899,0.0363436888919,0.002716813,1.0,0.0,0.0827550010414
1385569484595399803,0.0153522311025,0.0250999874707,0.00322016170362,1.0,0.0,0.0841083305897
1385569484795506789,0.0187688068242,0.00970060021666,0.00341516288448,1.0,0.0,0.0856519761081
1385569484994475876,0.0178266444265,-0.00754564193013,0.00336211003618,1.0,0.0,0.087149012084
1385569485195504809,0.0118342604158,-0.0236794899364,0.00299446293228,1.0,0.0,0.088513979605
1385569485395415428,0.00121764378864,-0.0356757720138,0.00329347626448,1.0,0.0,0.0897195827818
1385569485595537459,-0.0123124510529,-0.0410174269124,0.00412480966925,1.0,0.0,0.0907331762076
1385569485795464280,-0.0258319314205,-0.0378836325242,0.00542853055617,1.0,0.0,0.0915666700853
1385569485995433957,-0.0362962845228,-0.0256295275017,0.00714967275891,1.0,0.0,0.0920397729013
1385569486195403284,-0.0412368400333,-0.00583233440687,0.00935811931507,1.0,0.0,0.0923263397467
1385569486395482501,-0.0394303446188,0.0179213222212,0.0115085837157,1.0,0.0,0.0924929381212
1385569486594503401,-0.0313187467391,0.0415095435859,0.0133313931729,1.0,0.0,0.0926554809536
1385569486795520866,-0.0181905623676,0.0601260184436,0.0148062533148,1.0,0.0,0.0930958642985
1385569486995526704,-0.00227703613269,0.0698255378307,0.0154397915619,1.0,0.0,0.0937612296023
1385569487194675975,0.0137365532446,0.0676226153697,0.0147076920979,1.0,0.0,0.0947924993088
1385569487395627844,0.0275743203652,0.0529927398914,0.0134935710669,1.0,0.0,0.0960640647021
1385569487595427895,0.0367406659541,0.027866866449,0.0118211784162,1.0,0.0,0.0974059910031
1385569487794510057,0.0399803096569,-0.00377627513099,0.0095043263479,1.0,0.0,0.0984755099176
1385569487994524641,0.0362998939466,-0.0368769915449,0.00630435096001,1.0,0.0,0.0991199055003
1385569488195690575,0.0257250256327,-0.065859068776,0.00286447500119,1.0,0.0,0.0991498850665
1385569488395395954,0.00904471726371,-0.0854797955231,-2.21195412932e-05,1.0,0.0,0.09857694101
1385569488595399012,-0.0117605419086,-0.0916244100609,-0.00192550783484,1.0,0.0,0.0976067762046
1385569488795408961,-0.0325798575516,-0.0833021525954,-0.00296422528674,1.0,0.0,0.0964700977548
1385569488995469568,-0.0490556643302,-0.0614209914991,-0.00338668999769,1.0,0.0,0.0950384694493
1385569489195482259,-0.0575344560151,-0.029799218226,-0.00352796183358,1.0,0.0,0.0934924202838
1385569489394390349,-0.0561772087205,0.00656961276744,-0.00335375162933,1.0,0.0,0.0919510704802
1385569489594577253,-0.0446440048697,0.0422929818233,-0.0028117743325,1.0,0.0,0.0904488473967
1385569489795609385,-0.0238354932833,0.0717376173227,-0.00160879645514,1.0,0.0,0.0892284466959
1385569489994589675,0.00309714808077,0.0896303466062,7.10127904211e-05,1.0,0.0,0.0887972103079
1385569490195503554,0.0304660652622,0.0916129300476,0.00173275908111,1.0,0.0,0.0894765874001
1385569490395485414,0.0529715590995,0.0760986058699,0.0025099784876,1.0,0.0,0.0908778326963
1385569490595441848,0.067185080725,0.0451316686131,0.00215312947626,1.0,0.0,0.0924976384214
1385569490794667008,0.0711169100163,0.00432259253741,0.000956491171651,1.0,0.0,0.0938706455285
1385569490994422398,0.0640901060203,-0.039650614752,-0.000695602141451,1.0,0.0,0.0944197921773
1385569491195436634,0.0463115413294,-0.079770067927,-0.0026097217929,1.0,0.0,0.0936082601681
1385569491395592600,0.0192536138735,-0.109951750841,-0.0039079427945,1.0,0.0,0.0916863015662
1385569491594408418,-0.0128883411355,-0.123240181846,-0.00400410664588,1.0,0.0,0.0890056632711
1385569491795491955,-0.0463121397565,-0.119413620963,-0.00241148489191,1.0,0.0,0.0861503950297
1385569491994496435,-0.0761192846789,-0.0963589064911,0.000101075496496,1.0,0.0,0.0836394709393
1385569492195517566,-0.0937479749116,-0.055599887477,0.00276211052501,1.0,0.0,0.0815023878112
1385569492394502089,-0.0955535909273,-0.00455664817617,0.00543725611302,1.0,0.0,0.0797706446682
1385569492595721164,-0.0800948044909,0.0485563280644,0.007363240155,1.0,0.0,0.0781323539722
1385569492795493255,-0.0488698991066,0.0944847706221,0.00820138694848,1.0,0.0,0.0767689186511
1385569492995493957,-0.00780752393749,0.125215211396,0.00830314204718,1.0,0.0,0.0760307036263
1385569493194411651,0.0345243553577,0.13556611712,0.00815954846523,1.0,0.0,0.0762084381205
1385569493395462459,0.0701983845986,0.123457441518,0.00809619061403,1.0,0.0,0.077164971575
1385569493594767243,0.0931610456893,0.0905494951822,0.00827173893033,1.0,0.0,0.0785313185916
1385569493795453979,0.0999151682623,0.0416251251884,0.00841776578196,1.0,0.0,0.0799447672706
1385569493994704112,0.0893666122431,-0.0133487421198,0.00732819078139,1.0,0.0,0.0810808586185
1385569494195494862,0.0665071335511,-0.0666071289877,0.00477008703674,1.0,0.0,0.0817603994076
1385569494395471665,0.0343961125863,-0.110810428538,0.00129030770467,1.0,0.0,0.0815804181178
1385569494595476702,-0.00183710621051,-0.135377537554,-0.00104346080737,1.0,0.0,0.0805898494946
1385569494795426226,-0.0385480450257,-0.138288973886,-0.00135517272665,1.0,0.0,0.0785988131296
1385569494995459395,-0.0715559221711,-0.119116290652,-0.000725217748996,1.0,0.0,0.0764082767735
1385569495195495318,-0.0950704303058,-0.0805454340138,0.0012880558973,1.0,0.0,0.0743105415537
1385569495394927986,-0.102859987791,-0.0286532604146,0.00371525222884,1.0,0.0,0.0725991710691
1385569495595639723,-0.0918470137447,0.0275770588419,0.00637198102597,1.0,0.0,0.0713191417936
1385569495795551633,-0.0639846397524,0.0755563124736,0.00819456209825,1.0,0.0,0.0705383908435
1385569495995414689,-0.0261515553901,0.111575778262,0.00808429090013,1.0,0.0,0.0707989711393
1385569496195414729,0.0118944028651,0.125500870343,0.00611548068033,1.0,0.0,0.0714061200551
1385569496394538020,0.0455267521563,0.12348284449,0.00348525350755,1.0,0.0,0.0722209580615
1385569496595465413,0.0685675083611,0.101759578074,0.00108826650175,1.0,0.0,0.0731341629866
1385569496794497914,0.0802758026932,0.0636769178389,-0.00087197768645,1.0,0.0,0.0739328814774
1385569496995411671,0.078585278484,0.0139261347249,-0.00191180954377,1.0,0.0,0.0747029854904
1385569497194423371,0.0630281012701,-0.0377226110829,-0.00320670629369,1.0,0.0,0.0753981537515
1385569497395398877,0.0372553419698,-0.0838321681175,-0.00488443136202,1.0,0.0,0.0761245234967
1385569497595557976,0.00486929786158,-0.116835128418,-0.00705992114766,1.0,0.0,0.0766752062148
1385569497795701404,-0.0275577627648,-0.126187663883,-0.00935937739842,1.0,0.0,0.0765440659919
1385569497995392443,-0.0590716423559,-0.116953078227,-0.0104276520507,1.0,0.0,0.0754922342915
1385569498195696159,-0.0795257004307,-0.0871144930297,-0.00886607139083,1.0,0.0,0.0743569028028
1385569498395614516,-0.0880118067036,-0.0445025517947,-0.00514876700746,1.0,0.0,0.073632074557
1385569498595486859,-0.0794902680732,0.00182436707117,-0.00194037135057,1.0,0.0,0.0734079173304
1385569498795468934,-0.0598602203964,0.043929954143,6.2184982169e-05,1.0,0.0,0.0736841934429
1385569498994612506,-0.03369846515,0.0754300563504,-0.000340066199596,1.0,0.0,0.074221980325
1385569499194710655,-0.0062976093371,0.0952690681852,-0.00353166822016,1.0,0.0,0.074841504009
1385569499395483047,0.017181972329,0.10052400528,-0.00734294448384,1.0,0.0,0.0751933212211
1385569499595435809,0.0345381069984,0.0925282667039,-0.0113238326148,1.0,0.0,0.0753957298401
1385569499795533121,0.0443529550307,0.0728290553105,-0.0144223722021,1.0,0.0,0.0754399345726
1385569499994456592,0.0473077730371,0.0456435177347,-0.0163470806666,1.0,0.0,0.0757144269552
1385569500195503809,0.0431439627852,0.0139933420038,-0.0170751625036,1.0,0.0,0.0765034942275
1385569500394406441,0.0326258841248,-0.0171398382753,-0.0173102513666,1.0,0.0,0.0776843628625
1385569500595490499,0.0174203253258,-0.0437211351029,-0.0172886371449,1.0,0.0,0.0790711276448
1385569500794515477,-0.000206768110909,-0.0621535209501,-0.0166606769376,1.0,0.0,0.0808621629601
1385569500995500461,-0.0175064399108,-0.0695471770671,-0.015268494316,1.0,0.0,0.0826419950558
1385569501195465973,-0.0324765502303,-0.0650256246234,-0.0130928252347,1.0,0.0,0.0843943041241
1385569501395401033,-0.0414267385938,-0.0487664197262,-0.010641807926,1.0,0.0,0.085911938902
1385569501595491482,-0.044403358264,-0.0251227156133,-0.00770054433629,1.0,0.0,0.0871592535287
1385569501795515079,-0.0410461057286,0.00231350236712,-0.00482047611628,1.0,0.0,0.0883313460944
1385569501995617642,-0.0318454124956,0.0266846364362,-0.00248868154982,1.0,0.0,0.0897746042522
1385569502195494948,-0.0201612869731,0.0450848092784,-0.00114669466618,1.0,0.0,0.0914169066156
1385569502395499836,-0.00819438354767,0.0547949952413,-0.00115433283126,1.0,0.0,0.0930887675589
1385569502595460580,0.00254761488445,0.0556605099934,-0.00197042663616,1.0,0.0,0.0946692751547
1385569502795497807,0.0110632307998,0.0489708002986,-0.00337576229044,1.0,0.0,0.0960140242898
1385569502995473171,0.0166422762404,0.0364965735676,-0.00477616509657,1.0,0.0,0.0972887755228
1385569503195529184,0.0191723757957,0.0197518319983,-0.00588344704797,1.0,0.0,0.0986592083494
1385569503395411299,0.0178042187134,0.00136760019701,-0.00668440037365,1.0,0.0,0.0998687158033
1385569503594458381,0.013487225369,-0.0166441271601,-0.00698438164723,1.0,0.0,0.101238821431
1385569503794565254,0.007031448465,-0.0310617474207,-0.00675581905439,1.0,0.0,0.102359067381
1385569503995624769,-0.000629497888405,-0.0396131787314,-0.00592378272655,1.0,0.0,0.10328321713
1385569504194623603,-0.00852622394579,-0.0412342753137,-0.00458276767538,1.0,0.0,0.104012144593
1385569504395587526,-0.0154450578115,-0.0356667545931,-0.00263901810653,1.0,0.0,0.104185447808
1385569504595648500,-0.0203779838363,-0.0238705184067,-0.000977802823184,1.0,0.0,0.104207954344
1385569504795475826,-0.0226795505265,-0.00767942147338,-2.45852365707e-05,1.0,0.0,0.104225644356
1385569504995393025,-0.0213278931102,0.00881303509688,0.000533423867283,1.0,0.0,0.104424024174
1385569505195484754,-0.0171198125597,0.023071333177,0.000659539126302,1.0,0.0,0.10479075606
1385569505394557573,-0.0105783858956,0.0325110492099,0.000309258224489,1.0,0.0,0.105300207579
1385569505594635192,-0.0032235663331,0.0359971814217,-0.000439614001603,1.0,0.0,0.106001555472
1385569505795422724,0.00363128768799,0.0336403128525,-0.00157241890079,1.0,0.0,0.106809345231
1385569505995439763,0.00903237855911,0.0263497472141,-0.00283160418583,1.0,0.0,0.107694943208
1385569506195511707,0.0126241549365,0.0158164967806,-0.00376139375751,1.0,0.0,0.108425127068
1385569506395549366,0.0137313490243,0.00425930618993,-0.0040954151162,1.0,0.0,0.109087501283
1385569506595476308,0.0121967800723,-0.00690233502296,-0.00388181874849,1.0,0.0,0.10967987366
1385569506795422098,0.00799052550684,-0.0152643461025,-0.00344852606973,1.0,0.0,0.110078087583
1385569506995577500,0.002105577858,-0.0203199298737,-0.00271660815783,1.0,0.0,0.110251596207
1385569507195421101,-0.00447754401287,-0.0207026350536,-0.00222537032396,1.0,0.0,0.110259133879
1385569507394399515,-0.0112409207898,-0.0165245717464,-0.00184087442207,1.0,0.0,0.110236359968
1385569507595544242,-0.017262869549,-0.00891073923347,-0.00145417125722,1.0,0.0,0.110152122283
1385569507795473109,-0.0214235284241,0.00015940930949,-0.00102249512288,1.0,0.0,0.109970892644
1385569507995518988,-0.023427056357,0.00993707378951,-0.000362358518273,1.0,0.0,0.109894506419
1385569508195413121,-0.0224606295731,0.0180393688151,0.000233496073863,1.0,0.0,0.109853448857
1385569508395463030,-0.0192223849942,0.0237004394855,0.000402722381496,1.0,0.0,0.109931134285
1385569508594549139,-0.0141348287061,0.0262608770828,0.000181618913543,1.0,0.0,0.110152607566
1385569508795466231,-0.00810212314805,0.0259171614479,-0.00027029924343,1.0,0.0,0.110441618844
1385569508995551042,-0.00196824901979,0.0224441741458,-0.00094030689218,1.0,0.0,0.11068978495
1385569509195551506,0.00302555102741,0.0161972947568,-0.0016174379876,1.0,0.0,0.110948276401
1385569509395397554,0.00608246994396,0.00797536869846,-0.00215823562188,1.0,0.0,0.111197280606
1385569509595375178,0.00664027865118,-0.000877533130997,-0.0024877768837,1.0,0.0,0.111355013724
1385569509795416346,0.00481840292437,-0.00903823850955,-0.0025073372759,1.0,0.0,0.111394394175
1385569509995496706,0.000857500525925,-0.0155692068386,-0.00203241831284,1.0,0.0,0.111455845012
1385569510195459648,-0.00485821757216,-0.0194361379707,-0.00132626514332,1.0,0.0,0.111295781386
1385569510395440220,-0.0114198974757,-0.0201616348753,-0.000754104471467,1.0,0.0,0.111073577308
1385569510595589483,-0.0175669651234,-0.0172789799999,-0.000471656854982,1.0,0.0,0.110727820173
1385569510795471610,-0.0222804360449,-0.0108451679338,-0.000369954599212,1.0,0.0,0.110385033659
1385569510995417082,-0.0249967273723,-0.00204305518185,-0.000285373866887,1.0,0.0,0.110116293992
1385569511195514462,-0.0252379428198,0.00739529582042,-0.00011762600816,1.0,0.0,0.109910513198
1385569511395490923,-0.0226710638574,0.0157994614209,8.92996636682e-05,1.0,0.0,0.109806893732
1385569511595652418,-0.017700262938,0.0216937081032,0.000137010998214,1.0,0.0,0.11001998719
1385569511795426643,-0.0113995297126,0.0244083513318,0.000279562502006,1.0,0.0,0.110409184988
1385569511995519810,-0.00506304624633,0.0231743557471,0.000404829601691,1.0,0.0,0.110905961386
1385569512195486184,-0.000171575397156,0.0184618152188,0.000618182681234,1.0,0.0,0.111401089996
1385569512395508741,0.00251156028094,0.0110811706535,0.000706934269248,1.0,0.0,0.1116770218
1385569512595499482,0.00287948506417,0.00216858275513,0.0006605048283,1.0,0.0,0.111766236712
1385569512795426390,0.00129023152917,-0.00675977276848,0.000616321922737,1.0,0.0,0.111700810736
1385569512994679726,-0.0015350438576,-0.0142050371989,0.000350375332549,1.0,0.0,0.111240694035
1385569513195431209,-0.00500635544389,-0.0195437228668,-0.00031320312344,1.0,0.0,0.110434914168
1385569513395431899,-0.00882970584192,-0.0222254104645,-0.00113550052047,1.0,0.0,0.109074329825
1385569513595431934,-0.0129565708428,-0.021712041604,-0.00165721506894,1.0,0.0,0.107154033722
1385569513795452146,-0.0167177901662,-0.0178938124796,-0.00209427919028,1.0,0.0,0.104658711209
1385569513994408331,-0.0194580767581,-0.0115813875876,-0.00251189103848,1.0,0.0,0.101613166616
1385569514195520910,-0.0206169944131,-0.00387071454324,-0.00259802704678,1.0,0.0,0.0984481366334
1385569514394332876,-0.019991049436,0.00416160086456,-0.00253121544281,1.0,0.0,0.0952164536276
1385569514595086753,-0.0175088167214,0.011390644097,-0.00233519471369,1.0,0.0,0.0920003465328
1385569514795160581,-0.0135754720661,0.0165343916351,-0.00201972570859,1.0,0.0,0.0890620172313
1385569514995155885,-0.00897469061968,0.0184419935499,-0.00179690610651,1.0,0.0,0.0866283086917
1385569515195163590,-0.0046946854327,0.0167160635079,-0.0016982356739,1.0,0.0,0.0845733345258
1385569515394129209,-0.00199375483242,0.0113864652026,-0.00169685326911,1.0,0.0,0.0829001512715
1385569515595449107,-0.00151048213389,0.00385978259643,-0.00160931409655,1.0,0.0,0.0814930122857
1385569515795282820,-0.00337368915344,-0.00448042063342,-0.00142591507219,1.0,0.0,0.0802384476438
1385569515995116241,-0.00759075243976,-0.0122057676267,-0.0009990023971,1.0,0.0,0.0790614585065
1385569516195319860,-0.0137914493831,-0.0179780843376,-0.00029962701932,1.0,0.0,0.0780588865029
1385569516395102844,-0.0211434297725,-0.0199964808651,0.000837755927423,1.0,0.0,0.0772359519008
1385569516595144374,-0.0283120926796,-0.0165709619772,0.00236462010284,1.0,0.0,0.0765203991681
1385569516795148332,-0.0333963676565,-0.00792338759789,0.00421991330238,1.0,0.0,0.0760075503135
1385569516995112555,-0.0346778990956,0.00484465216325,0.00595000610799,1.0,0.0,0.0756413930085
1385569517195073909,-0.0314237940147,0.0189981839072,0.00762614124978,1.0,0.0,0.075601947465
1385569517395150461,-0.0243267976219,0.0309966118412,0.00921253643783,1.0,0.0,0.0760652562388
1385569517595093895,-0.0145471519417,0.0382715954127,0.0101394815022,1.0,0.0,0.0768349559652
1385569517795141065,-0.00386414514322,0.0387492900945,0.0102266812044,1.0,0.0,0.077750879631
1385569517995184367,0.00583573637787,0.0319786540464,0.00919685404291,1.0,0.0,0.0786271635883
1385569518195140101,0.012567266782,0.0188663535361,0.00693168692978,1.0,0.0,0.0792840492293
1385569518395191675,0.015223153944,0.0015004253504,0.0039878128488,1.0,0.0,0.0792019352925
1385569518595372649,0.0131754753416,-0.0174420558119,0.00110316169964,1.0,0.0,0.0782338019305
1385569518795191108,0.00678028432744,-0.0346051336364,-0.0011441623223,1.0,0.0,0.07653966011
1385569518995108063,-0.00372816574086,-0.0462545041233,-0.00242076701227,1.0,0.0,0.0741364888494
1385569519195379480,-0.0173016951074,-0.0496649376086,-0.00248747396427,1.0,0.0,0.0715353749501
1385569519395156143,-0.0322251062702,-0.0439722648539,-0.000892296007041,1.0,0.0,0.0690431207343
1385569519595156943,-0.045656034358,-0.0298065011602,0.00203124193814,1.0,0.0,0.0669236470963
1385569519795146632,-0.0540798077403,-0.00976552513748,0.00535421125461,1.0,0.0,0.0652387151474
1385569519995157539,-0.0550505853923,0.012869190539,0.00868279888151,1.0,0.0,0.0639555418172
1385569520195084153,-0.0477046688367,0.0340156734467,0.0117620562549,1.0,0.0,0.0630698634598
1385569520395122404,-0.0331672436551,0.0504749044405,0.013698933443,1.0,0.0,0.0627412277406
1385569520595101299,-0.0142939873447,0.0601246342397,0.0143446973951,1.0,0.0,0.0628664755658
1385569520795154230,0.00532659514556,0.0615078321157,0.0138101082823,1.0,0.0,0.0633028014908
1385569520995079645,0.0217856199641,0.0534003036332,0.0118242972026,1.0,0.0,0.064212590309
1385569521195106332,0.0322733997251,0.0357951292933,0.00824316505465,1.0,0.0,0.065374162672
1385569521395056747,0.0359077756338,0.0108589586764,0.00327945879521,1.0,0.0,0.066189804756
1385569521595153045,0.0325099728487,-0.0177721737312,-0.00270257369565,1.0,0.0,0.0663133562535
1385569521795055950,0.0223329549069,-0.0448077804006,-0.00830387308543,1.0,0.0,0.0655747857132
1385569521994432113,0.00565940407076,-0.0641674602662,-0.0119414148134,1.0,0.0,0.0639059905547
1385569522195387748,-0.0155825199194,-0.0721383001992,-0.0133102250076,1.0,0.0,0.0614769354594
1385569522395059441,-0.0374952603843,-0.0676089693468,-0.0128186249212,1.0,0.0,0.0588072311988
1385569522595200574,-0.0555885064197,-0.0525591715302,-0.010972497055,1.0,0.0,0.0563470803625
1385569522795122725,-0.0660274989565,-0.0301852633785,-0.00827508391771,1.0,0.0,0.0541525210654
1385569522995229528,-0.0671903273766,-0.00457164161086,-0.00525544619065,1.0,0.0,0.0521008987253
1385569523195159967,-0.0590519896309,0.0199894142167,-0.00213750295474,1.0,0.0,0.0505157714029
1385569523395144441,-0.0430553796077,0.0404968917814,0.000566475898928,1.0,0.0,0.0493279438763
1385569523595312147,-0.021915218685,0.0533718344514,0.00274882886907,1.0,0.0,0.0489712175161
1385569523795324445,0.000649490507054,0.0575707142553,0.00446697135554,1.0,0.0,0.0490729334141
1385569523995274396,0.0209611021244,0.0528892555439,0.00541335611392,1.0,0.0,0.0497146708795
1385569524195325145,0.0356223604524,0.0404610251909,0.00552209592874,1.0,0.0,0.0508747320108
1385569524395288749,0.0425428560936,0.0221506167308,0.00485636547419,1.0,0.0,0.0522364528579
1385569524595149393,0.0403120474038,-8.71969684626e-05,0.00334548184143,1.0,0.0,0.0535800364697
1385569524794082772,0.0291716026943,-0.023009580853,0.00113228932141,1.0,0.0,0.0547044955049
1385569524995209206,0.0110078612361,-0.0426532881018,-0.00113000420246,1.0,0.0,0.0555263003322
1385569525195171907,-0.0111276406786,-0.0554665096286,-0.00281758081391,1.0,0.0,0.0558605920262
1385569525394189170,-0.0332293868663,-0.0593733003084,-0.00343176152114,1.0,0.0,0.0557254983493
1385569525595177094,-0.0513759453695,-0.054445772963,-0.00324169107452,1.0,0.0,0.0553161465333
1385569525794216314,-0.0624640260512,-0.0430666411221,-0.00262121764907,1.0,0.0,0.0548937264458
1385569525995159261,-0.0651269263629,-0.0279184933819,-0.00183949191563,1.0,0.0,0.0545093439059
1385569526195161598,-0.059612092123,-0.0114569750273,-0.00100406150737,1.0,0.0,0.054165382617
1385569526395062076,-0.0476269312325,0.00398792996812,-8.55026528854e-05,1.0,0.0,0.0538571198473
1385569526595066343,-0.0314321575549,0.0167406289544,0.000557076738833,1.0,0.0,0.0534971877598
1385569526795185363,-0.0134046826449,0.0247682539668,0.000885586303523,1.0,0.0,0.0534601812464
1385569526995168597,0.00373030616189,0.0277060929585,0.000673066281323,1.0,0.0,0.0533501500148
1385569527195225386,0.0175812395806,0.0250564446093,0.000339033254998,1.0,0.0,0.0534529698161
1385569527395192429,0.0264671852146,0.0175073327167,-0.000269240077484,1.0,0.0,0.053987917101
1385569527595117132,0.0296008379897,0.0058766660602,-0.00138266527891,1.0,0.0,0.0548141717235
1385569527795298316,0.026837881259,-0.00851582121079,-0.00304597094148,1.0,0.0,0.0555855769256
1385569527995165333,0.0182879365272,-0.0242362416986,-0.00525335593863,1.0,0.0,0.0561807712269
1385569528195165718,0.00495045902236,-0.0387466696662,-0.0074377872928,1.0,0.0,0.0565545930001
1385569528395129529,-0.0115752915127,-0.0490970372949,-0.00893276724511,1.0,0.0,0.0567265449003
1385569528595231456,-0.0288785129235,-0.0528491670302,-0.00913790250246,1.0,0.0,0.0567425930372
1385569528795134469,-0.0434079453816,-0.0489089259348,-0.00824163925824,1.0,0.0,0.0566885718589
1385569528995214410,-0.0518645241213,-0.0377799194458,-0.00650937370745,1.0,0.0,0.0563555778186
1385569529195117394,-0.0523297159647,-0.0216011566537,-0.00453935015088,1.0,0.0,0.0559486444304
1385569529394103040,-0.0445127956718,-0.0036751932043,-0.00244492060925,1.0,0.0,0.0557947425273
1385569529595260363,-0.0302648526418,0.0125767182193,-0.000727593431925,1.0,0.0,0.0560928937576
1385569529795181711,-0.0127041532042,0.024751980809,0.000397804971553,1.0,0.0,0.0567836522645
1385569529995120216,0.00467071059555,0.0309748700875,0.00169620052748,1.0,0.0,0.0575909429378
1385569530194155645,0.0191616055416,0.0300621962392,0.00292607335441,1.0,0.0,0.0587309382993
1385569530395093968,0.0284293082207,0.0227736599641,0.00360286748947,1.0,0.0,0.0599845138594
1385569530595180500,0.0315001628415,0.00989915769871,0.00359734784957,1.0,0.0,0.0614358815239
1385569530795174275,0.0284865549333,-0.007076868039,0.00300520451597,1.0,0.0,0.0628393066989
1385569530995143432,0.0207156270232,-0.0252625409654,0.00228695720232,1.0,0.0,0.063816157196
1385569531195350692,0.00979836583954,-0.0409246587501,0.00139269970063,1.0,0.0,0.0643358463506
1385569531395142744,-0.0027522645132,-0.0511794221617,0.000553179622317,1.0,0.0,0.06471374887
1385569531595298496,-0.0159146134218,-0.0541282611456,0.000318751563749,1.0,0.0,0.0646135091164
1385569531794203823,-0.027353296392,-0.0488108018588,0.000457560523019,1.0,0.0,0.064005626509
1385569531995079991,-0.0344197215603,-0.0363568700762,0.000725188820079,1.0,0.0,0.0632546753324
1385569532195229038,-0.0359485401778,-0.0191261078092,0.000945975710786,1.0,0.0,0.0624728905584
1385569532395050777,-0.0316994014003,-0.000317333362586,0.00114172295806,1.0,0.0,0.0618881025833
1385569532595145986,-0.0221182785452,0.0165862750236,0.00105776457312,1.0,0.0,0.0614674446423
1385569532795199251,-0.00855756214884,0.028156776461,0.00072226789181,1.0,0.0,0.061235112013
1385569532995161345,0.00733971803458,0.0319981698832,0.000479501559039,1.0,0.0,0.0613043908075
1385569533195051510,0.0231066705177,0.0277124356508,-0.000104136501958,1.0,0.0,0.0617888576393
1385569533395082336,0.0360772096237,0.0158736753596,-0.00130987383929,1.0,0.0,0.0626829943098
1385569533595114244,0.043676247432,-0.0023061971158,-0.00335690077955,1.0,0.0,0.0640667344702
1385569533795133975,0.0445194507953,-0.0251979066323,-0.00620037160785,1.0,0.0,0.0655089260798
1385569533995276215,0.0384521585984,-0.0496615595616,-0.00889696634109,1.0,0.0,0.0664154379553
1385569534195299328,0.0258902014086,-0.0706845687725,-0.009935888559,1.0,0.0,0.0664155673914
1385569534395240398,0.00834020881479,-0.0832723755423,-0.00956319234102,1.0,0.0,0.0658128634971
1385569534595160344,-0.0121571429594,-0.0847767853402,-0.0071868167462,1.0,0.0,0.0649188799261
1385569534795234369,-0.0321596722291,-0.0744430081356,-0.00352655468905,1.0,0.0,0.064027166702
1385569534995125285,-0.0473628333354,-0.053561888256,0.0006549052321,1.0,0.0,0.0635056709333
1385569535195101922,-0.0543815226363,-0.0253930190391,0.00485617517809,1.0,0.0,0.0634768786337
1385569535395228297,-0.051541855997,0.00523956230739,0.00857145272036,1.0,0.0,0.0639363998814
1385569535595175630,-0.0394156505469,0.0327586531438,0.0109868289207,1.0,0.0,0.0647951945368
1385569535795111176,-0.0202676056142,0.0523006312609,0.0118409565294,1.0,0.0,0.0659092901861
1385569535995151146,0.00219833079688,0.0609487795335,0.0107392308647,1.0,0.0,0.0674458120533
1385569536195188402,0.0238144012761,0.057791215614,0.00772384397703,1.0,0.0,0.0694587604133
1385569536395172834,0.0408991021728,0.0436308794628,0.00337085028373,1.0,0.0,0.0717368673997
1385569536595149041,0.0513088637875,0.0206804451428,-0.00151942882081,1.0,0.0,0.0738541985779
1385569536795220379,0.0542952611239,-0.00764083455289,-0.00637018434903,1.0,0.0,0.0755197881608
1385569536995122439,0.0503909380793,-0.0374650735244,-0.0102368694562,1.0,0.0,0.0761736897033
1385569537194201838,0.0403734897674,-0.0641785943094,-0.0124499541478,1.0,0.0,0.075770243294
1385569537395383150,0.0246193538958,-0.0828212830613,-0.0128239358853,1.0,0.0,0.0745765881577
1385569537594065732,0.00405598039238,-0.0892318443021,-0.0116449273546,1.0,0.0,0.0728538100573
1385569537794202485,-0.0183518083101,-0.0816829316225,-0.0093239650224,1.0,0.0,0.0711760463273
1385569537995142903,-0.0385988831341,-0.0616415144586,-0.00606369568415,1.0,0.0,0.0700268090011
1385569538195039083,-0.0532723303366,-0.0322434428751,-0.00189001178984,1.0,0.0,0.0693220001493
1385569538395117382,-0.0590067978006,0.0023504612769,0.00241818237157,1.0,0.0,0.0691298412805
1385569538595299565,-0.0541292654089,0.036717261373,0.0062253295248,1.0,0.0,0.0697172205553
1385569538794110066,-0.0395726418266,0.0645581143015,0.0084238704942,1.0,0.0,0.0711449524522
1385569538994067006,-0.0183258979078,0.0813892158911,0.00908219087568,1.0,0.0,0.0730649891869
1385569539195343323,0.00562270984234,0.0849001400225,0.0078930146858,1.0,0.0,0.0751973182026
1385569539395125591,0.0285400118734,0.0760435627475,0.00582249072241,1.0,0.0,0.0772567832715
1385569539595162726,0.0468504953192,0.0566371174512,0.00375043821743,1.0,0.0,0.0791961360067
1385569539795125382,0.057516245478,0.0286351760388,0.00208897016851,1.0,0.0,0.0809168885864
1385569539995156709,0.0588277387385,-0.00446423113838,0.000906171470541,1.0,0.0,0.0822599288536
1385569540195052742,0.0506357447702,-0.0366816053601,2.6506974171e-05,1.0,0.0,0.083468325189
1385569540395125173,0.0347909125421,-0.0626442464376,-0.000686902854029,1.0,0.0,0.0843857047503
1385569540594107440,0.0146744674829,-0.0781562795851,-0.00110549685131,1.0,0.0,0.0851298934432
1385569540795150233,-0.00618068848256,-0.0813272077191,-0.00180140960619,1.0,0.0,0.0859586911164
1385569540995240716,-0.0253948172944,-0.072719221554,-0.00278889842679,1.0,0.0,0.0865573320438
1385569541195106692,-0.0408633708995,-0.0541816894971,-0.00339033430721,1.0,0.0,0.0867640964397
1385569541395127566,-0.0504322416008,-0.0288513325577,-0.00343011921848,1.0,0.0,0.0869921403646
1385569541595271035,-0.0530780251322,-0.000589301621164,-0.00275025644172,1.0,0.0,0.087537299305
1385569541795115846,-0.0486533410391,0.0264386452793,-0.00201938100272,1.0,0.0,0.088383276141
1385569541995107521,-0.0378868692492,0.04803119078,-0.00194848882942,1.0,0.0,0.0893373474972
1385569542195344997,-0.0224620623117,0.0618533967068,-0.00273890739994,1.0,0.0,0.0901174642213
1385569542395163358,-0.00477487282184,0.066539071482,-0.00418630865743,1.0,0.0,0.090656942273
1385569542595219021,0.0131145081213,0.0623611886377,-0.00546021423264,1.0,0.0,0.0907607116934
1385569542795093953,0.0295217235501,0.0493770534505,-0.0064280381599,1.0,0.0,0.0904789532572
1385569542995132965,0.0423080433476,0.02844677403,-0.00632666841497,1.0,0.0,0.0901884954381
1385569543195118328,0.0486370815375,0.00155338038035,-0.00482488153841,1.0,0.0,0.0898282865244
1385569543395271346,0.0461704486307,-0.0274531110228,-0.00235882108339,1.0,0.0,0.0897024753027
1385569543595144804,0.0350249971655,-0.0535285842598,0.000179599601059,1.0,0.0,0.0896401975864
1385569543795066904,0.0168613823957,-0.0717775464369,0.00231194453599,1.0,0.0,0.0896346149313
1385569543995310025,-0.00547050057181,-0.0781361488962,0.00435698159994,1.0,0.0,0.0895339105812
1385569544195158696,-0.0279994422362,-0.0709895964733,0.00603743127494,1.0,0.0,0.0894687971901
1385569544395228812,-0.0465463823591,-0.0510391363406,0.00707738524456,1.0,0.0,0.0896646396005
1385569544594212848,-0.05785759879,-0.0218047747567,0.00750786031178,1.0,0.0,0.0902794973523
1385569544795161027,-0.0599561900236,0.0111763297688,0.00762855942473,1.0,0.0,0.0911713236104
1385569544995150082,-0.0529420200327,0.0429901269726,0.00693466229217,1.0,0.0,0.0919097442187
1385569545194062099,-0.0380847126669,0.0692836714961,0.00553899128744,1.0,0.0,0.0921582025625
1385569545395033058,-0.0175153733623,0.0862175070261,0.0038831725632,1.0,0.0,0.0917405610511
1385569545595332056,0.00632518186572,0.0908360718386,0.00232044160254,1.0,0.0,0.0910578968499
1385569545795056603,0.0300632134237,0.081720042325,0.00110088348803,1.0,0.0,0.0903018643219
1385569545995289601,0.049967646135,0.0591732405428,0.00065107197208,1.0,0.0,0.0892749676717
1385569546195048528,0.0615735833476,0.0262972984123,0.00111744722689,1.0,0.0,0.0880157715543
1385569546395137873,0.0620561334524,-0.0116643282313,0.00258824676691,1.0,0.0,0.0866352667962
1385569546595272474,0.0511973038431,-0.0486743792246,0.0044388533958,1.0,0.0,0.0854825267898
1385569546795223898,0.0312103520588,-0.0788243358293,0.00603471304104,1.0,0.0,0.0846815517099
1385569546995141949,0.00580529115269,-0.0974057303804,0.00713200007579,1.0,0.0,0.0840893755624
1385569547195114938,-0.0206505424189,-0.100668083134,0.00797143047705,1.0,0.0,0.083797480171
1385569547395130704,-0.0439927751218,-0.0875941000488,0.00819431615764,1.0,0.0,0.0837318062997
1385569547595123165,-0.0608687693033,-0.0604603215131,0.00770300675068,1.0,0.0,0.0839759058865
1385569547795244439,-0.0687948303369,-0.0240904610435,0.00660906860826,1.0,0.0,0.08452862367
1385569547995110475,-0.0664983060411,0.014982121169,0.00529046879274,1.0,0.0,0.0852016546347
1385569548195117306,-0.0542956158805,0.0502196782438,0.00381647232756,1.0,0.0,0.0859984240156
1385569548395103466,-0.0345998262337,0.0769840976872,0.0019625848751,1.0,0.0,0.086633710363
1385569548595056798,-0.0103655467272,0.0917752063417,-9.7258435063e-05,1.0,0.0,0.0870346070484
1385569548795095483,0.0155210115676,0.0919927098915,-0.00163744048835,1.0,0.0,0.0869174842146
1385569548995167257,0.0395537982677,0.0756679187156,-0.00244428988471,1.0,0.0,0.0865115721691
