%time,field.header.seq,field.header.stamp,field.header.frame_id,field.child_frame_id,field.transform.translation.x,field.transform.translation.y,field.transform.translation.z,field.transform.rotation.x,field.transform.rotation.y,field.transform.rotation.z,field.transform.rotation.w
1385569419751262961,662391,1385569419751262961,/world,vicon/Archie/Archie,0.255764635844,0.54403398457,0.116491050134,0.00025100630391,-0.00234914225712,0.583474473003,0.812128042786
1385569419761237644,662392,1385569419761237644,/world,vicon/Archie/Archie,0.255715365854,0.544072480801,0.116407122334,0.000142979989012,-0.00235236314511,0.583497159176,0.812111760275
1385569419771289650,662393,1385569419771289650,/world,vicon/Archie/Archie,0.255760684489,0.544030085423,0.116492126015,0.000232011380402,-0.00230856364134,0.583473233491,0.812129055326
1385569419781188829,662394,1385569419781188829,/world,vicon/Archie/Archie,0.255774195752,0.544019775437,0.11646510552,0.000210535985602,-0.00237696157582,0.58348913664,0.812117438029
1385569419791237364,662395,1385569419791237364,/world,vicon/Archie/Archie,0.255700898249,0.54403329687,0.116431378167,0.000400697012763,-0.00264783948053,0.583439050619,0.812152511909
1385569419801280516,662396,1385569419801280516,/world,vicon/Archie/Archie,0.25577093752,0.544032881307,0.116466109297,0.000207804494324,-0.00240423624427,0.583492204314,0.812115154378
1385569419811196697,662397,1385569419811196697,/world,vicon/Archie/Archie,0.25575920971,0.544037145285,0.116480976626,0.000235256613848,-0.00233062655694,0.583482479664,0.812122348393
1385569419821512089,662398,1385569419821512089,/world,vicon/Archie/Archie,0.255774920092,0.544045571969,0.116472820158,0.000236250461733,-0.00235977431692,0.583493208766,0.812114555328
1385569419831185740,662399,1385569419831185740,/world,vicon/Archie/Archie,0.255766442051,0.544049448843,0.116476930684,0.000230996220803,-0.00231690845323,0.583490557629,0.812116585063
1385569419841174018,662400,1385569419841174018,/world,vicon/Archie/Archie,0.255699978725,0.544044245514,0.11642337843,0.000388637496398,-0.00266331188389,0.583431128382,0.812158158344
1385569419851471353,662401,1385569419851471353,/world,vicon/Archie/Archie,0.255708477983,0.544043850123,0.116431248078,0.000387075667103,-0.00263258098984,0.583428396256,0.812160221959
1385569419861216775,662402,1385569419861216775,/world,vicon/Archie/Archie,0.255695664493,0.544043957482,0.116426578969,0.000379450561709,-0.00262400771405,0.583433842781,0.812156340675
1385569419871257066,662403,1385569419871257066,/world,vicon/Archie/Archie,0.255783161259,0.544040132304,0.116461513766,0.000194656520323,-0.00234097749177,0.583493914753,0.81211411352
1385569419881177978,662404,1385569419881177978,/world,vicon/Archie/Archie,0.25569628129,0.544050093358,0.116438560722,0.000386294519432,-0.00256624414963,0.583430132811,0.812159187164
1385569419891235293,662405,1385569419891235293,/world,vicon/Archie/Archie,0.255700147649,0.544056798479,0.116442828023,0.000389744487916,-0.00255716511111,0.583424547276,0.8121632266
1385569419901285279,662406,1385569419901285279,/world,vicon/Archie/Archie,0.255937869042,0.543951848868,0.116354575487,0.000969278604867,-0.00270726303008,0.583655685943,0.811996164703
1385569419911269280,662407,1385569419911269280,/world,vicon/Archie/Archie,0.255927068306,0.543947530439,0.116366057893,0.00099774356088,-0.00272460848455,0.583654957915,0.811996595509
1385569419921230373,662408,1385569419921230373,/world,vicon/Archie/Archie,0.255780611344,0.544036195124,0.11647236931,0.000215539668497,-0.00236740324666,0.583498843959,0.812110490046
1385569419931055453,662409,1385569419931055453,/world,vicon/Archie/Archie,0.25574413013,0.544053470257,0.116421447981,0.000359392319056,-0.00257322888884,0.583405534009,0.812176847871
1385569419941398972,662410,1385569419941398972,/world,vicon/Archie/Archie,0.255769749359,0.544032985538,0.116473703304,0.000218061116892,-0.00237576071231,0.583500631694,0.812109180482
1385569419951209172,662411,1385569419951209172,/world,vicon/Archie/Archie,0.255778065911,0.544031323444,0.116470116832,0.000212675428216,-0.00234948917736,0.583486650387,0.81211930373
1385569419961261864,662412,1385569419961261864,/world,vicon/Archie/Archie,0.255723609992,0.544086901466,0.116393415395,0.000132254524043,-0.00232325815416,0.583490180747,0.812116859788
1385569419971213757,662413,1385569419971213757,/world,vicon/Archie/Archie,0.255700446519,0.544027622781,0.116416449641,0.000367558111972,-0.00261677073421,0.583415162612,0.812169788558
1385569419982454217,662414,1385569419982454217,/world,vicon/Archie/Archie,0.255779179685,0.54402655578,0.11646098778,0.000190782629654,-0.00236480796316,0.583483761547,0.812121340254
1385569419991173060,662415,1385569419991173060,/world,vicon/Archie/Archie,0.25570172211,0.544033175908,0.116413740976,0.000338591165583,-0.00263936993516,0.58342045848,0.812165923756
1385569420001217393,662416,1385569420001217393,/world,vicon/Archie/Archie,0.255769847723,0.544040669798,0.116453369258,0.000186845690509,-0.00235228229259,0.583483064565,0.812121878305
1385569420011194489,662417,1385569420011194489,/world,vicon/Archie/Archie,0.255697071105,0.54403762963,0.116416749724,0.000357401189768,-0.00263822096998,0.583423174972,0.812163968027
1385569420021316509,662418,1385569420021316509,/world,vicon/Archie/Archie,0.255702911529,0.544040187771,0.116416136638,0.000375933232447,-0.00263248411493,0.58341957398,0.812166565058
1385569420031221371,662419,1385569420031221371,/world,vicon/Archie/Archie,0.255715653508,0.54408304003,0.116382272317,0.000134784166285,-0.002344776219,0.58348870347,0.812117858922
1385569420041238486,662420,1385569420041238486,/world,vicon/Archie/Archie,0.255699738955,0.544035626475,0.116411794355,0.000369729165979,-0.0026323035279,0.583420725749,0.812165741118
1385569420051197340,662421,1385569420051197340,/world,vicon/Archie/Archie,0.255770125509,0.544031149913,0.116465400072,0.000202340723354,-0.0023920631331,0.583486661799,0.812119173887
1385569420061182988,662422,1385569420061182988,/world,vicon/Archie/Archie,0.255772645551,0.544031826448,0.116455800751,0.000206094683274,-0.00238151140206,0.583480711159,0.812123479302
1385569420071305222,662423,1385569420071305222,/world,vicon/Archie/Archie,0.255777097952,0.544033728132,0.116467707168,0.000221007947727,-0.00237099029008,0.583486801866,0.812119130182
1385569420081213424,662424,1385569420081213424,/world,vicon/Archie/Archie,0.255773643784,0.544034357678,0.116457708789,0.000193576458434,-0.0023785757126,0.583497977701,0.812111085335
1385569420091262894,662425,1385569420091262894,/world,vicon/Archie/Archie,0.255630360894,0.544093318495,0.11635031409,0.000304991387555,-0.00262838411586,0.58343422472,0.812156083523
1385569420101356628,662426,1385569420101356628,/world,vicon/Archie/Archie,0.255702520725,0.544037992791,0.116417551279,0.000361095238717,-0.00261683285451,0.583417820417,0.812167882039
1385569420111492588,662427,1385569420111492588,/world,vicon/Archie/Archie,0.255638036807,0.544090417721,0.116351641088,0.000316961551312,-0.00261311880098,0.58343588674,0.812154934239
1385569420121261057,662428,1385569420121261057,/world,vicon/Archie/Archie,0.25564407449,0.544088215091,0.116346932197,0.000306470616668,-0.00262093441161,0.583412136958,0.812171973925
1385569420131110904,662429,1385569420131110904,/world,vicon/Archie/Archie,0.255697274388,0.544030345045,0.116422263751,0.0003844664798,-0.0026417075551,0.583420051146,0.812166188343
1385569420141472413,662430,1385569420141472413,/world,vicon/Archie/Archie,0.255766287007,0.544028505894,0.116471827776,0.000210585308729,-0.00233734986082,0.583473540281,0.812128758413
1385569420151174880,662431,1385569420151174880,/world,vicon/Archie/Archie,0.255775472359,0.54403095135,0.116463787719,0.000205563365766,-0.00236881443622,0.583492870779,0.812114780196
1385569420161352686,662432,1385569420161352686,/world,vicon/Archie/Archie,0.255769043492,0.544040704168,0.11648696289,0.000213064344888,-0.00229176271002,0.583484393727,0.812121089927
1385569420171229290,662433,1385569420171229290,/world,vicon/Archie/Archie,0.255711953015,0.544029265311,0.11642192061,0.000355433692824,-0.00261099017896,0.583408754609,0.812174415654
1385569420181273954,662434,1385569420181273954,/world,vicon/Archie/Archie,0.255775675435,0.54403191698,0.116459243459,0.000167740776177,-0.0023396794459,0.583485483992,0.812120180598
1385569420191222787,662435,1385569420191222787,/world,vicon/Archie/Archie,0.255714457493,0.544033228173,0.116427431185,0.000374778882604,-0.00260744095373,0.583423991989,0.812163472685
1385569420201152129,662436,1385569420201152129,/world,vicon/Archie/Archie,0.25571296433,0.544033988805,0.116438216013,0.000375338399113,-0.00263056224574,0.583427607875,0.812160800355
1385569420211294948,662437,1385569420211294948,/world,vicon/Archie/Archie,0.255784441516,0.544034868365,0.116471242353,0.00019278517963,-0.00236408849362,0.583493755802,0.812114161223
1385569420221295751,662438,1385569420221295751,/world,vicon/Archie/Archie,0.255788331295,0.544030344578,0.116469954724,0.000196024809825,-0.00236985217467,0.583490297546,0.812116628351
1385569420231131297,662439,1385569420231131297,/world,vicon/Archie/Archie,0.255782173577,0.54403446634,0.11646878208,0.000191222847985,-0.00236021458004,0.583485006603,0.812120458978
1385569420241125518,662440,1385569420241125518,/world,vicon/Archie/Archie,0.255774194067,0.544037049558,0.116470623355,0.000220655193584,-0.00241911670065,0.583486840298,0.812118960734
1385569420251636536,662441,1385569420251636536,/world,vicon/Archie/Archie,0.255706790693,0.544036851511,0.116425275131,0.000375801507955,-0.00264859372501,0.583419159628,0.812166810393
1385569420261249312,662442,1385569420261249312,/world,vicon/Archie/Archie,0.255789868991,0.544042793482,0.11646236503,0.00019273708576,-0.00238260186456,0.583474873372,0.812127673586
1385569420271242133,662443,1385569420271242133,/world,vicon/Archie/Archie,0.255775063064,0.544041993238,0.116482199891,0.000222458725118,-0.00233364382692,0.583473597598,0.812128724726
1385569420281164467,662444,1385569420281164467,/world,vicon/Archie/Archie,0.255705809893,0.544047266806,0.11643002887,0.000397280170237,-0.00258511336256,0.583418409395,0.812167543636
1385569420291230421,662445,1385569420291230421,/world,vicon/Archie/Archie,0.255773096459,0.544049197001,0.116481440272,0.00023672819246,-0.00231883018322,0.583490511084,0.812116611369
1385569420301166215,662446,1385569420301166215,/world,vicon/Archie/Archie,0.255734095659,0.544099240309,0.116410662999,0.000137588331696,-0.00229206216364,0.583490323899,0.812116844695
1385569420311411611,662447,1385569420311411611,/world,vicon/Archie/Archie,0.25578587751,0.544047210235,0.116481487678,0.000225486276911,-0.00231858824224,0.583485776991,0.812120016595
1385569420321217437,662448,1385569420321217437,/world,vicon/Archie/Archie,0.25571973819,0.544045395573,0.116433177285,0.000391509024544,-0.0026013954791,0.58341886207,0.812167169272
1385569420331256847,662449,1385569420331256847,/world,vicon/Archie/Archie,0.255781495608,0.544048979334,0.116486668778,0.000222655101125,-0.00232912807696,0.58347536745,0.812127466083
1385569420341286251,662450,1385569420341286251,/world,vicon/Archie/Archie,0.255728825508,0.544091932514,0.116420968901,0.000161920235225,-0.00233105098214,0.583490885585,0.812116325672
1385569420351174277,662451,1385569420351174277,/world,vicon/Archie/Archie,0.255782579339,0.544045450351,0.116474949402,0.00021080528544,-0.00237303760876,0.583488384121,0.812117990103
1385569420361141786,662452,1385569420361141786,/world,vicon/Archie/Archie,0.255712271325,0.54404275018,0.1164308399,0.000367803176506,-0.00262945646408,0.583426136391,0.812161864443
1385569420371275738,662453,1385569420371275738,/world,vicon/Archie/Archie,0.255700989353,0.544049364321,0.116445951167,0.00040013526315,-0.00259611117917,0.583418633024,0.812167346511
1385569420381301238,662454,1385569420381301238,/world,vicon/Archie/Archie,0.255775145793,0.544047850977,0.116482559324,0.000230612780249,-0.00234323296545,0.583486422327,0.812119480765
1385569420391173657,662455,1385569420391173657,/world,vicon/Archie/Archie,0.2557109201,0.544042352587,0.116429659311,0.000369106209763,-0.00262486179568,0.583426005827,0.812161972507
1385569420401151116,662456,1385569420401151116,/world,vicon/Archie/Archie,0.255779187698,0.544041446929,0.116483463047,0.000237386986704,-0.00234574094041,0.583491108395,0.812116104736
1385569420411203325,662457,1385569420411203325,/world,vicon/Archie/Archie,0.255695842087,0.544048917777,0.116440944888,0.00038800962757,-0.00258142194608,0.583427365731,0.812161126024
1385569420421310816,662458,1385569420421310816,/world,vicon/Archie/Archie,0.255782880804,0.544034531438,0.116474407969,0.000212685856809,-0.00236992551564,0.583495762726,0.812112697289
1385569420431129100,662459,1385569420431129100,/world,vicon/Archie/Archie,0.255786632289,0.544042178837,0.116465646764,0.000193283796637,-0.00238162126475,0.583484857986,0.812120502772
1385569420441188971,662460,1385569420441188971,/world,vicon/Archie/Archie,0.255708609735,0.544041188344,0.116425780014,0.000350132950996,-0.00262837872971,0.58342476154,0.812162863381
1385569420451192931,662461,1385569420451192931,/world,vicon/Archie/Archie,0.255789560455,0.544038232877,0.116463774494,0.000198798542078,-0.00237961904835,0.583501573347,0.812108497551
1385569420461225197,662462,1385569420461225197,/world,vicon/Archie/Archie,0.255777571331,0.544036431257,0.116488931081,0.000213151416739,-0.00230397610419,0.58348412585,0.812121247808
1385569420471349330,662463,1385569420471349330,/world,vicon/Archie/Archie,0.255768211971,0.54404647735,0.11648091174,0.000223084549482,-0.00231272535345,0.583488830382,0.81211784019
1385569420481142326,662464,1385569420481142326,/world,vicon/Archie/Archie,0.255768970541,0.544048125071,0.116489203872,0.000242399707489,-0.00231532652243,0.583486862043,0.812119241447
1385569420491088081,662465,1385569420491088081,/world,vicon/Archie/Archie,0.255717073532,0.544040282534,0.116421411803,0.000359713617721,-0.00262742626051,0.583431698548,0.812157878966
1385569420501212591,662466,1385569420501212591,/world,vicon/Archie/Archie,0.255764235945,0.544042880052,0.116482266446,0.000212970560021,-0.00228210189486,0.583498755309,0.812110798603
1385569420511168236,662467,1385569420511168236,/world,vicon/Archie/Archie,0.25572083718,0.544044489136,0.116420727354,0.000352512050248,-0.00260859158003,0.583428797912,0.812160026566
1385569420521284330,662468,1385569420521284330,/world,vicon/Archie/Archie,0.255778441166,0.544044035277,0.116493039269,0.000252253170847,-0.00231373294354,0.583494521716,0.812113739654
1385569420531190332,662469,1385569420531190332,/world,vicon/Archie/Archie,0.25577959613,0.544043337096,0.116464862047,0.000192165839996,-0.00235309856136,0.583497852385,0.812111249929
1385569420541280040,662470,1385569420541280040,/world,vicon/Archie/Archie,0.255776248514,0.544042277094,0.116468106227,0.000206632912092,-0.00234949933824,0.583495282646,0.812113103136
1385569420551004138,662471,1385569420551004138,/world,vicon/Archie/Archie,0.255705522217,0.544044794444,0.116428781863,0.00036092257513,-0.002618512958,0.58342716736,0.812161162277
1385569420561339696,662472,1385569420561339696,/world,vicon/Archie/Archie,0.255782995598,0.54403980264,0.116461761414,0.000216085018382,-0.00237812364251,0.583492270268,0.812115181715
1385569420571232869,662473,1385569420571232869,/world,vicon/Archie/Archie,0.255780709352,0.544042663703,0.116467068711,0.000225117407892,-0.00236332605928,0.583497768963,0.812111271703
1385569420581047149,662474,1385569420581047149,/world,vicon/Archie/Archie,0.255700719355,0.544043828595,0.116431899584,0.000399490000245,-0.00263316886155,0.58343769643,0.81215353303
1385569420591267786,662475,1385569420591267786,/world,vicon/Archie/Archie,0.255778082689,0.544043373515,0.116454981651,0.00019660579705,-0.00237486494381,0.583499067945,0.812110312131
1385569420601231358,662476,1385569420601231358,/world,vicon/Archie/Archie,0.255780337679,0.54404274918,0.116472983001,0.000215897427243,-0.00238371583598,0.583477226766,0.812125973684
1385569420611343165,662477,1385569420611343165,/world,vicon/Archie/Archie,0.255768477858,0.544043052634,0.116455839072,0.000214294782789,-0.00235610578862,0.58350487436,0.812106190372
1385569420621191724,662478,1385569420621191724,/world,vicon/Archie/Archie,0.25578506965,0.544041422193,0.116456016408,0.000215085039368,-0.00235096692757,0.583491057404,0.812116132473
1385569420631222561,662479,1385569420631222561,/world,vicon/Archie/Archie,0.25577066216,0.544044595422,0.116481247044,0.000221455897919,-0.00230342864824,0.583493253078,0.812114689429
1385569420641244152,662480,1385569420641244152,/world,vicon/Archie/Archie,0.255717094423,0.544037205691,0.116432352667,0.000411596046963,-0.00263641242249,0.583411514025,0.812172324831
1385569420651097087,662481,1385569420651097087,/world,vicon/Archie/Archie,0.255708426178,0.54402810624,0.116433232393,0.000400192460022,-0.0026647093219,0.583419626452,0.812166410682
1385569420661801370,662482,1385569420661801370,/world,vicon/Archie/Archie,0.255785700682,0.544035152256,0.11646856672,0.00022339738341,-0.00236290837634,0.583468320667,0.812132431033
1385569420671285668,662483,1385569420671285668,/world,vicon/Archie/Archie,0.255782893427,0.544025691427,0.1164769735,0.000212473900554,-0.0023805131556,0.583486775641,0.812119123444
1385569420681221284,662484,1385569420681221284,/world,vicon/Archie/Archie,0.255763619226,0.544042297481,0.116486865271,0.000233984560465,-0.00232758473996,0.583468395065,0.812132476607
1385569420691394791,662485,1385569420691394791,/world,vicon/Archie/Archie,0.255712657092,0.544042274181,0.116428221141,0.000377120673504,-0.00263680627332,0.583404310891,0.812177514504
1385569420701280910,662486,1385569420701280910,/world,vicon/Archie/Archie,0.255784569398,0.544030793963,0.116479032536,0.000224089494199,-0.00237540824261,0.58349240698,0.812115089267
1385569420711203470,662487,1385569420711203470,/world,vicon/Archie/Archie,0.255770670325,0.544044722949,0.116480072009,0.000226192243749,-0.00228412467453,0.583472039142,0.812129984147
1385569420721186145,662488,1385569420721186145,/world,vicon/Archie/Archie,0.255696883659,0.544039825785,0.116434035759,0.000370609112159,-0.00261781880184,0.583409520176,0.81217383696
1385569420731147352,662489,1385569420731147352,/world,vicon/Archie/Archie,0.255693218498,0.544036687961,0.116451488045,0.00040015336982,-0.00256609864238,0.583409541232,0.812173972874
1385569420741307286,662490,1385569420741307286,/world,vicon/Archie/Archie,0.255763551805,0.544039264393,0.116490089432,0.000236667779584,-0.00229437572966,0.583485713801,0.812120127578
1385569420751157357,662491,1385569420751157357,/world,vicon/Archie/Archie,0.255766038826,0.544035957753,0.116481588265,0.000233186770857,-0.00239774083144,0.583491340854,0.812115787072
1385569420761322153,662492,1385569420761322153,/world,vicon/Archie/Archie,0.255771560859,0.544033803599,0.116477310234,0.000229645069741,-0.00239172536257,0.583481887538,0.812122597782
1385569420771356426,662493,1385569420771356426,/world,vicon/Archie/Archie,0.255772635478,0.544036635025,0.11648108588,0.000204816802226,-0.00237842219209,0.583483654048,0.812121374313
1385569420781250721,662494,1385569420781250721,/world,vicon/Archie/Archie,0.25577212842,0.544050711617,0.116475501953,0.000216016127808,-0.00238379889795,0.583478601535,0.812124985695
1385569420791416550,662495,1385569420791416550,/world,vicon/Archie/Archie,0.255766601441,0.544034864661,0.116481025462,0.00020639824632,-0.00238287393057,0.58350031935,0.812109387109
1385569420801245078,662496,1385569420801245078,/world,vicon/Archie/Archie,0.255775885358,0.544039016174,0.116483554383,0.000210697215505,-0.00237064702971,0.583490712391,0.812116324299
1385569420811163059,662497,1385569420811163059,/world,vicon/Archie/Archie,0.255693632126,0.54404732703,0.116440853795,0.000378936274485,-0.00264639550768,0.583416432969,0.812168774787
1385569420821354721,662498,1385569420821354721,/world,vicon/Archie/Archie,0.255771279474,0.544040985554,0.116479900449,0.000219498432678,-0.00242494257652,0.583485717694,0.812119750234
1385569420831274601,662499,1385569420831274601,/world,vicon/Archie/Archie,0.255694508618,0.544046119044,0.116430575787,0.000381985703685,-0.0026625265523,0.583420601265,0.812165726351
1385569420841310236,662500,1385569420841310236,/world,vicon/Archie/Archie,0.255780350752,0.544041593673,0.11647450568,0.000203733703769,-0.00237251870744,0.583492187446,0.812115260808
1385569420851215554,662501,1385569420851215554,/world,vicon/Archie/Archie,0.255696451994,0.544047897931,0.116432109659,0.000390703608825,-0.00267133543568,0.583424722142,0.812162733023
1385569420861292804,662502,1385569420861292804,/world,vicon/Archie/Archie,0.255699620073,0.544047135098,0.116440162637,0.00039319526363,-0.00266470149699,0.583424864378,0.812162651437
1385569420871244282,662503,1385569420871244282,/world,vicon/Archie/Archie,0.255765066995,0.544053123952,0.116490091018,0.000248197922881,-0.00237235597601,0.583476623026,0.812126431479
1385569420881114389,662504,1385569420881114389,/world,vicon/Archie/Archie,0.255759833282,0.544050946584,0.116493069548,0.000231663824196,-0.00234712788432,0.583482210051,0.812122495611
1385569420891446013,662505,1385569420891446013,/world,vicon/Archie/Archie,0.255778340396,0.544051165382,0.116477776136,0.00022416828913,-0.00241502521536,0.583476615185,0.812126318336
1385569420901376108,662506,1385569420901376108,/world,vicon/Archie/Archie,0.255776144709,0.544049041297,0.116475989186,0.00023347072769,-0.00236254582972,0.58347850187,0.812125114576
1385569420911250458,662507,1385569420911250458,/world,vicon/Archie/Archie,0.255760895966,0.544047609154,0.116473571225,0.000232783177884,-0.0023920748634,0.583489109345,0.812117407193
1385569420921216112,662508,1385569420921216112,/world,vicon/Archie/Archie,0.255687257016,0.544049118785,0.116445373098,0.000399506439852,-0.00259110085759,0.583425901402,0.812162141548
1385569420931227422,662509,1385569420931227422,/world,vicon/Archie/Archie,0.255697527526,0.544049979998,0.116431227514,0.000367185264001,-0.00263931549771,0.583421319371,0.812165293085
1385569420941274674,662510,1385569420941274674,/world,vicon/Archie/Archie,0.255769687536,0.544045915388,0.116473623277,0.000216657889866,-0.00235166892906,0.58350344359,0.812107230624
1385569420951203836,662511,1385569420951203836,/world,vicon/Archie/Archie,0.255694284001,0.544043924717,0.116428078921,0.000383946929781,-0.00265640995045,0.583436420266,0.812154381616
1385569420961334851,662512,1385569420961334851,/world,vicon/Archie/Archie,0.255768997289,0.5440572457,0.116490210837,0.000232724542684,-0.00230653353184,0.583496363567,0.812112442613
1385569420971249124,662513,1385569420971249124,/world,vicon/Archie/Archie,0.255760198765,0.544040070354,0.116483581729,0.000225334208935,-0.00239909498176,0.583498662724,0.812110524601
1385569420981163138,662514,1385569420981163138,/world,vicon/Archie/Archie,0.25568522182,0.544055548932,0.116442724831,0.000391108745215,-0.00259090599083,0.58342409196,0.812163446087
1385569420991347697,662515,1385569420991347697,/world,vicon/Archie/Archie,0.255765111497,0.544053154609,0.116488194446,0.000238674996258,-0.00233365481274,0.583494118264,0.812113976632
1385569421001096308,662516,1385569421001096308,/world,vicon/Archie/Archie,0.255699099249,0.544041974219,0.116430938763,0.000388176867689,-0.00266471894408,0.583427389079,0.812160840145
1385569421011175328,662517,1385569421011175328,/world,vicon/Archie/Archie,0.255692602513,0.544052301277,0.11644739242,0.00039983953152,-0.00258207849276,0.583422078969,0.812164915993
1385569421021281451,662518,1385569421021281451,/world,vicon/Archie/Archie,0.255774585218,0.544046527304,0.116473023643,0.000231835620376,-0.00236177089377,0.58349501326,0.812113254288
1385569421031345000,662519,1385569421031345000,/world,vicon/Archie/Archie,0.255759762606,0.544051041597,0.116489208777,0.000247917564843,-0.00231597930004,0.583499837714,0.812109915076
1385569421041272032,662520,1385569421041272032,/world,vicon/Archie/Archie,0.255774369015,0.544041513884,0.116471568921,0.000232806358252,-0.00237112857257,0.583487719519,0.812118467172
1385569421051227464,662521,1385569421051227464,/world,vicon/Archie/Archie,0.255764214104,0.544047497145,0.116482696787,0.00025284091865,-0.00228769374096,0.583487295453,0.812119005179
1385569421061262488,662522,1385569421061262488,/world,vicon/Archie/Archie,0.25577147215,0.544049509141,0.116467375603,0.000234278515517,-0.00235320723835,0.583491280387,0.812115960464
1385569421071243405,662523,1385569421071243405,/world,vicon/Archie/Archie,0.255768677855,0.544037414643,0.116470891785,0.000219243151135,-0.0023657275343,0.583502787559,0.812107660459
1385569421081199099,662524,1385569421081199099,/world,vicon/Archie/Archie,0.255694621636,0.544053982266,0.116442748244,0.000403537571596,-0.00256673177757,0.58341858581,0.812167472124
1385569421091160493,662525,1385569421091160493,/world,vicon/Archie/Archie,0.255714472054,0.544042842908,0.116424216385,0.000385069338015,-0.00262319722778,0.583419692643,0.812166505585
1385569421101224311,662526,1385569421101224311,/world,vicon/Archie/Archie,0.255788988203,0.544042076045,0.116477674327,0.000240170448281,-0.00231639169608,0.583486120684,0.812119771719
1385569421111206450,662527,1385569421111206450,/world,vicon/Archie/Archie,0.255776688173,0.544045174469,0.116470097486,0.000207188444837,-0.00227976066918,0.583473415891,0.812129012358
1385569421121355101,662528,1385569421121355101,/world,vicon/Archie/Archie,0.255799948491,0.544027202932,0.116465417495,0.000216932191829,-0.00239014754965,0.583490063896,0.812116731431
1385569421131167422,662529,1385569421131167422,/world,vicon/Archie/Archie,0.255783163507,0.54403595195,0.116481532282,0.000219392624222,-0.00232972433167,0.583478149037,0.812125466814
1385569421141336203,662530,1385569421141336203,/world,vicon/Archie/Archie,0.255773399875,0.544048305844,0.11648419963,0.000235010616098,-0.00234392691593,0.583470247749,0.812131098264
1385569421151187366,662531,1385569421151187366,/world,vicon/Archie/Archie,0.255792474608,0.544037998574,0.116477483435,0.000213474983132,-0.0023721411761,0.583484311753,0.812120917914
1385569421161197236,662532,1385569421161197236,/world,vicon/Archie/Archie,0.255794486265,0.544040858602,0.116466092423,0.000199281522454,-0.0023930524264,0.58348825757,0.812118025206
1385569421171220245,662533,1385569421171220245,/world,vicon/Archie/Archie,0.255708682289,0.544045833278,0.116432065506,0.000383601027799,-0.00260815164041,0.58340974915,0.81217369755
1385569421181123762,662534,1385569421181123762,/world,vicon/Archie/Archie,0.255713271191,0.544042906523,0.116445652702,0.00041153291637,-0.00262698667984,0.583416126728,0.812169041921
1385569421191145723,662535,1385569421191145723,/world,vicon/Archie/Archie,0.255716638285,0.54404314133,0.116424120837,0.000382774244431,-0.0026838530694,0.583421882745,0.81216473523
1385569421201196134,662536,1385569421201196134,/world,vicon/Archie/Archie,0.255768486331,0.544036973362,0.116483115412,0.000242098587767,-0.00234784190397,0.583484846808,0.812120596077
1385569421211202178,662537,1385569421211202178,/world,vicon/Archie/Archie,0.255784484672,0.544040334231,0.116466255316,0.000232879064334,-0.00240803030557,0.583487525614,0.812118497887
1385569421221258307,662538,1385569421221258307,/world,vicon/Archie/Archie,0.255778324389,0.544040478335,0.116463075279,0.000197880105198,-0.00239538978445,0.583486575083,0.812119227484
1385569421231136712,662539,1385569421231136712,/world,vicon/Archie/Archie,0.255762293035,0.544043327362,0.11647867745,0.00021990905225,-0.00233841360737,0.583488786562,0.812117798979
1385569421241373698,662540,1385569421241373698,/world,vicon/Archie/Archie,0.255771583237,0.544038119529,0.116467534014,0.000206626972617,-0.00238538517991,0.583488822181,0.812117640267
1385569421251235704,662541,1385569421251235704,/world,vicon/Archie/Archie,0.255778781967,0.544033238757,0.116463957183,0.000211274884439,-0.00239716012862,0.583484569119,0.812120660116
1385569421261301278,662542,1385569421261301278,/world,vicon/Archie/Archie,0.255777885711,0.544030609268,0.116474196099,0.000225836360109,-0.0023929872769,0.583492230493,0.812115163979
1385569421271173408,662543,1385569421271173408,/world,vicon/Archie/Archie,0.255768720772,0.544035134517,0.116470567806,0.000232059163436,-0.00241089995094,0.583500592222,0.812109101406
1385569421281262536,662544,1385569421281262536,/world,vicon/Archie/Archie,0.255768419899,0.54404212167,0.116484285823,0.000247182062322,-0.00234678410247,0.583480569845,0.812123670458
1385569421291358498,662545,1385569421291358498,/world,vicon/Archie/Archie,0.255773938363,0.544042051376,0.116460508743,0.000210189114953,-0.0023821330412,0.583496589504,0.81211206819
1385569421301198394,662546,1385569421301198394,/world,vicon/Archie/Archie,0.255687078191,0.544050541723,0.116437526719,0.000396844631621,-0.00260127551031,0.583425777598,0.812162199265
1385569421311346410,662547,1385569421311346410,/world,vicon/Archie/Archie,0.255773154424,0.544037539595,0.116460700172,0.000198121343995,-0.00236540743293,0.583490591439,0.812116429644
1385569421321373742,662548,1385569421321373742,/world,vicon/Archie/Archie,0.25575989151,0.544047671826,0.116475791828,0.000218870987576,-0.00230368493379,0.583494262406,0.812113964213
1385569421331152792,662549,1385569421331152792,/world,vicon/Archie/Archie,0.255696321163,0.544042983211,0.116420582889,0.000382096810145,-0.00267509539822,0.583430676034,0.812158447674
1385569421341201445,662550,1385569421341201445,/world,vicon/Archie/Archie,0.255700879437,0.544044799736,0.116426791122,0.000390766640602,-0.00263547801204,0.583438733553,0.812152784732
1385569421351167380,662551,1385569421351167380,/world,vicon/Archie/Archie,0.2556881809,0.5440505467,0.116438027804,0.000395470781602,-0.00256220157071,0.583431406448,0.812158280568
1385569421361267198,662552,1385569421361267198,/world,vicon/Archie/Archie,0.255693368775,0.544044666811,0.116420956915,0.000379823163489,-0.00266579051205,0.583433105748,0.812156733896
1385569421371493358,662553,1385569421371493358,/world,vicon/Archie/Archie,0.255768749156,0.544040724999,0.116468410568,0.000208669010084,-0.00237573939709,0.583500276117,0.812109438494
1385569421381237966,662554,1385569421381237966,/world,vicon/Archie/Archie,0.255766830831,0.544042546071,0.116463202808,0.000206921086573,-0.00236024972511,0.583498223726,0.812110958745
1385569421391283432,662555,1385569421391283432,/world,vicon/Archie/Archie,0.255767691955,0.544038879495,0.116469951958,0.00024457809378,-0.00239853150989,0.583504799918,0.812106111109
1385569421401132589,662556,1385569421401132589,/world,vicon/Archie/Archie,0.255772312356,0.544037626006,0.116464623816,0.000209574739999,-0.00239671267908,0.583492877636,0.812114692389
1385569421411210124,662557,1385569421411210124,/world,vicon/Archie/Archie,0.255691725988,0.544050223899,0.116433626652,0.000385935592109,-0.00259403238955,0.58342758477,0.812160929484
1385569421421232649,662558,1385569421421232649,/world,vicon/Archie/Archie,0.255696427331,0.544051783838,0.116428966967,0.000395000881855,-0.00258942178802,0.583419801566,0.812166530959
1385569421431180986,662559,1385569421431180986,/world,vicon/Archie/Archie,0.255778511776,0.54404846286,0.116465438676,0.000198467338448,-0.00234547749076,0.583482010727,0.812122652377
1385569421441279541,662560,1385569421441279541,/world,vicon/Archie/Archie,0.255689123701,0.544051352337,0.116430491986,0.000394391955183,-0.00265387522719,0.58343442659,0.812155817113
1385569421451328445,662561,1385569421451328445,/world,vicon/Archie/Archie,0.255776962512,0.544036584152,0.116460252918,0.000214634613284,-0.00238125361733,0.583499982168,0.812109631991
1385569421461270641,662562,1385569421461270641,/world,vicon/Archie/Archie,0.255775740269,0.54404209247,0.116455169147,0.000218869676459,-0.00238976147756,0.583499763784,0.812109762779
1385569421471260242,662563,1385569421471260242,/world,vicon/Archie/Archie,0.255762293593,0.544044133521,0.116459401478,0.000217334675694,-0.00236598634223,0.583497461458,0.812111487018
1385569421481179849,662564,1385569421481179849,/world,vicon/Archie/Archie,0.255768058399,0.54404763797,0.116465062502,0.000194421778031,-0.00234822067119,0.583491077458,0.812116131219
1385569421491302573,662565,1385569421491302573,/world,vicon/Archie/Archie,0.255771817134,0.544036912407,0.116455575794,0.000170435972365,-0.00236100299238,0.583497724391,0.812111323801
1385569421501272158,662566,1385569421501272158,/world,vicon/Archie/Archie,0.255767689612,0.544043838187,0.116455830292,0.000183566815281,-0.00236216723217,0.583489076902,0.81211753066
1385569421511248297,662567,1385569421511248297,/world,vicon/Archie/Archie,0.255695186908,0.544051025373,0.116431582507,0.000396879158848,-0.00256835518402,0.583417240927,0.812168436365
1385569421521222011,662568,1385569421521222011,/world,vicon/Archie/Archie,0.255689357775,0.544046744707,0.116423305532,0.000406764527484,-0.00266647184916,0.583435716147,0.812154843361
1385569421531095568,662569,1385569421531095568,/world,vicon/Archie/Archie,0.255692096336,0.544047314836,0.116423225694,0.000386195974775,-0.00265197609877,0.58343385963,0.812156234547
1385569421541701287,662570,1385569421541701287,/world,vicon/Archie/Archie,0.255762228874,0.544051100594,0.116479936636,0.000229100149136,-0.00231935910782,0.583489786764,0.812117132456
1385569421551183004,662571,1385569421551183004,/world,vicon/Archie/Archie,0.255697828192,0.544044668236,0.11641602307,0.000394802972316,-0.00265196169283,0.583431349329,0.81215803379
1385569421561251317,662572,1385569421561251317,/world,vicon/Archie/Archie,0.25575936424,0.544045179835,0.116476973794,0.000235248881551,-0.00232449408538,0.583485515153,0.812120185066
1385569421571318545,662573,1385569421571318545,/world,vicon/Archie/Archie,0.255776467144,0.544043386334,0.116470015859,0.000230427224071,-0.00239410047926,0.583483705182,0.812121284645
1385569421581275515,662574,1385569421581275515,/world,vicon/Archie/Archie,0.255771736445,0.54404765406,0.116478932548,0.000236692296548,-0.0023505345368,0.583486768906,0.812119208907
1385569421591281229,662575,1385569421591281229,/world,vicon/Archie/Archie,0.255777742839,0.544034307763,0.116473601969,0.000234479192255,-0.00239721826211,0.583490908783,0.812116098678
1385569421601166874,662576,1385569421601166874,/world,vicon/Archie/Archie,0.255776338689,0.544040995785,0.116464171441,0.000226699068582,-0.00238315932453,0.583496323064,0.812112252173
1385569421612138686,662577,1385569421612138686,/world,vicon/Archie/Archie,0.255775056504,0.544038931159,0.116466852799,0.000221965387546,-0.00241238745979,0.583495070333,0.812113067261
1385569421621334481,662578,1385569421621334481,/world,vicon/Archie/Archie,0.255788787793,0.544036436039,0.116458942305,0.000208349927506,-0.00239836486113,0.583492411439,0.812115022783
1385569421631300282,662579,1385569421631300282,/world,vicon/Archie/Archie,0.255781104638,0.544043481775,0.116480853107,0.000233311275302,-0.00235133178644,0.583484039658,0.812121168465
1385569421641275754,662580,1385569421641275754,/world,vicon/Archie/Archie,0.255791606314,0.544035477428,0.116469700425,0.000215414217718,-0.00240668601355,0.58348852367,0.812117789612
1385569421651494964,662581,1385569421651494964,/world,vicon/Archie/Archie,0.255785921046,0.544037406714,0.116467332838,0.000210591906724,-0.00240109616216,0.583492875487,0.812114680722
1385569421661223095,662582,1385569421661223095,/world,vicon/Archie/Archie,0.255713980208,0.544041394292,0.116428590458,0.000396604252289,-0.00268624702727,0.583411861717,0.812171919232
1385569421671497726,662583,1385569421671497726,/world,vicon/Archie/Archie,0.255782879237,0.544034897444,0.116469184213,0.00023029551596,-0.00241987936086,0.583483952637,0.812121030489
1385569421681229270,662584,1385569421681229270,/world,vicon/Archie/Archie,0.255711425441,0.544039141968,0.116432663444,0.000385544308145,-0.00269849629388,0.58342113186,0.812165224799
1385569421691179333,662585,1385569421691179333,/world,vicon/Archie/Archie,0.255718137027,0.544039918527,0.116423017113,0.00038842341749,-0.00270935850601,0.58340659682,0.812175628353
1385569421701213791,662586,1385569421701213791,/world,vicon/Archie/Archie,0.255791771483,0.54403006678,0.116469218164,0.000214190088995,-0.00240241684053,0.583476195168,0.812126660188
1385569421711268608,662587,1385569421711268608,/world,vicon/Archie/Archie,0.255787099377,0.544036031396,0.116472988757,0.000219278583681,-0.00240262281333,0.583479804904,0.812124064777
1385569421721321122,662588,1385569421721321122,/world,vicon/Archie/Archie,0.255780502758,0.544025464639,0.116480367325,0.000235795487051,-0.00240542209383,0.58347907809,0.812124574051
1385569421731446658,662589,1385569421731446658,/world,vicon/Archie/Archie,0.255775531031,0.544032689377,0.116471978742,0.000215329471984,-0.00238404181325,0.58347264718,0.812129263092
1385569421741314352,662590,1385569421741314352,/world,vicon/Archie/Archie,0.255698796457,0.544036273432,0.116431966809,0.000405091576498,-0.00266727982484,0.583410610596,0.812172876279
1385569421751151489,662591,1385569421751151489,/world,vicon/Archie/Archie,0.255703263162,0.544043209366,0.116426528484,0.000401849035425,-0.00268467417968,0.583423897254,0.812163276167
1385569421761281717,662592,1385569421761281717,/world,vicon/Archie/Archie,0.255694537312,0.544038992806,0.116430661158,0.000408266921139,-0.00266354300571,0.583423328401,0.812163751182
1385569421771265127,662593,1385569421771265127,/world,vicon/Archie/Archie,0.255774059085,0.544032949385,0.11646710578,0.000236925136442,-0.00243298395024,0.583486062477,0.81211947357
1385569421781127754,662594,1385569421781127754,/world,vicon/Archie/Archie,0.255786119514,0.544029973819,0.116461283356,0.000236862562055,-0.00238669191607,0.583482303142,0.81212231192
1385569421791278366,662595,1385569421791278366,/world,vicon/Archie/Archie,0.255765403164,0.544036019121,0.11646321799,0.000215956248294,-0.0023785520871,0.58349713834,0.812111682838
1385569421801124757,662596,1385569421801124757,/world,vicon/Archie/Archie,0.255693829536,0.544039034676,0.116412836886,0.000380697165822,-0.0026607638895,0.583422119353,0.812164642209
1385569421811434741,662597,1385569421811434741,/world,vicon/Archie/Archie,0.255766257776,0.544043423448,0.116475210104,0.000247648667551,-0.00231014314832,0.583481303938,0.812123247952
1385569421821275638,662598,1385569421821275638,/world,vicon/Archie/Archie,0.255778342197,0.544036783762,0.116450094925,0.000209113293379,-0.0023653084412,0.58349426288,0.812113789302
1385569421831096185,662599,1385569421831096185,/world,vicon/Archie/Archie,0.255764414605,0.544039551333,0.116464560472,0.000251491584987,-0.00233430033533,0.583484045104,0.812121208259
1385569421841304774,662600,1385569421841304774,/world,vicon/Archie/Archie,0.255780012485,0.544039825231,0.116447297755,0.000220242203781,-0.00237353983018,0.583488190663,0.812118125127
1385569421851229624,662601,1385569421851229624,/world,vicon/Archie/Archie,0.255776640122,0.544038405021,0.116454033316,0.000240229673027,-0.00238153547426,0.583492413845,0.812115061776
1385569421861179813,662602,1385569421861179813,/world,vicon/Archie/Archie,0.255708143034,0.54404727841,0.116405552067,0.000403890237989,-0.00268322339583,0.583437312068,0.812153643143
1385569421871315085,662603,1385569421871315085,/world,vicon/Archie/Archie,0.255927796372,0.54396390285,0.116359205199,0.00100651531986,-0.0027092489601,0.58364912069,0.812000831782
1385569421881043508,662604,1385569421881043508,/world,vicon/Archie/Archie,0.255848388745,0.543975830169,0.116315627092,0.00116524804471,-0.00297586535442,0.583587231648,0.812044167198
1385569421891180272,662605,1385569421891180272,/world,vicon/Archie/Archie,0.255853098273,0.54397318294,0.116302594842,0.00115691224104,-0.00305551754108,0.58358965265,0.812042143418
1385569421901441256,662606,1385569421901441256,/world,vicon/Archie/Archie,0.25594277226,0.543963199702,0.116348706083,0.000971648701974,-0.00272580407699,0.583650549866,0.811999791584
1385569421911391643,662607,1385569421911391643,/world,vicon/Archie/Archie,0.255930562685,0.543967544379,0.116359163054,0.000986852174997,-0.00269240330106,0.58364887509,0.81200108848
1385569421921299825,662608,1385569421921299825,/world,vicon/Archie/Archie,0.255852942429,0.54397955895,0.116310915969,0.00113475607954,-0.00296394287239,0.583578641246,0.812050427531
1385569421931487838,662609,1385569421931487838,/world,vicon/Archie/Archie,0.25592997128,0.543957772208,0.116360571256,0.000998836334871,-0.00269868162688,0.583645176702,0.812003711294
1385569421941362073,662610,1385569421941362073,/world,vicon/Archie/Archie,0.255913330427,0.543966335762,0.11636150125,0.000985214298061,-0.00268570635838,0.583649361667,0.812000762906
1385569421951187871,662611,1385569421951187871,/world,vicon/Archie/Archie,0.255845205181,0.543975566646,0.11631337798,0.00115778905473,-0.00299252222332,0.583581796811,0.81204802245
1385569421961332778,662612,1385569421961332778,/world,vicon/Archie/Archie,0.255917514848,0.543971388736,0.116366300232,0.000987869254291,-0.00266765888283,0.58365087122,0.811999734134
1385569421971211150,662613,1385569421971211150,/world,vicon/Archie/Archie,0.255840453571,0.543976922608,0.116312904124,0.00116003745224,-0.00297141812045,0.583573147452,0.812054312568
1385569421981181100,662614,1385569421981181100,/world,vicon/Archie/Archie,0.255932278011,0.54396265695,0.116359885191,0.00100162491634,-0.00269005102675,0.583640448612,0.812007134893
1385569421991305648,662615,1385569421991305648,/world,vicon/Archie/Archie,0.255851332627,0.543964051422,0.116305375031,0.00115103551446,-0.00304586564493,0.583594009806,0.812039056658
1385569422001302915,662616,1385569422001302915,/world,vicon/Archie/Archie,0.255850155905,0.543970088938,0.116307813848,0.00116112694818,-0.00298263545242,0.583579922857,0.812049400781
1385569422011214558,662617,1385569422011214558,/world,vicon/Archie/Archie,0.255838772031,0.543973348758,0.116318892116,0.00119683536767,-0.00299369945107,0.583582056028,0.812047775214
1385569422021219423,662618,1385569422021219423,/world,vicon/Archie/Archie,0.255866303686,0.543967237495,0.116298680545,0.00113533037773,-0.00304166695113,0.583576719149,0.812051520628
1385569422031267043,662619,1385569422031267043,/world,vicon/Archie/Archie,0.255861134727,0.54395976134,0.116305700784,0.00115568846508,-0.0030502301823,0.583580861762,0.812048482706
1385569422041233633,662620,1385569422041233633,/world,vicon/Archie/Archie,0.255853726437,0.543965785389,0.116305304033,0.001175180043,-0.00307268506121,0.583592180628,0.812040235622
1385569422051287326,662621,1385569422051287326,/world,vicon/Archie/Archie,0.255768826283,0.54402981911,0.116457729948,0.000229036952622,-0.00235538823466,0.583479602214,0.812124346076
1385569422061287633,662622,1385569422061287633,/world,vicon/Archie/Archie,0.255710429664,0.544033821674,0.116410935842,0.000386587763024,-0.00264316677641,0.583410350379,0.812173151052
1385569422071228979,662623,1385569422071228979,/world,vicon/Archie/Archie,0.255700804776,0.544043763781,0.116424493866,0.000405645717563,-0.00266104782637,0.583417101847,0.812168233526
1385569422081176956,662624,1385569422081176956,/world,vicon/Archie/Archie,0.25576215575,0.544037444811,0.116463065354,0.000236753750913,-0.00236624501074,0.583495075065,0.81211319544
1385569422091337841,662625,1385569422091337841,/world,vicon/Archie/Archie,0.25577340718,0.544033109232,0.116457118313,0.000217819973419,-0.00236824272657,0.583491239445,0.812115950756
1385569422101219972,662626,1385569422101219972,/world,vicon/Archie/Archie,0.255691097813,0.544044000498,0.116417310162,0.0004036900381,-0.00264531965028,0.583436923381,0.812154046813
1385569422111329711,662627,1385569422111329711,/world,vicon/Archie/Archie,0.255767873047,0.544041129194,0.1164589761,0.000220401612578,-0.00239700965848,0.583491201891,0.812115892643
1385569422121292164,662628,1385569422121292164,/world,vicon/Archie/Archie,0.255689336401,0.544042757567,0.116426223155,0.000385836398759,-0.00262947056909,0.583425064232,0.812162626227
1385569422131266076,662629,1385569422131266076,/world,vicon/Archie/Archie,0.255754688898,0.544045032313,0.116479444591,0.000257134077099,-0.00233822906552,0.583488077289,0.812118298174
1385569422141272425,662630,1385569422141272425,/world,vicon/Archie/Archie,0.255690466053,0.544038580989,0.116420475356,0.000380388521236,-0.00262924444579,0.583438944397,0.812152658396
1385569422151263867,662631,1385569422151263867,/world,vicon/Archie/Archie,0.255762119882,0.544041912563,0.116471605053,0.000225480823874,-0.00238283509137,0.583496493316,0.812112131139
1385569422161245873,662632,1385569422161245873,/world,vicon/Archie/Archie,0.255687235699,0.544051278042,0.116423111848,0.000390485304109,-0.00265141362529,0.583431315473,0.812158061988
1385569422171308718,662633,1385569422171308718,/world,vicon/Archie/Archie,0.255767732095,0.544037421965,0.116468103832,0.000239615232631,-0.0023584303462,0.583496413528,0.812112255658
1385569422181091243,662634,1385569422181091243,/world,vicon/Archie/Archie,0.255688365921,0.544042381661,0.11642441429,0.000390554163373,-0.00265156581512,0.583439517289,0.812152169444
1385569422191311537,662635,1385569422191311537,/world,vicon/Archie/Archie,0.255767753818,0.544041292626,0.116474680802,0.000227407806793,-0.0023712963159,0.583502014479,0.812108197434
1385569422201205671,662636,1385569422201205671,/world,vicon/Archie/Archie,0.255692720252,0.544039103779,0.116425321869,0.000397930365276,-0.00263124486228,0.583432333429,0.812157392696
1385569422211168120,662637,1385569422211168120,/world,vicon/Archie/Archie,0.255685646309,0.544042325147,0.116420259452,0.000391524269457,-0.00265375137769,0.583425543591,0.812162200178
1385569422221352871,662638,1385569422221352871,/world,vicon/Archie/Archie,0.255752436661,0.544048341988,0.116482702644,0.000241963741106,-0.00231391950047,0.583496348367,0.812112429823
1385569422231295950,662639,1385569422231295950,/world,vicon/Archie/Archie,0.255757555641,0.544037599879,0.116463109559,0.000242401597469,-0.00238265254646,0.583495778704,0.812112640243
1385569422241265192,662640,1385569422241265192,/world,vicon/Archie/Archie,0.255693475787,0.544038363136,0.11643203386,0.000393559079003,-0.00266090743195,0.583429395728,0.812159408542
1385569422251171859,662641,1385569422251171859,/world,vicon/Archie/Archie,0.255694659296,0.544035580494,0.116430973586,0.000406078414706,-0.00263962162236,0.583433076113,0.812156827956
1385569422261209238,662642,1385569422261209238,/world,vicon/Archie/Archie,0.25569116415,0.54404369169,0.116432654456,0.000396654526802,-0.00265737608541,0.583435456531,0.812155064676
1385569422271274070,662643,1385569422271274070,/world,vicon/Archie/Archie,0.255696748743,0.544043758472,0.116429085659,0.000388391581606,-0.00264472435722,0.583430399526,0.812158742792
1385569422281107249,662644,1385569422281107249,/world,vicon/Archie/Archie,0.255689927842,0.544037853543,0.116429253609,0.000397422582431,-0.00264962444076,0.58342425473,0.812163136653
1385569422291279353,662645,1385569422291279353,/world,vicon/Archie/Archie,0.25569759877,0.544040327844,0.116418842225,0.000358869983616,-0.00265819592963,0.583423381726,0.812163753724
1385569422301152504,662646,1385569422301152504,/world,vicon/Archie/Archie,0.255703166495,0.544045339714,0.116415718741,0.000356644162311,-0.00263024408935,0.583423368148,0.812163855462
1385569422311323824,662647,1385569422311323824,/world,vicon/Archie/Archie,0.255712085408,0.544043113853,0.116409681589,0.000337625978589,-0.00263398169974,0.58342379383,0.812163545686
1385569422321258585,662648,1385569422321258585,/world,vicon/Archie/Archie,0.25570497894,0.544038388898,0.11641538634,0.000347140338133,-0.00262459783912,0.58342019548,0.812166156944
1385569422331099591,662649,1385569422331099591,/world,vicon/Archie/Archie,0.255704779869,0.544041966175,0.116411565696,0.000369634353157,-0.00263495921543,0.583423638589,0.812163640097
1385569422341373413,662650,1385569422341373413,/world,vicon/Archie/Archie,0.255773674418,0.544031354384,0.116458853498,0.000207686823211,-0.00238369865366,0.583497128043,0.812111677303
1385569422351274981,662651,1385569422351274981,/world,vicon/Archie/Archie,0.255779135159,0.544036379877,0.116450587065,0.000187856432818,-0.00235153037368,0.583491075661,0.812116124479
1385569422361262792,662652,1385569422361262792,/world,vicon/Archie/Archie,0.255703482782,0.544039670687,0.116415916395,0.000374957035295,-0.0026453028418,0.583437064151,0.812153959514
1385569422371353131,662653,1385569422371353131,/world,vicon/Archie/Archie,0.255786911862,0.544033575984,0.116458354971,0.000214856918685,-0.00238964239824,0.583490133455,0.812116683492
1385569422381131149,662654,1385569422381131149,/world,vicon/Archie/Archie,0.255704223225,0.544040819769,0.116416378341,0.000386277971591,-0.00262379249292,0.58343184094,0.812157776223
1385569422391325138,662655,1385569422391325138,/world,vicon/Archie/Archie,0.255698107453,0.544041651597,0.116427294425,0.000377066070878,-0.00257263590878,0.5834098102,0.812173770032
1385569422401214606,662656,1385569422401214606,/world,vicon/Archie/Archie,0.255718676197,0.544041574762,0.116413303176,0.000372337658937,-0.00264876404199,0.583416137672,0.812168982243
1385569422411186828,662657,1385569422411186828,/world,vicon/Archie/Archie,0.255705556607,0.544044753786,0.116414560051,0.000367622545676,-0.00265139024029,0.583423226667,0.812163883443
1385569422421343126,662658,1385569422421343126,/world,vicon/Archie/Archie,0.255783998654,0.544041011066,0.116461140758,0.000221386861936,-0.00241211624685,0.583485640949,0.812119843058
1385569422431209549,662659,1385569422431209549,/world,vicon/Archie/Archie,0.255780695762,0.54404252265,0.116444975467,0.000193442907043,-0.00235499343343,0.58348864745,0.812117857754
1385569422441124536,662660,1385569422441124536,/world,vicon/Archie/Archie,0.255704848941,0.544046157961,0.116415238902,0.000395398389155,-0.00265443037262,0.583421209674,0.812165309381
1385569422451250584,662661,1385569422451250584,/world,vicon/Archie/Archie,0.255776109183,0.54404037064,0.116459927874,0.000195960736303,-0.00234745563871,0.583476102498,0.812126892096
1385569422461399110,662662,1385569422461399110,/world,vicon/Archie/Archie,0.255771511405,0.544042447251,0.116458140482,0.000225318374525,-0.00236779365352,0.58349425264,0.812113785083
1385569422471226142,662663,1385569422471226142,/world,vicon/Archie/Archie,0.255701253778,0.544050139776,0.116437355796,0.000397017137593,-0.00259575318032,0.583412687582,0.812171620048
1385569422481321056,662664,1385569422481321056,/world,vicon/Archie/Archie,0.255769259656,0.544040763008,0.116459810005,0.000234043329659,-0.00239145341247,0.583484791442,0.812120510965
1385569422491261756,662665,1385569422491261756,/world,vicon/Archie/Archie,0.255775492796,0.544040937873,0.116459407849,0.000222774563321,-0.00238415072164,0.58348669654,0.812119166845
1385569422501254358,662666,1385569422501254358,/world,vicon/Archie/Archie,0.255781532618,0.544037715548,0.116477693615,0.00024826994516,-0.0023239502839,0.583475496305,0.812127380913
1385569422511257349,662667,1385569422511257349,/world,vicon/Archie/Archie,0.255705372789,0.5440387311,0.116422215329,0.000381918783637,-0.00266186967122,0.583427970433,0.812160434831
1385569422521249999,662668,1385569422521249999,/world,vicon/Archie/Archie,0.255693553144,0.544051627564,0.116425783003,0.000396759179753,-0.0025825291152,0.583416719572,0.81216876599
1385569422531261581,662669,1385569422531261581,/world,vicon/Archie/Archie,0.255775826576,0.544037496218,0.116468664775,0.000228685225819,-0.00238021335359,0.583481417033,0.812122969916
1385569422541175918,662670,1385569422541175918,/world,vicon/Archie/Archie,0.255712983379,0.544039984027,0.116421275406,0.000377944524855,-0.00265174264627,0.583417716815,0.812167835565
1385569422551254272,662671,1385569422551254272,/world,vicon/Archie/Archie,0.255774312043,0.544047499128,0.116471730487,0.000239493840908,-0.00232281013742,0.583486262245,0.812119651879
1385569422561299241,662672,1385569422561299241,/world,vicon/Archie/Archie,0.255779089751,0.544044323423,0.116462800922,0.000238851285109,-0.00239183571016,0.583494346281,0.812113643482
1385569422571329505,662673,1385569422571329505,/world,vicon/Archie/Archie,0.255776071356,0.544044551203,0.116479642472,0.000258093745441,-0.00232616287281,0.583482796434,0.812122126665
1385569422581224335,662674,1385569422581224335,/world,vicon/Archie/Archie,0.255779902629,0.544035404152,0.116461682475,0.000227033029864,-0.00238742259137,0.583495643965,0.812112727485
1385569422591370904,662675,1385569422591370904,/world,vicon/Archie/Archie,0.255774239003,0.544040256685,0.116459316267,0.000231755775412,-0.0023944055363,0.583491258317,0.812115856623
1385569422601235154,662676,1385569422601235154,/world,vicon/Archie/Archie,0.255705247144,0.54404428499,0.116430871967,0.000381037297203,-0.00266486788881,0.58342248044,0.812164369206
1385569422611343311,662677,1385569422611343311,/world,vicon/Archie/Archie,0.255782502043,0.544042123681,0.116468897477,0.000214721032545,-0.00241041364354,0.583485846772,0.812119702025
1385569422621327448,662678,1385569422621327448,/world,vicon/Archie/Archie,0.25578390614,0.544030437908,0.116466371331,0.000241211852745,-0.00241435560309,0.58349135678,0.812115724061
1385569422631197155,662679,1385569422631197155,/world,vicon/Archie/Archie,0.255773107236,0.544040846756,0.116464814248,0.000239521924685,-0.00239532416216,0.583503811487,0.812106832277
1385569422641330673,662680,1385569422641330673,/world,vicon/Archie/Archie,0.255701459377,0.544045761619,0.116424414075,0.000390857777541,-0.00263629582143,0.583425048112,0.81216261328
1385569422651201133,662681,1385569422651201133,/world,vicon/Archie/Archie,0.255691123191,0.544052443468,0.116440676684,0.00040640617904,-0.00256837956576,0.583407494121,0.812175433058
1385569422661197983,662682,1385569422661197983,/world,vicon/Archie/Archie,0.255704807245,0.54404213417,0.116420391922,0.00038360045353,-0.00264320919263,0.583415490215,0.812169460195
1385569422671212884,662683,1385569422671212884,/world,vicon/Archie/Archie,0.255773758836,0.544045856583,0.116453438391,0.000210128032041,-0.00239045373848,0.583481366085,0.812122981456
1385569422681161951,662684,1385569422681161951,/world,vicon/Archie/Archie,0.255773106549,0.544039114721,0.116448545452,0.000215038927339,-0.00237976328875,0.583492992424,0.812114658332
1385569422691146600,662685,1385569422691146600,/world,vicon/Archie/Archie,0.255700672852,0.54404779737,0.116436990753,0.00037576080463,-0.002562682251,0.583413739501,0.812170979551
1385569422701238269,662686,1385569422701238269,/world,vicon/Archie/Archie,0.255778408684,0.544046485687,0.116478881097,0.000223315218005,-0.00229594226506,0.583463693813,0.812135947229
1385569422711331405,662687,1385569422711331405,/world,vicon/Archie/Archie,0.255699098969,0.544040460807,0.116421089819,0.000385922009232,-0.0026550751504,0.583445405048,0.812147930471
1385569422721179270,662688,1385569422721179270,/world,vicon/Archie/Archie,0.255709408158,0.544046458114,0.116411243758,0.000410654819137,-0.00267172705158,0.583417674433,0.812167784634
1385569422731161271,662689,1385569422731161271,/world,vicon/Archie/Archie,0.255698003066,0.544045875312,0.116420995499,0.000396068129669,-0.00265474414941,0.58344168634,0.812150598168
1385569422741235666,662690,1385569422741235666,/world,vicon/Archie/Archie,0.255702740058,0.544043405591,0.116413921421,0.000396413849031,-0.00265737453133,0.583421105354,0.812165374197
1385569422751294211,662691,1385569422751294211,/world,vicon/Archie/Archie,0.255769141928,0.544040747397,0.116474179357,0.000223565526157,-0.00232900462422,0.583494131888,0.812113984493
1385569422761290020,662692,1385569422761290020,/world,vicon/Archie/Archie,0.255693806094,0.544044533821,0.116422198823,0.00040917761447,-0.00266643107805,0.5834300268,0.812158929365
1385569422771358111,662693,1385569422771358111,/world,vicon/Archie/Archie,0.255771565487,0.544041158747,0.116462033386,0.000230699577935,-0.00238417781233,0.58349174523,0.812115537176
1385569422781191388,662694,1385569422781191388,/world,vicon/Archie/Archie,0.25577772412,0.544032677849,0.116463880758,0.000240257881059,-0.00239515006821,0.583477622133,0.812125649147
1385569422791382234,662695,1385569422791382234,/world,vicon/Archie/Archie,0.25577710978,0.544040896188,0.116459254425,0.00020793295395,-0.00235168958138,0.583485994955,0.812119769499
1385569422801286799,662696,1385569422801286799,/world,vicon/Archie/Archie,0.255696968553,0.544051227725,0.11642605774,0.000397876247582,-0.00258531730191,0.583418829292,0.812167241064
1385569422811262135,662697,1385569422811262135,/world,vicon/Archie/Archie,0.255700413189,0.544041660206,0.116415385949,0.000385456913897,-0.00264803362183,0.583422908885,0.812164114406
1385569422821371081,662698,1385569422821371081,/world,vicon/Archie/Archie,0.255772041081,0.544035868214,0.116452707628,0.000217327712184,-0.0023718888589,0.583490236561,0.8121166608
1385569422831138746,662699,1385569422831138746,/world,vicon/Archie/Archie,0.255770806493,0.544046699447,0.116469370177,0.000236775999851,-0.00229057869813,0.583484268896,0.812121176388
1385569422841353570,662700,1385569422841353570,/world,vicon/Archie/Archie,0.255761113172,0.544042640828,0.116473361121,0.000237638309819,-0.00230829677611,0.583474000282,0.812128503557
1385569422851215715,662701,1385569422851215715,/world,vicon/Archie/Archie,0.25568893009,0.544037913116,0.116423509576,0.000382350413378,-0.00256733244744,0.583408643921,0.812174622117
1385569422861234025,662702,1385569422861234025,/world,vicon/Archie/Archie,0.255705319273,0.544043700407,0.116408504344,0.000364422829852,-0.00264115614835,0.583417941411,0.812167714902
1385569422871297472,662703,1385569422871297472,/world,vicon/Archie/Archie,0.255771663521,0.54404058054,0.116454417449,0.000200971837465,-0.00236307016498,0.583482248045,0.812122430257
1385569422881440828,662704,1385569422881440828,/world,vicon/Archie/Archie,0.255778487866,0.544041574592,0.116454415895,0.000227680675443,-0.0023904531109,0.583492587116,0.812114914698
1385569422891348437,662705,1385569422891348437,/world,vicon/Archie/Archie,0.255699559836,0.544040252159,0.116416487836,0.000412700466556,-0.0026029431923,0.583419335974,0.812166813393
1385569422901259078,662706,1385569422901259078,/world,vicon/Archie/Archie,0.25576669641,0.544043161891,0.116460404445,0.000234326955237,-0.00238589550808,0.583480210371,0.812123818576
1385569422911303711,662707,1385569422911303711,/world,vicon/Archie/Archie,0.255708746565,0.544047053928,0.116411508783,0.000370977386345,-0.00263893650544,0.58342030546,0.812166020938
1385569422921388250,662708,1385569422921388250,/world,vicon/Archie/Archie,0.25570217265,0.544042171136,0.116419962505,0.000382466210968,-0.00262843239687,0.583416036385,0.812169116349
1385569422931146327,662709,1385569422931146327,/world,vicon/Archie/Archie,0.255706192247,0.544041432339,0.116409028067,0.000372427288422,-0.00261062883105,0.583402270598,0.812179066817
1385569422941260821,662710,1385569422941260821,/world,vicon/Archie/Archie,0.255712313166,0.544043160659,0.116418240675,0.000363059125994,-0.00264640243672,0.583403959073,0.812177742418
1385569422951119628,662711,1385569422951119628,/world,vicon/Archie/Archie,0.255705717006,0.54404776813,0.11642381364,0.000400207782124,-0.00258186089954,0.58340685043,0.812175855772
1385569422961201686,662712,1385569422961201686,/world,vicon/Archie/Archie,0.255697586817,0.544050247439,0.116416596092,0.000378405477165,-0.00265736300088,0.583438855436,0.812152631713
1385569422971234256,662713,1385569422971234256,/world,vicon/Archie/Archie,0.25569480505,0.544057634446,0.116427561286,0.000399417400855,-0.00257179059739,0.5834132837,0.81217126689
1385569422981308788,662714,1385569422981308788,/world,vicon/Archie/Archie,0.255770112525,0.544042789638,0.116473980138,0.000244540383871,-0.00237222639382,0.583489487962,0.81211718993
