%time,field.linear.x,field.linear.y,field.linear.z,field.angular.x,field.angular.y,field.angular.z
1385569422903475348,0.0,0.0,0.0,0.0,0.0,0.0
1385569422903799065,0.25576669641,-0.544043161891,-0.116460404445,-0.00240366362316,0.0041487473252,-1.2460239721
1385569422913253274,0.255708746565,-0.544047053928,-0.116411508783,-0.00247665794151,0.00471939812134,-1.24587828034
1385569422923272429,0.25570217265,-0.544042171136,-0.116419962505,-0.00244571436501,0.00471575455442,-1.24586765655
1385569422933249418,0.255706192247,-0.544041432339,-0.116409028067,-0.00244116738332,0.00467516305795,-1.24583362522
1385569422943208052,0.255712313166,-0.544043160659,-0.116418240675,-0.00249813668821,0.00472233612784,-1.24583810535
1385569422953235167,0.255705717006,-0.54404776813,-0.11642381364,-0.00236250033379,0.00466083496933,-1.24584461043
1385569422963224972,0.255697586817,-0.544050247439,-0.116416596092,-0.00248620234967,0.00475793957782,-1.24592410551
1385569422973229799,0.25569480505,-0.544057634446,-0.116427561286,-0.00235207044869,0.00464353637775,-1.24586037015
1385569422983250619,0.255770112525,-0.544042789638,-0.116473980138,-0.002371169956,0.00413843696532,-1.24604669708
1385569422993240076,0.255767683699,-0.54405386357,-0.116477788137,-0.00232970996284,0.00402298985198,-1.24602144336
1385569423003247135,0.255707568832,-0.544046362799,-0.116420666603,-0.00249722030095,0.00474094277834,-1.24587162901
1385569423013248751,0.255690427813,-0.544058259674,-0.116433720941,-0.00232638191576,0.00462670395226,-1.24586431038
1385569423023275400,0.255706465521,-0.544039206314,-0.116429933468,-0.00242203071488,0.00477261213632,-1.24591880954
1385569423033248626,0.255776235739,-0.544043536403,-0.116455064576,-0.00245013678379,0.00420239788098,-1.24602975439
1385569423043251285,0.255706642655,-0.544042203097,-0.11642498008,-0.00250106141325,0.00474890689864,-1.24586857331
1385569423053248437,0.25570750385,-0.544051048227,-0.116426759819,-0.00245031330848,0.00471108298807,-1.24584928525
1385569423063248767,0.255771799739,-0.544037368721,-0.116464505372,-0.00242182683138,0.00407034292091,-1.24605738155
1385569423073408724,0.255684833769,-0.544058099628,-0.116442052051,-0.00234813613991,0.0046432908533,-1.24586087691
1385569423083221288,0.255694389565,-0.544049515068,-0.11642498542,-0.00247264173444,0.0047603164913,-1.24588293654
1385569423093250496,0.255693371878,-0.54404996412,-0.116437019332,-0.00236102705218,0.00462877204955,-1.2458911523
1385569423103244355,0.255763099515,-0.544049434434,-0.116485950678,-0.00235582060001,0.00405833298338,-1.24603704793
1385569423113241401,0.255701998012,-0.544049451684,-0.116411916259,-0.00245531537052,0.00470479356191,-1.24587894904
1385569423123292362,0.255694615714,-0.544048563191,-0.116426682058,-0.0024040582793,0.00462238200985,-1.24588797528
1385569423133262792,0.255704541599,-0.544044246151,-0.116435569738,-0.0023465209725,0.00455694887407,-1.24586150232
1385569423143263804,0.255712867994,-0.544036122315,-0.116421653901,-0.00238750392142,0.00464380023845,-1.24587378067
1385569423153291385,0.255730013583,-0.54403298823,-0.11641492091,-0.00247693920735,0.00472587604155,-1.24586025328
1385569423163262522,0.255784667623,-0.544044081195,-0.116450343435,-0.0024199120277,0.00412481520721,-1.24605209441
1385569423173256770,0.255714753503,-0.544033348121,-0.116414486656,-0.00250596094784,0.00474275247122,-1.24589762841
1385569423183256675,0.255718204885,-0.54403605181,-0.116409552724,-0.00250250306823,0.00472611307174,-1.24587972189
1385569423193259747,0.25572265387,-0.54403298364,-0.116421619592,-0.00244604446009,0.0047312173744,-1.24588761893
1385569423203262783,0.255703414839,-0.544034809684,-0.116414694929,-0.00246799197442,0.00467541774246,-1.24591329619
1385569423213295162,0.255710091721,-0.544039415408,-0.116419524372,-0.00249373293324,0.00466145475898,-1.24590880563
1385569423224854977,0.255710330733,-0.544035694669,-0.11642324965,-0.00250749782073,0.00477438689902,-1.24585791324
1385569423233310974,0.255704436909,-0.544041657015,-0.116422951112,-0.00247916969241,0.00474371054146,-1.24590499719
1385569423243350050,0.255703069601,-0.54404369427,-0.116418236187,-0.00251375180833,0.00471230041495,-1.24589685081
1385569423253251682,0.255713526537,-0.544034746111,-0.116425437997,-0.00245804666939,0.00478219612941,-1.24588565454
1385569423263414733,0.255706117398,-0.544039791837,-0.116423803499,-0.0024943735397,0.00473456564642,-1.2458908605
1385569423273271878,0.255782369754,-0.544037710814,-0.116484296329,-0.00235177919101,0.00403126076844,-1.2460242526
1385569423283243562,0.255707292044,-0.544035149664,-0.116423677591,-0.00250440052027,0.00472178410175,-1.24588107271
1385569423293589026,0.255693269345,-0.54404132357,-0.11644162428,-0.00241044175567,0.00468936245277,-1.24587399227
1385569423303281181,0.255702292563,-0.544039610993,-0.116433790539,-0.00246641487407,0.00479893009005,-1.24591557959
1385569423313255350,0.255697620093,-0.54404534205,-0.116439894763,-0.00238943877177,0.00464685805732,-1.24585259646
1385569423323306571,0.255709207047,-0.544039320899,-0.116420194977,-0.00245612135381,0.00474964300253,-1.24588200363
1385569423333272783,0.255780890285,-0.544039671724,-0.116479037477,-0.0022990630476,0.0040601681823,-1.24607506225
1385569423343231461,0.255780087077,-0.54403589855,-0.116474179813,-0.00233961648243,0.00393603145146,-1.24605232256
1385569423353228374,0.255777926876,-0.544040325789,-0.116477484821,-0.00235749880035,0.00396984833938,-1.24606799848
1385569423363235100,0.255774076278,-0.544035978575,-0.116463120425,-0.00241737906072,0.00413414835332,-1.24605040387
1385569423373400044,0.255779523362,-0.544040613558,-0.116464153659,-0.00244628676279,0.00412920974936,-1.24607146283
1385569423383326690,0.255683227316,-0.544047474008,-0.116431123759,-0.00238912741616,0.0046514006628,-1.24586245841
1385569423393314592,0.255703835697,-0.544044890681,-0.116430643663,-0.00245748365459,0.00483469823649,-1.2459038695
1385569423403392128,0.255702294152,-0.544043552676,-0.116424836615,-0.00242527722663,0.00477866980704,-1.24589870162
1385569423413317699,0.255771477766,-0.544043127408,-0.116471072939,-0.00245554979462,0.00407342940011,-1.2460558111
1385569423423380368,0.255695249708,-0.544044223518,-0.116429676849,-0.00248727371736,0.00475401828313,-1.24586443836
1385569423433429060,0.255690061081,-0.544033531249,-0.116440094381,-0.00246971151102,0.00481462996653,-1.24587822971
1385569423443311179,0.25567508157,-0.544049466087,-0.116440096861,-0.00235202224,0.00461183959871,-1.24593520298
1385569423453280748,0.255738994245,-0.54402726522,-0.11647701758,-0.00241343116251,0.00417015085697,-1.24593272159
1385569423463414511,0.255738169988,-0.544068680501,-0.116435996285,-0.00187393166808,0.00372202730398,-1.2456859661
1385569423473337736,0.255662858548,-0.544042885265,-0.116432055045,-0.00242026275795,0.00471239420717,-1.24621072746
1385569423483262380,0.255734035881,-0.544061260179,-0.116394858266,-0.0019230372273,0.00385402762036,-1.2467583376
1385569423493402306,0.255747450922,-0.54404056485,-0.116488045007,-0.00230933030869,0.00413801016261,-1.2455578311
1385569423503250998,0.255619454134,-0.544038561683,-0.11641873992,-0.00224184287758,0.00443939940894,-1.2448994766
1385569423513246761,0.255748994813,-0.544021768869,-0.116476749052,-0.00231969889802,0.00411435074297,-1.24654345737
1385569423523264443,0.255696493334,-0.543992136839,-0.11646667399,-0.0026213378517,0.00427115832301,-1.24613366913
1385569423533287313,0.255654243931,-0.544059487314,-0.116439771077,-0.00246827770778,0.0047118975963,-1.24506241131
1385569423543218063,0.255688235789,-0.544141688767,-0.116435382016,-0.0024768970595,0.00477979297572,-1.24532243193
1385569423553236836,0.255732728003,-0.544028021969,-0.116483696746,-0.00222743867119,0.0039295263317,-1.24644350164
1385569423563304093,0.255664477172,-0.544019572017,-0.116417864026,-0.00239782311629,0.00470504292589,-1.24576265884
1385569423573238576,0.25563656577,-0.544024354281,-0.116435992534,-0.00237162893702,0.00472119357301,-1.24519697082
1385569423583237622,0.255710579039,-0.544029324521,-0.116487567682,-0.00232925526464,0.00400848762097,-1.24585274408
1385569423593240979,0.255652480302,-0.544026373023,-0.116429422029,-0.00240769312204,0.00465012589446,-1.24611241235
1385569423603248622,0.255690795959,-0.544014412955,-0.116457669006,-0.00255640764617,0.00488866102789,-1.24530497957
1385569423613273454,0.255645075844,-0.544031303522,-0.116398935153,-0.00222189294848,0.00448363468752,-1.24527006896
1385569423623310735,0.25562745756,-0.544023130013,-0.116408239637,-0.00221255360968,0.00449219293024,-1.24607388191
1385569423633242975,0.255598867832,-0.544043749152,-0.116415021619,-0.00213539915674,0.00456878616261,-1.24586940986
1385569423643248465,0.255602396617,-0.544042710125,-0.116517291499,-0.00196469515995,0.00481290197022,-1.24522930778
1385569423653240023,0.255727947647,-0.544005856916,-0.116466799554,-0.00241862947879,0.00400820563216,-1.24594036032
1385569423663232236,0.255641570028,-0.544022984789,-0.116429349256,-0.00235706761474,0.00471071543059,-1.24610735994
1385569423673229547,0.255889814104,-0.543936450431,-0.116380602622,-0.00150208924099,0.0055348119781,-1.246055276
1385569423683227837,0.25587593064,-0.543971554026,-0.116349234211,-0.00160827525933,0.00616507960925,-1.24573657351
1385569423693464771,0.255789492613,-0.543959682923,-0.11628770492,-0.00141161986904,0.00602592294887,-1.24640580237
1385569423703238046,0.255739948955,-0.544031259466,-0.116183308688,-0.00121006142216,0.0057218476771,-1.24636131524
1385569423713270498,0.255881679132,-0.544023047615,-0.116339322521,-0.0016352350275,0.00641275298493,-1.24546629889
1385569423723286937,0.255807756203,-0.543962310084,-0.116337866898,-0.00155468390262,0.00615805188947,-1.24592649507
1385569423733236200,0.255795263856,-0.543945286157,-0.116328828946,-0.00161085588306,0.00628438344789,-1.24633857976
1385569423743231765,0.255847263345,-0.543936995865,-0.116350944641,-0.00184286704809,0.00655899323819,-1.24617017159
1385569423753234521,0.255790070494,-0.543960464334,-0.11632124184,-0.00138545391882,0.00589122542672,-1.2459383217
1385569423763363466,0.25582621412,-0.544018913897,-0.116336196414,-0.00150064784042,0.00621955907792,-1.2457896373
1385569423773251409,0.255802899771,-0.543952399196,-0.116330303054,-0.00146665890839,0.00616639119221,-1.2461692949
1385569423783236854,0.255794817403,-0.543948422413,-0.116346209831,-0.0015035087729,0.00618649751833,-1.24606826015
1385569423793236789,0.255803512056,-0.544006169701,-0.116299960667,-0.00134940929437,0.00512459479885,-1.24623840188
1385569423803396444,0.255795535211,-0.543941741994,-0.116317252897,-0.00160030614766,0.0061826583866,-1.24614409445
1385569423813293196,0.25581021434,-0.54395749821,-0.116322283411,-0.00160535763955,0.00625006577658,-1.24602247004
1385569423823287490,0.255798438753,-0.543941325347,-0.1163344728,-0.00150842553397,0.00606796093862,-1.24605835579
1385569423833261499,0.255858943464,-0.54394300036,-0.116371217815,-0.00121373018775,0.00527868196561,-1.2463802167
1385569423843240413,0.255781397976,-0.54396300075,-0.116310948729,-0.00131700869907,0.00594872300566,-1.24611171253
1385569423853243362,0.255813013592,-0.543958702226,-0.116311885222,-0.0015314185353,0.00610014199904,-1.24604462098
1385569423863264027,0.255803882187,-0.543959112091,-0.116346398178,-0.00148948113737,0.00618143762942,-1.24614663912
1385569423873237402,0.25584781396,-0.543950200544,-0.116366228381,-0.0017115147515,0.00637310996453,-1.2461069243
1385569423883257494,0.255830462909,-0.544026260671,-0.116349713826,-0.00147341466982,0.00626491491,-1.24575996958
1385569423893235936,0.255814128409,-0.543945187677,-0.116315869573,-0.00152568207127,0.0062964110025,-1.24599045769
1385569423903232974,0.255812252709,-0.543949403601,-0.116324276756,-0.00138645094634,0.00615604915076,-1.24604465989
1385569423913318302,0.255759926243,-0.543969966731,-0.11629417415,-0.00131468231272,0.00595902741898,-1.24620146349
1385569423923230659,0.255878224973,-0.543936091614,-0.116361095208,-0.00155147616817,0.00558620378725,-1.24630626687
1385569423933228682,0.255817358636,-0.543960191976,-0.116285919759,-0.00165177588559,0.00627826730034,-1.24614619165
1385569423943229195,0.255719591195,-0.544004791087,-0.116218123381,-0.00152944908331,0.00590598814334,-1.24594841241
1385569423953307736,0.255884392359,-0.543926203662,-0.116372923156,-0.00167608932938,0.00548559554519,-1.24621134586
1385569423963232786,0.255874694318,-0.543931645673,-0.116355502751,-0.00157232327079,0.00565224635065,-1.24634105153
1385569423973228363,0.255926644333,-0.543929294409,-0.116377796417,-0.00168333899008,0.00591666673453,-1.24639987741
1385569423983231013,0.255800872786,-0.543931244838,-0.116369458019,-0.00162285175768,0.00628723257261,-1.24587762207
1385569423993226625,0.255793003105,-0.543951564009,-0.116355449279,-0.001347546693,0.00611177560217,-1.24612055468
1385569424003232550,0.255773377876,-0.543971202521,-0.11633573313,-0.00119912814919,0.00603399632459,-1.24629694107
1385569424013228127,0.25588505704,-0.543933572546,-0.116410900842,-0.00154038837088,0.00549877165222,-1.24606056709
1385569424023289022,0.255793547859,-0.543941132697,-0.11638566862,-0.00157157974097,0.00608947021815,-1.24602136798
1385569424033235347,0.255688805269,-0.544000662982,-0.116349359703,-0.00138356965427,0.00611020107023,-1.24632387362
1385569424043230833,0.255870958869,-0.543918488009,-0.116413814514,-0.0013760178848,0.00545258544454,-1.24631953432
1385569424053318940,0.255880182532,-0.543965545332,-0.116367209045,-0.00122111485324,0.0051747543354,-1.24592449869
1385569424063275933,0.255779056273,-0.543953350628,-0.116371335641,-0.00115597188212,0.00609275965676,-1.2460893723
1385569424073263913,0.25580496829,-0.543921002944,-0.116362849538,-0.00118185073753,0.00633052960156,-1.24622831064
1385569424083313086,0.255815954746,-0.543985436584,-0.116359222959,-0.00114325651337,0.00618138888491,-1.24586144613
1385569424093347389,0.255805956701,-0.543953320952,-0.116388904135,-0.00164357794811,0.00592570891434,-1.24609376521
1385569424103275973,0.255782237898,-0.543934020392,-0.116379227751,-0.00180641916151,0.00609308110234,-1.24598974906
1385569424113296199,0.255878746556,-0.543934725589,-0.11638581001,-0.00179077585776,0.00583379693709,-1.24627399252
1385569424123268143,0.255841845895,-0.543955719377,-0.11639622428,-0.00158692476526,0.0062538908782,-1.24616395581
1385569424133262019,0.255839762842,-0.543980989855,-0.116422788482,-0.00121606628612,0.00603659159209,-1.24550880869
1385569424143265907,0.255820653181,-0.543960500432,-0.116361354734,-0.0012437614189,0.00639469601388,-1.24609968846
1385569424153263707,0.255759624827,-0.543940488285,-0.11634225459,-0.000964761644634,0.00600495794494,-1.24632202144
1385569424163283066,0.255812628375,-0.54390224843,-0.116424337996,-0.00142822878289,0.00594154454087,-1.24589849843
1385569424173241800,0.255794732689,-0.543971304822,-0.116422775829,-0.00152600496204,0.00618883222648,-1.24623773443
1385569424183263923,0.255764627557,-0.54392652698,-0.116371783732,-0.000913228024341,0.00583600787459,-1.24617992462
1385569424193248248,0.255825044655,-0.543924227158,-0.116381482792,-0.00104928165281,0.00604838006409,-1.24587440389
1385569424203246375,0.255848997447,-0.544007229755,-0.116397054858,-0.00101665499662,0.00646380019999,-1.24581243914
1385569424213245510,0.25577966951,-0.543895261891,-0.116403595574,-0.00102159878007,0.00592493304043,-1.24612562444
1385569424223269178,0.255839028257,-0.543922362187,-0.116379887094,-0.00119616548828,0.00550189842737,-1.24612252639
1385569424233242773,0.255802151253,-0.543943897631,-0.116320605612,-0.00162500562429,0.0064792903886,-1.24623776432
1385569424243234941,0.255794029071,-0.543883846399,-0.116379979917,-0.00129893475519,0.0062287343214,-1.24601662792
1385569424253262306,0.25579068147,-0.543925345033,-0.116392410285,-0.000755424031712,0.00562376316308,-1.24602042552
1385569424263238208,0.255818871855,-0.543902333571,-0.116430639844,-0.000525719998958,0.00600605253253,-1.24629018748
1385569424273234234,0.255822283602,-0.543825277904,-0.116366209028,-0.000833337601864,0.00603096257045,-1.2461588894
1385569424283232875,0.255786943153,-0.543929546711,-0.116351302625,-0.00118751443663,0.00620085872049,-1.24619048217
1385569424293407600,0.255839922839,-0.543855470568,-0.116353361102,-0.00163240344671,0.00583198288688,-1.24646177832
1385569424303266171,0.255778702619,-0.543868402875,-0.116370029916,-0.00198779805766,0.00610468413117,-1.24597082596
1385569424313277608,0.255715174307,-0.543965904285,-0.116329168259,-0.00172873857306,0.00641445472324,-1.24620665361
1385569424323319687,0.255771420465,-0.543893520478,-0.116371213445,-0.000798682265771,0.00588283587906,-1.24618451601
1385569424333260851,0.255785102625,-0.543851677474,-0.116396694725,-0.000625853626786,0.0056225194119,-1.24603952917
1385569424343266877,0.255803143714,-0.543885972532,-0.116386412531,-0.00106083565091,0.0062789664485,-1.24622405864
1385569424353344239,0.25576668107,-0.543828014862,-0.116388236018,-0.00140183297102,0.00617020839736,-1.24629372011
1385569424363283154,0.255841516934,-0.543831054012,-0.116369791865,-0.00196718471496,0.00583640484805,-1.24632371911
1385569424373249851,0.255757223269,-0.543887587255,-0.116358060897,-0.00223223260325,0.00637331403714,-1.24631779474
1385569424383313322,0.255862011936,-0.543888578035,-0.116389060081,-0.00177826072629,0.005602304937,-1.24594198856
1385569424393260219,0.255808526891,-0.543878306448,-0.116349111692,-0.00116261131532,0.00600556171556,-1.24603834283
1385569424403285144,0.255795691387,-0.54385908145,-0.116429242183,-0.000957433020957,0.00635671349983,-1.24641054202
1385569424413236753,0.255789916395,-0.543800056842,-0.116437993292,-0.0010378641391,0.0060896015944,-1.2461400118
1385569424423262862,0.255744297374,-0.543877567951,-0.116418797526,-0.00168910222764,0.0066766737004,-1.24618020204
1385569424433231072,0.255899745377,-0.543813188608,-0.11635106583,-0.00197017432406,0.00548951274801,-1.24660087191
1385569424443294301,0.255746127318,-0.543818477157,-0.116376318016,-0.00233517415162,0.00603243701947,-1.2461940151
1385569424453254818,0.255804035348,-0.54389044606,-0.116416839721,-0.00219812446604,0.00637776731996,-1.24639097006
1385569424463265683,0.25579013002,-0.543787602779,-0.116397987544,-0.00138408173424,0.00637907439856,-1.24605943018
1385569424473270300,0.255818697878,-0.543768360631,-0.116391107307,-0.00086757007572,0.00642289251272,-1.24609371597
1385569424483257244,0.255797269885,-0.543841611211,-0.116383759393,-0.000810569898581,0.00629841979407,-1.24661881968
1385569424493441389,0.255854025825,-0.543743065843,-0.116468026569,-0.00146928755801,0.00561908655007,-1.24643144794
1385569424503263111,0.255735990581,-0.543793589815,-0.116360827783,-0.00198628758508,0.00620002614758,-1.24626371671
1385569424513273753,0.255736696953,-0.543823422553,-0.116332882652,-0.00226973583183,0.0063689298908,-1.24689512515
1385569424523246452,0.25573444874,-0.543752383671,-0.116428931151,-0.00171582698206,0.0062266473445,-1.2471451418
1385569424533277099,0.255795286938,-0.543733659569,-0.116483776851,-0.00136232556737,0.00602521927648,-1.2472130079
1385569424543274408,0.255681794514,-0.543835114042,-0.116509097555,-0.00155454543758,0.00523578661876,-1.24659213442
1385569424553274143,0.255775441631,-0.543685578238,-0.116303238971,-0.000682531060833,0.00640026541934,-1.24745042157
1385569424563279784,0.255780888142,-0.543739598521,-0.116447894883,-0.00149582377186,0.0062021169252,-1.24739616655
1385569424573250768,0.255607513651,-0.543900037776,-0.116385704728,-0.0014826496119,0.00493949922898,-1.24739643069
1385569424583293883,0.255662611956,-0.543870647911,-0.116282406825,-0.00157542759939,0.00545854779005,-1.24793946516
1385569424593260216,0.255744483147,-0.543718501317,-0.116259037497,-0.000886894284091,0.00680515100419,-1.24703104112
1385569424603274748,0.255580584126,-0.543850811865,-0.116414569944,-0.00136666387619,0.00340848675988,-1.24719523062
1385569424613278599,0.255690909283,-0.543723337673,-0.116675950068,-0.00180474017754,0.00415511405368,-1.24712305202
1385569424623340120,0.255734028988,-0.543721259792,-0.11647894336,-0.00109303442837,0.0064005162552,-1.24742860875
1385569424633237781,0.255758544741,-0.543697658613,-0.116387914123,-0.0018169844561,0.00352499053414,-1.24834065432
1385569424643232655,0.255762477482,-0.54378654905,-0.116136184842,-0.000753958564988,0.00373258499873,-1.24784886128
1385569424653230804,0.255911576736,-0.543670181431,-0.116407449705,-0.000959814227856,0.00410052928517,-1.24862414809
1385569424663234063,0.255638789116,-0.543830127617,-0.116504805927,-0.00153835970277,0.00294505714476,-1.2484837477
1385569424673235296,0.255691104885,-0.54369699415,-0.116458604899,-0.00106678089952,0.00369856592555,-1.24837300742
1385569424683238728,0.255821661335,-0.543747534558,-0.116217023517,-0.000539837943355,0.00436336950104,-1.24944903719
1385569424693237699,0.255786950299,-0.543690137377,-0.116312572812,-0.00070222062196,0.00367523080987,-1.24965457409
1385569424703238731,0.25557857888,-0.543846699991,-0.116456014914,-0.00186893635285,0.00309194393926,-1.24855130833
1385569424713231392,0.255714333817,-0.54370210644,-0.116247483178,-0.00040951421507,0.00372117927984,-1.24936404739
1385569424723232948,0.25561793444,-0.54373135225,-0.116117569565,-0.000165572244086,0.00453176234189,-1.24957203379
1385569424733237101,0.255599050214,-0.543719632374,-0.116222069494,-0.000669473894225,0.00453142077852,-1.24913037453
1385569424743237477,0.255701218156,-0.543589355116,-0.116382376361,-0.000861381755413,0.00475345830543,-1.25055625497
1385569424753232378,0.255758934166,-0.543683095175,-0.116314063014,-0.000643803560651,0.0038047431345,-1.2499984622
1385569424763233059,0.25579127881,-0.543506724349,-0.11630472343,-0.000342893443899,0.00451063263203,-1.25010528009
1385569424773235878,0.255708951778,-0.543626395257,-0.116310306655,-0.000252986742535,0.00473667567665,-1.25036325668
1385569424783233986,0.255718103182,-0.54344716645,-0.116422577486,-0.000424691164045,0.00476540769527,-1.24964413514
1385569424793227577,0.255560447085,-0.543654504605,-0.116263811774,-0.00108239060593,0.00477907732724,-1.25057451625
1385569424803245597,0.255483018959,-0.543660617566,-0.116377849361,-0.00152765897249,0.00262497660785,-1.24985174187
1385569424813239479,0.255585388778,-0.543615775937,-0.116250152757,-0.000631642286527,0.004515392417,-1.25029209159
1385569424823233015,0.255612124224,-0.543620596207,-0.11630716801,4.82744525864e-05,0.00354231211504,-1.25112395411
1385569424833232893,0.255494989827,-0.543661201539,-0.116483329169,-0.000837173971838,0.00303109847494,-1.25049301935
1385569424843233346,0.255382181983,-0.543698508619,-0.116394768901,-0.000836068156045,0.00341934837747,-1.25114296171
1385569424853227020,0.255325355962,-0.543671837569,-0.116414690236,-0.00191367118552,0.00345784518035,-1.25077412728
1385569424863238252,0.255228320824,-0.543642806686,-0.116351588801,-0.00230713814278,0.00358457450771,-1.25102945277
1385569424873233174,0.255372243268,-0.543632188913,-0.116244621009,-0.000363996449744,0.00424360352166,-1.2516767025
1385569424883242072,0.255475014669,-0.543469896238,-0.116406276632,5.55230509079e-05,0.0055708251177,-1.25181561261
1385569424893248866,0.255344594308,-0.543553403078,-0.116402627684,-3.45193018999e-05,0.00540096079907,-1.25168552924
1385569424903236569,0.255321375606,-0.543589322174,-0.116418421518,-0.000153075178108,0.00501789852899,-1.25251422509
1385569424913234197,0.255247010459,-0.543493798595,-0.11631108396,2.96917459923e-05,0.00359448085515,-1.25246562839
1385569424923237325,0.25516812092,-0.543529896152,-0.116262446601,-0.000891281387616,0.00432336754227,-1.25325300446
1385569424933226296,0.255142107869,-0.543457225742,-0.11636357961,-0.000747131695051,0.00389225693785,-1.25327232561
1385569424943237351,0.25520803345,-0.543389064223,-0.116456780127,-0.000199862653379,0.00433443465721,-1.25305720729
1385569424953232491,0.255198990665,-0.543452020264,-0.116403585637,0.000344984173337,0.00388255063583,-1.25338675936
1385569424963229937,0.254944854975,-0.543388330577,-0.116255850324,0.00036915098816,0.00479475690598,-1.25309996527
1385569424973239312,0.25503858136,-0.543415749185,-0.116224877472,0.00025562114412,0.00386263212406,-1.25421918216
1385569424983234053,0.254962977573,-0.543368652268,-0.116517373982,-0.00118544299238,0.00290075441064,-1.25362009224
1385569424993227210,0.255071661216,-0.54333018655,-0.116378331449,-0.000414973226506,0.00434223940641,-1.25492188819
1385569425003241805,0.255119297172,-0.543156379198,-0.116544906142,-0.000224372697646,0.00529987299128,-1.2542259748
1385569425013229458,0.254991656459,-0.543211382361,-0.116363747521,-0.000130042147134,0.00474709600832,-1.25542094627
1385569425023230261,0.254971400503,-0.543186458316,-0.116376965865,7.88063769268e-05,0.00416862011625,-1.25523148363
1385569425033232276,0.254905933829,-0.543108957701,-0.116363631319,0.000223055662504,0.00469188925215,-1.25625957652
1385569425043237801,0.254975523556,-0.543060915562,-0.116569349295,0.000701224976767,0.00455129609232,-1.25555553124
1385569425053231340,0.254976955875,-0.542910844096,-0.116493197027,0.000853721287524,0.00535670746633,-1.25685108602
1385569425063235961,0.25482518911,-0.542880784467,-0.116414371083,0.000625599293494,0.00489265295485,-1.25671256708
1385569425073229150,0.254901532678,-0.542786565766,-0.11648009879,-0.000145520671898,0.00481406411732,-1.25699246515
1385569425083230340,0.254838815283,-0.542679964881,-0.116371947792,-0.000533601004391,0.00470374238029,-1.25825169846
1385569425093233230,0.254837867925,-0.542638600866,-0.116397972143,-0.000263807772142,0.00431245780043,-1.25871449633
1385569425103232703,0.254910200521,-0.542331286765,-0.116615658501,0.000192318828284,0.00506358845923,-1.25965706164
1385569425113240009,0.254741064145,-0.542542106423,-0.116451670507,0.00174368637639,0.00369734533496,-1.25961322835
1385569425123230848,0.254631186337,-0.542313541004,-0.11642121638,0.000646795783911,0.00316783171856,-1.26005918634
1385569425133232195,0.254593545784,-0.542248934751,-0.116578213999,0.000407205930761,0.00330429088418,-1.26034477967
1385569425143232542,0.254545032891,-0.542236522882,-0.11666970795,0.000233278173932,0.00252475494585,-1.26122636471
1385569425153230114,0.254369052593,-0.542148973964,-0.11658103245,0.000122486218437,0.00144585192039,-1.26275602168
1385569425163242773,0.2544376052,-0.541951577423,-0.116552869021,0.000174638141145,0.0037867012033,-1.26398041479
1385569425173245377,0.254319866708,-0.541855930641,-0.116632648893,0.000917085514833,0.00232325828392,-1.26540400083
1385569425183231620,0.254202674808,-0.541720040999,-0.116696134555,0.00137118177406,0.00334917962261,-1.26603473913
1385569425193337151,0.254211922809,-0.541648401066,-0.116567099677,0.00267727469565,0.00442097476223,-1.26795707431
1385569425203237231,0.254186574473,-0.541716856159,-0.116449586988,0.00139288721568,0.00489833348922,-1.26928741144
1385569425213228875,0.254073350619,-0.541646643644,-0.116748246639,0.00149499882146,0.00392054725101,-1.26969933099
1385569425223247862,0.253809687983,-0.541665181676,-0.116993324709,0.000484912752376,0.00216621480747,-1.27036065969
1385569425233273901,0.253892455995,-0.541812193589,-0.116896857222,0.000182473067211,0.00317316269004,-1.27207861792
1385569425243240726,0.253805943446,-0.541278150685,-0.11630647736,0.00173787000721,0.00590946128189,-1.27275426553
1385569425253233739,0.253448755384,-0.541806709028,-0.116551731787,-0.000176963233359,0.00296687738554,-1.27483574851
1385569425263248334,0.253210157024,-0.541440467099,-0.116653323381,-0.000152934689994,0.00145756676753,-1.27480828015
1385569425273233530,0.253148475131,-0.541600826658,-0.11669321206,0.000230079765444,0.00213687913039,-1.27704193276
1385569425283241263,0.252890671629,-0.541416289864,-0.116737479279,7.55617335266e-05,0.00315021114371,-1.27869953082
1385569425293236397,0.252743780678,-0.541378018446,-0.11683104918,-1.96487633997e-05,0.0029649349673,-1.28026243041
1385569425303238979,0.252439779193,-0.541166542745,-0.116565988037,0.000341542488698,0.00201937949002,-1.28258128885
1385569425313239471,0.252340794666,-0.541101100458,-0.11648182544,0.000192085825156,0.00355958246404,-1.28541887503
1385569425323233784,0.252127211121,-0.540925019516,-0.116584803457,-0.000493429754875,0.00415975924383,-1.28702626851
1385569425333233353,0.252016334034,-0.540979081187,-0.116941374341,0.000288224316381,0.000954862161281,-1.28917698287
1385569425343249721,0.25176097313,-0.540692625114,-0.11682390021,0.000211724856168,0.00219780355464,-1.29073331368
1385569425353233228,0.251622535595,-0.540803251689,-0.116784433823,-0.000565103295699,0.00510315787351,-1.29332800701
1385569425363239138,0.251242374498,-0.540775883491,-0.116790969204,-0.000992767645472,0.00465113152597,-1.29483324087
1385569425373238687,0.251008030002,-0.540698964511,-0.116708162,-0.000591520703935,0.0009719373383,-1.29608870552
1385569425383230898,0.2507463558,-0.540500131931,-0.116505372269,-3.17903884463e-05,0.00128070689088,-1.2981351259
1385569425393231639,0.250498753416,-0.540485705197,-0.116442860487,-0.000163821132201,0.00228401830844,-1.30082569327
1385569425403244792,0.250124115888,-0.540242816682,-0.116788405289,-0.00134762793568,0.0026761221987,-1.30336411674
1385569425413238987,0.24984609476,-0.540036832135,-0.117175637668,-0.00166637983334,0.00406197859384,-1.30495974313
1385569425423233141,0.249567571145,-0.53980361175,-0.116958006673,-0.00187937697702,0.00431373680637,-1.30677305488
1385569425433230796,0.249422702018,-0.539658314731,-0.116863776567,-0.00170054810863,0.00500080312235,-1.30965908036
1385569425443229590,0.249034768462,-0.539684226036,-0.116724558467,-0.00186926238713,0.000869284106565,-1.31124774747
1385569425453244341,0.248664805211,-0.539415790368,-0.116771167605,-0.00146546718648,-0.00139025528969,-1.31397271364
1385569425463236253,0.248274474984,-0.539290171913,-0.116720106239,-0.00152525261517,0.000975694833385,-1.31606613305
1385569425473251542,0.248027084759,-0.538888556557,-0.116550132677,-0.00119213825182,0.00529471733216,-1.31867610549
1385569425483232788,0.247582595364,-0.5387620339,-0.116757719256,-0.00256167116737,0.00451010269795,-1.31999533521
1385569425493239443,0.247245477259,-0.538562410611,-0.116901883169,-0.00200173182242,0.00324083795309,-1.32181363809
1385569425503250658,0.246880504497,-0.538396295495,-0.116703618839,-0.00348158155826,0.00217801493015,-1.32295089414
1385569425513234279,0.246490461216,-0.538219518714,-0.116718153308,-0.0040071987281,0.00302681428236,-1.32539486333
1385569425523228903,0.246312139252,-0.537823876155,-0.116824182496,-0.00382087383959,0.00247681616043,-1.32665185153
1385569425533232589,0.246009953857,-0.537657715646,-0.116842563934,-0.00380251640896,0.000808183333281,-1.32806587837
1385569425543239252,0.24565467961,-0.537560784921,-0.116875161046,-0.00328168131778,0.00169398385961,-1.33105240764
1385569425553231024,0.245426329188,-0.53752732138,-0.116724308269,-0.00389590796175,0.00088984747351,-1.33300343141
1385569425563241063,0.245039687295,-0.537440031982,-0.116826080646,-0.00359163174371,0.00232829035728,-1.3359775299
1385569425573246683,0.244882448695,-0.537255382584,-0.116982160264,-0.00205375675373,-5.96085269085e-05,-1.33869727042
1385569425583229722,0.244477862364,-0.536959783347,-0.11713375986,-0.00124028028847,-0.00198663461446,-1.34107399414
1385569425593229047,0.244099851097,-0.536594274476,-0.117355369563,-0.00287542737901,-0.00175057235261,-1.34393806897
1385569425603242843,0.243511568568,-0.536608984159,-0.117491379362,-0.00361816214659,-0.00388239740012,-1.34693237498
1385569425613233554,0.243025849228,-0.536457343745,-0.11773200457,-0.00502866085053,-0.00514730875338,-1.3500065792
1385569425623232531,0.24251884762,-0.536309032747,-0.117849047801,-0.00656224265055,-0.00652002064653,-1.35302421125
1385569425633227959,0.242123798504,-0.536025566117,-0.118478012025,-0.00647711427812,-0.00661271984992,-1.35608966984
1385569425643228204,0.241564628092,-0.536078782565,-0.118729094614,-0.00791265170559,-0.00982059560154,-1.35922953137
1385569425653235383,0.240874870594,-0.535853752257,-0.119056309826,-0.00742239782746,-0.0109938022041,-1.36133926758
1385569425663236381,0.240333010678,-0.53572583164,-0.119556402383,-0.00855022260459,-0.0120073260721,-1.36514111025
1385569425673236378,0.239710139847,-0.535398215519,-0.120122267024,-0.00932017748494,-0.0134624755912,-1.36752739872
1385569425683232253,0.23917550494,-0.535367299709,-0.120852689898,-0.0108364599118,-0.0137847170669,-1.37089197751
1385569425693251986,0.238809656472,-0.534870460482,-0.121459463174,-0.0106982382708,-0.0125018505552,-1.37249290863
1385569425703241339,0.238265932198,-0.534680366024,-0.122065249361,-0.0109441587036,-0.0131770458869,-1.37362228719
1385569425713229776,0.237659650379,-0.534471974615,-0.123027564817,-0.0120891412526,-0.0145445486208,-1.37413544131
1385569425723232530,0.237272324338,-0.53431324,-0.123865548297,-0.0125451884346,-0.0150778500514,-1.37535058207
1385569425733236347,0.237182103891,-0.53400135728,-0.124912134289,-0.012143384027,-0.0139932824462,-1.375580642
1385569425743233245,0.23680590119,-0.533620273525,-0.125934482413,-0.00976536075256,-0.0124749053952,-1.37679755994
1385569425753236320,0.236650290507,-0.533721292699,-0.126854617612,-0.00846353451553,-0.013240694424,-1.37812991261
1385569425763238931,0.236639130996,-0.533256197998,-0.128161251145,-0.00654809032254,-0.00955886471258,-1.37920220341
1385569425773254222,0.236487869116,-0.533119606006,-0.129654419443,-0.00468344003682,-0.0115488410939,-1.37995425595
1385569425783237430,0.236359312419,-0.533107608579,-0.130983571593,-0.00321161268312,-0.00964799925627,-1.38140859514
1385569425793233261,0.236378079755,-0.532652844304,-0.132467661728,-0.00233266799688,-0.0107045567365,-1.38214467477
1385569425803238850,0.236316739141,-0.532677067464,-0.133897355057,-0.0014952078136,-0.0119723934685,-1.38320436261
1385569425813250028,0.236452327779,-0.532164057616,-0.135845260685,-0.000135110095305,-0.0126859305563,-1.38384480535
1385569425823238061,0.236409006455,-0.532085327538,-0.137565408319,0.000996576505193,-0.0141166591008,-1.38522691697
1385569425833236112,0.23636442033,-0.531546973643,-0.139228874933,-0.000619984787875,-0.0172534702142,-1.38522937067
1385569425843240250,0.236457895785,-0.531339716521,-0.141365325282,-0.000672311593747,-0.0176945031627,-1.38641067502
1385569425853245262,0.236296014682,-0.531145831153,-0.143620760526,-0.00241559034745,-0.0238651175864,-1.38670520189
1385569425863238545,0.236399771028,-0.530831746027,-0.146162417109,-0.00205896622817,-0.025243763109,-1.38788524362
1385569425873233569,0.236197173413,-0.530681466714,-0.148222508558,-0.00183495408924,-0.0286671598749,-1.38873071201
1385569425883229243,0.236274219842,-0.530322204792,-0.15068436449,-0.0013378333652,-0.0298753850961,-1.39122967181
1385569425893399718,0.236255036443,-0.53014382951,-0.153769861187,-0.00167797549479,-0.0342752954386,-1.39184774294
1385569425903256891,0.236125149649,-0.530078136895,-0.156533661533,-0.00108175667006,-0.0352027167695,-1.39392112966
1385569425913266236,0.23625541295,-0.529693776942,-0.159348371652,-0.000262789381055,-0.0359635957936,-1.39505618442
1385569425923265327,0.236220399884,-0.529493558467,-0.162337523198,0.00092922289831,-0.0380740757872,-1.39609306539
1385569425933265881,0.236374827041,-0.529430364735,-0.165673360348,0.00154525540277,-0.0390964080873,-1.39722678262
1385569425943260483,0.236468789172,-0.529131045048,-0.16898860117,0.00362424974187,-0.0396036157878,-1.3978576852
1385569425953237380,0.236214606551,-0.529282236261,-0.171986920028,0.00338065178442,-0.0407045924979,-1.39960228421
1385569425963282530,0.236533443906,-0.529321719349,-0.175482015655,0.0048851415526,-0.041687475452,-1.39986642639
1385569425973247306,0.236563373455,-0.529415179446,-0.178920027501,0.00489034377969,-0.0427925605656,-1.39997707018
1385569425983285302,0.236788655826,-0.529494419202,-0.182856903414,0.00610744615153,-0.0428096509303,-1.40067326024
1385569425993257221,0.237286490792,-0.529495003584,-0.186561250654,0.00839075185197,-0.0406605856409,-1.40138501089
1385569426003273154,0.237311781191,-0.529701164531,-0.189905326329,0.00805128166204,-0.0423140084333,-1.40229081618
1385569426013245450,0.237474878069,-0.530200274034,-0.193733880027,0.00676661085529,-0.0432645031711,-1.40286346052
1385569426023284539,0.237590069597,-0.530581159461,-0.197812054113,0.00478892726285,-0.0445227767362,-1.40480006036
1385569426033264923,0.237722746892,-0.531007673434,-0.201456592851,0.00375289050774,-0.0467852387238,-1.40463620699
1385569426043262027,0.238097828181,-0.531424622929,-0.205752827242,0.00362406157343,-0.0448765126518,-1.40553729841
1385569426053239248,0.238084106367,-0.532205514563,-0.210123204617,0.000971154520647,-0.0501276252987,-1.40677375935
1385569426063286572,0.238678133383,-0.53246526092,-0.214029903418,0.00281010907135,-0.0454920217054,-1.40731382308
1385569426073257718,0.238926304288,-0.533187497467,-0.21802844136,0.00307717198836,-0.0460634274176,-1.4086727296
1385569426083245517,0.239056921835,-0.533847866841,-0.222180332138,0.00358812453334,-0.0444512229661,-1.4105857586
1385569426093393252,0.239511384727,-0.534279331163,-0.226682041419,0.00458285163194,-0.0420648215702,-1.41092287016
1385569426103263633,0.239774466723,-0.535235251564,-0.231026339446,0.00464086668692,-0.0403827013662,-1.41198479268
1385569426113263025,0.240029406086,-0.536033423081,-0.235437937655,0.00495561520597,-0.0384063545186,-1.41235173964
1385569426123248674,0.240382834204,-0.53710801952,-0.239677833085,0.00527782833466,-0.0360891678826,-1.4123241196
1385569426133290541,0.240763619704,-0.538013981108,-0.244187196108,0.0053856441131,-0.0343700044536,-1.41284557713
1385569426143255687,0.241205781006,-0.539143424261,-0.248987471508,0.00544587149601,-0.0327491149832,-1.41362770621
1385569426153265997,0.241397699279,-0.540127669273,-0.253650380953,0.00657047928021,-0.0320684260601,-1.41403016286
1385569426163277868,0.242007576486,-0.5412424068,-0.258158093443,0.00715881569049,-0.0298697743047,-1.41544748865
1385569426173264063,0.242421096141,-0.54239085114,-0.262898140901,0.00716691361482,-0.027692890059,-1.4162017522
1385569426183291013,0.242598282601,-0.543779080183,-0.267588207375,0.00724311743855,-0.024432851032,-1.41772524437
1385569426193240515,0.243400754846,-0.544688227809,-0.272466089514,0.00861266093855,-0.0215019049537,-1.41851232718
1385569426203283109,0.243743927128,-0.545941520626,-0.277210249011,0.00937527727096,-0.0189936470955,-1.41908747141
1385569426213274749,0.244195303089,-0.547225715228,-0.281982987424,0.00892310759826,-0.0168440654658,-1.42016681336
1385569426223248223,0.244666135471,-0.548316055066,-0.287135131919,0.00854194589223,-0.0123815155885,-1.42115014364
1385569426233266536,0.244975822537,-0.5497416175,-0.292108545071,0.00863604123347,-0.00908596018378,-1.42203947868
1385569426243275222,0.245750656619,-0.551097663125,-0.297275629751,0.00820754716105,-0.0058744972141,-1.42217014328
1385569426253303888,0.24591058646,-0.552430820582,-0.30199997998,0.00841800773835,-0.00640611704493,-1.4232665803
1385569426263257843,0.246409996272,-0.55381830378,-0.307093431766,0.00833597927332,-0.00423652893839,-1.42406586793
1385569426273241539,0.246760964294,-0.555438120018,-0.312442917962,0.00691558890358,-0.00332614742704,-1.4253413343
1385569426283233830,0.247397132187,-0.556657127973,-0.317735197631,0.0072349727025,-0.00032568592021,-1.42555182003
1385569426293237943,0.2477763546,-0.558149361666,-0.322878810411,0.00724816121537,0.000724486115817,-1.42651342919
1385569426303233886,0.248374724296,-0.559268327801,-0.328150326565,0.00685319983698,0.000484652506703,-1.42585304564
1385569426313247423,0.248681141364,-0.560900559925,-0.333400970271,0.00628957664422,0.0025590352901,-1.42655649007
1385569426323237013,0.249133944002,-0.562661717642,-0.338778401653,0.00558441436605,0.0028240446201,-1.42752389138
1385569426333229672,0.249836141162,-0.563854639459,-0.344092574988,0.00624869956544,0.0018354485851,-1.42727827371
1385569426343267958,0.25034541624,-0.565412339982,-0.349532878212,0.00666549038586,0.00233185458722,-1.42809257912
1385569426353231691,0.250975821076,-0.566697124179,-0.355151277697,0.00715895154274,0.00366362981629,-1.42897699795
1385569426363239140,0.251560872413,-0.568134532811,-0.360665268918,0.00764434199126,0.0049494442908,-1.4298168091
1385569426373267945,0.251938366673,-0.569728472796,-0.365909956935,0.00804974124435,0.00356572601705,-1.42969439769
1385569426383245528,0.252781727478,-0.571156045435,-0.371626756534,0.00796824818997,0.00609380899161,-1.43056427422
1385569426393231990,0.253370966053,-0.57226012064,-0.377003660201,0.0101031313961,0.00812963632479,-1.43167588158
1385569426403249443,0.253869905394,-0.573823116154,-0.382782799583,0.00817442024253,0.00718669499139,-1.43144317882
1385569426413236183,0.254578531927,-0.575112871932,-0.388526671231,0.00942386269441,0.0103773079982,-1.43264598279
1385569426423236933,0.254990036072,-0.576589452228,-0.394527276887,0.0085982669872,0.00997960618389,-1.43258027084
1385569426433259613,0.255655728202,-0.578102285926,-0.400129994535,0.00899672033879,0.0110819362568,-1.43300082965
1385569426443243550,0.256269685047,-0.579146041102,-0.406190734072,0.0098484373328,0.0133056751117,-1.4348709036
1385569426453234602,0.256951159166,-0.580780868203,-0.411803935776,0.00956562799041,0.0141347126411,-1.43494841721
1385569426463238929,0.257556169545,-0.582276893756,-0.417081240051,0.00996703238975,0.0121290214798,-1.43515600964
1385569426473233168,0.258033759293,-0.583731598511,-0.422514122322,0.00751255148386,0.0119529009282,-1.435959334
1385569426483238355,0.258557374804,-0.585217037766,-0.427728046754,0.00701252430621,0.0112556567085,-1.43630648649
1385569426493234042,0.259147209696,-0.586747819382,-0.432757150215,0.00786260417391,0.0116748853895,-1.43763414019
1385569426503234747,0.259817484275,-0.588112367006,-0.437630223019,0.00790607141847,0.0121245226154,-1.43789487608
1385569426513237161,0.260396124009,-0.589435691046,-0.442351609744,0.00749706670571,0.0110198968212,-1.43826052203
1385569426523230136,0.261056631207,-0.590677486925,-0.447035016498,0.0071701236979,0.0108344253228,-1.43865212713
1385569426533234952,0.261873880952,-0.591897994171,-0.45159767124,0.00800582776885,0.0126874278313,-1.43957443341
1385569426543240447,0.262454739932,-0.593466500561,-0.455849406439,0.00722634289095,0.0125135633447,-1.44020652031
1385569426553232999,0.262932364419,-0.595040837121,-0.460126040988,0.0063141720439,0.00957823003361,-1.44006080984
1385569426563238622,0.263611721382,-0.596274842939,-0.464310120677,0.00642905247146,0.00937590823068,-1.44078091489
1385569426573240128,0.264246080146,-0.597877403842,-0.468267478778,0.00491521947401,0.00918174292451,-1.44137483143
1385569426583327644,0.264757095833,-0.599246018527,-0.472472495851,0.000810549991541,0.00323526471522,-1.44195734013
1385569426593238447,0.265408551551,-0.600818568352,-0.476163117327,0.000652914801103,0.00200455952739,-1.4423164432
1385569426603244875,0.266397216372,-0.601794931009,-0.47918606846,0.00482448284071,0.00912032455274,-1.44316096383
1385569426613245026,0.267027683231,-0.603275149575,-0.482694802729,0.00501263584793,0.00822680776101,-1.44374550438
1385569426623302877,0.267570547024,-0.604895013063,-0.485974741291,0.00407321162927,0.00640175288463,-1.44352052002
1385569426633242767,0.268158507221,-0.606391619013,-0.489124022057,0.0036136811298,0.00651770120278,-1.44504837642
1385569426643235881,0.269014283587,-0.607544764436,-0.492205693567,0.00448396032166,0.00921367754309,-1.44559986689
1385569426653238963,0.269488265287,-0.608928543082,-0.495021850112,0.00277450500572,0.00685937050806,-1.44550574376
1385569426663240158,0.27013298922,-0.610354039099,-0.4976182835,0.00304624291803,0.00676957038872,-1.4461468008
1385569426673232065,0.270969443019,-0.611723118496,-0.500256833062,0.00290275851833,0.00797564045797,-1.44602977364
1385569426683244543,0.27153206645,-0.613083388293,-0.502926702811,0.00337977149323,0.00791106702893,-1.44703348458
1385569426693239398,0.272399292993,-0.614395825153,-0.505301858335,0.00260711696062,0.00891506584844,-1.44776076965
1385569426703248278,0.27300115589,-0.615877374848,-0.507441390738,0.00266911432328,0.00842144830278,-1.44812032809
1385569426713233390,0.273618897799,-0.617167013726,-0.509444994725,0.00245612176817,0.00807142195477,-1.44815881554
1385569426723234034,0.274338884157,-0.618598728314,-0.511394992174,0.00292177610231,0.00760581338378,-1.44842115084
1385569426733278746,0.275318187454,-0.61980610841,-0.513322471625,0.00370796549746,0.0103066752971,-1.44932298739
1385569426743231083,0.275878112889,-0.621393820406,-0.51505590716,0.00168442307933,0.00881266769483,-1.45003666712
1385569426753232241,0.276464993144,-0.622852535204,-0.516625225198,0.00312783214463,0.00860262537891,-1.44977026223
1385569426763231740,0.277295486806,-0.624136160098,-0.518124811272,0.0030433001631,0.00855264015452,-1.45026659166
1385569426773225517,0.277934113058,-0.625505208197,-0.519673958405,0.00345082069521,0.00982401684628,-1.45080276949
1385569426783229075,0.278670367597,-0.626961721382,-0.520845713946,0.00323485439918,0.00972533091164,-1.45153122334
1385569426793226936,0.279458118957,-0.628172805707,-0.521896460978,0.00424130126577,0.0101026523629,-1.45116231814
1385569426803235248,0.280047411482,-0.629676375432,-0.523098249608,0.00450266469302,0.00868027557978,-1.45148483279
1385569426813237371,0.280935378488,-0.631116161718,-0.524118416275,0.0040751444961,0.0102602449593,-1.45201437957
1385569426823290584,0.281547234758,-0.632275410638,-0.524998410912,0.00494769554271,0.0109040776523,-1.45254202212
1385569426833255943,0.282472097914,-0.633759819927,-0.525777146525,0.00522772952082,0.0111567248023,-1.45253535023
1385569426843311598,0.282970497939,-0.635008424932,-0.526401416797,0.0046444820712,0.0102703832948,-1.45296565898
1385569426853255098,0.283839603859,-0.63630494969,-0.526963812948,0.00578032285355,0.0120506072202,-1.45356534206
1385569426863248910,0.284511375063,-0.637783535193,-0.527629998339,0.00548583006805,0.014128813077,-1.45546686614
1385569426873234425,0.285128352864,-0.639194833027,-0.527780573881,0.00687761596888,0.0131826709005,-1.45471475399
1385569426883233615,0.286051450465,-0.640510637497,-0.528077996841,0.00686227153602,0.0133268562465,-1.45539921688
1385569426893233443,0.286831922678,-0.641468167819,-0.528338993457,0.00710074259022,0.0146950471482,-1.45627652971
1385569426903250955,0.287618696022,-0.643031144865,-0.528366119651,0.00690183380647,0.0150188165511,-1.45614472794
1385569426913256870,0.28832705953,-0.644339252006,-0.528387528297,0.00742133312692,0.015091941016,-1.45667541739
1385569426923256750,0.28919049386,-0.645740286476,-0.528400563465,0.00677296364567,0.0158607219411,-1.45724518038
1385569426933255633,0.28998900986,-0.646916435627,-0.528231758137,0.00647435803529,0.0154337024594,-1.45782595603
1385569426943302050,0.29057981145,-0.648418070165,-0.527988683766,0.00742561836628,0.0160566789639,-1.45808684201
1385569426953295604,0.291458980081,-0.649585443005,-0.527721571001,0.00774167457405,0.0156465398597,-1.4583256792
1385569426963292009,0.292224455702,-0.650961092666,-0.527315100208,0.00703596411193,0.0157446143694,-1.45807631619
1385569426973343362,0.293032194779,-0.652214214772,-0.526869828217,0.00696605430275,0.0155850229084,-1.45901615525
1385569426983369635,0.293909087206,-0.653528870371,-0.526427505134,0.00718596742209,0.0157604528674,-1.45920448828
1385569426993285802,0.29474583051,-0.65464878816,-0.525878613445,0.00724605738672,0.0143529579565,-1.45848062159
1385569427003375253,0.295605058594,-0.656045511746,-0.525269741399,0.0079476515146,0.014981383157,-1.45937440178
1385569427013312101,0.296392770289,-0.657374249376,-0.524466236292,0.00733902053566,0.0145799435328,-1.45984263976
1385569427023352416,0.297286254457,-0.658593633682,-0.523725533353,0.00718855869851,0.0130124576056,-1.45995630181
1385569427033285790,0.298060582627,-0.659874566138,-0.522907854816,0.007000241388,0.0144165089983,-1.46014105633
1385569427043268491,0.298820737687,-0.661200997651,-0.522096419365,0.00679343197551,0.0141841790831,-1.46074727564
1385569427053320450,0.299720227693,-0.662596296175,-0.521335294441,0.00688087230434,0.0155272529652,-1.46140339241
1385569427063332331,0.300519453236,-0.663849335983,-0.520445986314,0.0043464727486,0.0110447067745,-1.46177626026
1385569427073237855,0.30131264054,-0.665207539126,-0.519319222998,0.00584866024353,0.0152547953323,-1.46193517367
1385569427083322707,0.302292259898,-0.666024581406,-0.518120570778,0.00596692595362,0.0134037869105,-1.46135058555
1385569427093418906,0.303099797206,-0.667392327723,-0.517203158257,0.0058312416478,0.0146259231452,-1.46206278518
1385569427103276919,0.304017605711,-0.668439082383,-0.515869065995,0.00569368743575,0.0136692712651,-1.46158959087
1385569427113263225,0.304816597178,-0.669846132021,-0.514722003029,0.0056422474557,0.014337545614,-1.46220959914
1385569427123320331,0.305598756435,-0.67105254438,-0.513458748776,0.00504342334352,0.01418464139,-1.46229921581
1385569427133322734,0.306342263464,-0.672420467655,-0.512122803618,0.00408457368104,0.015165158863,-1.4627802322
1385569427143255061,0.307406417201,-0.673467941794,-0.510902979053,0.00444432768621,0.0146824046998,-1.46255330587
1385569427153300926,0.308215923362,-0.674628792846,-0.50951914093,0.00303153362513,0.0145185880348,-1.46334069006
1385569427163269951,0.30906377519,-0.675802219085,-0.508196711037,0.00350131749371,0.0167638171263,-1.46275001898
1385569427173260652,0.309765602046,-0.677084925485,-0.506644292589,0.00271176850343,0.0155700316671,-1.46387920813
1385569427183261171,0.310712649761,-0.678070318118,-0.505143387171,0.00210423284897,0.015336693691,-1.46328700921
1385569427193313965,0.31157110017,-0.679378584346,-0.50365775108,0.00196928177803,0.0157552614244,-1.46396464918
1385569427203285325,0.312215955879,-0.680625042617,-0.50198519111,0.000769539368174,0.0157851474817,-1.46429648249
1385569427213260842,0.313193210681,-0.681925008501,-0.500680074743,-0.000761968173446,0.0176943393274,-1.46434530403
1385569427223352767,0.313838866389,-0.682920960441,-0.498869538174,-0.000982925888572,0.0159160479925,-1.46451277929
1385569427233253401,0.314667822774,-0.684205258161,-0.497256399384,-0.00137066240074,0.0153579239567,-1.46436653494
1385569427243262902,0.31565133513,-0.685180755198,-0.495699008067,-0.00225696341823,0.0152636037944,-1.46443762736
1385569427253235166,0.316238555259,-0.686586724034,-0.494262743259,-0.00575874616524,0.00957827042402,-1.46500345817
1385569427263256958,0.317186832269,-0.687385390387,-0.49266518122,-0.00674592828755,0.00821321209376,-1.46335645429
1385569427273232738,0.317823279568,-0.688619953146,-0.49106314553,-0.00738269800897,0.00737388096255,-1.46384908887
1385569427283237197,0.318823285373,-0.689762911709,-0.488989437243,-0.00321737493742,0.014518941462,-1.46489416168
1385569427293290453,0.319605566953,-0.690953492182,-0.487129623864,-0.00324857717855,0.0132780348934,-1.4650023718
1385569427303239231,0.320258734698,-0.692234347881,-0.485403006752,-0.00333117367589,0.0146704506987,-1.4658646281
1385569427313242335,0.321220158225,-0.693217607684,-0.483583613975,-0.00295103916644,0.0124275082441,-1.46481690037
1385569427323255614,0.321886487404,-0.694310128566,-0.482022108958,-0.00300659345953,0.0126437110495,-1.46478641786
1385569427333234890,0.322746153373,-0.695302245946,-0.480100620494,-0.00343199036027,0.0116824388411,-1.46443223815
1385569427343336687,0.323569278817,-0.696558189657,-0.478479321226,-0.00398242783775,0.0121414676531,-1.46484811848
1385569427353243912,0.324196798658,-0.69772026579,-0.476847181419,-0.00407382029201,0.0119952614314,-1.46475848421
1385569427363246494,0.325104998834,-0.698662371258,-0.475186515181,-0.00532173168215,0.00972273781235,-1.46405340404
1385569427373236449,0.325682841464,-0.699881387779,-0.473420750178,-0.0052112126806,0.00906433675754,-1.46484894461
1385569427383239362,0.326439365795,-0.70098628367,-0.471883063064,-0.00514980826403,0.00998107909081,-1.46486650249
1385569427393246597,0.327296486119,-0.702044040859,-0.470258293046,-0.00477918992527,0.0100328801839,-1.46481311956
1385569427403243194,0.327983552395,-0.703152329379,-0.468681505718,-0.00565192064428,0.00838687260496,-1.46535425186
1385569427413245657,0.328772713202,-0.704317641355,-0.467247190392,-0.00445613481201,0.0095137205418,-1.46550936857
1385569427423241893,0.329583059236,-0.705437058252,-0.465538951269,-0.00529629460438,0.00806465542827,-1.46595457874
1385569427433263578,0.330056513375,-0.706511356521,-0.464465466174,-0.00785378932851,0.00405132783623,-1.46691665686
1385569427443236177,0.331060050257,-0.707675412394,-0.462586526779,-0.00322570265492,0.00999277619329,-1.46644417447
1385569427453441139,0.331885238105,-0.708537470368,-0.461071002167,-0.00325292155894,0.00814853758992,-1.46543983668
1385569427463363107,0.33253698631,-0.709853106476,-0.459710305618,-0.00184618270898,0.00900574005502,-1.46617642792
1385569427473293568,0.333267287498,-0.710926057637,-0.45839459133,-0.000889456571991,0.0111151598007,-1.46653517434
1385569427483346347,0.334049866032,-0.711843443489,-0.456980722304,-0.00127240451111,0.00796266762406,-1.46590571132
1385569427493405501,0.334667359347,-0.713230955918,-0.455563421668,-0.00144549138395,0.0091243807346,-1.46699213382
1385569427503308522,0.335612458577,-0.714048427625,-0.454429301279,-0.000903562282324,0.00960774164944,-1.46610546724
1385569427513368761,0.336157310967,-0.715309921058,-0.453129365657,-0.000718424661686,0.00898534251744,-1.46728372268
1385569427523287559,0.336952823644,-0.716190607895,-0.451883327399,-0.000894665830629,0.0101785843758,-1.46669264118
1385569427533301683,0.33762175121,-0.717450799205,-0.450812957176,-0.000547818922731,0.0110769185174,-1.46727287588
1385569427543358434,0.338176176283,-0.718587135112,-0.44965773556,0.000540450536291,0.0122664895398,-1.46692819728
1385569427553370218,0.339142478881,-0.719607423309,-0.448484504826,-0.000114346447123,0.0124358083092,-1.46708393876
1385569427563293334,0.339704221002,-0.720592199638,-0.447363955459,0.00085515569472,0.0123725402963,-1.46725654186
1385569427573276632,0.340459031241,-0.721745800981,-0.446182297876,0.000767190679829,0.0132582719683,-1.46783558371
1385569427583277794,0.341186518915,-0.722914790534,-0.445515265946,7.24843638143e-05,0.0148570602931,-1.46841662247
1385569427593326501,0.341788556438,-0.723853297563,-0.444221822686,0.000634376059201,0.0146497311525,-1.46775822985
1385569427603437170,0.342581759003,-0.724943847417,-0.443391880168,-4.47037443061e-05,0.0173771541273,-1.4673566551
1385569427613487076,0.343312216552,-0.7257763409,-0.442320209259,-0.000195229602125,0.0174924565691,-1.46688014013
1385569427623313166,0.343920595149,-0.726965525173,-0.441418789029,-0.00165058799988,0.0181361569362,-1.46706263841
1385569427633324441,0.344819580586,-0.72780940734,-0.440826917025,-0.0030409807121,0.0196989225802,-1.46755693549
1385569427643315449,0.345254403389,-0.728826416739,-0.439916474266,-0.00236748683044,0.0215562048176,-1.46745439681
1385569427653383024,0.346061294801,-0.72990643959,-0.4391881635,-0.00266544481538,0.0225748778267,-1.4673529329
1385569427663254159,0.346797345881,-0.731028751414,-0.438375367397,-0.00198168035604,0.0216805193774,-1.46759603288
1385569427673237779,0.347366984025,-0.7319846345,-0.437734590171,-0.00151543223181,0.022057543203,-1.46802166728
1385569427683305180,0.348391114003,-0.732749879836,-0.437298470488,-0.00216844769349,0.022468083145,-1.46690829606
1385569427693290421,0.34894520276,-0.733884630129,-0.436642620331,-0.00216665963332,0.0226215576186,-1.46778385927
1385569427703256331,0.349604628559,-0.735008111306,-0.436045010095,-0.001433612334,0.0230750472434,-1.46743847913
1385569427713255985,0.350339079133,-0.736028753767,-0.435661745819,-0.000845142783747,0.0224227543522,-1.46771661204
1385569427723229579,0.350778248953,-0.736939813468,-0.435171209928,3.57584361403e-05,0.0217406062766,-1.4680239782
1385569427733228685,0.351747509128,-0.737845526659,-0.435050640046,-0.000657682452876,0.0228507616952,-1.46817098721
1385569427743229642,0.352344118253,-0.738807252213,-0.43462302581,-0.00115848933659,0.0226203465596,-1.46853205256
1385569427753228258,0.352949608848,-0.739911821896,-0.434250881679,-0.00344267132819,0.0206678368124,-1.46906482056
1385569427763299297,0.353808704623,-0.7407438586,-0.434242393736,-0.00294729301185,0.0219704798147,-1.46874894073
1385569427773262210,0.354354184554,-0.741513157863,-0.433979720572,-0.00289637084147,0.0202535789216,-1.46857207039
1385569427783231241,0.355016854922,-0.742310570329,-0.433797941491,-0.00320300210507,0.0201992259538,-1.46819945597
1385569427793298711,0.355660832593,-0.743461180616,-0.433664795925,-0.00357124038554,0.0208012597883,-1.46894564469
1385569427803384833,0.356352175514,-0.744380905847,-0.433826988689,-0.00329614299201,0.0217002185789,-1.46856763754
1385569427813348180,0.357008356725,-0.745092682394,-0.433660786536,-0.00466699078221,0.0191997648434,-1.46959811453
1385569427823386829,0.357676328407,-0.745870776314,-0.433598627828,-0.00529273111128,0.0198787019565,-1.46917631664
1385569427833349685,0.35824802077,-0.746809262275,-0.433740859142,-0.00564230204197,0.0191297079258,-1.4698051654
1385569427843420594,0.358933196104,-0.747659793564,-0.433768460779,-0.00573129824263,0.0186561139421,-1.46930077121
1385569427853315765,0.359529692048,-0.748524835189,-0.433892677104,-0.00617900207771,0.0179977311825,-1.46898226131
1385569427863275465,0.360042197536,-0.74930094195,-0.433933279029,-0.00622558200702,0.0172557550656,-1.46973227676
1385569427873482317,0.360592152461,-0.750225569542,-0.43430286912,-0.00674763208529,0.0190933847822,-1.47020746473
1385569427883320350,0.361276071426,-0.750983046036,-0.434480884099,-0.00709343418095,0.0187053545687,-1.47013850377
1385569427893301781,0.361929944093,-0.751622237174,-0.434730707807,-0.00760106141497,0.0182889810033,-1.47072141716
1385569427903501631,0.362464666369,-0.752164756435,-0.434955326062,-0.00800434652703,0.0199610715084,-1.47123193934
1385569427913254014,0.363119943954,-0.752992670953,-0.435320795359,-0.00725409936949,0.0201700470372,-1.4716427882
1385569427923248488,0.363591890781,-0.75387450902,-0.435550124888,-0.00859376346567,0.020326899628,-1.47061740556
1385569427933268945,0.36419742184,-0.754494491081,-0.43589412895,-0.00809622719285,0.0222046427686,-1.47068678176
1385569427943260110,0.364780920125,-0.755224814079,-0.436276874128,-0.00792230909902,0.0225308973247,-1.47097328666
1385569427953235254,0.36528212403,-0.756000769906,-0.436557628341,-0.00834410284055,0.0230066904337,-1.47112529788
1385569427963246054,0.36584236027,-0.756779493492,-0.43707589467,-0.00778542365845,0.0244871795439,-1.47163249357
1385569427973237914,0.366375263308,-0.757375852719,-0.43752754309,-0.00836722621075,0.0251836131899,-1.4717093802
1385569427983231649,0.366933579259,-0.758050768863,-0.437902100301,-0.00993202723254,0.0250293292051,-1.4709783295
1385569427993231068,0.367446835,-0.75846440279,-0.438296735508,-0.0091044266767,0.0250766447168,-1.47107824602
1385569428003237324,0.368115243444,-0.759155783435,-0.438930650496,-0.00894743215602,0.0261240118936,-1.47162332238
1385569428013252881,0.36871276647,-0.760010817111,-0.439534403567,-0.00820883759568,0.0271477429639,-1.47120685824
1385569428023297861,0.36891383351,-0.760607060443,-0.439843353864,-0.00800224013136,0.0268844431602,-1.47213363257
1385569428033274013,0.369382505638,-0.761262110625,-0.440302298812,-0.00813719744511,0.026675318733,-1.47240049713
1385569428043280501,0.370078552875,-0.761678072231,-0.440846027741,-0.00761900639756,0.0260345401741,-1.47161124533
1385569428053270031,0.370463997553,-0.762411418495,-0.441465081625,-0.00765169878674,0.0258117735327,-1.47212817103
