%time,field.linear.x,field.linear.y,field.linear.z,field.angular.x,field.angular.y,field.angular.z
1385570358860696358,-0.0,0.0,0.0,1.0,0.0,0.0
1385570359050752824,-0.0,0.0,9.13074520446e-08,1.0,0.0,0.153491786214
1385570359250784317,-0.0740651461988,0.0456530309936,-0.0111253515251,1.0,0.0,0.106074654733
1385570359450784699,-0.0777584323272,0.0479591966492,-0.00740966470889,1.0,0.0,0.0797445115011
1385570359650955410,-0.0654653788777,0.0404461960138,-0.00249211554317,1.0,0.0,0.0614586645671
1385570359850760660,-0.0435852907136,0.0269811961603,0.00434396043073,1.0,0.0,0.0506541114107
1385570360050766961,-0.0220258343782,0.0136633498291,0.0123496986199,1.0,0.0,0.0443481936802
1385570360250813771,-0.00650626093638,0.00409147801875,0.0212561659906,1.0,0.0,0.040711068608
1385570360450781668,0.00114773381307,-0.000600534834467,0.030824145999,1.0,0.0,0.0385384210794
1385570360650999712,0.00190989380587,-0.00102836864178,0.0408928297967,1.0,0.0,0.0372798550902
1385570360850804773,-0.00181388032809,0.00139845251135,0.0512606577367,1.0,0.0,0.0364733682977
1385570361050915084,-0.00704173420799,0.00470616221453,0.0619288054857,1.0,0.0,0.0359223239011
1385570361250878241,-0.0107431435039,0.00817887118507,0.0728329135376,1.0,0.0,0.0344962031572
1385570361450815204,-0.0123102543584,0.011036074349,0.0837852421094,1.0,0.0,0.0318533593742
1385570361650826469,-0.0104613576951,0.0114453261836,0.0949589144261,1.0,0.0,0.0279293865246
1385570361850783008,-0.00792102817847,0.0120918553997,0.105735012692,1.0,0.0,0.0225248264807
1385570362051033008,-0.00627083811467,0.0143185054326,0.113194705393,1.0,0.0,0.0159606535162
1385570362250937442,-0.00784000311485,0.015834857269,0.113354699923,1.0,0.0,0.0111292784144
1385570362450813456,-0.00784238907948,0.0228353889686,0.109131784446,1.0,0.0,0.0073476257664
1385570362650892495,-0.012347298471,0.0259590056579,0.102135161884,1.0,0.0,0.00495720554936
1385570362850747844,-0.0206743306402,0.0328100211596,0.0928835877596,1.0,0.0,0.0029162833562
1385570363050760050,-0.0278319779823,0.0410475343229,0.0903807101274,1.0,0.0,0.000929769265221
1385570363250751457,-0.0343979713242,0.0487622597695,0.0944923555094,1.0,0.0,-0.00080178412741
1385570363450804440,-0.041244712828,0.0544014894137,0.103547206787,1.0,0.0,-0.00218271570009
1385570363650794525,-0.0454508120835,0.0590740766522,0.115346802521,1.0,0.0,-0.0033049089463
1385570363850779487,-0.0524820366025,0.0618089653031,0.126729424303,1.0,0.0,-0.00404495194025
1385570364050749002,-0.0547724186909,0.0610867052241,0.138621809133,1.0,0.0,-0.0043819825411
1385570364250820400,-0.0577834233983,0.057751427051,0.143338725798,1.0,0.0,-0.00447108704045
1385570364450836675,-0.0572314447861,0.0555564528528,0.144995547934,1.0,0.0,-0.00462896175909
1385570364650782906,-0.0571248942789,0.050096527829,0.144328034284,1.0,0.0,-0.00451402121893
1385570364850767269,-0.0552501579484,0.0428713963415,0.142477565753,1.0,0.0,-0.00422175261839
1385570365050771272,-0.0522234594085,0.0375359862268,0.138414465364,1.0,0.0,-0.00398068694376
1385570365250890143,-0.0480892955474,0.0322938398368,0.133670172389,1.0,0.0,-0.00380100616251
1385570365450798149,-0.0427806826682,0.0276178951445,0.129131394673,1.0,0.0,-0.00362806760155
1385570365650773084,-0.0368195022123,0.0239177838103,0.12463055316,1.0,0.0,-0.00356272859594
1385570365850783242,-0.030676155628,0.0219591836749,0.120106364797,1.0,0.0,-0.00349000249015
1385570366050777264,-0.0245203424086,0.0213785695293,0.115516386234,1.0,0.0,-0.00348752300355
1385570366250759816,-0.0195108616263,0.021529059266,0.110416919253,1.0,0.0,-0.00334948340677
1385570366450802197,-0.0161253420797,0.0230031112771,0.104400158442,1.0,0.0,-0.00317663505991
1385570366650804221,-0.0142649754002,0.0246597454743,0.0982330167456,1.0,0.0,-0.00293007296459
1385570366850798811,-0.0145623460031,0.0270027289609,0.0916283914012,1.0,0.0,-0.00265757913326
1385570367050817648,-0.0170225628655,0.0286905290373,0.084943289976,1.0,0.0,-0.00233716404302
1385570367250815560,-0.0211376844778,0.0297460256439,0.0782286989676,1.0,0.0,-0.00200719800778
1385570367450818471,-0.0254375820266,0.0305060535945,0.0717446833841,1.0,0.0,-0.00185099133855
1385570367650788947,-0.0303537908954,0.0297019291128,0.0656889088219,1.0,0.0,-0.00169898706918
1385570367850808439,-0.0344260653757,0.0283774146631,0.0596668824762,1.0,0.0,-0.0016255199545
1385570368050751501,-0.0374693255764,0.0264595479006,0.0544589719099,1.0,0.0,-0.00165979981076
1385570368250799102,-0.0394288450374,0.0240462081711,0.0500928705411,1.0,0.0,-0.00180260008231
1385570368450781016,-0.0405191046813,0.0215911451742,0.0456944359423,1.0,0.0,-0.00204267326108
1385570368650767641,-0.0403939615991,0.0193316818427,0.0417915194851,1.0,0.0,-0.00248483094907
1385570368850743178,-0.0399737511518,0.0171528452867,0.0383583233157,1.0,0.0,-0.00284520291479
1385570369050752545,-0.0387389177871,0.015257888695,0.0355874597187,1.0,0.0,-0.0031778752381
1385570369250783137,-0.0372260161937,0.0133316711395,0.0332810865258,1.0,0.0,-0.00351536341655
1385570369450792236,-0.0359816036917,0.0108793758927,0.0313064386513,1.0,0.0,-0.00353240621937
1385570369650802379,-0.0345183145516,0.00867392205771,0.0294697754289,1.0,0.0,-0.00350543842542
1385570369850780697,-0.033397368716,0.00630589540277,0.027995496596,1.0,0.0,-0.00334996012482
1385570370050781817,-0.0323259481524,0.00412939716802,0.0270200342742,1.0,0.0,-0.00317186756877
1385570370250761933,-0.0316986577234,0.00202207460965,0.0254719908466,1.0,0.0,-0.00278426465171
1385570370450838246,-0.0309194589421,0.000965056669178,0.0234848363507,1.0,0.0,-0.00251309944292
1385570370650780729,-0.0301545118483,0.000654465639235,0.0219098765594,1.0,0.0,-0.00217930069398
1385570370850769730,-0.0293897459273,0.00146887383873,0.0203877119126,1.0,0.0,-0.00187752327965
1385570371050901508,-0.0280222529656,0.00293415332072,0.0192189528094,1.0,0.0,-0.00147347956273
1385570371250777174,-0.0257919711264,0.00502605080873,0.0182298082835,1.0,0.0,-0.00111262947453
1385570371450836825,-0.0228684641995,0.00751372675825,0.0170540619042,1.0,0.0,-0.000736358958877
1385570371650903425,-0.0201842493395,0.0100314172729,0.0158795755836,1.0,0.0,-0.000318699366978
1385570371850893548,-0.0182795417101,0.0126659097372,0.0147940158055,1.0,0.0,0.000213337146896
1385570372050829177,-0.0170609957155,0.0156854462379,0.0141969008656,1.0,0.0,0.000708066254383
1385570372250878722,-0.0168199877481,0.0182244434703,0.0135250302775,1.0,0.0,0.00126574916902
1385570372450882503,-0.0170139520547,0.0203876843733,0.0129116606816,1.0,0.0,0.00180258840724
1385570372650873258,-0.0174059840933,0.0215257269543,0.012631404792,1.0,0.0,0.0024582912839
1385570372850846859,-0.0178731065382,0.0215896405128,0.0123273577634,1.0,0.0,0.00318207650271
1385570373050757965,-0.0186527949568,0.0202983116699,0.0125066408154,1.0,0.0,0.00420108217438
1385570373250747781,-0.0194221854678,0.0186217325715,0.0127340631576,1.0,0.0,0.0052021852159
1385570373450783929,-0.0202736301656,0.0168394401561,0.0128575198213,1.0,0.0,0.00629643816905
1385570373650963301,-0.020952680755,0.0154477169104,0.0128176109087,1.0,0.0,0.00718500088497
1385570373850843402,-0.0216535702537,0.0144452315937,0.0127174031425,1.0,0.0,0.00816120490617
1385570374050867920,-0.0220574752043,0.0141998049983,0.0120747716661,1.0,0.0,0.00900967180607
1385570374250825209,-0.0223157949212,0.0144659146446,0.0114551451219,1.0,0.0,0.00997083496036
1385570374450813883,-0.0222937231209,0.0160137061623,0.0112171207691,1.0,0.0,0.0107016907738
1385570374650869527,-0.0219936542103,0.0182069984051,0.0107397063548,1.0,0.0,0.0113775304434
1385570374850784104,-0.0210497808177,0.0210219537773,0.0101355443955,1.0,0.0,0.0118732423571
1385570375050798630,-0.0197178927539,0.0244546571715,0.00988321482761,1.0,0.0,0.0120439660663
1385570375250817286,-0.0180918161447,0.0282998605552,0.00974104288241,1.0,0.0,0.0118693552123
1385570375450800102,-0.0166275503393,0.0316883536551,0.00961928928406,1.0,0.0,0.0116219092905
1385570375650811868,-0.0149660560675,0.0346183345569,0.00996652031313,1.0,0.0,0.0111832320937
1385570375850801656,-0.0133379902855,0.0366337443221,0.0101404385013,1.0,0.0,0.0106030233751
1385570376050949180,-0.011888448066,0.0374547007423,0.0103857924233,1.0,0.0,0.0100035236693
1385570376250888291,-0.0106781696577,0.0367150841722,0.0108513061512,1.0,0.0,0.00946477591024
1385570376450772593,-0.00957631761518,0.0350709599069,0.0109587753414,1.0,0.0,0.00900526689844
1385570376650773011,-0.00842215341067,0.0329345960241,0.0108359895742,1.0,0.0,0.00852683151183
1385570376850952209,-0.00779788426578,0.0299595093885,0.0107237799292,1.0,0.0,0.00821684182428
1385570377050764183,-0.0073466986965,0.0263140410285,0.010451448945,1.0,0.0,0.00804864132657
1385570377250765098,-0.00704673568179,0.0225039309006,0.00990968644862,1.0,0.0,0.00806223078276
1385570377450895211,-0.00678534703392,0.019136173647,0.00911741698655,1.0,0.0,0.00818097146185
1385570377650802827,-0.00671827071325,0.0166776694274,0.00841739842474,1.0,0.0,0.00832455948174
1385570377850811081,-0.00689175820037,0.0155068373125,0.00768456316895,1.0,0.0,0.0086078787414
1385570378050896714,-0.00760893182704,0.0149834683801,0.00708787009842,1.0,0.0,0.0090918082405
1385570378250784914,-0.00856165103808,0.015062439396,0.00652830072235,1.0,0.0,0.00959999084368
1385570378450876400,-0.00990841211134,0.0155016145723,0.00594783528258,1.0,0.0,0.0102973004519
1385570378650776987,-0.0112791487401,0.0165840132346,0.00519834458407,1.0,0.0,0.0110788570501
1385570378850769029,-0.0128698244808,0.0181617737123,0.00437365452306,1.0,0.0,0.0121276327595
1385570379050767559,-0.0143269426256,0.0199218137934,0.00379379572632,1.0,0.0,0.0132628296267
1385570379250776756,-0.0156401037253,0.0210462590359,0.00300947512417,1.0,0.0,0.0144302770506
1385570379450777314,-0.0165413864328,0.0214248664581,0.00196184493403,1.0,0.0,0.0155456787285
1385570379650791482,-0.0171734364619,0.0211801191765,0.000982790096507,1.0,0.0,0.0166712408638
1385570379850769118,-0.0175358137018,0.0204242319343,-0.000117976617198,1.0,0.0,0.017897439876
1385570380051032385,-0.0175398722269,0.019244218793,-0.00104910028839,1.0,0.0,0.0191892945475
1385570380250765668,-0.0169940774174,0.0176752442216,-0.00200615099104,1.0,0.0,0.0204626546347
1385570380450792480,-0.0160822367596,0.0157493269777,-0.00302161325152,1.0,0.0,0.0216317896638
1385570380650785579,-0.0156175246453,0.0134212096089,-0.00398693479504,1.0,0.0,0.0227514101154
1385570380850793001,-0.0158450146518,0.0107152587379,-0.00472168322475,1.0,0.0,0.0238244979754
1385570381050776850,-0.016331164827,0.00800097832068,-0.00543386126566,1.0,0.0,0.0246612402789
1385570381250782510,-0.0167486390273,0.00505221509929,-0.00627507316737,1.0,0.0,0.025395774885
1385570381450754689,-0.0169409676687,0.00232668546096,-0.00704377156971,1.0,0.0,0.0260118650837
1385570381650788542,-0.0170917887298,0.000583321358287,-0.00719848780134,1.0,0.0,0.0265492307784
1385570381850774089,-0.0170531011691,-0.000276958896989,-0.0070613058052,1.0,0.0,0.027128231667
1385570382050787357,-0.0168211672598,-0.000611063497026,-0.00722411436609,1.0,0.0,0.0276368019057
1385570382250855212,-0.0165307541804,-0.000674471876219,-0.00719411142227,1.0,0.0,0.0282435815405
1385570382450892362,-0.0160203119895,-0.000479634609453,-0.0068358202778,1.0,0.0,0.0286943461469
1385570382650869213,-0.015181028712,-0.000146122460378,-0.00620400884456,1.0,0.0,0.0289744353039
1385570382850852028,-0.014058882554,-1.12975127137e-05,-0.00556274143788,1.0,0.0,0.0290585165224
1385570383050792150,-0.0129196525251,0.000216940505549,-0.0047364669972,1.0,0.0,0.0290894517419
1385570383250956515,-0.0117366482702,0.000716237440463,-0.00382702204871,1.0,0.0,0.029052371728
1385570383450871327,-0.0106481013511,0.00126007259774,-0.00293761864246,1.0,0.0,0.0290004278387
1385570383650762277,-0.00976985023459,0.00172345250107,-0.00227372609713,1.0,0.0,0.0289787624661
1385570383850788738,-0.00886961648467,0.00209517800737,-0.00184193991769,1.0,0.0,0.028766884826
1385570384050772378,-0.00798412045279,0.00242105948881,-0.00157075309379,1.0,0.0,0.0283920053616
1385570384250833500,-0.00760571877002,0.00274878043892,-0.00115158191356,1.0,0.0,0.028069618986
1385570384450823758,-0.00762171699686,0.00310003152067,-0.00112413954271,1.0,0.0,0.027827704283
1385570384650768544,-0.00756061065655,0.00364519504792,-0.00135165505498,1.0,0.0,0.0275256706275
1385570384850852052,-0.00723610104616,0.00441729433044,-0.00175655744727,1.0,0.0,0.0271551187746
1385570385050840259,-0.00656347445478,0.00523403534955,-0.00197342287899,1.0,0.0,0.026670429415
1385570385250774448,-0.00577285856934,0.0057874915039,-0.00198984143733,1.0,0.0,0.0263846027152
1385570385450808618,-0.00511446204135,0.00574008971733,-0.00178683396622,1.0,0.0,0.0262257889701
1385570385650921438,-0.00458804871552,0.00501743676815,-0.0014653924388,1.0,0.0,0.0259559878438
1385570385850811544,-0.00432275940786,0.00311681015986,-0.00129593088766,1.0,0.0,0.0258455392307
1385570386050752335,-0.0043549754482,0.000508250299346,-0.00112503803525,1.0,0.0,0.0258894062778
1385570386250884358,-0.00449392059147,-0.00222612935542,-0.000956928611042,1.0,0.0,0.026090918969
1385570386450835606,-0.00473133906283,-0.00466949826466,-0.000747694159299,1.0,0.0,0.0264608341371
1385570386650842290,-0.00498119537712,-0.00654049821119,-0.000548503347559,1.0,0.0,0.0269157583515
1385570386850787626,-0.00542240690473,-0.00817163167235,-0.000339711480386,1.0,0.0,0.027493929931
1385570387050791464,-0.00595903921953,-0.00921848806392,-0.000174515250436,1.0,0.0,0.0279509953085
1385570387250792139,-0.00669457917984,-0.00981932446482,-4.74746811204e-06,1.0,0.0,0.0283782756966
1385570387450917212,-0.00778851449767,-0.00962110956096,0.000261942915165,1.0,0.0,0.0287227526102
1385570387650905889,-0.00894483477584,-0.00818027005105,0.00054101524721,1.0,0.0,0.0289295328376
1385570387850811136,-0.00999343944302,-0.00608702333914,0.000903630035102,1.0,0.0,0.0290019644477
1385570388050824061,-0.010707298263,-0.00351759312122,0.0013996076999,1.0,0.0,0.029055405428
1385570388250908819,-0.0112751780622,-0.000596266095885,0.00184962882912,1.0,0.0,0.0289437658902
1385570388450806589,-0.0118659978205,0.00232368121644,0.00236090981865,1.0,0.0,0.0288843030733
1385570388650772897,-0.0124799672454,0.00523424556007,0.0031055853968,1.0,0.0,0.0287444537941
1385570388850954934,-0.0129766863582,0.0074687603097,0.00366812729719,1.0,0.0,0.0285209143663
1385570389050768684,-0.0132688465454,0.00886271782268,0.00397209973618,1.0,0.0,0.028224872969
1385570389250796715,-0.0132331974781,0.00907173009872,0.00419489272202,1.0,0.0,0.0279360888972
1385570389450815198,-0.0130077192887,0.00806780074872,0.00416388099536,1.0,0.0,0.0277565797084
1385570389650803104,-0.0126453001954,0.0060838482453,0.00373230539334,1.0,0.0,0.027783083582
1385570389850768435,-0.0122005498899,0.00350083974371,0.00312770077935,1.0,0.0,0.0277973565447
1385570390050853789,-0.0116368625188,0.000698348315267,0.00253130199842,1.0,0.0,0.0277837708188
1385570390250826086,-0.0109155662439,-0.0020463478519,0.00205639432272,1.0,0.0,0.0277432735152
1385570390450851929,-0.0101042494749,-0.00478042035393,0.0015196996428,1.0,0.0,0.0276971355288
1385570390650871402,-0.00895857587008,-0.00697434634471,0.000840148728048,1.0,0.0,0.027601640017
1385570390850893900,-0.00775673148873,-0.00875166981629,0.000133421846477,1.0,0.0,0.0275732197266
1385570391050779761,-0.00679683794945,-0.00986753534471,-0.000365990051523,1.0,0.0,0.0275542783299
1385570391250756033,-0.00633925222781,-0.0102955141332,-0.000613419539933,1.0,0.0,0.0274541995355
1385570391450792057,-0.00648467962643,-0.0103942139738,-0.000630190236474,1.0,0.0,0.0271390036993
1385570391650763023,-0.00706253300246,-0.0101850524136,-0.000561496540732,1.0,0.0,0.0269354427714
1385570391850777989,-0.00785526285623,-0.00952794332502,-0.000464678678643,1.0,0.0,0.0267664008229
1385570392050816956,-0.0085443396188,-0.00841817867316,-0.000345783930843,1.0,0.0,0.0266502825647
1385570392250823594,-0.00906552891216,-0.00671837212025,-0.00043887507405,1.0,0.0,0.0265121398494
1385570392450754278,-0.00959923353971,-0.00464040707704,-0.000607237758376,1.0,0.0,0.0262917304643
1385570392650794164,-0.0100338644611,-0.00246305227665,-0.000655423206005,1.0,0.0,0.0260409604832
1385570392850781252,-0.0105347927556,-0.000217872173269,-0.00091680846087,1.0,0.0,0.0258067209023
1385570393050933948,-0.0108731250891,0.00216967564733,-0.00104685728076,1.0,0.0,0.0255384106393
1385570393250855436,-0.0108157681279,0.00450877726865,-0.000986394080183,1.0,0.0,0.0253844482511
1385570393450763944,-0.0105172081973,0.00671133513923,-0.00078934509011,1.0,0.0,0.0252899948772
1385570393650768577,-0.0103230486486,0.00873543819688,-0.000709809369237,1.0,0.0,0.0251272561805
1385570393850781675,-0.0100155277724,0.0108001435699,-0.000743211660496,1.0,0.0,0.0249984756528
1385570394050782102,-0.00952482215978,0.0126846117526,-0.000843325840141,1.0,0.0,0.0248846953631
1385570394250788314,-0.00877309286929,0.014208806379,-0.00115406395802,1.0,0.0,0.0247731541027
1385570394450835507,-0.0077902374902,0.0151564120805,-0.00152827418551,1.0,0.0,0.0247548130792
1385570394650755360,-0.00666797123899,0.0155630521057,-0.00174242933495,1.0,0.0,0.0248928668101
1385570394850805068,-0.00539349040884,0.0157681416137,-0.00181906286432,1.0,0.0,0.0251165142855
1385570395050797888,-0.0038505709281,0.0157090992785,-0.00176323392283,1.0,0.0,0.0252975197158
1385570395250851845,-0.00204154749584,0.0152113093767,-0.00160338768909,1.0,0.0,0.0254094200534
1385570395450792460,-1.3150913852e-05,0.013681169563,-0.00117259904488,1.0,0.0,0.0256613090975
1385570395650791733,0.0017555677544,0.0112552347862,-0.000893183417078,1.0,0.0,0.0259425467517
1385570395850792834,0.0029074208426,0.00832621634504,-0.000824765819013,1.0,0.0,0.0259689753134
1385570396050906555,0.00316233649034,0.00521156580179,-0.00064857239302,1.0,0.0,0.0258807845862
1385570396250766887,0.00242992886332,0.00192004109067,-0.000462531647866,1.0,0.0,0.0257404500822
1385570396450828022,0.00105022026682,-0.00106070345823,-0.000374386105916,1.0,0.0,0.0254641982515
1385570396650815243,-0.000894886908826,-0.00366105730443,-0.000289057057302,1.0,0.0,0.0249972984245
1385570396850807951,-0.00338213571251,-0.00548616919719,-0.000157432663465,1.0,0.0,0.024387437752
1385570397050817773,-0.00670117393468,-0.00634562154949,9.94854308987e-05,1.0,0.0,0.0236746707352
1385570397250790151,-0.0110759678968,-0.00608574029824,0.000419091877192,1.0,0.0,0.0230811795773
1385570397450789926,-0.0160301296931,-0.0045099610079,0.000876614127625,1.0,0.0,0.0225938753326
1385570397650796681,-0.0207312023263,-0.00168185806886,0.00125945237611,1.0,0.0,0.0221386455317
1385570397850777461,-0.0243495664789,0.00249992036972,0.00176593789017,1.0,0.0,0.0216175745403
1385570398050777171,-0.0264748831969,0.00755017276233,0.00236989520527,1.0,0.0,0.0208639924079
1385570398250869584,-0.0270296633063,0.0125673116219,0.0032388459976,1.0,0.0,0.0201510916147
1385570398450776167,-0.0258120593214,0.0171122144025,0.00404474918775,1.0,0.0,0.0194773267195
1385570398650752876,-0.0229920178656,0.0208532255144,0.00466294501862,1.0,0.0,0.0188194066344
1385570398850792774,-0.0189164713922,0.0239196633915,0.00514489198915,1.0,0.0,0.0182246153461
1385570399050788221,-0.0140435335501,0.0261571200355,0.00551017689519,1.0,0.0,0.0176766432726
1385570399250825240,-0.00875124832637,0.0272691341156,0.00547377456908,1.0,0.0,0.0171113711898
1385570399450796269,-0.00361515850392,0.026863070429,0.00517849392618,1.0,0.0,0.0165623601874
1385570399650776600,0.00128020511455,0.0252015999671,0.00456527550318,1.0,0.0,0.0159551065912
1385570399850778426,0.00568360949548,0.0219614709235,0.00374566566306,1.0,0.0,0.0152906730637
1385570400050769928,0.00906994223923,0.0172603098021,0.00288400594102,1.0,0.0,0.0145146478395
1385570400250813271,0.0112495109949,0.0113084945276,0.00190187216187,1.0,0.0,0.0135910302814
1385570400450791261,0.0118621508977,0.00444154996103,0.000775444021134,1.0,0.0,0.0126268436993
1385570400651028770,0.0107530601307,-0.00255991983719,-6.54705415401e-05,1.0,0.0,0.0115189468512
1385570400850882023,0.00745985221655,-0.00888373731574,-0.000506277423398,1.0,0.0,0.0104280382659
1385570401050788123,0.00216945748175,-0.0131812838732,-0.00045036350411,1.0,0.0,0.00939067932068
1385570401250917214,-0.00467969771359,-0.0150467596638,8.49118885763e-05,1.0,0.0,0.00851266799966
1385570401450808805,-0.0120004527735,-0.0145258589019,0.000862586218459,1.0,0.0,0.00788253909243
1385570401650949730,-0.0184006622513,-0.011878856965,0.00154475706885,1.0,0.0,0.00738188799506
1385570401850942320,-0.0230603790904,-0.0078630489274,0.00208671082607,1.0,0.0,0.00693149911188
1385570402050756205,-0.0258552348855,-0.003005046519,0.00263092430556,1.0,0.0,0.00661085507311
1385570402250782954,-0.0268654618292,0.0022074113177,0.00303071142806,1.0,0.0,0.00672797107323
1385570402450805197,-0.0262201529827,0.00767876791927,0.00333967395753,1.0,0.0,0.00708431604129
1385570402650768701,-0.0242028689507,0.0129778740293,0.003618419688,1.0,0.0,0.00774483317626
1385570402850847402,-0.0209977002626,0.0175847069725,0.00386566576971,1.0,0.0,0.00863301090091
1385570403050815515,-0.0168428641691,0.0212741773541,0.00410450295068,1.0,0.0,0.00970692511588
1385570403250851734,-0.0120714588482,0.0236876802645,0.00436005973881,1.0,0.0,0.0110637972368
1385570403450786545,-0.00689070315098,0.0246278030285,0.00419497474327,1.0,0.0,0.0125176192707
1385570403650782378,-0.00165957430556,0.0239154222722,0.00362313231775,1.0,0.0,0.0139895115524
1385570403850776002,0.00285760541637,0.0213574186298,0.00307314047351,1.0,0.0,0.0155466852838
1385570404050783114,0.00616500756377,0.0174507140058,0.00254470797396,1.0,0.0,0.0169144407876
1385570404250847189,0.00761863202005,0.0123739676308,0.0019222427404,1.0,0.0,0.0184051313212
1385570404450792987,0.00749909466308,0.00658042783844,0.00128319752777,1.0,0.0,0.0196084140582
1385570404650790967,0.00580161824325,0.000134305361079,0.00040830784413,1.0,0.0,0.0207501943498
1385570404850770537,0.00308356396885,-0.00658719684863,-0.0007169902987,1.0,0.0,0.0217700281511
1385570405050863576,-0.00051418218637,-0.0124681817725,-0.00174449562446,1.0,0.0,0.0225877145541
1385570405250793649,-0.00459183784113,-0.0166752882925,-0.00250177163433,1.0,0.0,0.023232099589
1385570405450795560,-0.00886212675053,-0.018690045419,-0.00300835738795,1.0,0.0,0.0237040851532
1385570405650839091,-0.0127085822435,-0.0184378676729,-0.0033961629601,1.0,0.0,0.0240771109795
1385570405850843905,-0.0158208880593,-0.0159105987639,-0.0037400391602,1.0,0.0,0.0242819536001
1385570406050817124,-0.0182357110801,-0.0117295416297,-0.00432628880989,1.0,0.0,0.0243525492619
1385570406250779467,-0.0201546879499,-0.00645351489604,-0.00492873759199,1.0,0.0,0.024377159647
1385570406450789289,-0.0213968263982,-0.000421648063448,-0.00575908914369,1.0,0.0,0.024228073553
1385570406650783636,-0.0214457464979,0.0060775650307,-0.00646994072506,1.0,0.0,0.0238569841263
1385570406850839721,-0.0200674203433,0.0122867212494,-0.00703616765169,1.0,0.0,0.0231678290168
1385570407050928666,-0.017158176657,0.0176711263511,-0.00736994889324,1.0,0.0,0.0223181782692
1385570407250791256,-0.0127386929139,0.0216642668404,-0.00739036518634,1.0,0.0,0.0213700069405
1385570407450800222,-0.00739186898923,0.0241190447807,-0.00696240901218,1.0,0.0,0.0203353586857
1385570407650873301,-0.00177615156758,0.0247949502059,-0.00635368459187,1.0,0.0,0.0192492304398
1385570407850768053,0.00334641305555,0.0238727638215,-0.0056737801953,1.0,0.0,0.0183033591356
1385570408050832041,0.00769272476473,0.0212379825368,-0.00496197803274,1.0,0.0,0.017298448135
1385570408250856713,0.0109787491625,0.0164722767935,-0.00427052194368,1.0,0.0,0.016215688622
1385570408450800822,0.0128956879163,0.00965014231379,-0.00374102912047,1.0,0.0,0.0151360043446
1385570408650788807,0.0133214461806,0.00156809502466,-0.00342789928851,1.0,0.0,0.0142246645516
1385570408850786574,0.0124133968775,-0.00682209241278,-0.00315762397819,1.0,0.0,0.0135294566626
1385570409050752380,0.0103957983694,-0.0143491969012,-0.00234042262822,1.0,0.0,0.0128923182617
1385570409250910320,0.00755417972623,-0.0196836620738,-0.00107808949972,1.0,0.0,0.0122680130841
1385570409450831985,0.00408632792763,-0.0225832883156,0.000223477921413,1.0,0.0,0.0116071839708
1385570409650872491,0.000359350165874,-0.023389591165,0.00163773214516,1.0,0.0,0.0110202206674
1385570409850826591,-0.00295919467844,-0.0220364657038,0.00311022195358,1.0,0.0,0.0103916533841
1385570410050806036,-0.00557336210263,-0.0183135630924,0.00459767089448,1.0,0.0,0.00991559139779
1385570410250957435,-0.00760953839308,-0.0124553453103,0.00571900616481,1.0,0.0,0.00959274890333
1385570410450796928,-0.00918426707093,-0.00509651639177,0.00641790125387,1.0,0.0,0.0093205635249
1385570410650783982,-0.0102066345399,0.00293238625746,0.00674481406783,1.0,0.0,0.00897814295648
1385570410850804927,-0.0105863505494,0.0104634422549,0.0068861830084,1.0,0.0,0.00874451815974
1385570411050754973,-0.0102013679555,0.0166999408831,0.00672393244104,1.0,0.0,0.00841215386569
1385570411250782232,-0.00895927794087,0.0211788251421,0.00648148727421,1.0,0.0,0.00799567643708
1385570411450788259,-0.00674301186517,0.0236752429968,0.00609903336175,1.0,0.0,0.00753543172449
1385570411650755762,-0.00376878435419,0.0244539428222,0.00564908409081,1.0,0.0,0.0070010193443
1385570411850772285,-0.000525180307282,0.0235615555962,0.00500793122525,1.0,0.0,0.00648521494864
1385570412050792958,0.00256833474325,0.0211731120959,0.00415826493651,1.0,0.0,0.00590021453061
1385570412250763559,0.00522917769919,0.0176972642529,0.00333376006577,1.0,0.0,0.00536874558185
1385570412450775931,0.00718599169512,0.0134466968774,0.00251250254593,1.0,0.0,0.00480957512454
1385570412650887686,0.00806746753084,0.00842912197344,0.0015577089586,1.0,0.0,0.00414753407298
1385570412850799503,0.00778124370776,0.00315291376872,0.000802661135325,1.0,0.0,0.00347306603193
1385570413050764001,0.00643026071155,-0.0019954328579,9.22773271535e-05,1.0,0.0,0.00281224495505
1385570413250777224,0.00423616693964,-0.00653746815811,-0.000478597608402,1.0,0.0,0.00228889404773
1385570413450812191,0.00168878502058,-0.00995306556196,-0.000973106740901,1.0,0.0,0.00184618015525
1385570413650795387,-0.00128268738963,-0.0120053440551,-0.0015967193713,1.0,0.0,0.00154941626131
1385570413850760425,-0.00445755353861,-0.012729947755,-0.00233491558427,1.0,0.0,0.00125680493544
1385570414050752012,-0.00758505502584,-0.0123006464518,-0.00298771465614,1.0,0.0,0.0009753590066
1385570414250764877,-0.0102906269971,-0.0107972285682,-0.00336818846242,1.0,0.0,0.000794860879421
1385570414450791897,-0.0123372237973,-0.00858097848898,-0.00336313531897,1.0,0.0,0.000767538966329
1385570414650769314,-0.0138587882855,-0.00556005289689,-0.0028793913651,1.0,0.0,0.000961924250715
1385570414850753705,-0.0147397458526,-0.00179862385153,-0.00248778970411,1.0,0.0,0.00135753420074
1385570415050861913,-0.0148094250977,0.00217210004686,-0.00208650710687,1.0,0.0,0.0020324012987
1385570415250904038,-0.0141074634079,0.00563647912359,-0.00180821001931,1.0,0.0,0.00286715368806
1385570415450774556,-0.0124174562419,0.00841659523701,-0.00159114396521,1.0,0.0,0.00383661835889
1385570415650832208,-0.0103259627189,0.0102679353969,-0.00151146171191,1.0,0.0,0.00494310366958
1385570415850792350,-0.00811482039029,0.0111946438862,-0.00161225214617,1.0,0.0,0.00606405313332
1385570416050767812,-0.00586811242382,0.011274488581,-0.00161726451505,1.0,0.0,0.00714953153372
1385570416250785277,-0.00396163902498,0.0104713968804,-0.00154437985629,1.0,0.0,0.00818887725554
1385570416450751178,-0.00229669496777,0.00927153664482,-0.00161219129307,1.0,0.0,0.00901736559044
1385570416650953743,-0.000947908323941,0.00777408680763,-0.00170689066261,1.0,0.0,0.00978436648276
1385570416850777323,-0.000180250001788,0.0064032104865,-0.00168312723722,1.0,0.0,0.0103645603479
1385570417050771648,-0.000259400319898,0.0049970470948,-0.00142813685298,1.0,0.0,0.0108246579932
1385570417250808885,-0.00117126740882,0.00380094693229,-0.00119919571041,1.0,0.0,0.0112423651896
1385570417450774680,-0.0025315512968,0.0029752817611,-0.000900767125604,1.0,0.0,0.0115142622424
1385570417650814417,-0.00393451955867,0.00225065330985,-0.000705162091375,1.0,0.0,0.011750587518
1385570417850903662,-0.0051005372588,0.00157260177809,-0.000362118509677,1.0,0.0,0.0119566636618
1385570418050752525,-0.00593716638727,0.00125784889589,0.000142316617017,1.0,0.0,0.0120346278464
1385570418250747174,-0.00651324840794,0.0013110596787,0.000520995769104,1.0,0.0,0.0121144568589
1385570418450771747,-0.00695496752394,0.00215273221647,0.000781164903093,1.0,0.0,0.0121387920298
1385570418650793284,-0.00731085441097,0.00369620962425,0.0010321325056,1.0,0.0,0.0121122636976
1385570418850795392,-0.00743292614542,0.005853978509,0.00133151311069,1.0,0.0,0.0120093854829
1385570419050782872,-0.00723286460953,0.0084500025922,0.00157901632791,1.0,0.0,0.0118120768294
1385570419250752281,-0.00668954132452,0.0110261944873,0.00175201707302,1.0,0.0,0.0117422813227
1385570419450809997,-0.00588821912189,0.0132588418108,0.00187498846657,1.0,0.0,0.0116550820789
1385570419650810993,-0.00523670825103,0.0145504104115,0.00183070886727,1.0,0.0,0.011641988864
1385570419850777063,-0.00490008252114,0.0146207695532,0.00173787517597,1.0,0.0,0.0116546417583
1385570420050880213,-0.00480196561567,0.0135770747797,0.00168020887642,1.0,0.0,0.0118637205182
1385570420250802937,-0.00460161325467,0.012168611193,0.00149932598049,1.0,0.0,0.0120437301551
1385570420450888556,-0.00446709722702,0.0104337348468,0.00150140602246,1.0,0.0,0.0124572957274
1385570420650782858,-0.00438406651825,0.00843842279381,0.00133590368331,1.0,0.0,0.0129936537614
1385570420850863463,-0.00445490968711,0.00667472737839,0.00105838719441,1.0,0.0,0.0136605710053
1385570421050753046,-0.00496128550007,0.00541262888427,0.000668256823667,1.0,0.0,0.0143441754992
1385570421250784102,-0.005630726331,0.00500704369525,0.000314048286333,1.0,0.0,0.015055521482
1385570421451050042,-0.00621098492022,0.00506966466529,4.28214488621e-06,1.0,0.0,0.0159434315127
1385570421650784404,-0.00638527679904,0.00535711610234,-0.000114840390822,1.0,0.0,0.0168284578533
1385570421850755591,-0.00621871444974,0.00555268531945,-0.000148381026755,1.0,0.0,0.0178460603171
1385570422050746088,-0.0058370071535,0.0055062585507,-0.000383295484463,1.0,0.0,0.0189122122333
1385570422250852386,-0.00522032150214,0.00543412149057,-0.000451664821495,1.0,0.0,0.019872059745
1385570422450819461,-0.0043227540326,0.00562181153841,-0.0005082971764,1.0,0.0,0.0207420251312
1385570422650782919,-0.00320394200811,0.00618282363297,-0.000501607388606,1.0,0.0,0.0215693225097
1385570422850756168,-0.00195037708483,0.00684963141033,-0.000577072992479,1.0,0.0,0.0223705417548
1385570423050832005,-0.000927971914304,0.00726615285323,-0.000797492255822,1.0,0.0,0.0229926861685
1385570423250776963,-0.000711487289984,0.00723015958778,-0.00120469788087,1.0,0.0,0.0236471694364
1385570423450806071,-0.00125625705517,0.00682629434459,-0.00146065556669,1.0,0.0,0.0243583365165
1385570423650784012,-0.0024012915077,0.00604388018658,-0.00170358140019,1.0,0.0,0.0249966103724
1385570423850828112,-0.00387142867195,0.00489464844348,-0.00217707069744,1.0,0.0,0.0255115771999
1385570424050761683,-0.00515141812985,0.00356554587055,-0.00238825143605,1.0,0.0,0.0260924037656
1385570424250777459,-0.00588650419262,0.00212990317507,-0.0026737739616,1.0,0.0,0.0265929833659
1385570424450878531,-0.00594974149558,0.00065889131936,-0.00305844298265,1.0,0.0,0.0269603970344
1385570424650869583,-0.00583214775712,-0.000294546920642,-0.00335218954073,1.0,0.0,0.0271833238319
1385570424850742997,-0.00598977070986,-0.000474204055642,-0.00320862993152,1.0,0.0,0.0274241099897
1385570425050790737,-0.00662728854606,0.000151890054293,-0.00279916239478,1.0,0.0,0.0278573583701
1385570425250841915,-0.00735788145239,0.00119197057525,-0.00234816670544,1.0,0.0,0.0282686187491
1385570425450782914,-0.00794281342674,0.00220919702454,-0.00190385956559,1.0,0.0,0.0288069631418
1385570425650830184,-0.00813485223995,0.00305398553496,-0.0014932739612,1.0,0.0,0.0293914882179
1385570425850799046,-0.00819297079215,0.00372350010101,-0.00125898655371,1.0,0.0,0.0298979222128
1385570426050994617,-0.0082761378824,0.00411674433245,-0.00108277508628,1.0,0.0,0.0301433341202
1385570426250850105,-0.00826449085806,0.0045486049725,-0.000866626704675,1.0,0.0,0.0302763784536
1385570426450886482,-0.00828203578482,0.00500044489505,-0.00077306715909,1.0,0.0,0.030365224738
1385570426650820381,-0.00850564203031,0.00526552709158,-0.000672486383431,1.0,0.0,0.030468925005
1385570426850757581,-0.00869005781522,0.00564498956473,-0.000492384813322,1.0,0.0,0.030455934064
1385570427050809710,-0.00867036254512,0.00602539854248,-4.07007944418e-05,1.0,0.0,0.0303426642768
1385570427250800209,-0.00821802408605,0.00654888167912,0.000337217816124,1.0,0.0,0.0301799355966
1385570427450861562,-0.00725998360879,0.00715827330933,0.000651510080942,1.0,0.0,0.0300144854881
1385570427650871151,-0.00591075495378,0.00813642474976,0.0006975569652,1.0,0.0,0.0297791406818
1385570427850786009,-0.00464129995967,0.00950870857182,0.000662027592555,1.0,0.0,0.0296027355629
1385570428050781160,-0.00376123528569,0.0109070889901,0.000568676311709,1.0,0.0,0.0295455861586
1385570428250770450,-0.00317152055593,0.0120206322831,-8.93771156218e-05,1.0,0.0,0.029482337679
1385570428450767209,-0.00259964774283,0.0127654000541,-0.000749271607668,1.0,0.0,0.0292630521817
1385570428650791150,-0.00180564271826,0.0131073146258,-0.00133171978287,1.0,0.0,0.0289869105315
1385570428850816062,-0.000920425815184,0.0130392804278,-0.00153518358625,1.0,0.0,0.0287992833741
1385570429050770773,-0.0001006191175,0.0125737362525,-0.00138341533774,1.0,0.0,0.0286340593544
1385570429250775631,0.00041133592828,0.0120956242203,-0.00111153145519,1.0,0.0,0.0284810078513
1385570429450754369,0.000157812438629,0.0115393655706,-0.000621976645633,1.0,0.0,0.028458109383
1385570429650747588,-0.000786814244432,0.0108032715001,-0.000199543728088,1.0,0.0,0.0286330420251
1385570429850802713,-0.00209425638332,0.00980213454624,0.000309524943206,1.0,0.0,0.0288545986912
1385570430050768221,-0.0038879200426,0.00857999809229,0.000887174113504,1.0,0.0,0.0291882792753
1385570430250745774,-0.00607363839095,0.0076084143961,0.0014729959832,1.0,0.0,0.029525262209
1385570430450756777,-0.00859089176795,0.00710993731393,0.00187841562351,1.0,0.0,0.0299460612842
1385570430650758402,-0.0111022668045,0.00694014574661,0.00224028449568,1.0,0.0,0.0305654310249
1385570430850746116,-0.0130258892183,0.00770691609513,0.00243770747949,1.0,0.0,0.0311041550747
1385570431050848747,-0.0140845079622,0.00876856385583,0.00252424487494,1.0,0.0,0.0314949839777
1385570431250762602,-0.0139804661792,0.00982368248247,0.0025415042044,1.0,0.0,0.0318343909516
1385570431450758363,-0.012754782594,0.0107717893274,0.00223415629927,1.0,0.0,0.0319259276482
1385570431650799837,-0.0107933000183,0.0116020386315,0.00178785630501,1.0,0.0,0.0318989885349
1385570431850776409,-0.00858062267371,0.0119856225454,0.00119388202389,1.0,0.0,0.0317223787775
1385570432050751582,-0.00654533180574,0.0117462363948,0.000747715833288,1.0,0.0,0.0315007862958
1385570432250744690,-0.00455925174015,0.0107898157881,0.000121858593484,1.0,0.0,0.0311979081753
1385570432450772764,-0.00256506692433,0.00942779025426,-0.000520509223491,1.0,0.0,0.0309226924563
1385570432650794277,-0.000425626269043,0.00797581300071,-0.00121268738919,1.0,0.0,0.0306282791358
1385570432850748667,0.00159891615667,0.00697942306925,-0.00153834907853,1.0,0.0,0.0304325043276
1385570433050748657,0.00308734456082,0.00668285939604,-0.00162514640916,1.0,0.0,0.0304030524847
1385570433250744184,0.00401015522535,0.0069278763357,-0.00153405011451,1.0,0.0,0.0305095772481
1385570433450755137,0.00434509736751,0.00734216480881,-0.00131116529484,1.0,0.0,0.0307439929968
1385570433650841968,0.00430733695665,0.00790617777232,-0.0010883571556,1.0,0.0,0.0310712052877
1385570433850772659,0.00422505484278,0.00852570265339,-0.000796002997649,1.0,0.0,0.0314355122937
1385570434050754769,0.00429423211289,0.00930585808571,-0.000323327045845,1.0,0.0,0.0318124262413
1385570434250774670,0.00447574926638,0.0101470680989,5.99234138449e-06,1.0,0.0,0.0321521425837
1385570434450777355,0.00458843574406,0.0110568250931,0.000471441184559,1.0,0.0,0.0324874779488
1385570434650918111,0.00449751570412,0.0117160159768,0.000823952557963,1.0,0.0,0.0327598490093
1385570434850851123,0.00458031403336,0.0121494700143,0.00101662089911,1.0,0.0,0.0328749813856
1385570435050849918,0.00501500717033,0.0124179288802,0.0012395840284,1.0,0.0,0.0329161628815
1385570435250825331,0.00567954355695,0.0126179369465,0.0012813823113,1.0,0.0,0.0329631730005
1385570435450939505,0.00632742144174,0.0125198869548,0.00163529038152,1.0,0.0,0.033005111618
1385570435650870759,0.00663964063802,0.0121884762434,0.0018745635168,1.0,0.0,0.0330276987483
1385570435850837156,0.0069435694486,0.0114061218402,0.00189170650043,1.0,0.0,0.0329927624586
1385570436050829355,0.00731754837016,0.0105186318057,0.00170874012524,1.0,0.0,0.0328772147584
1385570436251013584,0.00792697315139,0.00972619602081,0.00163416576987,1.0,0.0,0.0326232548925
1385570436451163355,0.00851058319769,0.00935535462278,0.00193329103058,1.0,0.0,0.0324641172799
1385570436650857059,0.00928042331787,0.00886384686167,0.00218256509807,1.0,0.0,0.0322489713897
1385570436850748411,0.0101351466428,0.00804180229375,0.0024949223945,1.0,0.0,0.0319546271897
1385570437050745928,0.0109558349663,0.00734419288781,0.00274987941002,1.0,0.0,0.0318756991771
1385570437250874718,0.0116740539911,0.00669489088518,0.00331441251674,1.0,0.0,0.0320610448279
1385570437450885866,0.0120598557374,0.0056926206336,0.00371500362172,1.0,0.0,0.0322947712036
1385570437651008969,0.011888092503,0.00412715353805,0.00371018895036,1.0,0.0,0.0325642755101
1385570437850763527,0.0110654228602,0.00210950286488,0.00364303139203,1.0,0.0,0.0328341646117
1385570438050755252,0.00994879630618,0.000190017515887,0.00354873199373,1.0,0.0,0.0332004973611
1385570438250790085,0.00863212870721,-0.00117502596544,0.00324265203124,1.0,0.0,0.0336120999523
1385570438450801151,0.00731575706427,-0.00172211094674,0.00289025448512,1.0,0.0,0.0340975962445
1385570438650891870,0.0062227812476,-0.00178718071775,0.00242226243377,1.0,0.0,0.0343501148176
1385570438850855152,0.00533643036432,-0.00118763699972,0.00184674170736,1.0,0.0,0.0346178253081
1385570439050753508,0.00475998282116,5.32808713118e-05,0.00129948911201,1.0,0.0,0.0347587564538
1385570439250758365,0.00474138349769,0.00176305923378,0.000919087120189,1.0,0.0,0.0346538544812
1385570439450748899,0.00489428832924,0.0036670918707,0.000599195891418,1.0,0.0,0.0346774777085
1385570439650755413,0.0052371406999,0.00556428837168,0.000359203013958,1.0,0.0,0.03476614007
1385570439850848559,0.0054257447879,0.00723335945463,0.000151093542438,1.0,0.0,0.0350304096715
1385570440050893248,0.00551871043743,0.00861214598131,0.000177364801301,1.0,0.0,0.0352941014918
1385570440250795191,0.00530716381968,0.00979040889598,0.000337312164199,1.0,0.0,0.0356846285011
1385570440450797920,0.00492796990214,0.0106886665499,0.00049500188963,1.0,0.0,0.0361513700424
1385570440650785277,0.00425537061737,0.0112106278438,0.00052728615286,1.0,0.0,0.0366935101634
1385570440850785254,0.00303802046125,0.0114462524559,0.00024417889267,1.0,0.0,0.0373045546579
1385570441050864304,0.00161858605358,0.0114164986814,-8.80635203932e-05,1.0,0.0,0.0377624635721
1385570441250781944,0.000455032554576,0.0112795729167,-0.000390332111276,1.0,0.0,0.0382265674512
1385570441450796458,-5.91080462228e-05,0.0109163029742,-0.000591902043558,1.0,0.0,0.0385955869983
1385570441650750988,-3.20784276993e-05,0.0105768828344,-0.000906124681415,1.0,0.0,0.0389292716401
1385570441850751539,0.000441984500208,0.0102469556835,-0.00107149154623,1.0,0.0,0.0392057399924
1385570442050746874,0.00122698221907,0.00997136124373,-0.00123759320992,1.0,0.0,0.0394445708379
1385570442250747775,0.00199798905854,0.00983139585457,-0.00118955576765,1.0,0.0,0.0396556341511
1385570442450779648,0.00281250068504,0.00983178004032,-0.00111888614304,1.0,0.0,0.0398796294333
1385570442650772395,0.00394691077326,0.00983869107456,-0.000908022669895,1.0,0.0,0.0398560141374
1385570442850798480,0.00520259886681,0.00972237869085,-0.000771143574743,1.0,0.0,0.0396814044181
1385570443050780070,0.00623215809695,0.009307172298,-0.00066829955549,1.0,0.0,0.039699796004
1385570443250768138,0.00685545222685,0.00880089851758,-0.000615857977038,1.0,0.0,0.0396780494053
1385570443450793948,0.00693821479111,0.0079324622779,-0.000724968028172,1.0,0.0,0.0396622904241
1385570443650780516,0.0068268086147,0.00703053453892,-0.000607336367026,1.0,0.0,0.0395954447946
1385570443850768946,0.00679776295396,0.00605562590411,-0.000446742056856,1.0,0.0,0.0395248791065
1385570444050771318,0.00667485516623,0.00496532588394,-0.00031961998325,1.0,0.0,0.0395496800111
1385570444250772811,0.0062274900386,0.00377587987904,-0.00029402314678,1.0,0.0,0.0397041950238
1385570444450792534,0.00523086321897,0.0024230331697,-0.000401565323528,1.0,0.0,0.0400071440695
1385570444650843840,0.00371910865317,0.0011073372147,-0.000559980295156,1.0,0.0,0.040276826093
1385570444850762309,0.00173844907884,-8.41082553295e-05,-0.000928937747313,1.0,0.0,0.0406648171557
1385570445050788515,-0.000331602048751,-0.0005153571744,-0.00138796688326,1.0,0.0,0.0410324572457
1385570445250784750,-0.00210352706228,-0.000329415242853,-0.00148091486328,1.0,0.0,0.0414591015502
1385570445450848215,-0.00330230186517,0.000443333056256,-0.00147728513764,1.0,0.0,0.0417536950483
1385570445650801905,-0.00401086052912,0.00176497505324,-0.00161363619264,1.0,0.0,0.0419403878805
1385570445850800191,-0.0043575051631,0.00360607090663,-0.00180501702527,1.0,0.0,0.042285585476
1385570446050837924,-0.00424354689862,0.00557986044234,-0.00187592211396,1.0,0.0,0.0427677430274
1385570446250876789,-0.00379183736174,0.00725055241732,-0.00195961169716,1.0,0.0,0.0432411851743
1385570446450872007,-0.00297946585313,0.00823914209143,-0.00194715545312,1.0,0.0,0.0436284572181
1385570446650765448,-0.00136121632277,0.00847112694262,-0.00194474877381,1.0,0.0,0.0440063990205
1385570446850948950,0.000755828334213,0.00791110380802,-0.00206174551102,1.0,0.0,0.0444158483319
1385570447050871140,0.00309518231023,0.0064853841716,-0.00228249485844,1.0,0.0,0.0448027732461
1385570447250791166,0.00494219754881,0.00459518979841,-0.00252845876499,1.0,0.0,0.0452310806542
1385570447450786146,0.00623253061136,0.0027306802416,-0.00267346402983,1.0,0.0,0.045833155409
1385570447650810948,0.00637750444492,0.0011451086321,-0.00269447022534,1.0,0.0,0.0466088759807
1385570447850804324,0.00543243217322,0.000100413072182,-0.00271202599747,1.0,0.0,0.0474034474384
1385570448050767586,0.00397928241075,-0.000185126097845,-0.00267109205108,1.0,0.0,0.0481829318795
1385570448250806309,0.00250264471434,0.000438923604373,-0.0025745315852,1.0,0.0,0.0490987852236
1385570448450801169,0.000987594193604,0.00215150064797,-0.00236555346426,1.0,0.0,0.050078951835
1385570448650870281,-0.000509811610546,0.00486988157307,-0.0020427553451,1.0,0.0,0.0510743606651
1385570448850833981,-0.00186172872145,0.00834872341891,-0.00194445362744,1.0,0.0,0.0519953550807
1385570449050822672,-0.00298456311464,0.0120467052038,-0.00201268071667,1.0,0.0,0.0530127991352
1385570449250800624,-0.0037136651182,0.0152944079669,-0.00189065642091,1.0,0.0,0.0539805809063
1385570449450771214,-0.00393362957004,0.0179663194928,-0.00136582405735,1.0,0.0,0.0548760625297
1385570449650774256,-0.00399089403134,0.0199293213289,-0.000941433959854,1.0,0.0,0.0558364514808
1385570449850756166,-0.00383243701533,0.0208971146522,-0.0007638571902,1.0,0.0,0.0567345277506
1385570450050771087,-0.00352663172607,0.0209126031108,-0.000597742487536,1.0,0.0,0.0576365737875
1385570450250763667,-0.00294863120499,0.0197493078743,-0.000578367103787,1.0,0.0,0.0584091719522
1385570450450816889,-0.00166274857728,0.0178190810097,-0.000628918259719,1.0,0.0,0.0589347699732
1385570450650804814,1.02277910609e-05,0.0157804548157,-0.000649221096093,1.0,0.0,0.0592560326769
1385570450851031442,0.00155289105149,0.0138212324547,-0.000355443784808,1.0,0.0,0.0594910913139
1385570451050809081,0.00267047311162,0.0118003788064,-4.119538044e-05,1.0,0.0,0.0598109786727
1385570451250758976,0.00332521704688,0.00967300047461,0.000328694849646,1.0,0.0,0.0600020974854
1385570451450827651,0.00315353916229,0.00773196511677,0.00126317328756,1.0,0.0,0.0601762159647
1385570451650853123,0.00208276992502,0.00614318045428,0.00189519772993,1.0,0.0,0.0602488112898
1385570451850836555,0.000300303212696,0.00502530694934,0.00250940057063,1.0,0.0,0.0604197057413
1385570452050817334,-0.00196106814953,0.00486348405882,0.00282177706966,1.0,0.0,0.0606671349831
1385570452250798623,-0.00433502476767,0.00548296552939,0.00299092920863,1.0,0.0,0.060911066433
1385570452450807986,-0.00685551697735,0.00670856030948,0.00301198875253,1.0,0.0,0.0611748937267
1385570452650860222,-0.00922402209533,0.00832039670688,0.00296112981748,1.0,0.0,0.0614248954349
1385570452850962533,-0.0114075571701,0.0100845460294,0.00272177735856,1.0,0.0,0.0615765147461
1385570453051218136,-0.0133490602316,0.0115462252138,0.00236415377364,1.0,0.0,0.0616026267746
1385570453250832814,-0.0151514530795,0.0127096011969,0.00206613316725,1.0,0.0,0.0616731038867
1385570453451124000,-0.0164821733554,0.0136767639329,0.00200998327202,1.0,0.0,0.0616716132705
1385570453650751665,-0.0172430966088,0.0142255329269,0.00222548018747,1.0,0.0,0.0615703498686
1385570453850765391,-0.0172351215422,0.0143386656089,0.00229765463969,1.0,0.0,0.0614112617722
1385570454050798678,-0.016260425623,0.0142595753754,0.00230575313788,1.0,0.0,0.0613694862706
1385570454250769023,-0.0145603467517,0.0139997723648,0.00208721385327,1.0,0.0,0.0613031623878
1385570454450797136,-0.0124069256276,0.0134457091883,0.00184753015944,1.0,0.0,0.0610559338436
1385570454650855922,-0.0102856433797,0.012270881625,0.00150207679407,1.0,0.0,0.0607307052284
1385570454850823209,-0.00873050013313,0.0105639887458,0.00116498332468,1.0,0.0,0.0604341077093
1385570455050963005,-0.00797512191006,0.00832117817107,0.000946373814464,1.0,0.0,0.0599901712416
1385570455250886075,-0.00805665914134,0.00554651128004,0.000746702937489,1.0,0.0,0.0594379697349
1385570455450827516,-0.00886452161403,0.00261600333203,0.000184894511659,1.0,0.0,0.05885405896
1385570455650780735,-0.00984054923907,0.000407004718222,-0.000392548705197,1.0,0.0,0.0580957359497
1385570455850776189,-0.0107920285385,-0.000749108965368,-0.000765644846439,1.0,0.0,0.0572722600973
1385570456050907440,-0.0117117302188,-0.00123747014376,-0.00105180754442,1.0,0.0,0.0565760397467
1385570456250895294,-0.0121730199171,-0.0009387837707,-0.000801777006585,1.0,0.0,0.0560588836235
1385570456450926911,-0.0121641232718,-0.000612488059978,-0.000205737076822,1.0,0.0,0.0559850496868
1385570456650761513,-0.0119313569338,-2.28583992508e-05,0.000344262612578,1.0,0.0,0.0561610981592
1385570456850753768,-0.0114009139243,0.000653120824325,0.000514931678231,1.0,0.0,0.0566744951013
1385570457050754138,-0.0107102786211,0.00163243789591,0.00053137008066,1.0,0.0,0.057292384631
1385570457250750876,-0.00987633036544,0.00264266422962,0.000739737352637,1.0,0.0,0.0582067743826
1385570457450836810,-0.00870942660369,0.00386159453995,0.0011318464389,1.0,0.0,0.0592203311549
1385570457650789172,-0.00739122922816,0.00484724642383,0.00148141872189,1.0,0.0,0.0600803467585
1385570457850824220,-0.00599209402946,0.00574844145308,0.00181984181966,1.0,0.0,0.0608671032438
1385570458050799919,-0.0052166299602,0.0062901327024,0.00218708003959,1.0,0.0,0.061586307103
1385570458250777521,-0.00506027078695,0.00639856217585,0.00269628598761,1.0,0.0,0.0622765850355
1385570458450778988,-0.00547822734462,0.0064234996655,0.00312952500053,1.0,0.0,0.0629734403977
1385570458650786103,-0.00599097960341,0.00628015125634,0.0031638622527,1.0,0.0,0.0635605807741
1385570458850773615,-0.00644119765462,0.00606169030395,0.00302900206357,1.0,0.0,0.0641601691804
1385570459050826542,-0.00670491465727,0.00569483841072,0.0027777905971,1.0,0.0,0.0648399845613
1385570459250767205,-0.00674514062209,0.00553610455259,0.00249839064161,1.0,0.0,0.0654739304571
1385570459450958084,-0.00666404883734,0.0053675438131,0.00224870965124,1.0,0.0,0.0662498949224
1385570459650924789,-0.00635397477602,0.00547138946633,0.00208664842642,1.0,0.0,0.0670572609814
1385570459850783300,-0.005513009373,0.00598361526643,0.00195173722156,1.0,0.0,0.0676586369032
1385570460050784296,-0.00445810578033,0.00638292088324,0.00166511237873,1.0,0.0,0.0682284025143
1385570460250772230,-0.00338626145022,0.00616267153384,0.00145847895941,1.0,0.0,0.0686890828979
1385570460450793170,-0.0027983987663,0.00518739009729,0.00149927558412,1.0,0.0,0.0693083236195
1385570460650771658,-0.0026780573544,0.00359008526901,0.00164719024681,1.0,0.0,0.0699081600684
1385570460850859692,-0.00257486444032,0.00191575537266,0.00176194966833,1.0,0.0,0.0704882193678
1385570461050877688,-0.0023839538687,0.000450190850911,0.00177422533153,1.0,0.0,0.070877000428
1385570461250765698,-0.00233146994114,-0.000903344031884,0.00192341122199,1.0,0.0,0.0712548362865
1385570461450775080,-0.00267153599307,-0.0021760080041,0.00192021138917,1.0,0.0,0.0716096974331
1385570461650774391,-0.00349533746911,-0.00325823278748,0.00168936327209,1.0,0.0,0.0718398699982
1385570461850763820,-0.00490683967955,-0.0039456901995,0.0015066176667,1.0,0.0,0.072031803113
1385570462050744505,-0.00687020064815,-0.00390069960014,0.00141511082921,1.0,0.0,0.0721593896279
1385570462250780426,-0.00928838819552,-0.0031281475111,0.00145662184444,1.0,0.0,0.0723574291279
1385570462450787227,-0.0118193701457,-0.00186061766923,0.00119315469544,1.0,0.0,0.0724762933754
1385570462650820743,-0.013944082651,-1.04768918632e-05,0.0010564291145,1.0,0.0,0.0724469786156
1385570462850775819,-0.0153917669312,0.00250633044075,0.000934592157035,1.0,0.0,0.0721924889506
1385570463051039877,-0.0159759514332,0.00577495473968,0.000780967970508,1.0,0.0,0.0716841793084
1385570463250877256,-0.0155055764151,0.00923089639977,0.000794687194966,1.0,0.0,0.0711664779452
1385570463451016741,-0.0138324026651,0.0123842706487,0.00110030251481,1.0,0.0,0.070452897538
1385570463650965414,-0.0108823084738,0.0141650765307,0.00161151790234,1.0,0.0,0.0697327657498
1385570463850816101,-0.00722377483641,0.0139855442143,0.00200276562219,1.0,0.0,0.0689192441776
1385570464051058973,-0.00353001942774,0.0117153512458,0.00220773937949,1.0,0.0,0.0679871825102
1385570464250932864,-0.000715358185288,0.00779920927113,0.00211198316235,1.0,0.0,0.0669794849776
1385570464450855054,0.000536091045045,0.00297066469907,0.00194492574515,1.0,0.0,0.0660655503448
1385570464650825993,0.0002853034482,-0.00147518361399,0.00153861863142,1.0,0.0,0.0650971834206
1385570464850844627,-0.000924738663891,-0.00501342323048,0.00106736896181,1.0,0.0,0.064132929191
1385570465050810298,-0.00273724438775,-0.00710470334566,0.000598420124173,1.0,0.0,0.0633043488155
1385570465250852717,-0.0046382204415,-0.00775215216707,0.000179144653099,1.0,0.0,0.0627473476325
1385570465450879465,-0.00624691433498,-0.00747008445079,-0.000507558233761,1.0,0.0,0.0623319239211
1385570465651028161,-0.00736860967845,-0.00639473143179,-0.00141637197829,1.0,0.0,0.0620214126012
1385570465850859137,-0.0080337421875,-0.00446013062067,-0.00235557560388,1.0,0.0,0.0619652871416
1385570466052351668,-0.00850549551802,-0.00195888936105,-0.00306427251178,1.0,0.0,0.0621687467157
1385570466250904003,-0.00880619289596,0.000652245292846,-0.0034916199396,1.0,0.0,0.0625730782604
1385570466450828585,-0.00892261451878,0.00317689975532,-0.00381955163444,1.0,0.0,0.063241693134
1385570466650829253,-0.00872837023073,0.00540725377702,-0.0039801212577,1.0,0.0,0.0639534562573
1385570466850809359,-0.00796536098538,0.00739338088426,-0.00387407001854,1.0,0.0,0.0646102626364
1385570467050785012,-0.00650122676809,0.00918119201503,-0.00375412355028,1.0,0.0,0.0652953575844
1385570467250746066,-0.00449929682872,0.0102689113745,-0.00387898172601,1.0,0.0,0.0659701107925
1385570467450775818,-0.00244334469417,0.0102056173055,-0.00411359093611,1.0,0.0,0.0668640809314
1385570467650788429,-0.00051855472834,0.0085122447598,-0.00456220098132,1.0,0.0,0.0679937263381
1385570467850866212,0.00077558874894,0.00571279091865,-0.00506704447065,1.0,0.0,0.0693056012564
1385570468050782382,0.00139929644718,0.00258265726899,-0.00565558673379,1.0,0.0,0.0707444913006
1385570468250750463,0.00121405185468,-0.000260675811121,-0.00625385566589,1.0,0.0,0.0724437015628
1385570468450810054,0.000261414309213,-0.00215290171449,-0.00662977488533,1.0,0.0,0.0742057049352
1385570468650750777,-0.00137103348311,-0.00336498402098,-0.00679137273302,1.0,0.0,0.0760637448596
1385570468850744922,-0.0035336888361,-0.00366631741944,-0.00667463168157,1.0,0.0,0.0779546807241
1385570469050756049,-0.00619940331988,-0.00325355935441,-0.00627097277468,1.0,0.0,0.0799882756453
1385570469250750505,-0.00895234805131,-0.00182526067072,-0.00584643560083,1.0,0.0,0.0818672680485
1385570469450772734,-0.0114221508313,0.000586501441497,-0.00544561916679,1.0,0.0,0.0837691593316
1385570469650805237,-0.0136166175522,0.0037255194473,-0.0047548404151,1.0,0.0,0.0857441196676
1385570469850777183,-0.0152312931338,0.00732817619266,-0.00402398311791,1.0,0.0,0.0876118418093
1385570470050773822,-0.0159407873019,0.0111209828293,-0.00352209105398,1.0,0.0,0.0893373712296
1385570470250770446,-0.0159407405582,0.0149962247069,-0.00325579955417,1.0,0.0,0.0908385422936
1385570470450838135,-0.0157614762735,0.0186639956965,-0.00308016324665,1.0,0.0,0.092154302069
1385570470650782643,-0.0154738534249,0.0222862856661,-0.0028880234661,1.0,0.0,0.0930714838659
1385570470850779040,-0.0151604162535,0.0256203335553,-0.00278291191982,1.0,0.0,0.0937140425115
1385570471050825500,-0.0147898327115,0.028170813752,-0.00259838688356,1.0,0.0,0.0939907786732
1385570471250819362,-0.0142827953354,0.0288981680154,-0.00266092605778,1.0,0.0,0.093992122181
1385570471450849578,-0.0133579342416,0.0276592678398,-0.00306254730145,1.0,0.0,0.0935644430784
1385570471650802580,-0.0120197739628,0.0244110485279,-0.00336577909085,1.0,0.0,0.0928320090707
1385570471850953705,-0.0102577211744,0.019901990276,-0.00372879702938,1.0,0.0,0.0918633854424
1385570472050896387,-0.00862422182333,0.0146451049588,-0.00380362636056,1.0,0.0,0.0910165890369
1385570472250925884,-0.00735074523183,0.00943137730208,-0.00359636535097,1.0,0.0,0.0900972733228
1385570472450797138,-0.00680627052352,0.00428783567564,-0.0030860199632,1.0,0.0,0.0891253656974
1385570472650770537,-0.00718210970794,-0.000133555800356,-0.00253884960554,1.0,0.0,0.0881648256171
1385570472850797575,-0.00864948280631,-0.00343497632356,-0.00202163641151,1.0,0.0,0.0873192928071
1385570473050796027,-0.0108935033679,-0.00513577232335,-0.00111922621365,1.0,0.0,0.0865789541347
1385570473250769515,-0.0137082445443,-0.00544248678221,-0.000424151921031,1.0,0.0,0.0862136412277
1385570473450810607,-0.0167423977156,-0.00453958728673,5.13328887213e-05,1.0,0.0,0.0860650730375
1385570473650810752,-0.0194972998136,-0.00265605858557,0.000436069704377,1.0,0.0,0.0859658803039
1385570473850903944,-0.0214613771323,1.58507794646e-05,0.00117589000578,1.0,0.0,0.0859807749383
1385570474050814620,-0.02216452725,0.00306705510076,0.00197869628507,1.0,0.0,0.0859829348836
1385570474250748619,-0.0215843174276,0.00592207272163,0.00242042711356,1.0,0.0,0.0860812277529
1385570474450771140,-0.0201462653871,0.00847483574974,0.00252818866775,1.0,0.0,0.0859955825035
1385570474651006825,-0.0184978871786,0.0103057548158,0.00275635149987,1.0,0.0,0.0859022298682
1385570474850757629,-0.0167521726947,0.0114217530135,0.00268384532885,1.0,0.0,0.0857716017645
1385570475050750312,-0.0152077520801,0.0116537338409,0.00228764823902,1.0,0.0,0.0858045194182
1385570475250787198,-0.0135684548296,0.0114459170452,0.0019774639499,1.0,0.0,0.0858633609357
1385570475450801244,-0.0117612291787,0.0103973296955,0.00138960529059,1.0,0.0,0.0859301038849
1385570475650763859,-0.00976808378433,0.00889991614064,0.000871494434705,1.0,0.0,0.0860616205204
1385570475850761380,-0.00800321424281,0.00743957924168,0.000633771265657,1.0,0.0,0.0863652175726
1385570476050852884,-0.00679992349307,0.0065022996391,0.000726781465944,1.0,0.0,0.0867104304912
1385570476250790213,-0.0063158842142,0.00589744400122,0.00113514812014,1.0,0.0,0.0869731807302
1385570476450768294,-0.0064559076084,0.00530674097157,0.00145732704257,1.0,0.0,0.0873195545887
1385570476650787733,-0.00718194463177,0.00418278982984,0.00153720456552,1.0,0.0,0.0878024436665
1385570476850777925,-0.00818878655028,0.00223048069927,0.00152790600183,1.0,0.0,0.0883211367661
1385570477050794102,-0.00977732720016,-7.88021741764e-05,0.0016037581495,1.0,0.0,0.0886941113396
1385570477250787153,-0.012082807111,-0.00223396302989,0.00196949421949,1.0,0.0,0.088847689684
1385570477450820440,-0.0150375163159,-0.00384429199404,0.00243980492419,1.0,0.0,0.0890224792334
1385570477650806178,-0.0184053687903,-0.00452402037858,0.00239749535955,1.0,0.0,0.0891929690647
1385570477850855089,-0.0219258022421,-0.00372409627102,0.00228101810181,1.0,0.0,0.0893225024813
1385570478050780930,-0.0255198123793,-0.00160220423279,0.00222505908743,1.0,0.0,0.0893869379344
1385570478250790465,-0.0287361648938,0.00173591749429,0.0021780165843,1.0,0.0,0.0893555803999
1385570478450778153,-0.0309387642105,0.00576050349849,0.00220200592759,1.0,0.0,0.0892600763217
1385570478650828350,-0.0317234835532,0.0100337957096,0.00213061655389,1.0,0.0,0.0891675789964
1385570478850771038,-0.030990723565,0.014044898717,0.00245485629283,1.0,0.0,0.0890323614008
1385570479050782659,-0.0285770052118,0.0176592014675,0.00296394504992,1.0,0.0,0.0888414587988
1385570479250769808,-0.0248740327062,0.0201958027202,0.00341231944145,1.0,0.0,0.0887188845698
1385570479450789828,-0.0199934466062,0.0216441792468,0.00398752885217,1.0,0.0,0.0885451063748
1385570479650783675,-0.0146799718002,0.0217167975315,0.00426239740242,1.0,0.0,0.0883543994417
1385570479850875948,-0.00943952352633,0.0201113750755,0.00467891629713,1.0,0.0,0.0880681881409
1385570480050798511,-0.00490455255224,0.0166685961306,0.00441498414089,1.0,0.0,0.0876955696941
1385570480250784839,-0.00172596025846,0.0113939054917,0.00380877038342,1.0,0.0,0.08730872158
1385570480450786011,-0.000179469548302,0.00510768790353,0.00286844526708,1.0,0.0,0.0868141404534
1385570480650774427,-0.000621126634157,-0.00144450842041,0.00190621226817,1.0,0.0,0.0863405546269
1385570480850775987,-0.00302500540348,-0.00708050854769,0.000861579531288,1.0,0.0,0.0857544954983
1385570481050774269,-0.00716694202774,-0.0110666133696,-0.000241642908026,1.0,0.0,0.085331782755
1385570481250787262,-0.0124830965904,-0.0123639308414,-0.00130502998435,1.0,0.0,0.0848912545209
1385570481450883606,-0.0185008453083,-0.0110066841213,-0.00193136113037,1.0,0.0,0.0843164676484
1385570481650789585,-0.024690041054,-0.0071387899862,-0.00243658027346,1.0,0.0,0.0837634556843
1385570481850812813,-0.0303919844839,-0.000844361679922,-0.00243846008842,1.0,0.0,0.0830686887098
1385570482050759438,-0.034686196516,0.006905080232,-0.00210684101874,1.0,0.0,0.0822154208374
1385570482250787088,-0.0369738752308,0.0146422741596,-0.00159393030067,1.0,0.0,0.0813360733607
1385570482451017399,-0.0370664298047,0.0208406337378,-0.00110086570169,1.0,0.0,0.0805956655898
1385570482650812962,-0.0348671749796,0.0252371289475,-0.000696074523881,1.0,0.0,0.0799070420022
1385570482850778611,-0.0308681946956,0.0277317778208,-9.74815016995e-05,1.0,0.0,0.0794270917497
1385570483050763468,-0.0254025152671,0.0278695067461,0.000662823792321,1.0,0.0,0.0791738386806
1385570483250749176,-0.0190640171603,0.0256206828492,0.00118298845658,1.0,0.0,0.079078721194
1385570483450776140,-0.0129240537041,0.0209203513809,0.00187646355266,1.0,0.0,0.079155922794
1385570483650766911,-0.00771115876251,0.0142983379171,0.00225320226264,1.0,0.0,0.0792940224766
1385570483850860662,-0.00405007749912,0.00641095465422,0.00245461094839,1.0,0.0,0.0794014315132
1385570484050760246,-0.00212499604882,-0.00133102665282,0.00256611545787,1.0,0.0,0.0792368962798
