%time,field.linear.x,field.linear.y,field.linear.z,field.angular.x,field.angular.y,field.angular.z
1385570358861098094,0.0,0.0,0.0,0.0,0.0,0.0
1385570358861122988,0.159213663482,-0.189419299872,-0.114735125147,-0.00165317259096,0.00863131313041,-1.42532303552
1385570358870890944,0.159310526892,-0.189481192238,-0.11463835517,-0.00162176883293,0.00758471733361,-1.42499233873
1385570358880850522,0.159157652509,-0.189434002583,-0.114604236284,-0.0020822869969,0.00777907033904,-1.42533116783
1385570358890828101,0.159294150311,-0.189471303661,-0.114611127193,-0.00179309189093,0.00713944805307,-1.42502500408
1385570358900878662,0.159215716229,-0.189508197195,-0.114584595436,-0.0021507673577,0.0075120642133,-1.42501810812
1385570358910806377,0.159265862577,-0.189482128701,-0.114605651433,-0.0018073845431,0.00720352733244,-1.42501605698
1385570358920801298,0.159269467669,-0.189484439469,-0.114649704103,-0.00177226063191,0.00756882802646,-1.4250565677
1385570358930791028,0.159278045674,-0.189491953212,-0.11465590634,-0.00176380080895,0.00761414208897,-1.42502328374
1385570358940902065,0.159268754595,-0.189481734622,-0.114621696569,-0.00179631707174,0.0072071879266,-1.42505370933
1385570358950845260,0.159205841495,-0.189521544469,-0.114553142607,-0.00216551862085,0.00704564384018,-1.42505285417
1385570358960824290,0.159252891586,-0.189494372643,-0.114623874584,-0.00182499246348,0.00717736246434,-1.42503167171
1385570358970809410,0.159237941737,-0.189513856499,-0.11459663171,-0.00148908255596,0.00703331976415,-1.42511779846
1385570358980759337,0.159207598387,-0.18953581497,-0.114595331816,-0.00209624792044,0.00751001957899,-1.4250067141
1385570358990801778,0.159179693552,-0.189539661129,-0.114529212697,-0.00184737753506,0.00687141281327,-1.42511165708
1385570359000854906,0.159215673429,-0.189524685295,-0.114571088892,-0.00214729305275,0.00711840465239,-1.42501403987
1385570359010844063,0.159228740612,-0.189511070124,-0.114598893065,-0.001478464261,0.00702445595469,-1.42513731791
1385570359020910575,0.159200363921,-0.189516551581,-0.114568291304,-0.00216102416831,0.00713957412937,-1.42507657439
1385570359030808231,0.159201440555,-0.189524604652,-0.114563126916,-0.00215811777721,0.00715094636013,-1.4250453748
1385570359040853744,0.159211110918,-0.189509309415,-0.114559002637,-0.00213661715054,0.00702902333723,-1.425026561
1385570359050917489,0.159189614365,-0.189517422907,-0.114552334209,-0.00216830836331,0.00693473605326,-1.42509152147
1385570359060858860,0.159220086097,-0.189498930643,-0.114591347191,-0.00150350163458,0.00702729798645,-1.42512610684
1385570359070851631,0.159199924016,-0.189509140069,-0.114555911707,-0.0021474332527,0.00706849270292,-1.42503909713
1385570359080784963,0.159199885931,-0.189515279768,-0.114565284215,-0.0021678352718,0.00708832240055,-1.42504915355
1385570359090860792,0.159201386297,-0.18951210928,-0.114565178751,-0.00215269073311,0.0071547348904,-1.42507987368
1385570359100833494,0.159205216989,-0.189511356531,-0.114560696365,-0.00216191991117,0.00704647005133,-1.42505311226
1385570359110838845,0.159213382676,-0.189514665408,-0.11455969302,-0.00218490732834,0.00709954964655,-1.42506144012
1385570359120842504,0.159172239955,-0.189442339036,-0.114628855082,-0.00209488950911,0.00785287758975,-1.42525642603
1385570359131135026,0.159191405361,-0.189395741241,-0.114687244021,-0.00168740306034,0.00798781903587,-1.42538956455
1385570359140935469,0.159223565927,-0.189512362429,-0.114560021489,-0.0021696327759,0.0070506633705,-1.4250280088
1385570359150851439,0.159266890353,-0.189475317559,-0.11462046402,-0.00180749323955,0.00719358160542,-1.42506479324
1385570359160829035,0.15924446758,-0.189506437899,-0.114593466316,-0.00150209955124,0.00703641646004,-1.42516881438
1385570359170811372,0.159281594485,-0.189475680648,-0.11462415703,-0.00179354967297,0.00721380064429,-1.42502783194
1385570359180831631,0.159208693288,-0.189509054665,-0.114559128847,-0.00216644601214,0.00710479798346,-1.42503678366
1385570359190963257,0.159289319202,-0.189476611248,-0.114622786333,-0.00181136742473,0.00717570003489,-1.42505659875
1385570359200813367,0.159212928041,-0.189421162453,-0.114742512599,-0.00161743709537,0.00862116268514,-1.42536557052
1385570359210845997,0.159198013588,-0.18953127316,-0.114511564895,-0.00193521277448,0.0069301877662,-1.42506200905
1385570359220864901,0.159230948147,-0.189411984392,-0.11469916959,-0.00172306602991,0.00805078814827,-1.42528436771
1385570359230856176,0.159275254135,-0.189474146939,-0.114623380025,-0.00177488735585,0.00720924665411,-1.42503050147
1385570359240830373,0.159200700167,-0.18949038819,-0.114568611406,-0.00151583397194,0.006924880391,-1.42521610184
1385570359250996759,0.159203658409,-0.189508950828,-0.114551615279,-0.00215748857278,0.00707264640121,-1.42503886046
1385570359260803331,0.159097338577,-0.189467069261,-0.114575799689,-0.00180361318158,0.00753539431771,-1.42541974047
1385570359270816936,0.159246584163,-0.189472112495,-0.11461188509,-0.00183016568796,0.00711812869716,-1.4251427193
1385570359280940256,0.159214015236,-0.189424108991,-0.114738332663,-0.00161721826451,0.00859938892193,-1.42527826869
1385570359290866268,0.159238877749,-0.189417425637,-0.1146994091,-0.00175050336379,0.00806220860321,-1.42524423337
1385570359300804317,0.159211480013,-0.189399993114,-0.114692240608,-0.00168490947123,0.00798472186091,-1.42540084812
1385570359310902716,0.159260533794,-0.189471550365,-0.114613830357,-0.00180384959348,0.00720078630472,-1.42505809736
1385570359320785147,0.159228851766,-0.189490404754,-0.114583559557,-0.00148159825655,0.00697804992668,-1.42511506292
1385570359330851595,0.159202476212,-0.189525376272,-0.114586507476,-0.00212149636778,0.00734750815679,-1.42509056979
1385570359340810544,0.159246497186,-0.189482308761,-0.114611960409,-0.00181728265442,0.00704397858625,-1.42516063344
1385570359350807957,0.159211854793,-0.189509432638,-0.11456427579,-0.00218996991526,0.0071060831379,-1.42500117826
1385570359360878322,0.159185915049,-0.189535040798,-0.114562549887,-0.0018212641774,0.0073038979036,-1.42511874045
1385570359370829741,0.159248126289,-0.189488582474,-0.114593270958,-0.00147799717838,0.00701846679185,-1.42510039281
1385570359381205747,0.15920661843,-0.189405667153,-0.114688383266,-0.00168515339733,0.00741574790811,-1.42510166483
1385570359390894557,0.159191682216,-0.189496263359,-0.114675495435,-0.00137521256481,0.00723410670146,-1.42531154952
1385570359400889860,0.159114767859,-0.189521612429,-0.114573104701,-0.00141852098404,0.00688319440193,-1.42499918679
1385570359410849017,0.159100668066,-0.18933434907,-0.114830993068,-0.00112498620053,0.0084477593047,-1.42539480601
1385570359420862304,0.159201300719,-0.189501367671,-0.114691306727,-0.00132279392404,0.00722718513877,-1.42553632298
1385570359430805211,0.159220565903,-0.189436677936,-0.114609790361,-0.00162236679487,0.0072953385064,-1.42527621981
1385570359440807863,0.159109007564,-0.18954152987,-0.114578001322,-0.00143191287943,0.00694110094607,-1.42438757028
1385570359450927938,0.159208077681,-0.189494104432,-0.114699488518,-0.00133759526298,0.00706791001495,-1.42528634534
1385570359460826106,0.159167505275,-0.189359666175,-0.114635070684,-0.00149655968078,0.00785271738744,-1.42663314831
1385570359470819395,0.159168263882,-0.189504478077,-0.114592651273,-0.00200794914192,0.00694072399107,-1.42469317945
1385570359480851413,0.159107264564,-0.189536183736,-0.114566053312,-0.00229759378335,0.00664906729149,-1.42480652239
1385570359490857418,0.159217957946,-0.189405987856,-0.114686927021,-0.00164484312793,0.00792916810422,-1.4260841707
1385570359500847530,0.159147890448,-0.1894858595,-0.114536088952,-0.00201710438467,0.0072049301778,-1.42568589064
1385570359510866431,0.159072583123,-0.189473820575,-0.114710648992,-0.00231931326375,0.00727349251323,-1.42535739185
1385570359520771624,0.159136717993,-0.189521543541,-0.11457739605,-0.00200263433435,0.00655676605887,-1.42476253785
1385570359530859820,0.159216021964,-0.189490462645,-0.114591760246,-0.00160273315996,0.00704689060196,-1.42533950332
1385570359540801507,0.159086661187,-0.189471640019,-0.114559065357,-0.00169313745281,0.00788792834088,-1.42547653842
1385570359550826358,0.159149073617,-0.189517115832,-0.114584970607,-0.00191135929253,0.00704251579624,-1.42452364962
1385570359560838591,0.159153039637,-0.189566471093,-0.114673094656,-0.0021640469878,0.00623261180663,-1.4249009019
1385570359570802753,0.159050170467,-0.189450816602,-0.114597210715,-0.00159176113676,0.00692373598671,-1.42554585643
1385570359580856752,0.159127740783,-0.189529998996,-0.114579682409,-0.00225891081794,0.00664559082554,-1.42516277603
1385570359590859331,0.15910468724,-0.189449799773,-0.11463261363,-0.00189477482325,0.00771675264693,-1.42466458857
1385570359600872791,0.159157320783,-0.18954418323,-0.114575498528,-0.00192528418082,0.00670636657363,-1.42511919757
1385570359610812591,0.159137341802,-0.189516916275,-0.114537478983,-0.00167453157042,0.00688387814258,-1.42540327765
1385570359620869440,0.159096402232,-0.189518255425,-0.114524754327,-0.00163007957356,0.00687431273068,-1.42466935323
1385570359630859380,0.159154493497,-0.189527049521,-0.114566765134,-0.00188077597944,0.00690592761258,-1.42459090219
1385570359640877210,0.159159052391,-0.189529227707,-0.114607429865,-0.00182003513302,0.00720797319972,-1.42531005594
1385570359650937055,0.159122061286,-0.189487497064,-0.114534069631,-0.00195498788024,0.00682714852142,-1.42546587739
1385570359660859469,0.159151629901,-0.189502790227,-0.114607140615,-0.00187735600797,0.00713998618849,-1.4244930151
1385570359670824886,0.159157313401,-0.189529189479,-0.114576994916,-0.00189660929521,0.00683868938212,-1.42482220786
1385570359680851836,0.15912021758,-0.189521284011,-0.114508680364,-0.00152287219851,0.00666428455819,-1.425409167
1385570359690874201,0.159151491755,-0.189518724969,-0.114575679709,-0.00196274619435,0.00708264656556,-1.42495244936
1385570359700863809,0.159093687392,-0.189532116939,-0.114635900978,-0.00151386858619,0.00697871662759,-1.42468103015
1385570359710859949,0.159168954426,-0.189524278921,-0.114574077535,-0.00181301736737,0.00681152479029,-1.42503568998
1385570359720851223,0.159073106392,-0.189509609174,-0.114701427412,-0.00197102749395,0.00775372976887,-1.42539339381
1385570359730857039,0.159138522339,-0.189521037883,-0.114566391106,-0.00191115535309,0.00697144904788,-1.42482516174
1385570359740788225,0.159120213492,-0.189589125103,-0.114583878582,-0.00196515496202,0.00637139930742,-1.42510946555
1385570359750793432,0.159142782125,-0.189520420791,-0.114577110802,-0.00183910732675,0.00686500729297,-1.42499490441
1385570359760865365,0.159113371257,-0.189525989021,-0.11455687589,-0.00177720937134,0.0068598868548,-1.42495102178
1385570359770915378,0.159079170938,-0.189449912232,-0.114627101842,-0.00176816168288,0.00758950323916,-1.42510949566
1385570359781025661,0.159156851596,-0.189522877236,-0.114581990374,-0.00187505433085,0.00684031336971,-1.42510743642
1385570359791059761,0.159110265985,-0.189507988959,-0.114502283622,-0.00190069102237,0.00733495241439,-1.42504898005
1385570359801012940,0.159243435762,-0.189451320009,-0.114455899079,-0.00119238968969,0.00799378398467,-1.4249394232
1385570359810926385,0.159276361017,-0.189448798536,-0.114486586908,-0.00116970613586,0.00804099798581,-1.42516648136
1385570359820836403,0.159324749487,-0.189491232333,-0.114538741788,-0.0013681806796,0.00867081349499,-1.4253499491
1385570359830887983,0.15917558349,-0.189483732059,-0.114370266344,-0.000935885662651,0.00822948601447,-1.42514344244
1385570359840934342,0.15913780573,-0.189516214017,-0.11455863659,-0.00182460198472,0.00695750562164,-1.42492396518
1385570359851049553,0.159170467928,-0.189513066361,-0.114534069843,-0.00164877289264,0.00681713713722,-1.42487696617
1385570359860900637,0.159029008807,-0.189469111448,-0.114745248039,-0.00129665659605,0.00842142609087,-1.4252664584
1385570359870890502,0.159161078417,-0.189493630884,-0.114597641048,-0.00204468695057,0.00699336074247,-1.42512154183
1385570359880859936,0.159153484512,-0.189522674366,-0.114562683683,-0.00184635346562,0.00697559346271,-1.42475572531
1385570359890884174,0.159090465852,-0.189519607476,-0.114616646866,-0.00142387694042,0.00697392332927,-1.42495837255
1385570359900877143,0.159155282508,-0.189525282009,-0.114577342224,-0.00169153096929,0.00721567210609,-1.42493944682
1385570359910830927,0.159105971306,-0.18951951789,-0.114535985096,-0.00193361683485,0.00686784851586,-1.42524600888
1385570359920860284,0.159104566184,-0.189524280814,-0.114633312931,-0.00162526413696,0.00705728658622,-1.42472652261
1385570359930877169,0.159153760497,-0.189533418126,-0.114618462886,-0.00187151412131,0.007321548217,-1.42487664468
1385570359940886190,0.15928527155,-0.189476858876,-0.114534791236,-0.00119945418777,0.00801879660763,-1.4255678296
1385570359950865911,0.159122940522,-0.189441816293,-0.114612086344,-0.00139067881377,0.00768740947493,-1.4251731617
1385570359960870473,0.159024292901,-0.189441570765,-0.114787724976,-0.00123511141078,0.00826824344361,-1.42535479993
1385570359970981311,0.159120255607,-0.189522101839,-0.114655224675,-0.00160572439102,0.00761760418122,-1.42449666536
1385570359980974097,0.159153072499,-0.189519387794,-0.114579385787,-0.00169169768264,0.00692147222312,-1.42505563371
1385570359990849597,0.159080980997,-0.189525896347,-0.114554678217,-0.00199373114485,0.0078060782788,-1.42508052423
1385570360001015673,0.159205246341,-0.189502762446,-0.114637803317,-0.00196532484542,0.00696008185701,-1.42491438057
1385570360010866767,0.15919180192,-0.189514932688,-0.114639962088,-0.00192257507024,0.0067849205837,-1.42493803129
1385570360020839513,0.159050307358,-0.189472346661,-0.114666768915,-0.00225436358973,0.00763288266606,-1.42507585207
1385570360030890241,0.159117927872,-0.189528940182,-0.114590875269,-0.0020585968795,0.00678084404938,-1.42512596326
1385570360040838792,0.159154208744,-0.189535714743,-0.114549958641,-0.00178150143158,0.00688174165698,-1.42502170972
1385570360051025579,0.159206904118,-0.189469060706,-0.114634107844,-0.00160685811015,0.00711283482503,-1.42445579309
1385570360060871211,0.159257834479,-0.189552771362,-0.114634311672,-0.00244309979357,0.0070160355936,-1.42431578818
1385570360070844297,0.159077635792,-0.189542161783,-0.114590208654,-0.00265808321404,0.00706565947725,-1.42554803534
1385570360080866461,0.159134897082,-0.189516839985,-0.114688674998,-0.00219849557586,0.00687743210797,-1.42464099778
1385570360090857939,0.159017872594,-0.18945925577,-0.114764165678,-0.00247086048241,0.00793849509499,-1.42459710304
1385570360100826325,0.159153903577,-0.189495945997,-0.114689221061,-0.00267219720979,0.00680080191904,-1.4254726196
1385570360110866490,0.159160631583,-0.189508194233,-0.1147420064,-0.00222557885453,0.00692387472779,-1.42467286934
1385570360120822382,0.15913223376,-0.189538970219,-0.114682179698,-0.00252814880585,0.00717760302322,-1.42482727398
1385570360130861103,0.159048523886,-0.189549716309,-0.114587474381,-0.00222448082956,0.00711251068967,-1.42498207434
1385570360140857702,0.159037017188,-0.189478802481,-0.114681327326,-0.00147581378878,0.00791986084556,-1.42484903304
1385570360150866522,0.15911492161,-0.189532290416,-0.114594470581,-0.00219656717131,0.00641651212811,-1.42505255913
1385570360160940551,0.15901878106,-0.189569029849,-0.11473416828,-0.00222773475592,0.00640308131591,-1.42527394538
1385570360170915053,0.159096834491,-0.189551831052,-0.114711721077,-0.00223065811159,0.00729166099075,-1.42458172102
1385570360180899214,0.159147637969,-0.189503891248,-0.114629745858,-0.00217434273553,0.00662530871658,-1.42515764523
1385570360190834398,0.15910050304,-0.189560526414,-0.11465395993,-0.00202223784423,0.00733054390236,-1.4248395145
1385570360200844376,0.159108296192,-0.18953380817,-0.114738556922,-0.00245670274727,0.00644944702534,-1.42466873298
1385570360210874479,0.159041189656,-0.18946677711,-0.114688312482,-0.00205979280899,0.00800015104514,-1.42550961968
1385570360220813610,0.159121703524,-0.189530273952,-0.114635061278,-0.00173150534275,0.00675713902965,-1.42471102403
1385570360230856134,0.159030843734,-0.189442435797,-0.114755201207,-0.00135708529103,0.00766354796706,-1.42496771908
1385570360240818294,0.159149985432,-0.189488639731,-0.114669281372,-0.00194770486087,0.00676145565068,-1.42537995753
1385570360250982857,0.159035068363,-0.189473494059,-0.114721875043,-0.00162023891508,0.00750882526788,-1.42501757
1385570360260870898,0.159095534255,-0.189479944685,-0.114664777772,-0.0021273115501,0.00649313926564,-1.42484250107
1385570360270866018,0.158964016779,-0.189506020882,-0.114643825355,-0.00167607777497,0.00804889725827,-1.42513085737
1385570360280848009,0.15913208142,-0.189497785594,-0.114633497374,-0.00149769605224,0.00707574331031,-1.42445015951
1385570360290884268,0.159137993309,-0.189463760618,-0.114695277492,-0.00139317241001,0.00645722067306,-1.42512330551
1385570360300860216,0.159129962726,-0.18950550745,-0.114659785126,-0.00111890022245,0.00667876448589,-1.42508767973
1385570360310839023,0.159168527888,-0.1894668496,-0.114637124701,-0.00100228996661,0.00714468821921,-1.42440687467
1385570360320850860,0.159159958021,-0.189459997429,-0.114612737987,-0.00100839066601,0.0066856780724,-1.42519826566
1385570360330789496,0.159111675328,-0.189487274878,-0.114630305095,-0.00150771968096,0.00676079276357,-1.42514933102
1385570360340855031,0.159065140086,-0.189483927512,-0.114699077406,-0.00150115948305,0.00691947756362,-1.42471395356
1385570360350808029,0.159121119225,-0.189450454633,-0.114617934883,-0.00206781959698,0.00691872019283,-1.42552688642
1385570360360823353,0.159090975635,-0.189482238384,-0.114617218708,-0.00170800214537,0.00695566354066,-1.42495505961
1385570360370870538,0.159076910651,-0.189390537143,-0.114740612569,-0.00121445022235,0.00738464869626,-1.42505203647
1385570360380883307,0.159099898277,-0.189494610827,-0.11469876964,-0.000951564680136,0.0070286240747,-1.42548366198
1385570360390812037,0.159131329618,-0.189485763009,-0.11462451752,-0.00152306624186,0.00715636746848,-1.42451454016
1385570360400895224,0.15908984166,-0.189441056769,-0.114647212657,-0.00177518756021,0.00671007372169,-1.42505646179
1385570360410979365,0.159120941673,-0.189480244861,-0.114660154281,-0.00196901605758,0.00666467447961,-1.42547552169
1385570360420852095,0.159036701276,-0.189502517401,-0.114544355319,-0.00168003914751,0.00722934525182,-1.42454855789
1385570360430828641,0.159127594866,-0.189439348388,-0.114590984842,-0.00156593715604,0.0068358685767,-1.42515788289
1385570360440876557,0.159130067802,-0.189462940474,-0.114568692172,-0.00145060814045,0.00682585218642,-1.42533911287
1385570360450938934,0.159101612958,-0.189366254628,-0.114690996294,-0.00201006715176,0.00765449296644,-1.42495016441
1385570360460874439,0.159112252732,-0.189456421256,-0.114655320156,-0.00224328485028,0.00668067689457,-1.42531537875
1385570360470904577,0.159071344699,-0.189412084168,-0.114704897,-0.00185153680537,0.00781379361044,-1.42514998593
1385570360480856004,0.15912623641,-0.189440441783,-0.114630246576,-0.00121802076488,0.0067349549999,-1.4248389378
1385570360490810069,0.159037713342,-0.189351894263,-0.114566853021,0.000227139216272,0.00929710971972,-1.42605401497
1385570360500799394,0.159202389853,-0.189400182836,-0.114615725574,-0.000795401423064,0.00973077492275,-1.42526303903
1385570360510869876,0.159195113266,-0.189389377176,-0.114531357378,-0.0010779041839,0.00761099543442,-1.4252823213
1385570360520806987,0.159179849137,-0.189356869064,-0.114541144197,-0.00154463467716,0.00876895580275,-1.42581647065
1385570360530940383,0.159240969352,-0.189387136786,-0.114651599986,-0.00052785968185,0.00842906285712,-1.42508037473
1385570360540907083,0.159165871347,-0.189322683041,-0.114660083266,-0.00108578799422,0.00856535645167,-1.42576805628
1385570360550825167,0.159226125118,-0.189426288126,-0.114541786902,-0.000368868854194,0.00757125723588,-1.42554192936
1385570360560893960,0.159189465814,-0.189318760894,-0.114550451818,-9.23361248473e-05,0.00880447052775,-1.42496731217
1385570360570871134,0.159152169368,-0.189450997555,-0.114512896863,-0.00152229607421,0.00699119140688,-1.42557208822
1385570360580825121,0.159148738323,-0.189411687898,-0.114649460107,-0.00210513240703,0.00695249772563,-1.42509972112
1385570360590816828,0.159130847767,-0.18944240082,-0.114752789964,-0.00240498409848,0.00686802004288,-1.42489486211
1385570360600801839,0.159082437087,-0.189493793495,-0.114656685242,-0.00257041446416,0.00655497076208,-1.42566503085
1385570360610813887,0.15908492758,-0.189325277026,-0.114733954905,-0.0014397083987,0.00783630664343,-1.42511785608
1385570360620811728,0.159052377869,-0.189459684204,-0.114550394131,-0.00153814818949,0.00726003614008,-1.42512037908
1385570360630930238,0.159173295186,-0.189392997047,-0.114498695486,-0.000884521642645,0.00778079092295,-1.42552209192
1385570360640873770,0.159029125738,-0.189489351654,-0.114781208974,-0.00197890768799,0.00672431670645,-1.42500408049
1385570360650869261,0.159175658019,-0.189400716253,-0.114680673904,-0.00116900274282,0.00676260637115,-1.42569290263
1385570360660828467,0.159136343503,-0.189367885582,-0.114650324219,-0.000789197919937,0.0069273702151,-1.42543562283
1385570360670882779,0.159011261701,-0.189448548207,-0.114547125934,-0.00107936934649,0.00691050059727,-1.4250239915
1385570360680880351,0.159121189482,-0.189416520215,-0.114644383658,-0.00184418038475,0.00670292471842,-1.42548861377
1385570360690851602,0.159105862886,-0.189363714973,-0.114716679373,-0.00176943230657,0.00690752611566,-1.42529174619
1385570360700848700,0.159107721949,-0.189445678532,-0.114651317556,-0.00165232544259,0.00729282723055,-1.4252686468
1385570360710897953,0.159111202031,-0.189354688099,-0.114636412489,-0.00128097344208,0.006875593895,-1.42554633472
1385570360720877727,0.159062180951,-0.189423750113,-0.114730610553,-0.00170188002527,0.00802376053616,-1.42545173983
1385570360730808424,0.159064906489,-0.189388364294,-0.114680848069,-0.00157364260749,0.0066188448294,-1.42570819801
1385570360740805551,0.158997885783,-0.18933504004,-0.114682574001,-0.00106415010878,0.0072114028349,-1.42567059189
1385570360750869422,0.159031595296,-0.189334878053,-0.114701646876,-0.000704714181796,0.00694895106563,-1.42587928767
1385570360760903036,0.159113732799,-0.189323285785,-0.114718734804,-0.000631227573927,0.00679330167576,-1.42598083345
1385570360770896968,0.158983818259,-0.189293477021,-0.114709985949,-0.00119819572161,0.00678348004425,-1.42622478303
1385570360780969607,0.158993052042,-0.189282930549,-0.114652793517,-0.00167380609133,0.00698674734827,-1.42630241029
1385570360790939825,0.159077349198,-0.189286580834,-0.114693593408,-0.00110726613179,0.00708374099082,-1.42617654657
1385570360800890031,0.15902361849,-0.189265724668,-0.114633691993,-0.00131104048478,0.00701698178574,-1.42583291087
1385570360810840699,0.158996953033,-0.189197849801,-0.114739587865,-0.000938594077301,0.00747898555623,-1.42641520092
1385570360820850499,0.15910625285,-0.189270447366,-0.11471503356,-0.000703448480721,0.00633125331688,-1.42609633867
1385570360830810861,0.159065768812,-0.189207935311,-0.114649876631,-0.000821300585819,0.00601423888377,-1.42651539637
1385570360840810529,0.158965023376,-0.18920467816,-0.11471151334,-0.000280702264697,0.00783295732541,-1.426843151
1385570360850936958,0.159043647499,-0.189121148063,-0.114661089628,-0.00156103179361,0.00662418062277,-1.42651547696
1385570360860836435,0.159008705435,-0.189170010127,-0.114721424376,-0.0017846870306,0.00614331301793,-1.42700174598
1385570360870858858,0.158982332158,-0.189105776033,-0.1147176719,-0.00190351894247,0.00640580268077,-1.4273280399
1385570360880804109,0.158897119001,-0.189003771061,-0.114578421967,-0.0013465621143,0.00684885312325,-1.4278308188
1385570360890811604,0.158933994612,-0.189046760047,-0.114528646342,-0.000880993391996,0.00663343812265,-1.42774438811
1385570360900887780,0.158950316268,-0.188907570452,-0.114680246596,-0.00079746830801,0.0057508040953,-1.42813859381
1385570360911096312,0.158940510382,-0.18903840984,-0.114768529409,-0.000621609745514,0.00610275595583,-1.42776485777
1385570360920885043,0.158922464841,-0.188797762443,-0.114638612422,-0.000417463066466,0.00645483796976,-1.42888567808
1385570360930820854,0.158978613918,-0.188808558395,-0.114514401272,0.000386740985112,0.00788284892927,-1.42939319303
1385570360940810625,0.158860683716,-0.188707662171,-0.114524218626,-0.000375900610575,0.00741091873732,-1.43046900523
1385570360950892797,0.158808407129,-0.188615104533,-0.114796482369,-0.000220657792733,0.00797694998917,-1.43178692253
1385570360960863249,0.158614943369,-0.188669438102,-0.114721278927,-0.000564725365932,0.00738206748142,-1.43127122892
1385570360970814305,0.158725409242,-0.188589733492,-0.114539698894,6.12111075309e-05,0.00806159251104,-1.43301644992
1385570360980805743,0.158663065199,-0.188548494221,-0.114485359538,-0.000693136321848,0.00828192147597,-1.43277394114
1385570360991040963,0.158506360973,-0.188360850336,-0.114644736445,-0.00160880920723,0.00772714596546,-1.43493749684
1385570361000961666,0.158446661242,-0.188396290248,-0.114667875503,-0.00201756824507,0.00766750964129,-1.43526193057
1385570361010931994,0.158396617337,-0.18828813634,-0.114547641253,-0.00221090922612,0.00888746727356,-1.4360637198
1385570361020848630,0.158377377326,-0.188275007225,-0.114487135325,-0.00179613462242,0.00875306576123,-1.43652097017
1385570361030817703,0.158127539929,-0.188230120836,-0.114496109063,-0.0019517032428,0.00894026997759,-1.436721543
1385570361040891560,0.157972809754,-0.188127756147,-0.114707661876,-0.00157799107178,0.00795930587355,-1.43816508535
1385570361050896134,0.157923022042,-0.187986030853,-0.114738732326,-0.0017223351201,0.00862302317047,-1.43779616995
1385570361060809518,0.15768003684,-0.188055777968,-0.114600942289,-0.00184962994766,0.0073000178024,-1.44000178808
1385570361070775448,0.157598735065,-0.18793155159,-0.114622307511,-0.00271481433058,0.00654183439283,-1.43923446073
1385570361080808538,0.157491689566,-0.187836235725,-0.114668273492,-0.00249759430789,0.0067115695165,-1.44160146892
1385570361090848661,0.157526599198,-0.187671986968,-0.114871928555,-0.00228773760282,0.00681228994928,-1.4413077663
1385570361100849239,0.157389089971,-0.187650865587,-0.114963789892,-0.00235720053513,0.00713944779072,-1.44251865366
1385570361110850073,0.157399058436,-0.187569103464,-0.114687747495,-0.00205564476207,0.00698686025364,-1.44319730647
1385570361120796316,0.157280203072,-0.187435521338,-0.114745596884,-0.00122421581955,0.00662358379438,-1.44395809192
1385570361130805750,0.157313340523,-0.187393420714,-0.114657018404,-0.00169002246173,0.00784991843224,-1.44552219159
1385570361140794341,0.157072236111,-0.18720971481,-0.114621434131,-0.00141177322066,0.00749967654867,-1.44609303875
1385570361151113071,0.157083752365,-0.187096709259,-0.114661470618,-0.00171922748771,0.00846218563065,-1.44640485221
1385570361160908958,0.156725001786,-0.187051789669,-0.114605847498,-0.00279153985026,0.00625656361624,-1.44720025975
1385570361170881562,0.156639646153,-0.186933098957,-0.114589631587,-0.00340259140338,0.00679789689854,-1.44748431486
1385570361180797942,0.156660792891,-0.186739726757,-0.114571226653,-0.00334215337489,0.00698616206703,-1.44806303659
1385570361190922389,0.156722162332,-0.18663677958,-0.114589666476,-0.00240441252282,0.00800419777599,-1.44987244439
1385570361200783122,0.156518340577,-0.186477047469,-0.11458143463,-0.00216382700661,0.0079145448672,-1.4499465373
1385570361210863654,0.156469492539,-0.186229790424,-0.114573245624,-0.00173443016929,0.00736673688797,-1.450880913
1385570361220853809,0.156345862077,-0.186050672085,-0.114642140988,-0.00108739476558,0.00734359560259,-1.45157466326
1385570361230807670,0.156259425197,-0.185905191625,-0.114847570832,-0.000210156340203,0.0076416997169,-1.45318930773
1385570361240900942,0.155959672642,-0.185724251972,-0.114805366758,0.000749949924746,0.00822866408245,-1.45446326304
1385570361250858820,0.155679523771,-0.185490906381,-0.114575043423,-0.000110892050269,0.0072656196443,-1.45614337708
1385570361260782873,0.155476908069,-0.185210311266,-0.11452102817,-0.000653445669326,0.00829802182109,-1.45706504822
1385570361270884711,0.155339915577,-0.185024025543,-0.114729478315,-0.00126750069766,0.00906636498386,-1.45809370592
1385570361280830654,0.155175624364,-0.184759046344,-0.114913053594,-0.0016098688795,0.00823139239118,-1.45913067489
1385570361290813019,0.154933735807,-0.184602344225,-0.114871466156,-0.00247691373653,0.00690601339372,-1.46050007595
1385570361300813161,0.154677731931,-0.184308377707,-0.114481004262,-0.00230741752067,0.00766744419328,-1.46144170288
1385570361310825232,0.154482801355,-0.184073771368,-0.114408462391,-0.00156206569737,0.00799671237025,-1.4628491478
1385570361320915386,0.154419805149,-0.183872449517,-0.114716605293,-0.00100362321303,0.00751071088968,-1.46381935988
1385570361330784472,0.154130070648,-0.183607806496,-0.115033019517,-0.00155283790901,0.00815612172945,-1.46565008522
1385570361340872847,0.153860401618,-0.183382892916,-0.114598214758,-0.00229226954428,0.00827862130169,-1.46626264799
1385570361350815971,0.153491499962,-0.183266623195,-0.114498163175,-0.00345563787944,0.00662543397874,-1.4680975164
1385570361360892944,0.15324660853,-0.182991275655,-0.114723443587,-0.00299124689757,0.00571391211904,-1.46912254788
1385570361370849585,0.152959192072,-0.182660453515,-0.114918690808,-0.002273275176,0.00594155022905,-1.47007791705
1385570361380871951,0.152768778212,-0.182315197381,-0.114915664961,-0.00153114804383,0.00722172600147,-1.47145663888
1385570361390860694,0.152475751019,-0.182020434893,-0.114913540044,-0.00103024944689,0.00997063852537,-1.47271300164
1385570361400803783,0.152191385847,-0.181767223251,-0.115136499954,-0.00148592115938,0.0107184680843,-1.47327194976
1385570361410910019,0.151898793986,-0.181638155715,-0.115086357463,-0.00230325737265,0.00580519938503,-1.47476282558
1385570361420821330,0.151785373442,-0.181312843754,-0.114738923664,-0.00272152217275,0.00571630948372,-1.47598541962
1385570361430841206,0.151261018366,-0.181141414234,-0.114484334599,-0.00477377627176,0.00651922198668,-1.47673822327
1385570361440789659,0.151013897869,-0.180713410229,-0.114657087286,-0.00519199634329,0.00786320416177,-1.47818425901
1385570361450921557,0.150853794613,-0.180438329147,-0.114966492742,-0.00400450861472,0.00957508074267,-1.47999802532
1385570361460866671,0.150447285981,-0.180247706048,-0.114803862791,-0.00529220584095,0.00723364752106,-1.48151123752
1385570361470805814,0.150286321824,-0.179981690348,-0.114678034891,-0.00539503486104,0.00693042395997,-1.48293711096
1385570361480811328,0.15000039395,-0.179684714425,-0.114779260058,-0.00481651576917,0.00603102235554,-1.48394382733
1385570361490810761,0.14988290786,-0.179422339304,-0.114961816051,-0.00312408041734,0.00466486238498,-1.4854617158
1385570361500829550,0.149566278306,-0.179144028406,-0.114773453972,-0.00165417512717,0.00461274718692,-1.48699149043
1385570361510833939,0.149447033017,-0.178710946003,-0.114744398935,-0.00207613078827,0.00782374312259,-1.48820182429
1385570361520858783,0.149079457674,-0.178382122293,-0.114816605849,-0.00127477506949,0.00710825504475,-1.48979084727
1385570361530908754,0.148817681814,-0.178143535345,-0.11474860554,-0.00137448462152,0.00662704399529,-1.49097924071
1385570361540854704,0.148515779898,-0.177846398821,-0.114719115894,-0.00161197645603,0.00838735986637,-1.49209712819
1385570361550852890,0.148135517184,-0.177575221978,-0.114753736129,-0.0024334803135,0.00719429226243,-1.49385247413
1385570361560869364,0.147778037894,-0.17723059052,-0.114982541145,-0.00390370620476,0.00658144178663,-1.49645163128
1385570361571404558,0.147479835812,-0.176990090843,-0.114696966136,-0.00476371580258,0.00613816325937,-1.49650161547
1385570361581124359,0.147246088783,-0.176495478123,-0.114825143424,-0.00433512862923,0.00622070289731,-1.49876860735
1385570361590863264,0.147044101886,-0.176177856381,-0.115059858168,-0.0043873928687,0.00693689742973,-1.49984346453
1385570361600968689,0.146826783652,-0.175692923975,-0.115264704441,-0.00464497372319,0.00628417231945,-1.50181778126
1385570361610878885,0.146576101763,-0.175346795655,-0.115146389689,-0.00382962724752,0.00560555798536,-1.50292457658
1385570361620918551,0.146358371412,-0.174887660735,-0.115166047028,-0.0028830136417,0.00501983352119,-1.50547080225
1385570361630937551,0.14593981265,-0.174553413293,-0.115176619499,-0.0021047309619,0.00464646504058,-1.50714489021
1385570361640859877,0.145542523147,-0.173876189477,-0.115597512841,-0.000277142703496,0.00415985922053,-1.50890115714
1385570361651122587,0.145307174249,-0.173583903284,-0.115605902767,0.00111420649557,0.00213464966961,-1.51110334256
1385570361660905050,0.144937014485,-0.172990545798,-0.115765440204,0.00197214559148,0.00131593545504,-1.51244875849
1385570361670804421,0.144481276052,-0.172503828764,-0.116016319538,0.00286131265535,0.000513654103592,-1.51485444615
1385570361681015917,0.144230880632,-0.171937630001,-0.116492704966,0.00259145619809,-1.72837547962e-05,-1.51632290472
1385570361691107959,0.143726250605,-0.171460102682,-0.116800745755,0.00347902383067,-0.000912203410855,-1.51812568554
1385570361700860978,0.143389089639,-0.170854795465,-0.117047572766,0.00448175662946,-0.0024833478005,-1.52003328804
1385570361710975109,0.143053235677,-0.170252723277,-0.117521311697,0.00592291810787,-0.00243635300938,-1.5211911499
1385570361720813268,0.142604151048,-0.169857319226,-0.117949696215,0.00724527782105,-0.00357888938508,-1.52297890915
1385570361730872046,0.142288069698,-0.16915397614,-0.118654455599,0.00781404887167,-0.00468068293709,-1.52508250028
1385570361740871228,0.142064868401,-0.168586140458,-0.119489406167,0.00863886135312,-0.00649528386366,-1.52697463706
1385570361750869353,0.141603223706,-0.167982009253,-0.120098914451,0.00913281788733,-0.00756298852978,-1.52908004692
1385570361760847291,0.141489859219,-0.167447232901,-0.121180152443,0.0100330321136,-0.00717928904495,-1.53081932688
1385570361770932812,0.141040513073,-0.166935296775,-0.121958080046,0.0107471763473,-0.0101813419047,-1.53241419353
1385570361780936008,0.140812659208,-0.166336511735,-0.123100675354,0.0128366243104,-0.0118751049237,-1.53434902515
1385570361790993313,0.140558617965,-0.165681243593,-0.124227212387,0.0138014522502,-0.0135414079603,-1.53609493459
1385570361800945595,0.140250305965,-0.165363282509,-0.125730077968,0.0148979546177,-0.0152481587968,-1.53760875003
1385570361810862732,0.140161541467,-0.164665930698,-0.127015124589,0.0167225938799,-0.0160819112716,-1.53896043654
1385570361820893810,0.13991587936,-0.163966626377,-0.128600802978,0.0176276309032,-0.0174333456018,-1.54104991279
1385570361830820057,0.139619967374,-0.163464535176,-0.130168234925,0.0177935184999,-0.0181133095381,-1.54264890867
1385570361840839247,0.139647887508,-0.162812867618,-0.132018434875,0.0184513387195,-0.0185991630924,-1.54374634152
1385570361851019254,0.139566657424,-0.162181132477,-0.134030262067,0.0190566346999,-0.0208221164848,-1.54499322229
1385570361860990546,0.139559747176,-0.161530987411,-0.136048498262,0.0189097211208,-0.0206542152948,-1.54590043214
1385570361870932303,0.139469890096,-0.160892535613,-0.138135834376,0.0180011606022,-0.0211825031487,-1.54668899139
1385570361880849771,0.139508641668,-0.160340854068,-0.140433260513,0.0174435294107,-0.0217132016302,-1.54706428777
1385570361890899238,0.139418126972,-0.159707932646,-0.143114107194,0.0171413874782,-0.0223645163374,-1.5474411008
1385570361900919196,0.139592820869,-0.159054833712,-0.145708386331,0.0155997330865,-0.0239283112562,-1.54812870918
1385570361910868588,0.139587478337,-0.158333423539,-0.148615615919,0.0147820854936,-0.0236241170984,-1.54884061369
1385570361920846603,0.139621552687,-0.157787619094,-0.151430414731,0.0136547177417,-0.0262094110013,-1.5495057388
1385570361930840302,0.139956504133,-0.15702963265,-0.154581980151,0.013454491916,-0.0266170042324,-1.55032379501
1385570361941060706,0.139838440533,-0.156576440167,-0.157744842426,0.0133460014299,-0.0291305286796,-1.5502974206
1385570361950888151,0.140021013832,-0.15613171205,-0.161151713993,0.0140309653258,-0.0323484516479,-1.55014359426
1385570361960861183,0.140036861094,-0.155631520563,-0.164366398082,0.0148300619652,-0.0350102707954,-1.55003880304
1385570361970976265,0.140453978809,-0.154995275247,-0.167617793717,0.0162439164421,-0.0357915658972,-1.55009726884
1385570361981048915,0.14085998331,-0.154593846724,-0.171000183905,0.0180489787236,-0.0379140466463,-1.55035385237
1385570361991051686,0.140933500063,-0.154332692807,-0.174684009931,0.0198501467976,-0.0408718674626,-1.55044219366
1385570362001055080,0.141244629101,-0.154043943104,-0.178327093075,0.0215287275216,-0.0436135710288,-1.55086402599
1385570362010854502,0.141705044183,-0.153742274395,-0.182017542959,0.022528198993,-0.0455895257276,-1.5515857867
1385570362020815275,0.141817202357,-0.153572296092,-0.185709859956,0.0227198659354,-0.0470434413905,-1.55221324697
1385570362030910118,0.14219392917,-0.153535954811,-0.189568494046,0.0224769575864,-0.048406034326,-1.55301287317
1385570362040797500,0.142568237574,-0.153336359292,-0.19367692499,0.0247509279243,-0.0492167710151,-1.55355762989
1385570362051189208,0.142986960972,-0.15313312618,-0.197450310819,0.0253815641062,-0.0497459468002,-1.55401577961
1385570362060863330,0.143411236831,-0.153252864381,-0.201310837875,0.0266419805761,-0.0490233629911,-1.55466651226
1385570362070806788,0.143857984747,-0.153298392248,-0.205500201359,0.028747690938,-0.0499351722795,-1.55543990054
1385570362080789004,0.144403710062,-0.153563734196,-0.209584375097,0.0308122797798,-0.0494794125107,-1.55612821108
1385570362090889099,0.144929003442,-0.153729620319,-0.213579207704,0.0332428226287,-0.0489366342494,-1.55665745196
1385570362100799307,0.145438481851,-0.153855714167,-0.21769799853,0.0363651352389,-0.047247668848,-1.55658448771
1385570362110856023,0.146142361882,-0.154239793871,-0.221944511222,0.0381364025118,-0.0463507079576,-1.55756477858
1385570362120850961,0.146602079728,-0.154581174333,-0.226072755302,0.0416579702683,-0.045186261983,-1.55766919239
1385570362130879318,0.147326377195,-0.15495177549,-0.230112069943,0.0432001474206,-0.0425823558781,-1.5580664814
1385570362140804704,0.147930762775,-0.155374330429,-0.234189707071,0.0454753623337,-0.039552697512,-1.55888040183
1385570362150866895,0.148652965662,-0.155747068475,-0.238551040939,0.0475564875672,-0.0390731947459,-1.55925720647
1385570362160923792,0.149280425795,-0.156280510366,-0.242875187813,0.049690055732,-0.0358509334799,-1.55947561591
1385570362170940936,0.150242236956,-0.156841429377,-0.247203525039,0.0506382412907,-0.0339837365112,-1.56074882114
1385570362181068929,0.150870652736,-0.157490110076,-0.251321181613,0.0519829161605,-0.0319067828835,-1.56035616805
1385570362191041745,0.151879332505,-0.158291142277,-0.255830272452,0.0525643202092,-0.0298895498534,-1.56118226632
1385570362200981524,0.152720254826,-0.158870705201,-0.26035737861,0.0543261961136,-0.029309641651,-1.56112072483
1385570362210815790,0.153327142972,-0.159536494884,-0.264571457589,0.0546485295953,-0.0276738979536,-1.56119511545
1385570362220808254,0.154455206101,-0.160287490117,-0.269103482516,0.0542107739124,-0.0245411291373,-1.56179898297
1385570362230828049,0.155270360899,-0.161132208828,-0.273524374993,0.053057158409,-0.0235421091191,-1.56154958464
1385570362240861967,0.156206966001,-0.162008912483,-0.278013862216,0.0515940675225,-0.0228536214514,-1.56197720592
1385570362250956663,0.157342113098,-0.162940791699,-0.282700976148,0.0500249825103,-0.0213538978587,-1.56294073474
1385570362260846005,0.158242908958,-0.163696002554,-0.287170080785,0.0488294701417,-0.0184333460621,-1.56266185965
1385570362270872447,0.159340021556,-0.16455158288,-0.29171563781,0.0472017559448,-0.0175631175749,-1.56256218322
1385570362280913862,0.160418856341,-0.165487402361,-0.296356172956,0.0457587723772,-0.0166400042221,-1.5623907252
1385570362290902299,0.161423008332,-0.16640660389,-0.300952181284,0.0435476666274,-0.0142974916482,-1.56249275296
1385570362300840851,0.162684110962,-0.167484397982,-0.305594694584,0.0420905115235,-0.0127429312072,-1.56245940519
1385570362310779177,0.163739036312,-0.168284288327,-0.310231432022,0.0406388193859,-0.00860622984136,-1.56219032154
1385570362320905030,0.164800207257,-0.169347520597,-0.315246644603,0.0383037730198,-0.00974081047009,-1.56304289544
1385570362330839662,0.166276736343,-0.170073618277,-0.319790031385,0.0368892416531,-0.00678991211987,-1.56300512482
1385570362340884821,0.167193820327,-0.171005468852,-0.324505142272,0.0346841042835,-0.00444217759866,-1.56340180544
1385570362350884895,0.168574694045,-0.172045466084,-0.329250249389,0.0322024656897,-0.0031417553196,-1.56361139885
1385570362360836977,0.169936076725,-0.173038671617,-0.334292630907,0.0301524073926,-0.000608544902533,-1.56330495542
1385570362370899721,0.170947752017,-0.174036810215,-0.339260838069,0.028168360066,-0.000613053187397,-1.56261054898
1385570362381029504,0.172488154941,-0.17502507053,-0.34404057412,0.0274701234539,0.00221273980135,-1.5625638207
1385570362390916412,0.173656709642,-0.176004240042,-0.348990599802,0.0267259906261,0.00322405749766,-1.56270214924
1385570362400910860,0.17514814863,-0.177078723527,-0.354163120395,0.0258039399588,0.00415888078903,-1.56294868424
1385570362410871686,0.176479168386,-0.178101409546,-0.35921518403,0.0251432223811,0.00493621027708,-1.56355817671
1385570362420811497,0.177995966405,-0.179080062784,-0.364346585172,0.0253810941988,0.00501802443611,-1.56365589041
1385570362430888995,0.179351656333,-0.18005108968,-0.369454359859,0.0251418013177,0.00534117555882,-1.56413786903
1385570362440839645,0.180802944937,-0.181042210118,-0.374669083014,0.0241559505022,0.00654083131321,-1.56462651418
1385570362451131022,0.18221847676,-0.182062112151,-0.38000317779,0.0235171379944,0.00587671144906,-1.56444398516
1385570362460829814,0.183433418529,-0.183089079227,-0.385345212068,0.0235204769042,0.00522430182627,-1.5645501727
1385570362470848290,0.184947975231,-0.184123189958,-0.39100943946,0.0233658002409,0.00413707480939,-1.56496534846
1385570362480890183,0.186452336019,-0.185106163585,-0.396546704577,0.0231757150035,0.00387067719199,-1.56494967602
1385570362490888035,0.188060132297,-0.186192020928,-0.402208426122,0.0234147298992,0.00372479175027,-1.56575832178
1385570362500836340,0.189414599175,-0.187179574403,-0.407510319638,0.0244894512406,0.0028797735078,-1.56594119121
1385570362510829903,0.190890437,-0.188132167669,-0.412671338833,0.0248716300717,0.00321144172764,-1.56609814023
1385570362520889084,0.192473739086,-0.189168602955,-0.41774751105,0.0243936001496,0.00297699636641,-1.56657128253
1385570362530991732,0.193775089966,-0.190037518604,-0.422693921245,0.0246309562147,0.00229487604111,-1.56665694062
1385570362540875746,0.19528168793,-0.19106434888,-0.427526443865,0.0240821000505,0.00204227111949,-1.56711350003
1385570362550929998,0.196857352002,-0.191928764468,-0.432082836603,0.0227060677961,0.00133560384499,-1.56739582887
1385570362560883821,0.198117874504,-0.19298410782,-0.436515477675,0.0220721407508,0.00145064668281,-1.56797894836
1385570362571034514,0.199680621344,-0.193886967837,-0.441079815872,0.0219148248974,0.00132151456751,-1.56816605658
1385570362580818661,0.201323721586,-0.1950475488,-0.445463923486,0.0210149759609,0.000898141092025,-1.56866742083
1385570362590834545,0.202737685018,-0.195925693002,-0.449438911581,0.0204401772069,0.00182752997415,-1.56887980189
1385570362600891859,0.20430974892,-0.196813590318,-0.453482779632,0.0204916033639,0.00206587575584,-1.56907352847
1385570362610873563,0.205666517213,-0.197972610848,-0.457412676381,0.0190920119431,0.000564519709863,-1.56968581024
1385570362620827907,0.207225502741,-0.198709169701,-0.46108268376,0.0199644814844,0.00200517016083,-1.56971778929
1385570362630867498,0.20874668607,-0.199822262776,-0.464612404806,0.019632186086,0.00204670071654,-1.57031149794
1385570362640803548,0.210317518293,-0.200592618676,-0.467938492563,0.0195624358869,0.002503712262,-1.57038236299
1385570362650920426,0.211855067268,-0.201603982995,-0.471344991337,0.0193311830818,0.00288820461633,-1.57082076476
1385570362660865662,0.213312380662,-0.202615745036,-0.474410093171,0.0194538091513,0.00291157482293,-1.57092432058
1385570362670853506,0.214895609964,-0.203635924527,-0.477351198481,0.0192539201256,0.00273998419803,-1.5712744205
1385570362680849944,0.216307389849,-0.204640894298,-0.480049871937,0.0189425703294,0.0026963258723,-1.57165580995
1385570362690854880,0.217897749401,-0.205505711479,-0.482846356517,0.0183293406607,0.00414783718487,-1.5721427912
1385570362700850731,0.219351306154,-0.206531493948,-0.485482065372,0.0195690944706,0.00437040237727,-1.57250081028
1385570362710850794,0.220971183101,-0.20739704578,-0.487578342597,0.0197382947086,0.00448317771386,-1.57278931805
1385570362720892462,0.222575969114,-0.208415711815,-0.489904994539,0.0205081006455,0.00414206170206,-1.5726771055
1385570362730844684,0.224076082692,-0.209477780705,-0.491912071552,0.0207284863952,0.00548715101419,-1.57341435002
1385570362740844959,0.225695119768,-0.210398359857,-0.493753241869,0.0212434369637,0.00423332758011,-1.57345093596
1385570362750817467,0.227327376622,-0.211418720926,-0.495550921964,0.0221878291422,0.00456691375607,-1.57392889402
1385570362760892336,0.228857940271,-0.212395773259,-0.497038619548,0.0224815208257,0.00363086879281,-1.57460041762
1385570362770863107,0.230475540843,-0.213486321905,-0.498586344158,0.023811466219,0.00287110846518,-1.57496474128
1385570362780921226,0.232239863985,-0.214394591346,-0.500127489154,0.0240080982891,0.00452007247189,-1.57568118686
1385570362790821706,0.233744182144,-0.215356876842,-0.501181509533,0.0243537397902,0.00221792090614,-1.57575593672
1385570362800976556,0.235315723759,-0.216377061388,-0.502196652979,0.0248335963098,0.0022754948886,-1.57602318923
1385570362810836600,0.237077325544,-0.21733147483,-0.503168620133,0.0251120157658,0.00194270240819,-1.57640796883
1385570362820873865,0.238750059604,-0.218396108316,-0.504182126937,0.0250951264461,0.00296250694397,-1.57726148575
1385570362830903194,0.240357830921,-0.219483869472,-0.504839910888,0.02514907052,0.0014659321543,-1.57763996076
1385570362840809477,0.241933253016,-0.22033465786,-0.505353297876,0.0255597621628,0.000617027094148,-1.57775816692
1385570362851048583,0.243619726215,-0.221519430215,-0.505820705854,0.0249010222791,0.00213084000794,-1.57882926212
1385570362860808139,0.245193410024,-0.222418125325,-0.506357373715,0.0259694018316,0.000673257620801,-1.57858373671
1385570362870828161,0.24681290135,-0.223446193974,-0.506471955043,0.0250690058492,-0.000488817765219,-1.57919759084
1385570362880866392,0.24861026722,-0.224466879882,-0.506681841716,0.0246269927932,-6.96626338153e-05,-1.57922501135
1385570362890854983,0.250321760143,-0.225441008133,-0.506866649533,0.0245616906044,-5.51268522954e-05,-1.57992491413
1385570362900813521,0.251977037125,-0.226541748372,-0.506877396654,0.0241399396223,-0.000917697134542,-1.58006282265
1385570362910839450,0.253806730164,-0.227560427728,-0.506958063876,0.024119951094,-0.000487901168092,-1.5804553708
1385570362920864332,0.255330868617,-0.228540554561,-0.506621436554,0.0243908096708,-0.00163156412659,-1.58032264345
1385570362930880228,0.257208056627,-0.22962330068,-0.506594128623,0.0247867095404,-0.00180096525345,-1.58052978052
1385570362940835605,0.258881320841,-0.23081049524,-0.506356593153,0.0232531715494,-0.00425759333514,-1.58124831646
1385570362950864297,0.260823765746,-0.23158063398,-0.505952715576,0.0241461979463,-0.00150609347173,-1.58177322404
1385570362960841686,0.262547358458,-0.232702634776,-0.5055202916,0.0247862811916,-0.00193074081897,-1.58206327423
1385570362970928577,0.264289666529,-0.233788254183,-0.505043127004,0.0252458553141,-0.00338045539608,-1.58207933907
1385570362980905092,0.266134484139,-0.23493745239,-0.504475306696,0.0247688031097,-0.00361285531904,-1.58262157241
1385570362990882619,0.267827835255,-0.235938084074,-0.50385462449,0.0256834776737,-0.00440906538645,-1.58292794147
1385570363000864090,0.269646258103,-0.237037247208,-0.503058141106,0.0249067196881,-0.00495539149268,-1.58303759416
1385570363010826417,0.271535502054,-0.238123958085,-0.502339931271,0.0244820892604,-0.00367274302693,-1.58369088066
1385570363020882613,0.273296393019,-0.239147946276,-0.501636885699,0.0246906406474,-0.00460377816314,-1.58379744096
1385570363030869977,0.275197238897,-0.24039306447,-0.50075402789,0.0244569084638,-0.00550048125291,-1.58421347336
1385570363040856750,0.277000489959,-0.241454729503,-0.499872060097,0.0244862734998,-0.0062864114835,-1.58399369881
1385570363050951421,0.278855654515,-0.242581570625,-0.49894377363,0.0242579809967,-0.00724825721202,-1.58442907945
1385570363060862749,0.280682486765,-0.243609915284,-0.498122803385,0.0241063693147,-0.00637747918513,-1.58523614989
1385570363070813189,0.282571508706,-0.244891245605,-0.496941417072,0.0231531137013,-0.00801953725302,-1.58524256905
1385570363080798146,0.284496252938,-0.246115002713,-0.495837021011,0.0229182741456,-0.00890842331753,-1.58540668399
1385570363090878781,0.286298375293,-0.247213880117,-0.49476818641,0.0220059049893,-0.00966128103478,-1.58528098913
1385570363100826917,0.288035507631,-0.248436774062,-0.493517539963,0.0209315840776,-0.0101580067808,-1.58582989719
1385570363110825842,0.289871542267,-0.249553608772,-0.492339923863,0.0204753340856,-0.0117155382219,-1.58605919236
1385570363120863198,0.291947652641,-0.250876908815,-0.491018045263,0.0187129296353,-0.0116062763862,-1.58628875232
1385570363130822069,0.293794115505,-0.252014001562,-0.489894623402,0.0185598158123,-0.0122154060726,-1.58642991589
1385570363140877598,0.29580848193,-0.253334611381,-0.488691534521,0.0178222741159,-0.0130515892525,-1.58624294925
1385570363150851884,0.297427534034,-0.254569675475,-0.487052833625,0.0176302339863,-0.0142197462035,-1.58624905494
1385570363160870131,0.299450976379,-0.255816181135,-0.485989435518,0.0177968802411,-0.0147575385224,-1.58655903305
1385570363170876699,0.301414798861,-0.256984623469,-0.484729471979,0.0179530683473,-0.0151521000609,-1.58671811204
1385570363180802540,0.303435531832,-0.258433913705,-0.483278269188,0.0174059760385,-0.0159233810062,-1.58706657418
1385570363190825212,0.305298198553,-0.259864483352,-0.482051203146,0.0168296657976,-0.0166428615413,-1.58734969554
1385570363200841561,0.307078141168,-0.261155449508,-0.480449300871,0.0170317189613,-0.0183149597232,-1.58758429591
1385570363210864796,0.309189804111,-0.262477406245,-0.479300395625,0.017052044937,-0.0177678135754,-1.58802300218
1385570363220810124,0.311091840319,-0.264014766601,-0.477933396123,0.0164461978,-0.0192481267984,-1.5877707211
1385570363230823360,0.31309289033,-0.265295259055,-0.476553335648,0.0162294870089,-0.0187576472182,-1.58753353047
1385570363240793449,0.314956818172,-0.266765819364,-0.475200651012,0.0155324700057,-0.0203385218005,-1.58778034443
1385570363250922978,0.316894190678,-0.268120530125,-0.473873034783,0.0153366073801,-0.0202328524864,-1.58795804802
1385570363260815715,0.318670520316,-0.2695578649,-0.472489555067,0.0143465972281,-0.0195477567413,-1.58821251618
1385570363270792932,0.320772230893,-0.271028486636,-0.471355794246,0.0143162135665,-0.0197208327929,-1.58864386905
1385570363280866993,0.322611784815,-0.272539610848,-0.469929060253,0.0133953393656,-0.021074217519,-1.58850352169
1385570363290810833,0.324663673814,-0.274098328967,-0.468875788537,0.0134494218402,-0.0222244557694,-1.58879458423
1385570363300787231,0.326578254695,-0.275680847305,-0.467551864296,0.0121302961718,-0.0221487233529,-1.58897524706
1385570363310901835,0.328530691401,-0.277074128623,-0.466187343188,0.0129825199065,-0.0207733192731,-1.58945466521
1385570363320810993,0.330428368872,-0.278713985991,-0.464960524865,0.0133292299693,-0.0204125448449,-1.58932335769
1385570363330804676,0.332393777567,-0.28033581063,-0.463621704884,0.0129832331763,-0.0210323195233,-1.58939349432
1385570363340854688,0.334457366573,-0.281941249396,-0.462584973474,0.0131709216003,-0.0194575806656,-1.58981058892
1385570363350858573,0.336486790016,-0.283476984877,-0.461284615888,0.0130846555177,-0.0185959629034,-1.59001256911
1385570363360833193,0.338369469431,-0.285056516573,-0.459918060915,0.0131581756603,-0.0194125233075,-1.58983110197
1385570363370993026,0.340470724848,-0.286789135017,-0.458939916145,0.0134173003025,-0.0173681666891,-1.58982463764
1385570363381008738,0.342292055081,-0.288331011651,-0.457732878121,0.0135793723068,-0.0156813513232,-1.58993294956
1385570363390864643,0.344340961365,-0.289959876991,-0.456539509361,0.0126888970655,-0.0158364585684,-1.5901417484
1385570363400930212,0.34645525675,-0.291758023076,-0.45539423406,0.0123267400469,-0.0156241138748,-1.59058124063
1385570363410919344,0.348198727636,-0.293256688979,-0.454276728566,0.0122607128975,-0.0149863835882,-1.59026885274
1385570363420875947,0.350224286738,-0.295007763924,-0.453387774656,0.0124931923734,-0.0135484682366,-1.59029136096
1385570363430895312,0.352164651046,-0.296842000449,-0.452058192424,0.0117274847337,-0.0135954129395,-1.59032510127
1385570363440892345,0.354300069322,-0.298608772758,-0.451169528282,0.0115572721258,-0.0125621175022,-1.59056400209
1385570363451064627,0.356416692285,-0.300253643686,-0.450112073148,0.0120530614235,-0.011648182839,-1.59101173444
1385570363460872730,0.35830925635,-0.301909006281,-0.449293009366,0.0132128164921,-0.0131982937794,-1.59113353757
1385570363470851253,0.360366074066,-0.303813845324,-0.448200195751,0.013014545411,-0.0119734845227,-1.59097959036
1385570363480829388,0.36231723088,-0.305562179385,-0.447102579716,0.0130144855849,-0.0100835189303,-1.59139550461
1385570363490835233,0.364347544667,-0.307404830437,-0.446427564179,0.0129563149581,-0.0104890649372,-1.59111145263
1385570363500888210,0.366494036606,-0.309101609652,-0.445478181198,0.012862528229,-0.00911588484276,-1.59165379979
1385570363510813049,0.368171364191,-0.310956575293,-0.444802057719,0.0127784608434,-0.0124580496254,-1.59130393977
1385570363520801594,0.370080349728,-0.312799548304,-0.443909132704,0.012035255166,-0.0124645475967,-1.59098236909
1385570363530817634,0.372117819708,-0.314717184724,-0.443167793278,0.0118719590851,-0.0121269427348,-1.59156385472
1385570363540822476,0.374167038084,-0.316525420024,-0.442629930738,0.0114498237633,-0.0130594846668,-1.59139368069
1385570363550888367,0.376196002533,-0.318426047258,-0.441834320464,0.0103556037083,-0.0130916240156,-1.59146004327
1385570363560828282,0.378167035108,-0.320382994275,-0.441282712563,0.00935615795726,-0.0139751292904,-1.59165585284
1385570363570866187,0.380175391022,-0.322282809165,-0.440678261572,0.00893405748564,-0.0145055438801,-1.59153247875
1385570363581086971,0.382199831251,-0.324135497562,-0.440103382591,0.00856718132463,-0.0152192613106,-1.59193119765
1385570363590899362,0.384114345951,-0.325943327666,-0.439553607491,0.00884666264623,-0.0150409314577,-1.59175356256
1385570363600947399,0.386283125145,-0.327971610604,-0.439033662168,0.00852038404418,-0.0170660636937,-1.59174506024
1385570363610974824,0.388252452223,-0.329853285334,-0.438783392848,0.00921904783863,-0.0179656204569,-1.5915385419
1385570363620860846,0.390176396843,-0.331881608467,-0.438276346186,0.00927532763166,-0.0183298328847,-1.59161422572
1385570363630910644,0.392270787699,-0.333664707111,-0.437814849274,0.00839082547896,-0.0192332615339,-1.59193203259
1385570363640870592,0.394102533436,-0.335714524,-0.437445396505,0.00904074526107,-0.0200237299927,-1.59193460706
1385570363651075496,0.396130802547,-0.337701040897,-0.437147665973,0.00812430477896,-0.0199702082246,-1.59175413677
1385570363660809958,0.398123539014,-0.339609773424,-0.436922079689,0.00711990298563,-0.0193010469118,-1.59192229042
1385570363670890019,0.400140219563,-0.341541715631,-0.436891252721,0.00650654595462,-0.019363561674,-1.59179158529
1385570363680917693,0.40212407189,-0.343581796715,-0.436651170748,0.00522753496047,-0.0194681507496,-1.59204479861
1385570363690829041,0.404120609659,-0.345387254693,-0.436570850831,0.00521154585941,-0.0184237650176,-1.59254495436
1385570363700876684,0.406041634129,-0.347555134877,-0.436555895012,0.00522069517292,-0.0177773965338,-1.59183579075
1385570363710945155,0.407998182455,-0.349608737058,-0.436419189018,0.0042265699084,-0.016650165144,-1.59185570466
1385570363720851012,0.41006666848,-0.351454338454,-0.436434520722,0.00465487473497,-0.0145396646069,-1.59150214434
1385570363730834410,0.412127225701,-0.353359382684,-0.436461988461,0.00346517755198,-0.0146198215489,-1.59033342463
1385570363740850291,0.413953431432,-0.355396037687,-0.436576977889,0.00432325253736,-0.0139340070769,-1.59079436366
1385570363750820072,0.41581638398,-0.357440782398,-0.436800336147,0.00448695239978,-0.0111719769736,-1.59176669766
1385570363760830297,0.417842788076,-0.359391904161,-0.436792486847,0.00480601725498,-0.0106615155723,-1.59137283626
1385570363770884823,0.419748855667,-0.361409696579,-0.437076851953,0.00462870351962,-0.0101551185271,-1.59115253687
1385570363780804634,0.421548164614,-0.36351021221,-0.437204575493,0.00364416892768,-0.00963140807447,-1.59107031873
1385570363790873628,0.423378866159,-0.365368344324,-0.437543368855,0.00302594604921,-0.00849770852035,-1.59114049953
1385570363800808662,0.425265915257,-0.367394908443,-0.437739181549,0.00200044491619,-0.00766550823518,-1.59052261246
1385570363810903530,0.426970503471,-0.369494207869,-0.437932022525,0.000420353029885,-0.00632288433875,-1.59119618656
1385570363820848938,0.428946204012,-0.371560646114,-0.43842532913,-0.000782343500336,-0.00495693046049,-1.5915695981
1385570363830872259,0.430786792054,-0.373371285941,-0.438722107629,-0.00143674417942,-0.00437858767732,-1.59126369158
1385570363840926892,0.432438826264,-0.375472122217,-0.439068411608,-0.00242494730603,-0.00237106315309,-1.59117243258
1385570363851051515,0.434234831472,-0.377461191793,-0.439368828616,-0.00346049667542,-0.00320901124022,-1.59070198321
1385570363861131332,0.435972235759,-0.379639172287,-0.439734192969,-0.00463647659369,-0.00127100739028,-1.59104348867
1385570363870850846,0.437780153583,-0.381467302316,-0.440241341938,-0.00496900700974,-0.000690288658596,-1.59134151592
1385570363880876500,0.439430302951,-0.383486596697,-0.44058679385,-0.00518181512899,-0.00115183221744,-1.59082861898
1385570363890858119,0.44116098757,-0.385472668261,-0.44086936794,-0.00572761455634,-0.00112044000326,-1.59019924959
1385570363900880894,0.442877735782,-0.387437504567,-0.441417988118,-0.00556881625132,-0.000105622082874,-1.59023852406
1385570363910868272,0.444517250703,-0.389354855121,-0.442009988053,-0.00538488286824,0.00107641906167,-1.59066160182
1385570363920873162,0.446219775752,-0.39129162233,-0.442506712776,-0.00657070407146,0.000877478925734,-1.58976072777
1385570363930864682,0.447730590676,-0.39339121913,-0.443015749645,-0.00688790348762,0.0018341729671,-1.59026427176
1385570363940803340,0.449307408241,-0.395377293569,-0.443419675809,-0.00792889451361,0.0019051847483,-1.59009879892
1385570363951012615,0.450894102626,-0.397344991884,-0.444139968205,-0.00848983587754,0.00225066514064,-1.59057077771
1385570363960904936,0.452610233151,-0.398997182221,-0.44459188033,-0.00933542779475,0.000849617026519,-1.58945366317
1385570363970818756,0.454178014978,-0.401253874766,-0.445193703484,-0.00983805963808,0.00232681122539,-1.5903709807
1385570363980899232,0.455539705241,-0.403230310535,-0.44572918309,-0.0101342532398,0.00112696015941,-1.589735893
1385570363990841960,0.457083307866,-0.405176575104,-0.44633424599,-0.0107732626077,0.000982899162772,-1.5892978152
1385570364000842521,0.458555794582,-0.407041959522,-0.447027659072,-0.0111577470819,0.000801390182232,-1.58959110253
1385570364010862393,0.460186403582,-0.40915962459,-0.447601913814,-0.01093909271,0.0023509265713,-1.59014199445
