%time,field.header.seq,field.header.stamp,field.header.frame_id,field.child_frame_id,field.transform.translation.x,field.transform.translation.y,field.transform.translation.z,field.transform.rotation.x,field.transform.rotation.y,field.transform.rotation.z,field.transform.rotation.w
1385570354901517193,754634,1385570354901517193,/world,vicon/Archie/Archie,0.159251874617,0.189467746174,0.114607401737,0.00164527694411,-0.00328407489203,0.653756591184,0.756695994042
1385570354911405626,754635,1385570354911405626,/world,vicon/Archie/Archie,0.159196764087,0.189506471914,0.114550305182,0.00146799663629,-0.00333847988398,0.653756039936,0.756696596917
1385570354921436885,754636,1385570354921436885,/world,vicon/Archie/Archie,0.159224785079,0.189408827647,0.114687553662,0.00199751122313,-0.00360230581365,0.653835250343,0.756625732282
1385570354931257174,754637,1385570354931257174,/world,vicon/Archie/Archie,0.159185054737,0.189510942143,0.114547308564,0.00147522716321,-0.00332973307051,0.653753453377,0.756698856071
1385570354941395645,754638,1385570354941395645,/world,vicon/Archie/Archie,0.159266244381,0.189471940532,0.114614940719,0.00168886008086,-0.0033297944674,0.653728129548,0.756720287066
1385570354951477620,754639,1385570354951477620,/world,vicon/Archie/Archie,0.15927951482,0.189475404202,0.114624784195,0.00168504674293,-0.00331587392405,0.653738327577,0.756711546532
1385570354961333624,754640,1385570354961333624,/world,vicon/Archie/Archie,0.159224895399,0.189477467497,0.114604318989,0.00163201078107,-0.0032773277926,0.653764553908,0.756689172459
1385570354971360137,754641,1385570354971360137,/world,vicon/Archie/Archie,0.159268142018,0.18947478209,0.114611287719,0.00165325945568,-0.00331209724595,0.653734368807,0.75671505323
1385570354981390046,754642,1385570354981390046,/world,vicon/Archie/Archie,0.159219745908,0.189500284517,0.114551342114,0.00149295729375,-0.00337969603608,0.653731662972,0.756717425173
1385570354991408754,754643,1385570354991408754,/world,vicon/Archie/Archie,0.159263916728,0.189474136433,0.114609868317,0.00167517699093,-0.003319969927,0.653737932646,0.756711891675
1385570355001450026,754644,1385570355001450026,/world,vicon/Archie/Archie,0.159212115912,0.189402385933,0.11469045414,0.00199566798785,-0.00359898974817,0.653840528935,0.756621191419
1385570355011355040,754645,1385570355011355040,/world,vicon/Archie/Archie,0.159248161057,0.189473144848,0.114603266503,0.00161967674668,-0.00327043775322,0.653765158063,0.756688706793
1385570355021375387,754646,1385570355021375387,/world,vicon/Archie/Archie,0.159148883761,0.189517862939,0.114499561912,0.00151096077357,-0.00318116557316,0.653776473363,0.756679535907
1385570355031333205,754647,1385570355031333205,/world,vicon/Archie/Archie,0.159206504305,0.18940755936,0.114684433654,0.00197059825438,-0.00357365815857,0.653867017989,0.756598485655
1385570355041433418,754648,1385570355041433418,/world,vicon/Archie/Archie,0.159290017312,0.189492045235,0.114662954138,0.00183331016572,-0.00345909894516,0.65373896478,0.7567100102
1385570355051432864,754649,1385570355051432864,/world,vicon/Archie/Archie,0.159201299984,0.189505851423,0.114544134873,0.00144901700157,-0.00335602390501,0.653756305975,0.756696326046
1385570355061344612,754650,1385570355061344612,/world,vicon/Archie/Archie,0.159221934896,0.189515228261,0.114596291311,0.00165221333546,-0.00352855806079,0.653736066914,0.756712610101
1385570355071459652,754651,1385570355071459652,/world,vicon/Archie/Archie,0.159295230626,0.189474087391,0.114625385765,0.0016692380736,-0.00331515190293,0.653728554237,0.756720028007
1385570355081314335,754652,1385570355081314335,/world,vicon/Archie/Archie,0.159270043962,0.18948549274,0.114620206692,0.00166322470139,-0.00331851415272,0.653744331063,0.756706396663
1385570355091423644,754653,1385570355091423644,/world,vicon/Archie/Archie,0.159219179803,0.189503720901,0.114562307552,0.0014855934641,-0.00337754658227,0.653731224344,0.756717828196
1385570355101441171,754654,1385570355101441171,/world,vicon/Archie/Archie,0.159287480583,0.18947808222,0.114632939829,0.0016866874299,-0.00332812421853,0.653735455564,0.756713970277
1385570355111349762,754655,1385570355111349762,/world,vicon/Archie/Archie,0.159275252772,0.189480648541,0.114624192973,0.00168100331721,-0.0033172230559,0.653743245512,0.756707300881
1385570355121272767,754656,1385570355121272767,/world,vicon/Archie/Archie,0.159203349092,0.189396612242,0.114689572175,0.00196085704149,-0.00356252949127,0.653876924579,0.756590001868
1385570355131327615,754657,1385570355131327615,/world,vicon/Archie/Archie,0.15922633351,0.189408259828,0.114697822857,0.00197034743096,-0.00357624007106,0.653844823635,0.75661765433
1385570355141463869,754658,1385570355141463869,/world,vicon/Archie/Archie,0.159229857476,0.189509321773,0.114561356387,0.0014843086936,-0.00336960761768,0.653730421202,0.756718559946
1385570355151502225,754659,1385570355151502225,/world,vicon/Archie/Archie,0.159230850667,0.189502605307,0.114566382733,0.00149352074372,-0.00337287042652,0.653738066225,0.756711922669
1385570355161350641,754660,1385570355161350641,/world,vicon/Archie/Archie,0.159220036638,0.189506520268,0.114554926602,0.00149728853288,-0.00338180870318,0.653728836376,0.756719849078
1385570355171409661,754661,1385570355171409661,/world,vicon/Archie/Archie,0.159278389546,0.18947457452,0.114619707051,0.00166305532035,-0.00331409600478,0.653732534198,0.756716607949
1385570355181272783,754662,1385570355181272783,/world,vicon/Archie/Archie,0.159224022774,0.189419861426,0.114753019915,0.00221801068476,-0.00379077012911,0.653833765252,0.756625480609
1385570355191370033,754663,1385570355191370033,/world,vicon/Archie/Archie,0.15925301468,0.189502851775,0.114621360135,0.00188851678306,-0.00327509220402,0.653768348506,0.756685306959
1385570355201653277,754664,1385570355201653277,/world,vicon/Archie/Archie,0.159192694999,0.189522972988,0.114525702236,0.00156557225585,-0.00321224709493,0.653753272352,0.756699338801
1385570355211377581,754665,1385570355211377581,/world,vicon/Archie/Archie,0.159185143485,0.189444510918,0.114629189988,0.00179937801899,-0.00366085103304,0.653827409149,0.756632724282
1385570355221477667,754666,1385570355221477667,/world,vicon/Archie/Archie,0.159107065977,0.189456809724,0.114573355169,0.00176950842415,-0.00345360042749,0.653865750121,0.756600635939
1385570355231345884,754667,1385570355231345884,/world,vicon/Archie/Archie,0.159295265871,0.189473723504,0.114621417017,0.00168088779378,-0.00330470092243,0.653731477924,0.756717522157
1385570355241412016,754668,1385570355241412016,/world,vicon/Archie/Archie,0.159295637636,0.189476177828,0.114623796753,0.0016812919038,-0.00332687695108,0.653726525442,0.756721702531
1385570355251566229,754669,1385570355251566229,/world,vicon/Archie/Archie,0.15927578386,0.18947806665,0.114622748789,0.00167430083794,-0.00331716264488,0.653738800202,0.756711156426
1385570355261336468,754670,1385570355261336468,/world,vicon/Archie/Archie,0.159273795171,0.189475786027,0.114617444471,0.00168392352273,-0.00331835459362,0.653740989452,0.756709238502
1385570355271443624,754671,1385570355271443624,/world,vicon/Archie/Archie,0.159175688938,0.189446893967,0.1146249689,0.00178935291638,-0.00364631558936,0.653814309717,0.756644137629
1385570355281386129,754672,1385570355281386129,/world,vicon/Archie/Archie,0.159222764599,0.189500681172,0.114549628099,0.00148982624509,-0.00338689716835,0.653730097104,0.756718751906
1385570355291416035,754673,1385570355291416035,/world,vicon/Archie/Archie,0.15915851748,0.189450725217,0.114664686611,0.00196592558845,-0.0038485098727,0.653834738861,0.756625044766
1385570355301576236,754674,1385570355301576236,/world,vicon/Archie/Archie,0.159172385176,0.189440649321,0.114616402992,0.00177511473436,-0.00365294928986,0.653828153917,0.756632176209
1385570355311453202,754675,1385570355311453202,/world,vicon/Archie/Archie,0.159251394032,0.189479698248,0.114608278105,0.00164053161286,-0.00328068838364,0.653764104241,0.756689527974
1385570355321518199,754676,1385570355321518199,/world,vicon/Archie/Archie,0.159285006005,0.189483091886,0.114617556589,0.00167451141965,-0.00330331302924,0.653729526009,0.756719228617
1385570355331383719,754677,1385570355331383719,/world,vicon/Archie/Archie,0.159172881146,0.189440945505,0.114615878464,0.00177202348369,-0.00363806181062,0.653818914691,0.756640238972
1385570355341444799,754678,1385570355341444799,/world,vicon/Archie/Archie,0.159197111739,0.189523994387,0.114510761788,0.00151829424697,-0.0032011193018,0.653756895086,0.756696352406
1385570355351364746,754679,1385570355351364746,/world,vicon/Archie/Archie,0.159181653379,0.189522513967,0.114518392751,0.00155621078125,-0.00320495099009,0.653759657549,0.756693872487
1385570355361457209,754680,1385570355361457209,/world,vicon/Archie/Archie,0.159273933293,0.189481707408,0.114615601526,0.00167095168404,-0.00331498304902,0.653739526608,0.756710545822
1385570355371487846,754681,1385570355371487846,/world,vicon/Archie/Archie,0.159152266745,0.189437953827,0.114600452682,0.00174026457231,-0.00361990512989,0.653843008485,0.75661957946
1385570355381365037,754682,1385570355381365037,/world,vicon/Archie/Archie,0.159216474976,0.18951485987,0.114548845311,0.00149299123079,-0.0033865737606,0.653732374395,0.756716779755
1385570355391463340,754683,1385570355391463340,/world,vicon/Archie/Archie,0.159259799962,0.189470624223,0.114604092794,0.00162143514173,-0.0032725933737,0.653772374101,0.756682459122
1385570355401577482,754684,1385570355401577482,/world,vicon/Archie/Archie,0.159282662795,0.189478103157,0.114616596483,0.00168294311648,-0.00333142832308,0.653725076718,0.756722930377
1385570355411327424,754685,1385570355411327424,/world,vicon/Archie/Archie,0.159104303393,0.189476074123,0.114615952695,0.00198277965835,-0.00365323700589,0.653878078022,0.756588515328
1385570355421503231,754686,1385570355421503231,/world,vicon/Archie/Archie,0.159205018308,0.18952370687,0.114586840161,0.00158818985476,-0.00347017092342,0.653752342793,0.7566989559
1385570355431447490,754687,1385570355431447490,/world,vicon/Archie/Archie,0.159205028989,0.189514135051,0.114589195332,0.00162790820726,-0.00353017244868,0.653734245375,0.756714228901
1385570355441460348,754688,1385570355441460348,/world,vicon/Archie/Archie,0.159218693773,0.189504969489,0.114556248543,0.00149315646494,-0.00338955572438,0.653725398157,0.756722792838
1385570355451428777,754689,1385570355451428777,/world,vicon/Archie/Archie,0.159257181044,0.189499090044,0.114583239277,0.00172541823028,-0.00312490505832,0.65375974704,0.756693763058
1385570355461326225,754690,1385570355461326225,/world,vicon/Archie/Archie,0.159204848771,0.189511553845,0.114547396843,0.00144475257308,-0.00334832142172,0.653752733713,0.756699454603
1385570355471500127,754691,1385570355471500127,/world,vicon/Archie/Archie,0.159199962289,0.18950423892,0.11454473242,0.00145288643383,-0.0033481334851,0.65374753399,0.756703932146
1385570355481395281,754692,1385570355481395281,/world,vicon/Archie/Archie,0.159280040583,0.189473091533,0.114634464306,0.00167694061571,-0.00332100553875,0.653743393196,0.756707165715
1385570355491384140,754693,1385570355491384140,/world,vicon/Archie/Archie,0.159253347172,0.189496976936,0.114594156234,0.00172945119842,-0.00312893380989,0.653754316049,0.756698429376
1385570355501684417,754694,1385570355501684417,/world,vicon/Archie/Archie,0.159281840874,0.189470521003,0.114631499172,0.00168254531234,-0.00332211140724,0.653738290872,0.75671155645
1385570355511301851,754695,1385570355511301851,/world,vicon/Archie/Archie,0.159170388039,0.189523784694,0.114561957229,0.00171360898325,-0.00337216128827,0.653760952317,0.756691687081
1385570355521471857,754696,1385570355521471857,/world,vicon/Archie/Archie,0.159224179477,0.189517272139,0.114604348827,0.00166022375376,-0.00351903495937,0.653732846668,0.756715418924
1385570355531459292,754697,1385570355531459292,/world,vicon/Archie/Archie,0.159235944816,0.18947214382,0.114617674786,0.00164210582735,-0.00327080427632,0.653789761066,0.756667399624
1385570355541483329,754698,1385570355541483329,/world,vicon/Archie/Archie,0.159218996699,0.189519515245,0.114600336135,0.00165212764181,-0.00353127754193,0.653720584588,0.756725972753
1385570355551486966,754699,1385570355551486966,/world,vicon/Archie/Archie,0.159172289181,0.189439804923,0.11462670491,0.001791091714,-0.00365177479562,0.653812479549,0.756645688627
1385570355561471637,754700,1385570355561471637,/world,vicon/Archie/Archie,0.159267442767,0.189478853427,0.114626578258,0.00166990185733,-0.0032992594245,0.65373972284,0.756710447329
1385570355571475485,754701,1385570355571475485,/world,vicon/Archie/Archie,0.159257663278,0.189473303173,0.114617645012,0.00163356121592,-0.00327367105374,0.653772018833,0.75668273533
1385570355581338996,754702,1385570355581338996,/world,vicon/Archie/Archie,0.159271138144,0.189485367845,0.114666368722,0.00185110474561,-0.00345584893143,0.653727301837,0.756720057453
1385570355591940778,754703,1385570355591940778,/world,vicon/Archie/Archie,0.159262874995,0.189485189448,0.114616692981,0.00163460591087,-0.00331768051634,0.653738946276,0.756711114747
1385570355601565019,754704,1385570355601565019,/world,vicon/Archie/Archie,0.159179759202,0.189530093631,0.114559215157,0.00168496122992,-0.00333855983401,0.653756410634,0.756695824277
1385570355611379238,754705,1385570355611379238,/world,vicon/Archie/Archie,0.159267840822,0.18947401789,0.114630676189,0.00168055095464,-0.00331712402775,0.653746300458,0.756704663045
1385570355621548054,754706,1385570355621548054,/world,vicon/Archie/Archie,0.159272013465,0.189476581027,0.114629452553,0.00166796864765,-0.0032993285596,0.653736260105,0.756713442814
1385570355631319282,754707,1385570355631319282,/world,vicon/Archie/Archie,0.159247195025,0.189495383776,0.114586106622,0.00171680773569,-0.00315512182866,0.653761133733,0.756692459192
1385570355641330135,754708,1385570355641330135,/world,vicon/Archie/Archie,0.159219929067,0.189486755168,0.114565153183,0.00167364218602,-0.00309212320603,0.653792537108,0.75666568319
1385570355651460342,754709,1385570355651460342,/world,vicon/Archie/Archie,0.159225882728,0.18950480995,0.114560479223,0.00149915804741,-0.00338360877532,0.65373515135,0.756714381789
1385570355661325226,754710,1385570355661325226,/world,vicon/Archie/Archie,0.159260710145,0.189477869722,0.114614631306,0.00163411084471,-0.0032716523001,0.653760926388,0.756692326577
1385570355671376831,754711,1385570355671376831,/world,vicon/Archie/Archie,0.159266811694,0.189466403873,0.114612387899,0.00162941735975,-0.0032756664558,0.653765141343,0.756688677709
1385570355681363133,754712,1385570355681363133,/world,vicon/Archie/Archie,0.159260022625,0.189486852425,0.114652768119,0.00179935314501,-0.00342125708439,0.653759121662,0.756692849294
1385570355691485952,754713,1385570355691485952,/world,vicon/Archie/Archie,0.159152104482,0.189434233537,0.114615657871,0.00174823491061,-0.00362849042819,0.653849419183,0.756613980023
1385570355701542114,754714,1385570355701542114,/world,vicon/Archie/Archie,0.159289313093,0.189472462797,0.11461503863,0.00167157992926,-0.00330136055691,0.653748571774,0.756702789569
1385570355711392865,754715,1385570355711392865,/world,vicon/Archie/Archie,0.1591821013,0.189427164759,0.114651615283,0.00203866027554,-0.00340963202961,0.65385738034,0.75660739122
1385570355721522497,754716,1385570355721522497,/world,vicon/Archie/Archie,0.159210462223,0.189502950315,0.114545540402,0.00146526841412,-0.00331551959469,0.653755559049,0.756697118622
1385570355731489595,754717,1385570355731489595,/world,vicon/Archie/Archie,0.159268876531,0.189483545452,0.114617350964,0.0016821650841,-0.00333310709414,0.653740925269,0.756709233025
1385570355741416610,754718,1385570355741416610,/world,vicon/Archie/Archie,0.159226449767,0.189509469184,0.114559458435,0.00148290206735,-0.00337147955243,0.653730669413,0.756718339937
1385570355751487732,754719,1385570355751487732,/world,vicon/Archie/Archie,0.159290764809,0.189486116429,0.114661171821,0.00184875107841,-0.00346331149572,0.653723867795,0.756722995731
1385570355761511565,754720,1385570355761511565,/world,vicon/Archie/Archie,0.159248668077,0.189475941765,0.11460212069,0.00163994000424,-0.00327436258071,0.653759527987,0.75669351042
1385570355771707937,754721,1385570355771707937,/world,vicon/Archie/Archie,0.159225341615,0.189506998043,0.114557810665,0.00148156007736,-0.00337631124853,0.653735195535,0.756714410872
1385570355781344336,754722,1385570355781344336,/world,vicon/Archie/Archie,0.159117264824,0.189466891435,0.114578558633,0.00177472264898,-0.0034122338432,0.653868109549,0.756598772358
1385570355791484461,754723,1385570355791484461,/world,vicon/Archie/Archie,0.159288095073,0.189482095288,0.114661166885,0.00184021509889,-0.00348524744173,0.653725249682,0.756721722026
1385570355801624075,754724,1385570355801624075,/world,vicon/Archie/Archie,0.159211357459,0.189508618273,0.114559837054,0.00149010024741,-0.00337088953521,0.653729859411,0.756719028186
1385570355811432307,754725,1385570355811432307,/world,vicon/Archie/Archie,0.15920704767,0.189507428357,0.114548655661,0.00148386447261,-0.00337538273218,0.653737847514,0.756712119412
1385570355821454144,754726,1385570355821454144,/world,vicon/Archie/Archie,0.159171929317,0.189448614827,0.114621522781,0.00178975716408,-0.00365106291973,0.653826727517,0.756633383411
1385570355831309800,754727,1385570355831309800,/world,vicon/Archie/Archie,0.159229431983,0.189508354976,0.114552807375,0.00148471984081,-0.00339573451404,0.65372284686,0.756724985769
1385570355841360392,754728,1385570355841360392,/world,vicon/Archie/Archie,0.159185920832,0.18952555779,0.114525456726,0.00155248235464,-0.00320508920474,0.653756162626,0.756696899049
1385570355851528720,754729,1385570355851528720,/world,vicon/Archie/Archie,0.159224128867,0.189409568987,0.114691927716,0.00197124882159,-0.00359390504747,0.653835912569,0.756625268848
1385570355861492561,754730,1385570355861492561,/world,vicon/Archie/Archie,0.159213305919,0.189505818551,0.114554442177,0.00148752154359,-0.00336179109063,0.653734476167,0.756715085294
1385570355871505730,754731,1385570355871505730,/world,vicon/Archie/Archie,0.159160312599,0.189434411838,0.11461923115,0.00180831843869,-0.00367888190131,0.653823832476,0.756635706202
1385570355881318285,754732,1385570355881318285,/world,vicon/Archie/Archie,0.159207467484,0.189400543866,0.114684615005,0.00199719734122,-0.00359672965986,0.653847614108,0.756615075361
1385570355891453047,754733,1385570355891453047,/world,vicon/Archie/Archie,0.159214702829,0.189500554229,0.114556565855,0.00147364772489,-0.00335810928251,0.653742296332,0.75670837279
1385570355901519453,754734,1385570355901519453,/world,vicon/Archie/Archie,0.159120226574,0.189457555817,0.114583024245,0.0018403997792,-0.00348185887036,0.653849271431,0.756614578128
1385570355911381567,754735,1385570355911381567,/world,vicon/Archie/Archie,0.159206813148,0.189503985917,0.11456227608,0.00150888740602,-0.00338268677958,0.65373778838,0.756712088401
1385570355921435938,754736,1385570355921435938,/world,vicon/Archie/Archie,0.159193615816,0.189536519591,0.1145665634,0.0017049247484,-0.00334477039109,0.653753513473,0.756698255162
1385570355931427384,754737,1385570355931427384,/world,vicon/Archie/Archie,0.159218747029,0.189505727525,0.114565277423,0.00150375959064,-0.00336715340902,0.653729693313,0.756719161291
1385570355941527663,754738,1385570355941527663,/world,vicon/Archie/Archie,0.159213120496,0.189511429737,0.11456499874,0.00150886370102,-0.0033856904718,0.653734989697,0.756714492842
1385570355951464347,754739,1385570355951464347,/world,vicon/Archie/Archie,0.159134120383,0.189456855446,0.114671417389,0.00196045311445,-0.00382665715058,0.65384631917,0.756615162567
1385570355961359519,754740,1385570355961359519,/world,vicon/Archie/Archie,0.159213905245,0.189510593692,0.114559054105,0.00150949548203,-0.00339625246781,0.65373389316,0.756715391562
1385570355971460396,754741,1385570355971460396,/world,vicon/Archie/Archie,0.159231072378,0.189490071362,0.11458372596,0.00174875075842,-0.00315907459688,0.653762586686,0.756691114239
1385570355981416695,754742,1385570355981416695,/world,vicon/Archie/Archie,0.159161758475,0.189450631681,0.114671573733,0.00198965801508,-0.00383351774001,0.653819839027,0.756637934218
1385570355991441958,754743,1385570355991441958,/world,vicon/Archie/Archie,0.159169069928,0.189445285256,0.114624517837,0.00179771561587,-0.00364762574352,0.653818066636,0.75664086513
1385570356001512170,754744,1385570356001512170,/world,vicon/Archie/Archie,0.159284657948,0.189467569442,0.114624613491,0.0016931040422,-0.00331770318495,0.653739458991,0.756710543076
1385570356011491577,754745,1385570356011491577,/world,vicon/Archie/Archie,0.159196060809,0.189528051356,0.114556171326,0.0017008951976,-0.00333464270659,0.653743590795,0.756706881566
1385570356021489469,754746,1385570356021489469,/world,vicon/Archie/Archie,0.159262094065,0.189477790059,0.11462195763,0.00169311705161,-0.00333030251508,0.653736017945,0.756713460487
1385570356031370559,754747,1385570356031370559,/world,vicon/Archie/Archie,0.159219472032,0.189509592232,0.114563317485,0.00150730806821,-0.00338130645724,0.653735708962,0.756713894162
1385570356041905251,754748,1385570356041905251,/world,vicon/Archie/Archie,0.159142482955,0.189438944779,0.114610871673,0.00176738630027,-0.00361296939975,0.653849594037,0.756613858699
1385570356051530601,754749,1385570356051530601,/world,vicon/Archie/Archie,0.159167808258,0.189444625468,0.114619347099,0.00179580571515,-0.00366319676357,0.653818340561,0.756640557741
1385570356061319327,754750,1385570356061319327,/world,vicon/Archie/Archie,0.159204725087,0.189424576669,0.114741373055,0.00220189730219,-0.00380501661714,0.653841788839,0.75661852255
1385570356071436906,754751,1385570356071436906,/world,vicon/Archie/Archie,0.159288205421,0.189487000272,0.11461936158,0.00166551080394,-0.00330518407829,0.653738383759,0.756711588013
1385570356081482133,754752,1385570356081482133,/world,vicon/Archie/Archie,0.159172029102,0.189440448976,0.114615430516,0.00178591953918,-0.003662068204,0.653808999143,0.756648658485
1385570356091520197,754753,1385570356091520197,/world,vicon/Archie/Archie,0.159278290917,0.18948018993,0.114611044183,0.00166633376802,-0.00332370202412,0.653723074624,0.756724730692
1385570356101480148,754754,1385570356101480148,/world,vicon/Archie/Archie,0.159209360792,0.189408989841,0.114688932505,0.00199980640588,-0.00359345588377,0.653836803606,0.756624426053
1385570356111383003,754755,1385570356111383003,/world,vicon/Archie/Archie,0.159180081213,0.189508263084,0.114544595928,0.00145330691976,-0.00334401937208,0.653758893619,0.756694135333
1385570356121448764,754756,1385570356121448764,/world,vicon/Archie/Archie,0.159196903785,0.189401042398,0.114681021254,0.00195627818938,-0.00357078697727,0.653858466117,0.756605926981
1385570356131355041,754757,1385570356131355041,/world,vicon/Archie/Archie,0.15920632608,0.189505904517,0.114551558917,0.00150933429882,-0.00337402345368,0.653733070683,0.756716201869
1385570356141457356,754758,1385570356141457356,/world,vicon/Archie/Archie,0.159137894741,0.189434550729,0.1146081192,0.00176062737787,-0.00363899919532,0.653842398599,0.756619967798
1385570356151562635,754759,1385570356151562635,/world,vicon/Archie/Archie,0.15920272786,0.189504006474,0.114559377809,0.00151181246464,-0.0033913970686,0.653742572366,0.756707910574
1385570356161325408,754760,1385570356161325408,/world,vicon/Archie/Archie,0.159191676442,0.189515988325,0.114591893757,0.00165060362565,-0.00354079000272,0.653725273224,0.756721881184
1385570356171506995,754761,1385570356171506995,/world,vicon/Archie/Archie,0.159196942123,0.189407002261,0.114683138479,0.00199695765785,-0.00360884306491,0.653842995231,0.756619009806
1385570356181367531,754762,1385570356181367531,/world,vicon/Archie/Archie,0.159202712599,0.189513446948,0.114596806632,0.00166322122853,-0.00355301075153,0.653744327381,0.756705335138
1385570356191511506,754763,1385570356191511506,/world,vicon/Archie/Archie,0.159167906297,0.189414533394,0.114735754519,0.00219559009107,-0.00379711678149,0.653878979169,0.756586440461
1385570356201679918,754764,1385570356201679918,/world,vicon/Archie/Archie,0.159200690261,0.189508417556,0.114555699228,0.00150284005206,-0.0033993674783,0.65372116299,0.756726388354
1385570356211353849,754765,1385570356211353849,/world,vicon/Archie/Archie,0.15920119162,0.189508026458,0.114562726586,0.00148294495214,-0.0033748365386,0.653741513975,0.756708956111
1385570356221542223,754766,1385570356221542223,/world,vicon/Archie/Archie,0.159227811349,0.18950284126,0.114561570356,0.00150112378041,-0.00339910176458,0.65373529454,0.756714184753
1385570356231400747,754767,1385570356231400747,/world,vicon/Archie/Archie,0.159220146528,0.189509618006,0.114568987895,0.0014962808723,-0.00337718426138,0.653736399221,0.75671333813
1385570356241435450,754768,1385570356241435450,/world,vicon/Archie/Archie,0.159174552558,0.189523272375,0.114526675488,0.00154750571053,-0.00320371381003,0.653764711195,0.756689529358
1385570356251776795,754769,1385570356251776795,/world,vicon/Archie/Archie,0.15915675636,0.189531000846,0.114514125722,0.00148230327683,-0.00316026724314,0.653775589934,0.756680443447
1385570356261376772,754770,1385570356261376772,/world,vicon/Archie/Archie,0.159175362911,0.189518641792,0.11452723712,0.0015462454232,-0.0032148410625,0.653762483775,0.756691409182
1385570356271274531,754771,1385570356271274531,/world,vicon/Archie/Archie,0.159169622371,0.189523435968,0.114526918325,0.00152596801002,-0.00318831233679,0.653766691189,0.756687927469
1385570356281360950,754772,1385570356281360950,/world,vicon/Archie/Archie,0.159215387496,0.189496844281,0.1145633938,0.0014794085209,-0.00337986036833,0.653729236783,0.756719547038
1385570356291447990,754773,1385570356291447990,/world,vicon/Archie/Archie,0.159285308518,0.189476009221,0.114638577182,0.00165952240442,-0.00328645552905,0.653729089975,0.756719711727
1385570356301409706,754774,1385570356301409706,/world,vicon/Archie/Archie,0.159224185859,0.189502293129,0.114568583146,0.0014800095625,-0.00336561689497,0.653743776777,0.756707048018
1385570356311440681,754775,1385570356311440681,/world,vicon/Archie/Archie,0.159183048335,0.189535004546,0.114567096383,0.0016981361646,-0.0033541115205,0.653760564173,0.756692137532
1385570356321476154,754776,1385570356321476154,/world,vicon/Archie/Archie,0.159225233828,0.189500771965,0.114562687072,0.0014913169506,-0.0033831721901,0.653733725743,0.756715630832
1385570356331328384,754777,1385570356331328384,/world,vicon/Archie/Archie,0.159232355367,0.189500341063,0.114564219716,0.00148321162515,-0.00337506081329,0.653742789696,0.756707852456
1385570356341376112,754778,1385570356341376112,/world,vicon/Archie/Archie,0.159225974417,0.189499151545,0.114566088864,0.00148048129818,-0.00336781793517,0.65373616577,0.756713612631
1385570356351524145,754779,1385570356351524145,/world,vicon/Archie/Archie,0.159225988842,0.189507291832,0.114569621161,0.00149218481415,-0.00336467147406,0.653734302566,0.756715213286
1385570356361349375,754780,1385570356361349375,/world,vicon/Archie/Archie,0.159229249887,0.189505998912,0.114573747864,0.00149787663257,-0.00338133753303,0.653732968604,0.756716280175
1385570356371531561,754781,1385570356371531561,/world,vicon/Archie/Archie,0.159264213973,0.189470169333,0.114621723766,0.00163028389979,-0.00325516422923,0.653773256368,0.75668175301
1385570356381330473,754782,1385570356381330473,/world,vicon/Archie/Archie,0.15921968946,0.189509628347,0.11460833051,0.00164090398823,-0.00351619419024,0.653729990172,0.756717942011
1385570356391438669,754783,1385570356391438669,/world,vicon/Archie/Archie,0.159183850492,0.189521793677,0.11452281986,0.00153989313922,-0.00322349242062,0.653754251262,0.756698497938
1385570356401485816,754784,1385570356401485816,/world,vicon/Archie/Archie,0.159223097052,0.189494909667,0.114568605822,0.00149771019006,-0.00338234710173,0.653752337825,0.756699542342
1385570356411369796,754785,1385570356411369796,/world,vicon/Archie/Archie,0.159219747152,0.189501454684,0.114560695106,0.00149561123308,-0.00336959681384,0.653737247197,0.756712640698
1385570356421461910,754786,1385570356421461910,/world,vicon/Archie/Archie,0.159208822177,0.18950334924,0.114553528742,0.00145742501989,-0.00333069696196,0.653764877047,0.756689016644
1385570356431224318,754787,1385570356431224318,/world,vicon/Archie/Archie,0.15922139213,0.189494521223,0.11455796986,0.00148857962045,-0.00338151450626,0.653739583333,0.756710583165
1385570356441400166,754788,1385570356441400166,/world,vicon/Archie/Archie,0.159147213844,0.18944289891,0.11466956498,0.00195777652772,-0.0038142169886,0.653861246236,0.756602332491
1385570356451607639,754789,1385570356451607639,/world,vicon/Archie/Archie,0.159251358037,0.189458956425,0.114612384197,0.00162778565601,-0.00327489988774,0.653772726083,0.756682131396
1385570356461361837,754790,1385570356461361837,/world,vicon/Archie/Archie,0.159225399091,0.189511508621,0.114602944393,0.00166120292181,-0.00351956020614,0.653726418871,0.756720967313
1385570356471398485,754791,1385570356471398485,/world,vicon/Archie/Archie,0.159227812205,0.189506374207,0.11459772187,0.00165004752967,-0.00352737113259,0.653724700462,0.75672243987
1385570356481411781,754792,1385570356481411781,/world,vicon/Archie/Archie,0.159167430145,0.189432007846,0.114618439017,0.00178062343575,-0.00364685153913,0.653825771467,0.756634251418
1385570356491530567,754793,1385570356491530567,/world,vicon/Archie/Archie,0.159258449303,0.18946251518,0.114619928007,0.00162506050684,-0.00327361590263,0.653758272855,0.756694630145
1385570356501573489,754794,1385570356501573489,/world,vicon/Archie/Archie,0.159204914087,0.189500041596,0.114552087617,0.0014696096214,-0.00334552401059,0.653767074523,0.756687029086
1385570356511365743,754795,1385570356511365743,/world,vicon/Archie/Archie,0.159228417202,0.189491848642,0.114558147686,0.00150557045611,-0.00338612099998,0.653743764279,0.756706916916
1385570356521440780,754796,1385570356521440780,/world,vicon/Archie/Archie,0.159223490785,0.189399257734,0.114688751905,0.00198116721632,-0.00360613968073,0.65385658662,0.756607318803
1385570356531392848,754797,1385570356531392848,/world,vicon/Archie/Archie,0.159218966261,0.189491913049,0.114557269746,0.00148986013039,-0.0033874506377,0.653740897465,0.756709418784
1385570356541628464,754798,1385570356541628464,/world,vicon/Archie/Archie,0.159213460309,0.189496388265,0.11455761465,0.00150307606216,-0.00338770288513,0.653741655685,0.756708736473
1385570356551408792,754799,1385570356551408792,/world,vicon/Archie/Archie,0.159226294672,0.189412685103,0.11474437931,0.0022117356476,-0.003768401443,0.653849928493,0.756611643041
1385570356561356021,754800,1385570356561356021,/world,vicon/Archie/Archie,0.159217054081,0.189487948588,0.114547369277,0.00148917137948,-0.0033806867388,0.653733981122,0.756715425541
1385570356571457156,754801,1385570356571457156,/world,vicon/Archie/Archie,0.1592160558,0.189501199829,0.11454651959,0.00148919538128,-0.0033839375047,0.653734481355,0.756714978808
1385570356581476521,754802,1385570356581476521,/world,vicon/Archie/Archie,0.159213619669,0.189498775053,0.114549234444,0.00150932443077,-0.00337288591392,0.653748833307,0.756702589218
1385570356591453398,754803,1385570356591453398,/world,vicon/Archie/Archie,0.159231309861,0.189399902698,0.114693924414,0.00199292420433,-0.00360392905956,0.653849664136,0.756613280783
1385570356601514815,754804,1385570356601514815,/world,vicon/Archie/Archie,0.159236871847,0.189498964185,0.114612043567,0.00187341303131,-0.00331348417629,0.653764377674,0.756688608101
1385570356611377274,754805,1385570356611377274,/world,vicon/Archie/Archie,0.159234997727,0.189497451483,0.114549854019,0.00149454505864,-0.00338376716679,0.653725527496,0.756722704268
1385570356621437620,754806,1385570356621437620,/world,vicon/Archie/Archie,0.159202777919,0.189497163925,0.114545748519,0.00146503926455,-0.00335946746506,0.653770659083,0.756683879147
1385570356631422513,754807,1385570356631422513,/world,vicon/Archie/Archie,0.159142618595,0.189460529152,0.114584924478,0.00183124567484,-0.00348797271876,0.653834731845,0.756627136719
1385570356641424884,754808,1385570356641424884,/world,vicon/Archie/Archie,0.159269036629,0.189476026028,0.114612366201,0.00165968640318,-0.00329977646745,0.653735708293,0.75671393579
1385570356651493944,754809,1385570356651493944,/world,vicon/Archie/Archie,0.159226373798,0.189503209318,0.114553835539,0.00150221975364,-0.00337282801535,0.653726226061,0.756722134424
1385570356661211084,754810,1385570356661211084,/world,vicon/Archie/Archie,0.159185023712,0.189523187412,0.114519079748,0.00156095950966,-0.00323187957273,0.653758594037,0.756694667011
1385570356671452790,754811,1385570356671452790,/world,vicon/Archie/Archie,0.159129778356,0.189466168114,0.114590256211,0.00183178389591,-0.00346355628607,0.653843472764,0.75661969408
1385570356681440863,754812,1385570356681440863,/world,vicon/Archie/Archie,0.159189187504,0.189509904696,0.114552153913,0.00146966156695,-0.00333337666904,0.653756095547,0.756696568136
1385570356691596051,754813,1385570356691596051,/world,vicon/Archie/Archie,0.159233235303,0.189415300828,0.11469736625,0.00198402473091,-0.00358669159722,0.653815932787,0.756642534704
1385570356702101498,754814,1385570356702101498,/world,vicon/Archie/Archie,0.159277995212,0.189481236813,0.114627669678,0.0016823282359,-0.0032940937738,0.653729072069,0.756719643626
1385570356711390177,754815,1385570356711390177,/world,vicon/Archie/Archie,0.159207511829,0.189512425775,0.114560761622,0.00150694264722,-0.0033857485574,0.653725659777,0.756722556542
1385570356721450399,754816,1385570356721450399,/world,vicon/Archie/Archie,0.159272584501,0.189474535003,0.114631261108,0.00168387105149,-0.00331483272904,0.653736652693,0.756713000674
1385570356731302520,754817,1385570356731302520,/world,vicon/Archie/Archie,0.15926229461,0.189483101198,0.11461363679,0.00162969151175,-0.00326289094078,0.65376847102,0.756685855523
1385570356741461004,754818,1385570356741461004,/world,vicon/Archie/Archie,0.159242175694,0.189512097897,0.1146370772,0.00189247536541,-0.00327316671643,0.653752500013,0.756698998045
1385570356751446557,754819,1385570356751446557,/world,vicon/Archie/Archie,0.159201004169,0.189524586654,0.114595759287,0.00164903663061,-0.00352488471414,0.653712051969,0.756733380377
1385570356761332989,754820,1385570356761332989,/world,vicon/Archie/Archie,0.159242370085,0.189504448258,0.114585612812,0.00173135013699,-0.00313664621733,0.653758477623,0.756694797665
1385570356771574418,754821,1385570356771574418,/world,vicon/Archie/Archie,0.15921397377,0.189412511702,0.114704053814,0.00197474854022,-0.00358515035198,0.653844004613,0.75661830846
1385570356781345599,754822,1385570356781345599,/world,vicon/Archie/Archie,0.159178089536,0.18952713248,0.114591459827,0.00162529635782,-0.00349186461283,0.653755547209,0.756696008835
1385570356791506706,754823,1385570356791506706,/world,vicon/Archie/Archie,0.159177162137,0.18952501397,0.114527617165,0.00156525905628,-0.00321780894569,0.653749501359,0.756702573765
1385570356801777025,754824,1385570356801777025,/world,vicon/Archie/Archie,0.159157465366,0.189448501894,0.114626651615,0.00180300068648,-0.00365500684352,0.653825211638,0.756634642836
1385570356811471876,754825,1385570356811471876,/world,vicon/Archie/Archie,0.159219874495,0.189509672208,0.114570180649,0.00150206462598,-0.00336641593079,0.653713863288,0.756732843209
1385570356821561801,754826,1385570356821561801,/world,vicon/Archie/Archie,0.159207277618,0.18941761719,0.114692877093,0.00201129331971,-0.00361576740159,0.653825906314,0.756633706067
1385570356831419605,754827,1385570356831419605,/world,vicon/Archie/Archie,0.159235531699,0.189477283666,0.114611433879,0.0016391276153,-0.0032931458555,0.653758972959,0.756693910196
1385570356841547920,754828,1385570356841547920,/world,vicon/Archie/Archie,0.159198475031,0.189517059918,0.114560846867,0.00151634178553,-0.0033894326132,0.653722135415,0.756725565924
1385570356851533480,754829,1385570356851533480,/world,vicon/Archie/Archie,0.15918407338,0.189518003056,0.114590988811,0.00162122459937,-0.00347921866799,0.653745823607,0.75670447652
1385570356861423154,754830,1385570356861423154,/world,vicon/Archie/Archie,0.159187091171,0.189505352759,0.114555611457,0.00152072014695,-0.00339933995237,0.653725475831,0.756722626956
1385570356871493970,754831,1385570356871493970,/world,vicon/Archie/Archie,0.15916236975,0.189531803303,0.114518444436,0.00155042528361,-0.00321121058563,0.653764516754,0.756689659597
1385570356881431331,754832,1385570356881431331,/world,vicon/Archie/Archie,0.159204484081,0.1895133057,0.11455992965,0.00151891804377,-0.00339051480474,0.653737764282,0.756712054119
1385570356891490746,754833,1385570356891490746,/world,vicon/Archie/Archie,0.15923095241,0.189489087043,0.114610149768,0.00163460041421,-0.00328496963479,0.653747830963,0.756703581707
1385570356901621058,754834,1385570356901621058,/world,vicon/Archie/Archie,0.159217600906,0.189508212821,0.114567115271,0.00151208830208,-0.00337646683684,0.653718710428,0.756728591172
1385570356911384690,754835,1385570356911384690,/world,vicon/Archie/Archie,0.159174920738,0.189515542792,0.114546748549,0.00147551365613,-0.00335391466914,0.653757647881,0.756695124837
1385570356921504400,754836,1385570356921504400,/world,vicon/Archie/Archie,0.159196153951,0.18950609678,0.114559380855,0.0015078599011,-0.0033832028127,0.653735803669,0.756713802767
1385570356931396490,754837,1385570356931396490,/world,vicon/Archie/Archie,0.159153223363,0.189446484865,0.114625537653,0.00179281914396,-0.0036422977524,0.65381982002,0.756639387302
1385570356941470659,754838,1385570356941470659,/world,vicon/Archie/Archie,0.159223349506,0.189506236448,0.114623502068,0.00189238891713,-0.00328200503727,0.653748900341,0.756702069912
1385570356951508427,754839,1385570356951508427,/world,vicon/Archie/Archie,0.159201508912,0.189505970114,0.114555502766,0.00149632787589,-0.00337233695876,0.653728474376,0.756720205979
1385570356961489638,754840,1385570356961489638,/world,vicon/Archie/Archie,0.159214127959,0.189509443632,0.114559112537,0.00150232235821,-0.0033853911136,0.653726987681,0.756721420162
1385570356971525594,754841,1385570356971525594,/world,vicon/Archie/Archie,0.159207573991,0.189503773299,0.114553965903,0.0014996665379,-0.00339187293774,0.653719898139,0.756727520958
1385570356981336769,754842,1385570356981336769,/world,vicon/Archie/Archie,0.15927421839,0.18949635762,0.114670631387,0.00187535216072,-0.00346454828082,0.653731402768,0.756716415175
1385570356991475474,754843,1385570356991475474,/world,vicon/Archie/Archie,0.159114245147,0.189472349962,0.114626492039,0.00202236742659,-0.00366728384389,0.653844995013,0.756616933168
1385570357001581034,754844,1385570357001581034,/world,vicon/Archie/Archie,0.159265180548,0.18949316477,0.114611222413,0.00168346516689,-0.00336237141444,0.65370973551,0.756736045199
1385570357011444037,754845,1385570357011444037,/world,vicon/Archie/Archie,0.159194180965,0.189507839657,0.114561928911,0.00152339493942,-0.00338771118165,0.65372762819,0.756720814318
1385570357021530383,754846,1385570357021530383,/world,vicon/Archie/Archie,0.159209567862,0.189503646884,0.114559307299,0.0015134856267,-0.00338890471739,0.65371927935,0.756728041301
1385570357031377728,754847,1385570357031377728,/world,vicon/Archie/Archie,0.159232893699,0.189480075847,0.114613832334,0.00164176041543,-0.00327385602826,0.653763712584,0.756689893284
1385570357041510453,754848,1385570357041510453,/world,vicon/Archie/Archie,0.159149976715,0.189446559752,0.114622181696,0.00180295698874,-0.0036680886337,0.653814992673,0.756643409955
1385570357051559942,754849,1385570357051559942,/world,vicon/Archie/Archie,0.159220397457,0.189506715491,0.114560040125,0.00149763784009,-0.00338929834043,0.653726328692,0.756721981254
1385570357061383935,754850,1385570357061383935,/world,vicon/Archie/Archie,0.159208716455,0.189509171265,0.114558893243,0.00149592293487,-0.00336663270771,0.653722335511,0.756725535484
1385570357071401616,754851,1385570357071401616,/world,vicon/Archie/Archie,0.159201522822,0.189504119705,0.114554954196,0.00150163698338,-0.00337988426969,0.653725989853,0.756722308155
1385570357081312975,754852,1385570357081312975,/world,vicon/Archie/Archie,0.1591927708,0.189401724627,0.114689788833,0.00197662615293,-0.00357761887239,0.653862744751,0.756602144208
1385570357091531726,754853,1385570357091531726,/world,vicon/Archie/Archie,0.159230789954,0.18950115583,0.114541695506,0.00152850411197,-0.00330609080922,0.653729684434,0.75671938863
1385570357101518500,754854,1385570357101518500,/world,vicon/Archie/Archie,0.159218725053,0.189507202397,0.114565015004,0.00150153007177,-0.00337372382301,0.653734172019,0.756715267277
1385570357111470357,754855,1385570357111470357,/world,vicon/Archie/Archie,0.159175198754,0.189416614854,0.114655206854,0.00204575961787,-0.00343042072156,0.653869810012,0.756596536231
1385570357121498630,754856,1385570357121498630,/world,vicon/Archie/Archie,0.159132302674,0.189442020384,0.114623735685,0.00176823012632,-0.00361851538197,0.653849593439,0.756613830741
1385570357131330841,754857,1385570357131330841,/world,vicon/Archie/Archie,0.159280467891,0.189481927341,0.114627743327,0.00167937745177,-0.00330645028488,0.653733374056,0.756715879788
1385570357141397616,754858,1385570357141397616,/world,vicon/Archie/Archie,0.15921816467,0.18950244532,0.114560878295,0.0015136971393,-0.00337738765042,0.653724228846,0.756723816589
1385570357151476893,754859,1385570357151476893,/world,vicon/Archie/Archie,0.159216397093,0.189514480234,0.114605946351,0.00164773326809,-0.0035083091136,0.653715093902,0.756730832428
1385570357161301702,754860,1385570357161301702,/world,vicon/Archie/Archie,0.159214551112,0.189517958966,0.114593206947,0.00164560783015,-0.00352154012236,0.653724314912,0.756722809768
1385570357171501510,754861,1385570357171501510,/world,vicon/Archie/Archie,0.159265251657,0.189472772442,0.114619414961,0.00168115502516,-0.00330580235173,0.653736549049,0.756713135757
1385570357181384529,754862,1385570357181384529,/world,vicon/Archie/Archie,0.159187531132,0.189519928609,0.114526158865,0.00156810515056,-0.00322207037747,0.653752821256,0.756699681517
1385570357191421143,754863,1385570357191421143,/world,vicon/Archie/Archie,0.159263618189,0.189471597037,0.114619523831,0.00169666938061,-0.00332268776605,0.653732012654,0.756716946216
1385570357201463492,754864,1385570357201463492,/world,vicon/Archie/Archie,0.159264991073,0.18947047891,0.114620179648,0.00167575709794,-0.00330794369166,0.653736878166,0.756712854042
1385570357211395725,754865,1385570357211395725,/world,vicon/Archie/Archie,0.159169438115,0.189518725324,0.114522985586,0.00155276635427,-0.00320555036872,0.653756153708,0.756696904217
1385570357221503139,754866,1385570357221503139,/world,vicon/Archie/Archie,0.159211360888,0.189498037226,0.114558708394,0.00151527428781,-0.00339657881415,0.653739665778,0.756710391487
1385570357231400741,754867,1385570357231400741,/world,vicon/Archie/Archie,0.159223170648,0.189504076165,0.114560496358,0.00149343804002,-0.00337871000106,0.653733644194,0.756715717036
1385570357241448728,754868,1385570357241448728,/world,vicon/Archie/Archie,0.159228815287,0.189487808912,0.114583481742,0.00173583719921,-0.00315775635324,0.653771508839,0.756683440861
1385570357251510541,754869,1385570357251510541,/world,vicon/Archie/Archie,0.159183085277,0.189506699655,0.11451871586,0.00154773612211,-0.00319947753379,0.65376069791,0.75669301419
1385570357261429144,754870,1385570357261429144,/world,vicon/Archie/Archie,0.159285133301,0.189467519565,0.114629206234,0.00167784029251,-0.00330843621703,0.653731920909,0.756717129902
1385570357271505241,754871,1385570357271505241,/world,vicon/Archie/Archie,0.15920445191,0.189493900935,0.1145580545,0.00149799475251,-0.00337867982172,0.653734531006,0.756714942039
1385570357281329343,754872,1385570357281329343,/world,vicon/Archie/Archie,0.159191525825,0.189501807529,0.114545566734,0.00145703500574,-0.00333638787491,0.653766880331,0.75668726152
1385570357291497269,754873,1385570357291497269,/world,vicon/Archie/Archie,0.159232366547,0.189402442404,0.114698559037,0.00199540116313,-0.00357727856153,0.653829311783,0.756630988333
1385570357301706261,754874,1385570357301706261,/world,vicon/Archie/Archie,0.159268182418,0.189468336556,0.114619949696,0.00167952940416,-0.00332221822386,0.653737277617,0.756712438051
1385570357311343992,754875,1385570357311343992,/world,vicon/Archie/Archie,0.159232785677,0.189398654655,0.114699780295,0.00200481710358,-0.00359493917319,0.653830630701,0.756629740017
1385570357321555344,754876,1385570357321555344,/world,vicon/Archie/Archie,0.159170237415,0.189442874635,0.114624961419,0.00179984528966,-0.00366835310821,0.653826297201,0.756633647699
1385570357331398473,754877,1385570357331398473,/world,vicon/Archie/Archie,0.159221872293,0.189501219119,0.114561578279,0.00149965495136,-0.00338334728569,0.653737332777,0.756712497406
1385570357341505655,754878,1385570357341505655,/world,vicon/Archie/Archie,0.15923267909,0.189484841682,0.114585499032,0.00172622242574,-0.00315236376426,0.65376861279,0.756685987507
1385570357351631380,754879,1385570357351631380,/world,vicon/Archie/Archie,0.159171409793,0.189518696335,0.114520945369,0.00156158154327,-0.00320233667907,0.653761040935,0.756692677286
1385570357361427017,754880,1385570357361427017,/world,vicon/Archie/Archie,0.159260427076,0.189467209312,0.114625820274,0.00168292971515,-0.00331618501311,0.653750388203,0.756701130294
1385570357371458687,754881,1385570357371458687,/world,vicon/Archie/Archie,0.159198290999,0.189491169844,0.114611236063,0.00184034484454,-0.00325396248866,0.653784314625,0.756671721957
1385570357381382618,754882,1385570357381382618,/world,vicon/Archie/Archie,0.159275935404,0.189475064455,0.114611062254,0.00167689208728,-0.00336311453441,0.653717628774,0.756729237788
1385570357391505860,754883,1385570357391505860,/world,vicon/Archie/Archie,0.1591288781,0.18943540435,0.114607651248,0.00175600865429,-0.00365056404927,0.653838783231,0.756623047071
1385570357401549690,754884,1385570357401549690,/world,vicon/Archie/Archie,0.159281927942,0.189470662439,0.114627353514,0.001696569994,-0.00333046573808,0.653735456672,0.756713936926
1385570357411413100,754885,1385570357411413100,/world,vicon/Archie/Archie,0.159199395976,0.189501705689,0.114545127724,0.00145753499675,-0.00334476078825,0.653748609136,0.756703009257
1385570357421491887,754886,1385570357421491887,/world,vicon/Archie/Archie,0.159244594026,0.189491456168,0.114570074331,0.00172687016705,-0.00317913850178,0.65375062307,0.756701416566
1385570357431554623,754887,1385570357431554623,/world,vicon/Archie/Archie,0.159268067713,0.189373540418,0.11451781919,0.00240411480909,-0.00388204289694,0.653917655145,0.75655194816
1385570357441472121,754888,1385570357441472121,/world,vicon/Archie/Archie,0.159365234063,0.189408522039,0.114517652445,0.0022895744149,-0.00348582173014,0.65383285212,0.756627522884
1385570357451452709,754889,1385570357451452709,/world,vicon/Archie/Archie,0.159409830963,0.189416400121,0.114566988072,0.00246854028976,-0.0036548245709,0.653796451923,0.756657616111
1385570357461479157,754890,1385570357461479157,/world,vicon/Archie/Archie,0.159364382318,0.18941543145,0.114559967895,0.00246229019304,-0.00366703729756,0.653820311023,0.75663696107
1385570357471522928,754891,1385570357471522928,/world,vicon/Archie/Archie,0.159194966385,0.189509217794,0.114553563183,0.00150559493163,-0.00338942056774,0.653724466628,0.756723573535
1385570357481386683,754892,1385570357481386683,/world,vicon/Archie/Archie,0.15916164471,0.189439201118,0.114614917757,0.00178197671719,-0.003663826808,0.653801438018,0.756655192659
1385570357491661320,754893,1385570357491661320,/world,vicon/Archie/Archie,0.159218650125,0.189507922767,0.114561070978,0.00147736525263,-0.00337932980809,0.653726452664,0.756721958588
1385570357501591391,754894,1385570357501591391,/world,vicon/Archie/Archie,0.159217019502,0.189499867535,0.114555160823,0.00151931830502,-0.00339203931357,0.653728691952,0.756719884144
1385570357511425321,754895,1385570357511425321,/world,vicon/Archie/Archie,0.159239082668,0.189472126649,0.114600400822,0.00163410077168,-0.00330734275713,0.653768232241,0.756685859331
1385570357521601920,754896,1385570357521601920,/world,vicon/Archie/Archie,0.159265661916,0.189474238636,0.114615971426,0.0016736224526,-0.00331369779229,0.653740253116,0.756709917901
1385570357531366243,754897,1385570357531366243,/world,vicon/Archie/Archie,0.159210173763,0.189509788762,0.114557254559,0.00149283131273,-0.00337933415455,0.653723437953,0.756724532592
1385570357541334587,754898,1385570357541334587,/world,vicon/Archie/Archie,0.159225874271,0.189492358088,0.114578908322,0.00173381703658,-0.00313088178801,0.653764882222,0.756689282487
1385570357552082595,754899,1385570357552082595,/world,vicon/Archie/Archie,0.159208568668,0.189514539241,0.114554786762,0.00159185577513,-0.00339498637068,0.653746661177,0.756704197863
1385570357561400760,754900,1385570357561400760,/world,vicon/Archie/Archie,0.159237785909,0.189392238307,0.11471457257,0.0019992739113,-0.00360378525586,0.653836507234,0.756624634442
1385570357571515171,754901,1385570357571515171,/world,vicon/Archie/Archie,0.159230454267,0.189511012905,0.114555276174,0.00148394848754,-0.0033668751267,0.653733988593,0.756715490926
1385570357581488479,754902,1385570357581488479,/world,vicon/Archie/Archie,0.159265060352,0.189473236349,0.114615655898,0.00165786801267,-0.00329482270031,0.653758586417,0.756694196028
1385570357591475272,754903,1385570357591475272,/world,vicon/Archie/Archie,0.159265491416,0.189484402134,0.114654400464,0.0017994364862,-0.00341730798133,0.653755762077,0.756695769504
1385570357601523569,754904,1385570357601523569,/world,vicon/Archie/Archie,0.159139965393,0.189523269488,0.114510292936,0.00149250398564,-0.00315704877759,0.653782389698,0.756674561747
1385570357611393088,754905,1385570357611393088,/world,vicon/Archie/Archie,0.159224638042,0.189410529384,0.114687257983,0.00199219636117,-0.00360932078429,0.653824167071,0.756635290289
1385570357621547938,754906,1385570357621547938,/world,vicon/Archie/Archie,0.159258831749,0.189478070839,0.114613571151,0.00166437795636,-0.00331423450137,0.65374255175,0.756707950089
1385570357631330709,754907,1385570357631330709,/world,vicon/Archie/Archie,0.159287075861,0.189498546096,0.114665065366,0.00184172341208,-0.00346240004739,0.653723950948,0.756722945203
1385570357641439767,754908,1385570357641439767,/world,vicon/Archie/Archie,0.159226084905,0.189491132773,0.114580463078,0.00173922372772,-0.00315926138077,0.653759320164,0.756693957599
1385570357651599950,754909,1385570357651599950,/world,vicon/Archie/Archie,0.159213621032,0.189512689411,0.114556703168,0.00151660364973,-0.00341764623886,0.653739442046,0.756710487255
1385570357661361307,754910,1385570357661361307,/world,vicon/Archie/Archie,0.159206969705,0.189515847151,0.114586747835,0.00163467747935,-0.00353423483768,0.653729885969,0.756717961466
1385570357671448648,754911,1385570357671448648,/world,vicon/Archie/Archie,0.159274066694,0.189491396659,0.114656376976,0.00183082801483,-0.00345005832689,0.653727681117,0.756719805547
1385570357681623233,754912,1385570357681623233,/world,vicon/Archie/Archie,0.159183151767,0.18951610672,0.114580696167,0.00161322208146,-0.00348874665416,0.653760334823,0.756691912719
1385570357691506940,754913,1385570357691506940,/world,vicon/Archie/Archie,0.15916870852,0.189450507126,0.114629814338,0.00179001037933,-0.00366088678147,0.65382197475,0.75663744231
1385570357701649112,754914,1385570357701649112,/world,vicon/Archie/Archie,0.159211133362,0.18950554619,0.11455711288,0.0014856836828,-0.00337499817048,0.653717263294,0.756729900164
1385570357711408750,754915,1385570357711408750,/world,vicon/Archie/Archie,0.159228458706,0.189524574002,0.114596034862,0.0016415863791,-0.0035034993318,0.653722502269,0.756724468161
1385570357721573896,754916,1385570357721573896,/world,vicon/Archie/Archie,0.15920016362,0.189509310997,0.114548487706,0.00143153090142,-0.0033296906209,0.653746285984,0.756705132427
1385570357731308263,754917,1385570357731308263,/world,vicon/Archie/Archie,0.159179823246,0.189527690448,0.114520484728,0.0015418581264,-0.00322421673971,0.653759537885,0.756693923409
1385570357741548674,754918,1385570357741548674,/world,vicon/Archie/Archie,0.159274633988,0.18947997496,0.114624434633,0.00166433469949,-0.00329638283535,0.653731064526,0.756717952162
1385570357751545044,754919,1385570357751545044,/world,vicon/Archie/Archie,0.159200580871,0.189526504874,0.114601588274,0.00165124641794,-0.00352054866982,0.653733750259,0.756714650905
1385570357761412256,754920,1385570357761412256,/world,vicon/Archie/Archie,0.159287741351,0.189496476412,0.114621735776,0.00168644818302,-0.00329936936066,0.653737889054,0.7567119944
1385570357771598036,754921,1385570357771598036,/world,vicon/Archie/Archie,0.159200560561,0.189413170224,0.11468355883,0.00196017154779,-0.00358512340598,0.653862733639,0.756602161096
1385570357781430180,754922,1385570357781430180,/world,vicon/Archie/Archie,0.15921703507,0.189506985262,0.114589731293,0.00150322062056,-0.00337972190541,0.653744852569,0.756706009984
1385570357791475507,754923,1385570357791475507,/world,vicon/Archie/Archie,0.159213916415,0.189510415491,0.114561858796,0.00148787384206,-0.00337864075708,0.653733918867,0.756715491014
1385570357801410041,754924,1385570357801410041,/world,vicon/Archie/Archie,0.15919185708,0.189525575339,0.114519396263,0.00153879336516,-0.00320694397961,0.653752784116,0.756699838038
1385570357811494391,754925,1385570357811494391,/world,vicon/Archie/Archie,0.159167666395,0.189442514467,0.11462370494,0.00178001632774,-0.00365343540607,0.653824497133,0.756635322266
1385570357821540989,754926,1385570357821540989,/world,vicon/Archie/Archie,0.15920846271,0.189505769156,0.114552644525,0.00150568551282,-0.00338332474292,0.653732531974,0.756716633003
1385570357831306332,754927,1385570357831306332,/world,vicon/Archie/Archie,0.159177085069,0.189520451916,0.114515375624,0.00154376464589,-0.00320415891807,0.653762095914,0.756691794658
1385570357841521353,754928,1385570357841521353,/world,vicon/Archie/Archie,0.159226969574,0.189421370216,0.114746099587,0.00220268550079,-0.00377703548491,0.653827897048,0.756630665002
1385570357851588147,754929,1385570357851588147,/world,vicon/Archie/Archie,0.159224311205,0.189507501393,0.114557369648,0.00148991450623,-0.00337047543981,0.653716563956,0.756730516141
1385570357861330670,754930,1385570357861330670,/world,vicon/Archie/Archie,0.15922136865,0.189516684809,0.114597253432,0.00165153575292,-0.00352171846264,0.653727230402,0.756720277354
1385570357871605961,754931,1385570357871605961,/world,vicon/Archie/Archie,0.159261451352,0.189471300127,0.114622385608,0.00167249404731,-0.00331453366645,0.65374870038,0.756702618855
1385570357881390843,754932,1385570357881390843,/world,vicon/Archie/Archie,0.159262761302,0.189475543385,0.114616588596,0.00166858175441,-0.0032987026655,0.653734439838,0.756715016744
1385570357891509610,754933,1385570357891509610,/world,vicon/Archie/Archie,0.159209182067,0.189515735648,0.114597170397,0.00166399749635,-0.00354102774795,0.653737663108,0.756711147049
1385570357901519193,754934,1385570357901519193,/world,vicon/Archie/Archie,0.159244768158,0.189485533904,0.114652082076,0.00180219719413,-0.00345541432647,0.653764663453,0.756687899346
1385570357911921615,754935,1385570357911921615,/world,vicon/Archie/Archie,0.159205503251,0.189410925852,0.114689043873,0.00197038296869,-0.00357927459438,0.653860321238,0.756604247077
1385570357921448014,754936,1385570357921448014,/world,vicon/Archie/Archie,0.159174497936,0.189523965984,0.11452008288,0.00154724075952,-0.00321499730218,0.653763265615,0.756690730993
1385570357931428211,754937,1385570357931428211,/world,vicon/Archie/Archie,0.159206559137,0.189515321376,0.114553827882,0.00149538446912,-0.00338548954163,0.653725336495,0.75672285991
1385570357941490179,754938,1385570357941490179,/world,vicon/Archie/Archie,0.159207610121,0.189508820532,0.114561977595,0.00149797056706,-0.00337958491278,0.653730442162,0.756718470424
1385570357951468285,754939,1385570357951468285,/world,vicon/Archie/Archie,0.159267334118,0.189483560148,0.114624836462,0.00169109785136,-0.00330554551385,0.653736227912,0.756713392158
1385570357961372280,754940,1385570357961372280,/world,vicon/Archie/Archie,0.15917501919,0.189506377532,0.11454470648,0.00145215455362,-0.00334830447548,0.653765454808,0.756688449894
1385570357971454693,754941,1385570357971454693,/world,vicon/Archie/Archie,0.159235662958,0.189500042694,0.114587726913,0.00173936363448,-0.00314659423835,0.653760626721,0.756692881233
1385570357981518194,754942,1385570357981518194,/world,vicon/Archie/Archie,0.159235084703,0.189491430266,0.114653525191,0.00181531585401,-0.00344449094333,0.653774138418,0.756679731489
1385570357991514790,754943,1385570357991514790,/world,vicon/Archie/Archie,0.159259892437,0.189467336514,0.114624786947,0.0016769923682,-0.00331321841359,0.653737996289,0.756711862262
1385570358001592259,754944,1385570358001592259,/world,vicon/Archie/Archie,0.159120647918,0.189473811144,0.114634604318,0.0020267961661,-0.00366814783812,0.653846173323,0.756615898868
1385570358011408681,754945,1385570358011408681,/world,vicon/Archie/Archie,0.159163245114,0.18943990284,0.114622286545,0.00178420248288,-0.00366174856419,0.653810104143,0.756647709267
1385570358021518407,754946,1385570358021518407,/world,vicon/Archie/Archie,0.159202196709,0.189496582998,0.114557724361,0.00151032990239,-0.00337757109459,0.65373262118,0.756716572385
1385570358031363548,754947,1385570358031363548,/world,vicon/Archie/Archie,0.15926505813,0.18947874794,0.114660585452,0.00183386862911,-0.0034775871937,0.653732559261,0.756715457933
1385570358041495683,754948,1385570358041495683,/world,vicon/Archie/Archie,0.159218436484,0.189504400481,0.11456171061,0.00151401943506,-0.00340233073418,0.653716576486,0.75673031492
1385570358051539292,754949,1385570358051539292,/world,vicon/Archie/Archie,0.159200805206,0.189495924268,0.11455559451,0.00147791344409,-0.00339035080076,0.653737188604,0.756712633388
1385570358061384945,754950,1385570358061384945,/world,vicon/Archie/Archie,0.159189358052,0.189492016666,0.114554563473,0.00146151620465,-0.00332718081855,0.653770760068,0.756683941364
1385570358071452533,754951,1385570358071452533,/world,vicon/Archie/Archie,0.159237848214,0.189473006646,0.114611999557,0.00164767573314,-0.00328612792446,0.653762083826,0.756691234441
1385570358081468741,754952,1385570358081468741,/world,vicon/Archie/Archie,0.159152055578,0.189436298008,0.114621610218,0.00179265796305,-0.00365545721253,0.653822501024,0.756637007531
1385570358091549435,754953,1385570358091549435,/world,vicon/Archie/Archie,0.159242112208,0.189473865553,0.11459549303,0.00126621930423,-0.00331708817138,0.653715493419,0.756732084214
1385570358101492277,754954,1385570358101492277,/world,vicon/Archie/Archie,0.159217198763,0.189482547127,0.114580476382,0.00172591929218,-0.00314535247925,0.653772456153,0.756682696733
1385570358111418414,754955,1385570358111418414,/world,vicon/Archie/Archie,0.159174896931,0.189433192254,0.114622285426,0.00181057592193,-0.00365590230209,0.653829575135,0.756630849802
1385570358121512036,754956,1385570358121512036,/world,vicon/Archie/Archie,0.159210276485,0.189489285616,0.114556186393,0.0014980754568,-0.00338423868023,0.653747742794,0.756703503025
1385570358131372656,754957,1385570358131372656,/world,vicon/Archie/Archie,0.159270515014,0.189471309152,0.114626995725,0.00168082377486,-0.00331490707475,0.653740448758,0.756709727623
1385570358141496903,754958,1385570358141496903,/world,vicon/Archie/Archie,0.159252816968,0.189457770005,0.114613716169,0.00164297116223,-0.00326399139302,0.653771062943,0.756683582658
