%time,field.linear.x,field.linear.y,field.linear.z,field.angular.x,field.angular.y,field.angular.z
1385571162649703861,-0.0,0.0,0.0,1.0,0.0,0.0
1385571163139544902,-0.0,0.0,9.53419168044e-08,1.0,0.0,0.283690762114
1385571163639444545,0.475369464617,0.179602444867,-0.00462282195331,1.0,0.0,0.0821904253184
1385571164139605955,0.125715173369,0.0472828069841,0.0184313172198,1.0,0.0,0.0108885775345
1385571164639402112,-0.151246867373,-0.057813466684,0.0414002645654,1.0,0.0,0.00861422004324
1385571165139401506,-0.0744269217358,-0.0292128237357,0.0673363552039,1.0,0.0,0.0133701812464
1385571165639455969,0.12567221965,0.0405359681211,0.0927572289399,1.0,0.0,0.0134594546034
1385571166139338735,0.181320679312,0.0059325014394,0.109470028818,1.0,0.0,-0.00405336452267
1385571166639414658,0.0437379917341,-0.00386685809757,0.122469422015,1.0,0.0,-0.00802728869695
1385571167139468869,-0.0977833202335,0.00347763894474,0.100714389621,1.0,0.0,-0.00263444577715
1385571167639455717,-0.142450547696,0.0278477583469,0.117239883989,1.0,0.0,0.00988123369414
1385571168139649717,-0.088623182047,0.0608563175303,0.140678313581,1.0,0.0,0.0237443162221
1385571168639369888,-0.00707317244624,0.0735833938185,0.136283790961,1.0,0.0,0.0303902578347
1385571169139429730,0.0346580799771,0.068497961963,0.128901449779,1.0,0.0,0.0305747497141
1385571169639392693,0.0169088238808,0.0479305534752,0.119707087542,1.0,0.0,0.0297830894576
1385571170139395796,-0.0356017388976,0.024121428481,0.106624415577,1.0,0.0,0.0300951709627
1385571170639422569,-0.0766491384043,0.0155862310091,0.0882232577653,1.0,0.0,0.0309256605186
1385571171139421513,-0.0790327801143,0.0254617329939,0.0726237187995,1.0,0.0,0.031415202544
1385571171639375149,-0.0509004873595,0.0429435547818,0.0629504076921,1.0,0.0,0.0300093112718
1385571172139490313,-0.0228913118703,0.0474152602153,0.0525970620685,1.0,0.0,0.0269189739185
1385571172639379506,-0.0173452519481,0.0298595083842,0.0419871606864,1.0,0.0,0.0236537724566
1385571173139427525,-0.0345534426272,0.00605017422447,0.0354989586696,1.0,0.0,0.0206976602951
1385571173639348877,-0.055867154958,-0.00457319479679,0.0317055142258,1.0,0.0,0.0178428990839
1385571174139442389,-0.0603566880628,0.00403244462994,0.0282009190514,1.0,0.0,0.0138234003022
1385571174639472264,-0.0502731587626,0.0172330071804,0.0281710030663,1.0,0.0,0.00942872181361
1385571175139525360,-0.0332307307294,0.0204809909916,0.0269269270128,1.0,0.0,0.00536449608434
1385571175639417024,-0.0207456894184,0.0107385745845,0.0232235612121,1.0,0.0,0.00246006248466
1385571176139446361,-0.0204187864715,-0.00709458488846,0.0188815874424,1.0,0.0,0.00134824155132
1385571176639690085,-0.0285178255767,-0.0190824227704,0.0137438779079,1.0,0.0,0.00173292214531
1385571177139435318,-0.037268422718,-0.0190336837224,0.0111372459308,1.0,0.0,0.00344170461501
1385571177639434025,-0.0379813097387,-0.00546204915361,0.00974482017621,1.0,0.0,0.00539328844778
1385571178139346780,-0.0336539938044,0.00929660223058,0.00885126869286,1.0,0.0,0.00780358974368
1385571178639478480,-0.0277246919235,0.014532642642,0.00815234446396,1.0,0.0,0.0107162591902
1385571179139371033,-0.0267584344382,0.008411495168,0.00715445090003,1.0,0.0,0.0142892050242
1385571179639398655,-0.0316609917194,-0.00484167978598,0.00855880425919,1.0,0.0,0.0168760531454
1385571180139439452,-0.0343508318155,-0.0119343830119,0.0101705125311,1.0,0.0,0.0173271910991
1385571180639457765,-0.0337414652912,-0.00521308284716,0.0119601742115,1.0,0.0,0.0163145225436
1385571181139437703,-0.0287145855181,0.00761947934723,0.0111568328951,1.0,0.0,0.0144289707555
1385571181639436022,-0.0221943339395,0.0149202935821,0.00899853074924,1.0,0.0,0.012601768079
1385571182139573473,-0.016318034615,0.0107617186564,0.00819359362931,1.0,0.0,0.010907807654
1385571182639391093,-0.0160656553651,-0.000844007636152,0.00626426368447,1.0,0.0,0.0110493897494
1385571183139351254,-0.0191976614016,-0.0060008543337,0.00598760663639,1.0,0.0,0.0119689497795
1385571183639382072,-0.0195769922898,-0.00169582923417,0.00488144669572,1.0,0.0,0.0130166508542
1385571184139503733,-0.0183418150739,0.00854566741828,0.00430792254531,1.0,0.0,0.0150981602099
1385571184639387789,-0.0129952927902,0.0175555264206,0.00142592032894,1.0,0.0,0.0186522301457
1385571185139357305,-0.00996097458108,0.0203952553501,-0.002018389939,1.0,0.0,0.0235376444487
1385571185639436504,-0.00781049088983,0.0160672256033,-0.00535974895176,1.0,0.0,0.0295273739976
1385571186139384136,-0.00305970441686,0.00765524978965,-0.00811056141852,1.0,0.0,0.0359774765244
1385571186639510808,-0.000702331416829,0.000617759397827,-0.00901286034112,1.0,0.0,0.043158838385
1385571187139479981,-0.00168802885336,-0.00443387913623,-0.0096064512369,1.0,0.0,0.0498152509052
1385571187639357841,-0.00607525719722,-0.00411861249768,-0.0103342200377,1.0,0.0,0.0549695300025
1385571188139365421,-0.0126192442266,0.00331064913686,-0.00879175621657,1.0,0.0,0.0588668295396
1385571188639371297,-0.0173881193345,0.0143977843639,-0.0028986536702,1.0,0.0,0.0623152900239
1385571189139345781,-0.0116365183781,0.0237203070889,0.00199134487553,1.0,0.0,0.0659685916271
1385571189639396886,9.99090997045e-05,0.0227889571353,0.00320581578854,1.0,0.0,0.0708060726267
1385571190139427618,0.00681991473067,0.0166263178305,0.00216293743359,1.0,0.0,0.0764934527915
1385571190639448130,0.00246788523326,0.00868656431586,0.000307603569752,1.0,0.0,0.0822823537729
1385571191139382975,-0.00988150710796,0.00196204101846,-0.00172460235813,1.0,0.0,0.087445814299
1385571191639392835,-0.020478788032,0.00769057954597,-0.000264674081917,1.0,0.0,0.0913580146263
1385571192139396302,-0.0177224071922,0.0242418304448,0.00220985055449,1.0,0.0,0.0950051664821
1385571192639477057,-0.0050762680894,0.0391812524384,0.00425064621051,1.0,0.0,0.0992496020806
1385571193139493979,0.00703737548576,0.0370968693365,0.00523574980191,1.0,0.0,0.104089573206
1385571193639382911,0.00980184589869,0.0164497440491,0.00337802931503,1.0,0.0,0.108183427723
1385571194139486268,-0.00118287655613,-0.00996563906353,-0.000585160447924,1.0,0.0,0.111727081328
1385571194639425300,-0.0234757775963,-0.0179783993502,-0.00251224196676,1.0,0.0,0.113510331263
1385571195139396275,-0.0379995833234,0.00756531461419,-0.000608902838933,1.0,0.0,0.113301290968
1385571195639364907,-0.0280504307766,0.0481766052252,0.00182021492007,1.0,0.0,0.11186626111
1385571196139429230,-0.00257428129174,0.0679523805197,0.00145881884887,1.0,0.0,0.109305245609
1385571196639537290,0.0200562923695,0.0521719039711,0.00121276648468,1.0,0.0,0.105647951812
1385571197139425883,0.025304120723,0.00168299295779,0.000274527375835,1.0,0.0,0.10310255721
1385571197639481764,0.00158881483463,-0.046396463304,0.000327578829699,1.0,0.0,0.103797331629
1385571198139854069,-0.0401043957176,-0.0434030157062,0.000927917707948,1.0,0.0,0.106124339081
1385571198639437368,-0.0630241857905,0.0192622246625,0.00322248882085,1.0,0.0,0.106823084591
1385571199139438244,-0.0391987704795,0.083767390559,0.00562856979568,1.0,0.0,0.104712768775
1385571199639361522,0.00988339252142,0.0894590920059,0.00429033171148,1.0,0.0,0.100007962833
1385571200139384829,0.0511516415771,0.0286472326784,0.00577643306768,1.0,0.0,0.0955019263299
1385571200639470585,0.046400198849,-0.064486809339,0.00528912596736,1.0,0.0,0.0953182690084
1385571201139378101,-0.0192197545415,-0.116406573777,0.00382129431607,1.0,0.0,0.0993940383343
1385571201639582922,-0.0901188548699,-0.0642223242158,0.0079832250869,1.0,0.0,0.101028892691
1385571202139395804,-0.0992158603343,0.0575304407199,0.0172375473882,1.0,0.0,0.0991361528833
1385571202639450569,-0.0294726216111,0.135006425721,0.0149073129573,1.0,0.0,0.0962620532681
1385571203139643221,0.0497933848674,0.111112762824,0.00492594886895,1.0,0.0,0.0912923570645
1385571203639502303,0.0869363507323,-0.0039997604646,0.000210592076167,1.0,0.0,0.0879572906568
1385571204139588787,0.0459424375505,-0.148608655291,-0.00443270422558,1.0,0.0,0.0915390593809
1385571204639494706,-0.0643685990587,-0.189408792715,-0.00944791437736,1.0,0.0,0.0951635013501
1385571205139471277,-0.163127275414,-0.080958652023,-0.0032326186307,1.0,0.0,0.0888643468105
1385571205639444172,-0.16224856165,0.102943501513,0.0135225706634,1.0,0.0,0.0754972218432
1385571206139457778,-0.0231287492166,0.204033589172,0.0185844341631,1.0,0.0,0.0620918085814
1385571206639812152,0.128164551952,0.137822819631,0.0104375494738,1.0,0.0,0.0558470264639
1385571207139541556,0.160128491898,-0.0454178054827,0.00329307256337,1.0,0.0,0.061605284725
1385571207639645466,0.0567686292467,-0.229786230035,-0.00507791138482,1.0,0.0,0.070289391783
1385571208139469630,-0.108136170886,-0.244674811911,-0.0075366502101,1.0,0.0,0.0697584945551
1385571208639473615,-0.221952662834,-0.0692205422077,0.0102399609129,1.0,0.0,0.0623470945637
1385571209139459470,-0.168713945218,0.152044575675,0.0207730162628,1.0,0.0,0.0523084776918
1385571209639387636,0.00583723084358,0.228945348189,0.0162131974838,1.0,0.0,0.0434027366881
1385571210139448325,0.159870974787,0.118380286697,0.00640649998899,1.0,0.0,0.0399648707268
1385571210639509192,0.18370670048,-0.08767426023,-0.00224619820005,1.0,0.0,0.0497735660074
1385571211139400623,0.0565227097732,-0.255280320547,-0.011542234086,1.0,0.0,0.0572535306219
1385571211639395170,-0.119270205961,-0.237908615822,-0.00350333127027,1.0,0.0,0.0536817475809
1385571212139707084,-0.207315397707,-0.0393129188029,0.0193296977866,1.0,0.0,0.0490923562026
1385571212639460985,-0.133159889561,0.171123072402,0.0249344518248,1.0,0.0,0.0446170594944
1385571213139381957,0.0413983131013,0.237208304341,0.0156209176975,1.0,0.0,0.0422774159532
1385571213639371983,0.175813163125,0.122530546834,0.0029559979799,1.0,0.0,0.0496133148246
1385571214139457294,0.168168046096,-0.103033085012,-0.0048271699553,1.0,0.0,0.0573509305281
1385571214639474473,0.0316029620643,-0.268744194703,-0.0125818374214,1.0,0.0,0.056861266081
1385571215139398866,-0.135619135807,-0.217610776936,-0.00380316227702,1.0,0.0,0.0489645667817
1385571215639388901,-0.203075744908,0.00274282635667,0.0129129667642,1.0,0.0,0.0414611603394
1385571216139485692,-0.110777315622,0.205964197319,0.0133689281841,1.0,0.0,0.0363340763806
1385571216639404818,0.0616597044233,0.236107931102,0.00605564715128,1.0,0.0,0.0408367685816
1385571217139413712,0.172908756149,0.0908580521986,-0.00028105456532,1.0,0.0,0.0506645255778
1385571217639436970,0.147737482964,-0.14707282006,-0.00807610887625,1.0,0.0,0.0569292403545
1385571218139493189,0.00786873473583,-0.274054355149,-0.0156768809206,1.0,0.0,0.0543810409144
1385571218639444352,-0.152759535163,-0.176380477814,-0.00410816874805,1.0,0.0,0.0465304532149
1385571219139601182,-0.18818056085,0.062400540385,0.0109597902224,1.0,0.0,0.0412416992958
1385571219639603634,-0.0807083182213,0.243882358294,0.00631318507071,1.0,0.0,0.0372777159461
1385571220139375540,0.0863633412785,0.230162491895,0.00429590019163,1.0,0.0,0.0450702841634
1385571220639494790,0.180757599701,0.047192490078,0.00571270301792,1.0,0.0,0.0552089875296
1385571221139407534,0.124119239894,-0.186816397275,-0.00236781187511,1.0,0.0,0.0594016336558
1385571221639417996,-0.0269162821638,-0.271032284395,-0.00884638511387,1.0,0.0,0.0538722130399
1385571222139582281,-0.173992856538,-0.12486692731,-0.00117837003873,1.0,0.0,0.0448932528863
1385571222639361362,-0.177826607906,0.114792414438,0.00275477405141,1.0,0.0,0.0387570632525
1385571223139490972,-0.0533486014007,0.252775924242,-0.00130015036769,1.0,0.0,0.0351884527937
1385571223639451429,0.10590482915,0.184869198928,-0.00061089905332,1.0,0.0,0.0444366571429
1385571224139348076,0.178725814679,-0.0321737260633,-0.00172201508744,1.0,0.0,0.054414135917
1385571224639392726,0.0997714117657,-0.229165975316,-0.0102080189112,1.0,0.0,0.0574497897876
1385571225139484332,-0.0606441524495,-0.224703567932,-0.00863646459735,1.0,0.0,0.0513609401729
1385571225639421064,-0.181394033926,-0.016653738136,0.000246295504175,1.0,0.0,0.0428619830347
1385571226139456019,-0.156045979563,0.215744355104,-0.00421236929237,1.0,0.0,0.0337791478227
1385571226639452922,-0.00511610512566,0.267727069293,0.00700953031507,1.0,0.0,0.0383245984191
1385571227139430829,0.144452396147,0.0794614242975,0.0127456320777,1.0,0.0,0.0498472686255
1385571227639424060,0.163228517771,-0.169760762923,0.00395666850418,1.0,0.0,0.0579635291597
1385571228139416802,0.0597673918609,-0.25991273892,-0.0090222046579,1.0,0.0,0.0571289237375
1385571228639416375,-0.0982263356229,-0.126463558431,-0.00399096902756,1.0,0.0,0.0515562887938
1385571229139505025,-0.169191671713,0.115417711621,-0.00576188938672,1.0,0.0,0.047280996401
1385571229639456461,-0.101305044258,0.266272515211,-0.0142647921653,1.0,0.0,0.0419355181845
1385571230139462355,0.0296479139429,0.19411997465,0.00715882587658,1.0,0.0,0.0479154904488
1385571230639393491,0.130860960231,-0.0532154350169,0.00531053778824,1.0,0.0,0.0598499960182
1385571231139458274,0.125484647965,-0.240338178247,-0.00967814959699,1.0,0.0,0.0647903151718
1385571231639351521,0.0145380373703,-0.218094875045,-0.00586446957816,1.0,0.0,0.0596928356092
1385571232139406606,-0.11819620063,-0.00847560557826,-0.000725107106258,1.0,0.0,0.0540713919855
1385571232639514832,-0.13801380111,0.198740052475,-0.00963212908324,1.0,0.0,0.0507502183983
1385571233139452194,-0.0490574694122,0.246907504277,-0.0112516384584,1.0,0.0,0.0480330136386
1385571233639405218,0.0717644119303,0.0830089302096,0.00779596416823,1.0,0.0,0.0573317054659
1385571234139507781,0.141055722316,-0.162976737737,-0.00682756711619,1.0,0.0,0.0672801485155
1385571234639488329,0.0949011494318,-0.260195664124,-0.0108041867156,1.0,0.0,0.0667520097621
1385571235139469406,-0.0551747601514,-0.116517861758,0.00403110680419,1.0,0.0,0.061095879241
1385571235639407857,-0.159267385905,0.129246727728,0.00419177090853,1.0,0.0,0.0569579405312
1385571236139405097,-0.121318263551,0.27052588707,-0.00499175856953,1.0,0.0,0.0535828012866
1385571236639420449,0.0121740403545,0.187352915844,0.0137818898962,1.0,0.0,0.058615711837
1385571237139430964,0.12190383741,-0.0712004038466,0.0118566969733,1.0,0.0,0.0683467673893
1385571237639535500,0.12506253615,-0.264586676158,-0.00802307311786,1.0,0.0,0.0708813012205
1385571238139406123,0.018522226339,-0.22198217068,-0.00248864258769,1.0,0.0,0.0657204360557
1385571238639434450,-0.117531790196,0.0151603362337,0.00514241582528,1.0,0.0,0.0591686495448
1385571239139392446,-0.146611354115,0.23186504464,-0.00672377848562,1.0,0.0,0.0543965122747
1385571239639408866,-0.0567035389949,0.271411302809,-0.00112796242256,1.0,0.0,0.0521346872108
1385571240139658288,0.0787183951933,0.0603125592309,0.0140249015153,1.0,0.0,0.0621925844489
1385571240639501839,0.138545131324,-0.208672041318,0.00566278903155,1.0,0.0,0.0712495005518
1385571241139511712,0.0866645203202,-0.302034145463,-0.00833753210238,1.0,0.0,0.067908568625
1385571241639465667,-0.0570479489414,-0.133234574054,0.0073709729682,1.0,0.0,0.058390648852
1385571242139431148,-0.141922744379,0.135261613066,0.00604578269905,1.0,0.0,0.0497993429671
1385571242639393087,-0.10215361351,0.27895115683,-0.0112504091821,1.0,0.0,0.0428660393875
1385571243139361541,0.00984389390745,0.193125078358,0.00281755621297,1.0,0.0,0.0462483370008
1385571243639424944,0.103989737194,-0.0804523502978,0.00546512331305,1.0,0.0,0.0599473028932
1385571244139504278,0.107168433037,-0.281728903934,-0.0123315016619,1.0,0.0,0.0652685625129
1385571244639551484,0.0128332373901,-0.236541621958,-0.00333094198013,1.0,0.0,0.058650270267
1385571245139590706,-0.100439767262,0.0166743780245,0.00894896231545,1.0,0.0,0.0509024041053
1385571245639501920,-0.118028086763,0.240705514322,-0.00640895492654,1.0,0.0,0.0462960312111
1385571246139363590,-0.0418346843091,0.262916680317,-0.00576658283212,1.0,0.0,0.0427890134888
1385571246639386645,0.0689352069336,0.0317994142684,0.0068638138475,1.0,0.0,0.0514700303341
1385571247139354806,0.112576717128,-0.229723901329,-0.00306607755112,1.0,0.0,0.0590296584538
1385571247639408519,0.0573302013407,-0.285973764469,-0.00824547977462,1.0,0.0,0.0568232592366
1385571248139353765,-0.0613415612291,-0.0915169583488,0.00996852419429,1.0,0.0,0.0513751942255
1385571248639468263,-0.124084259957,0.164502089806,0.00393884474923,1.0,0.0,0.0479156931037
1385571249139427220,-0.0880369571981,0.282253712555,-0.0113281681193,1.0,0.0,0.0431474992236
1385571249639482097,0.0143813332318,0.165259579795,0.00255477303837,1.0,0.0,0.0495509626719
1385571250139420839,0.0929223796171,-0.10264446411,0.00656271593984,1.0,0.0,0.0596964904745
1385571250639392983,0.0828265378573,-0.278610207032,-0.0119705599081,1.0,0.0,0.0634447460398
1385571251139542054,-0.0190474491292,-0.216233753443,-0.00164043788162,1.0,0.0,0.0569754545152
1385571251639379017,-0.118233057901,0.02776472775,0.0106597547101,1.0,0.0,0.051297459192
1385571252139445046,-0.123006084034,0.240850422148,-0.00496788750427,1.0,0.0,0.0470164987569
1385571252639371196,-0.0377312314324,0.261895183325,0.000210229586297,1.0,0.0,0.0494366242578
1385571253139405248,0.0730696099438,0.0620247817954,0.0120876740244,1.0,0.0,0.0575144643214
1385571253639476101,0.104694379215,-0.192864222229,0.0019867970513,1.0,0.0,0.0653457766955
1385571254139429167,0.032488673438,-0.287644979636,-0.0137617098714,1.0,0.0,0.064952662673
1385571254639388163,-0.0977693517368,-0.131070304475,0.00133514788371,1.0,0.0,0.0565166957298
1385571255139461019,-0.160385875046,0.135944577192,0.00451110374809,1.0,0.0,0.0501103052598
1385571255639387021,-0.101341123171,0.296638790785,0.00263438117309,1.0,0.0,0.0482976259901
1385571256139423183,0.0399815882898,0.237230587265,0.00916411799324,1.0,0.0,0.051892076694
1385571256639590814,0.154208393681,0.0117481861616,0.0144742411123,1.0,0.0,0.0516322183294
1385571257139423832,0.143440347587,-0.214260823063,-0.00369033786361,1.0,0.0,0.0485111672673
1385571257639417432,0.00243008191358,-0.269762596752,-0.0106566529097,1.0,0.0,0.0409107654229
1385571258139404783,-0.165054156452,-0.108470872438,0.0024458015908,1.0,0.0,0.0333445183619
1385571258639484604,-0.199389931441,0.12263722091,0.00717989039006,1.0,0.0,0.0289100885119
1385571259139430313,-0.0882690537194,0.244339472201,0.00583319417944,1.0,0.0,0.028982418342
1385571259639427508,0.0670946415455,0.192153680296,0.000429204165062,1.0,0.0,0.0334363168229
1385571260139462846,0.154244999721,0.022432724649,-0.00341118841096,1.0,0.0,0.0380166535255
1385571260639385660,0.125350826346,-0.170035220582,-0.012899073476,1.0,0.0,0.041922627661
1385571261139415175,-0.0165746952238,-0.235529597565,-0.012567077011,1.0,0.0,0.0396932671137
1385571261639741756,-0.162319542711,-0.113966116315,-0.000984678080913,1.0,0.0,0.0339836648635
1385571262139465605,-0.189076096643,0.0956773920663,0.00780827518801,1.0,0.0,0.0311867366665
1385571262639537585,-0.0784177896952,0.230140674805,0.0136642823964,1.0,0.0,0.0338493091372
1385571263139446556,0.0785449744861,0.184404246477,0.00948298032736,1.0,0.0,0.0416225032657
1385571263639398541,0.172330700233,0.0150571380071,0.00200987537918,1.0,0.0,0.0481428094881
1385571264139410827,0.118540617722,-0.177704763458,-0.00950973307091,1.0,0.0,0.0502124035847
1385571264639379362,-0.036925330255,-0.228106272779,-0.0111913371783,1.0,0.0,0.045996286027
1385571265139411303,-0.184729758737,-0.0804923311819,-0.00357437949706,1.0,0.0,0.0379613037563
1385571265639516683,-0.195185932623,0.138636423158,0.00362558946306,1.0,0.0,0.031927077807
1385571266139338926,-0.048719020147,0.237629443313,0.0118993322725,1.0,0.0,0.036735792478
1385571266639497971,0.124327570848,0.149912470099,0.00942069744785,1.0,0.0,0.0453486443174
1385571267139599447,0.199098286914,-0.0542133503981,0.000119833198015,1.0,0.0,0.0495051946965
1385571267639419138,0.113018106471,-0.210488117313,-0.00997247632833,1.0,0.0,0.0480377712307
1385571268139379259,-0.0671886945113,-0.185612058664,-0.00812454975106,1.0,0.0,0.0411625476417
1385571268639404883,-0.197187193344,-0.00738268405027,-0.00496710435228,1.0,0.0,0.0346145800037
1385571269139479303,-0.165857024784,0.175101460761,-0.00280361230022,1.0,0.0,0.0316547950634
1385571269639393679,-0.0169023887158,0.208521141752,0.00730144543061,1.0,0.0,0.0389314430808
1385571270139470733,0.121998520492,0.0615622976479,0.00319054293501,1.0,0.0,0.0501848374734
1385571270639421218,0.14749098409,-0.130085792119,-0.00569203013689,1.0,0.0,0.0569648465976
1385571271139385146,0.0523668348283,-0.209373453188,-0.0130680725244,1.0,0.0,0.0558115817384
1385571271639469206,-0.0920451866112,-0.101907497126,-0.00655993647625,1.0,0.0,0.0509086010442
1385571272139649610,-0.167303718823,0.100079496003,-0.00463613472744,1.0,0.0,0.0450573120977
1385571272639374114,-0.104024890871,0.217688532605,-0.00448311897447,1.0,0.0,0.0426742506778
1385571273139423226,0.0427811030102,0.119139360725,-0.0046548007333,1.0,0.0,0.0469814149348
1385571273639366547,0.131480572831,-0.0777897552445,-0.00329851698004,1.0,0.0,0.0509479676557
1385571274139404977,0.1078613524,-0.193845550747,-0.015261528274,1.0,0.0,0.0510629032413
1385571274639477645,-0.00768740700549,-0.130923263973,-0.00919981258354,1.0,0.0,0.0476921278753
1385571275139366754,-0.123755776162,0.0433645086305,-0.00410249698183,1.0,0.0,0.0449796151307
1385571275639566496,-0.13401581304,0.18184562774,-0.00894059613005,1.0,0.0,0.0432363260341
1385571276139462769,-0.0356137941747,0.174139982226,-0.000408812889713,1.0,0.0,0.0406358742161
1385571276639389548,0.0934629155861,0.00923495634405,-0.00122519950298,1.0,0.0,0.0438606445959
1385571277139415127,0.138494816291,-0.151835361627,-0.00905470938943,1.0,0.0,0.0469800243291
1385571277639458420,0.0699742457168,-0.184518403857,-0.00756858998025,1.0,0.0,0.0473073889523
1385571278139360712,-0.0685618941461,-0.0650232815925,0.00287600343908,1.0,0.0,0.0464137710454
1385571278639373367,-0.149184322653,0.093187462442,0.00451073029425,1.0,0.0,0.0465355938206
1385571279139356465,-0.110638347641,0.17668897267,0.00150674468224,1.0,0.0,0.0477939493981
1385571279639461182,0.0105470590088,0.131306000089,0.0112928092815,1.0,0.0,0.049494348058
1385571280139414026,0.126643123737,-0.037199180054,-0.00408346744379,1.0,0.0,0.0520865374714
1385571280639421749,0.131310905723,-0.175776002006,-0.0119857114895,1.0,0.0,0.0512447251454
1385571281139508360,0.004655951197,-0.157983142,-0.00104000248229,1.0,0.0,0.0487267676632
1385571281639456814,-0.126198179731,-0.00650718332446,0.00698948177252,1.0,0.0,0.047821796368
1385571282139402523,-0.150745367228,0.144621491179,0.00494854240986,1.0,0.0,0.0485455333615
1385571282639410163,-0.0582827916146,0.183708815554,0.00608774708059,1.0,0.0,0.0473076850168
1385571283139446023,0.0719560752769,0.0930608561391,0.0163355836567,1.0,0.0,0.0490894065326
1385571283639394582,0.147736856296,-0.0927877785491,-0.00405476072779,1.0,0.0,0.0515963817883
1385571284139398717,0.0978258239385,-0.204767247979,-0.00982910856701,1.0,0.0,0.0506725894233
1385571284639493376,-0.0354886812604,-0.148587635452,0.000267201815608,1.0,0.0,0.0502693833988
1385571285139415681,-0.137921915366,0.0188270110272,0.00675403009366,1.0,0.0,0.0511600855957
1385571285639394628,-0.123919001974,0.174512473075,0.00272399491802,1.0,0.0,0.0538715773668
1385571286139471143,-0.0025479295982,0.195398730984,0.00155952072897,1.0,0.0,0.0529044751923
1385571286639445002,0.122460047008,0.0650747867584,0.00649301619276,1.0,0.0,0.0500617928977
1385571287139381629,0.14436185905,-0.130255997788,-0.000168161539129,1.0,0.0,0.0459213036031
1385571287639414967,0.044274280535,-0.219626798441,0.000395484332777,1.0,0.0,0.0417097996414
1385571288139388010,-0.0825444555715,-0.136913314431,0.00823207529965,1.0,0.0,0.0395764996277
1385571288639390371,-0.125740722767,0.0377875535319,0.0099493945385,1.0,0.0,0.0423647019861
1385571289139425834,-0.0644204535519,0.181690445425,-0.00131799364596,1.0,0.0,0.0480804129984
1385571289639486659,0.0440955941268,0.189814436274,-0.0088971313266,1.0,0.0,0.0488554520207
1385571290139511246,0.125152371847,0.0402718066247,-0.00842355647824,1.0,0.0,0.0451435426248
1385571290639337605,0.107160217786,-0.147179867894,-0.0106280718407,1.0,0.0,0.0398390036549
1385571291139441885,0.0108119887206,-0.21462574355,-0.00612397032846,1.0,0.0,0.035973057961
1385571291639485928,-0.0838025202587,-0.120424510894,0.00414546540941,1.0,0.0,0.0355677279804
1385571292139441952,-0.099982822191,0.05383128254,0.00865250340953,1.0,0.0,0.0404198182258
1385571292639522025,-0.0335752354835,0.182729950832,-0.000331857162434,1.0,0.0,0.0481598056015
1385571293139515279,0.0605223004084,0.177947067541,-0.00641699367552,1.0,0.0,0.0526205337624
1385571293639418039,0.119594934624,0.0302566145846,-0.00363161875315,1.0,0.0,0.0512438084777
1385571294139473690,0.0851110064171,-0.139480001288,-0.00258577773872,1.0,0.0,0.0476239683203
1385571294639469428,-0.0161718466792,-0.191595936162,-0.00157146455629,1.0,0.0,0.0443921618255
1385571295139383776,-0.0996696483196,-0.0905646433726,0.00420354977243,1.0,0.0,0.0434211490569
1385571295639420693,-0.101146297199,0.0780919807454,0.00850011793373,1.0,0.0,0.0488138631567
1385571296139352769,-0.0184007045019,0.198209637861,-0.000196651506586,1.0,0.0,0.0535314383406
1385571296639498247,0.0809896681808,0.177166563715,-0.00253129905233,1.0,0.0,0.0523543718959
1385571297139388404,0.123690840841,0.0100644099555,0.00353357065886,1.0,0.0,0.0474899166709
1385571297639445212,0.0641295882545,-0.165605016277,-0.00108209922322,1.0,0.0,0.0401777542131
1385571298139397197,-0.043283415681,-0.198500358183,-0.00267453268215,1.0,0.0,0.0362956849777
1385571298639449541,-0.115376978289,-0.0709998543616,0.0044231856855,1.0,0.0,0.0394669809598
1385571299139522323,-0.0979072755416,0.101500737092,0.00476562411478,1.0,0.0,0.0475663853902
1385571299639438379,-0.0165630879737,0.201995486042,-0.00484241730855,1.0,0.0,0.0521472784257
1385571300139491930,0.0849799046247,0.145450561872,-0.00437328257548,1.0,0.0,0.0522128454596
1385571300639432194,0.119259596955,-0.03553974024,-0.00171771473304,1.0,0.0,0.0502663670471
1385571301139485874,0.0464436587716,-0.183990597387,-0.00627006257762,1.0,0.0,0.0462141037625
1385571301639455441,-0.0672777364072,-0.186423959984,-0.00399445293035,1.0,0.0,0.0442197465435
1385571302139465709,-0.140558557221,-0.0416033527499,0.0102038888266,1.0,0.0,0.0510704473809
1385571302639550634,-0.102289723214,0.14075919306,0.00873826118673,1.0,0.0,0.0614144699618
1385571303139536761,0.00507850686349,0.226642281436,0.00016045973619,1.0,0.0,0.0636788942748
1385571303639418510,0.123659365935,0.124232436094,0.000811527504326,1.0,0.0,0.0624711339739
1385571304139393608,0.138135143489,-0.0825281716663,0.00155769121681,1.0,0.0,0.0592457244368
1385571304639443117,0.0304659865593,-0.222529883516,-0.00674964306179,1.0,0.0,0.052551441359
1385571305139388502,-0.109225731131,-0.18852430367,-0.000197972298152,1.0,0.0,0.0458840633455
1385571305639545670,-0.168221199175,-0.00771002650547,0.0120900699986,1.0,0.0,0.0510404326574
1385571306139409965,-0.102157965347,0.174090934282,0.010047036984,1.0,0.0,0.0597797018141
1385571306639398798,0.0327561287922,0.226635413243,0.00250806437012,1.0,0.0,0.0629375754667
1385571307139521432,0.156568424113,0.0923082512998,-0.000246247258207,1.0,0.0,0.0601250631623
1385571307639544607,0.152060547326,-0.116271815824,-0.00062092824004,1.0,0.0,0.0560764261018
1385571308139383797,0.00830478047458,-0.231104099074,-0.00693018485183,1.0,0.0,0.0510041910367
1385571308639400120,-0.158007201926,-0.169999517383,-0.0108736439718,1.0,0.0,0.0462277017147
1385571309139456296,-0.209691592791,0.020726209998,-0.00191758386288,1.0,0.0,0.051464164674
1385571309639530470,-0.104395886622,0.221696326146,-0.0115974776045,1.0,0.0,0.0566490275782
1385571310139497771,0.0794049594429,0.258321741972,-0.0231065056484,1.0,0.0,0.0551120912233
1385571310639422428,0.219432939095,0.0763022278546,-0.0402240871731,1.0,0.0,0.0516255287046
1385571311139417234,0.191323849241,-0.165919717995,-0.0543899900459,1.0,0.0,0.0471875024896
1385571311639470435,0.00437302469455,-0.272080735511,-0.0638974750562,1.0,0.0,0.0439846015757
1385571312139397531,-0.210714927272,-0.185787525153,-0.067798947578,1.0,0.0,0.039860312483
1385571312639366374,-0.274778674773,0.0307353898162,-0.0588967910486,1.0,0.0,0.0408319663502
1385571313139438279,-0.138639978002,0.235876164808,-0.0588607657366,1.0,0.0,0.0448695258869
1385571313639561186,0.0988696665487,0.254632221602,-0.0685223120637,1.0,0.0,0.0436626676054
1385571314139431375,0.272378977593,0.080054905828,-0.0825633056375,1.0,0.0,0.0427204820415
1385571314639393861,0.223664989172,-0.170636449527,-0.0940122595553,1.0,0.0,0.0453659904745
1385571315139566993,0.005978447684,-0.300932829458,-0.0926128164665,1.0,0.0,0.0446031323904
1385571315639455122,-0.256409298151,-0.194628628475,-0.0903825108875,1.0,0.0,0.0409272937335
1385571316139616858,-0.330084446856,0.0514549573938,-0.0789046731917,1.0,0.0,0.0400600394837
1385571316639395883,-0.162376351058,0.266274158301,-0.0742626246132,1.0,0.0,0.0416500569732
1385571317139514633,0.110309424858,0.269201350922,-0.0787669946419,1.0,0.0,0.0408335568366
1385571317639436304,0.303237491931,0.0806720466866,-0.0968349172252,1.0,0.0,0.0400320984995
