%time,field.header.seq,field.header.stamp,field.header.frame_id,field.child_frame_id,field.transform.translation.x,field.transform.translation.y,field.transform.translation.z,field.transform.rotation.x,field.transform.rotation.y,field.transform.rotation.z,field.transform.rotation.w
1385571159468996167,833850,1385571159468996167,/world,vicon/Archie/Archie,0.29378786135,-0.976243486125,0.106257072148,0.00454199201871,-0.00395387565129,0.682299873058,0.731047618422
1385571159479242888,833851,1385571159479242888,/world,vicon/Archie/Archie,0.293776445366,-0.976242693033,0.106231097671,0.00461326519969,-0.00389315619331,0.682331694768,0.731017796934
1385571159489238895,833852,1385571159489238895,/world,vicon/Archie/Archie,0.29377981271,-0.976236452503,0.106222074679,0.00459557650799,-0.00389567258603,0.68232834465,0.731021021927
1385571159499146408,833853,1385571159499146408,/world,vicon/Archie/Archie,0.293728828129,-0.976247987094,0.106201870309,0.00461741749237,-0.00377499328136,0.682302431607,0.731045703567
1385571159509076921,833854,1385571159509076921,/world,vicon/Archie/Archie,0.29384092334,-0.976278099318,0.10629444664,0.00482364513822,-0.00367427180931,0.682306933813,0.73104068303
1385571159519321130,833855,1385571159519321130,/world,vicon/Archie/Archie,0.29379567512,-0.976290298383,0.106331151018,0.0049879892552,-0.00378172457132,0.682340874005,0.73100735303
1385571159529273337,833856,1385571159529273337,/world,vicon/Archie/Archie,0.293778665179,-0.976233026283,0.106227479904,0.00462340293709,-0.0038847596043,0.682307310488,0.731040537072
1385571159539128451,833857,1385571159539128451,/world,vicon/Archie/Archie,0.293746205796,-0.976236259265,0.106262783353,0.00477423245133,-0.00400885953579,0.682340655905,0.73100777359
1385571159549219257,833858,1385571159549219257,/world,vicon/Archie/Archie,0.293720832143,-0.976249538924,0.106203790305,0.00462179964395,-0.00377628825245,0.68230181034,0.73104624903
1385571159559166335,833859,1385571159559166335,/world,vicon/Archie/Archie,0.293775508564,-0.976234675663,0.106220753232,0.00460394319113,-0.0039020814636,0.682325473311,0.731023615171
1385571159569048723,833860,1385571159569048723,/world,vicon/Archie/Archie,0.293901820265,-0.976278582161,0.106332195622,0.00476765048186,-0.00374310786943,0.682335242428,0.731014278652
1385571159579124024,833861,1385571159579124024,/world,vicon/Archie/Archie,0.293773879049,-0.976235045222,0.106230590609,0.00461890276876,-0.00389134269998,0.682323998019,0.731024955057
1385571159589224090,833862,1385571159589224090,/world,vicon/Archie/Archie,0.293784771105,-0.976235663363,0.10623012576,0.00461390828984,-0.00390407018056,0.682321341591,0.731027398184
1385571159599146922,833863,1385571159599146922,/world,vicon/Archie/Archie,0.29378165244,-0.976240077409,0.106227610548,0.00461114359102,-0.00388664776586,0.68232905437,0.73102030949
1385571159609061098,833864,1385571159609061098,/world,vicon/Archie/Archie,0.293785126148,-0.976232266736,0.106220778625,0.00460546966279,-0.00389657524095,0.682321114688,0.731027703169
1385571159619109594,833865,1385571159619109594,/world,vicon/Archie/Archie,0.293726667447,-0.976248915712,0.106208951214,0.0046347128547,-0.00377628816962,0.682305057716,0.731043136415
1385571159629438309,833866,1385571159629438309,/world,vicon/Archie/Archie,0.293783030696,-0.976234154199,0.106222206681,0.00460884468862,-0.00391456245656,0.68231212304,0.731035978255
1385571159639111938,833867,1385571159639111938,/world,vicon/Archie/Archie,0.293777986402,-0.976238590608,0.106230385242,0.00461164990172,-0.00389349860244,0.682329257923,0.731020079845
1385571159649109405,833868,1385571159649109405,/world,vicon/Archie/Archie,0.293727876223,-0.97624899019,0.106199971033,0.00462565537771,-0.00378539139011,0.682297299304,0.731050387789
1385571159659137599,833869,1385571159659137599,/world,vicon/Archie/Archie,0.293789248222,-0.976241469582,0.106236177983,0.00456359657778,-0.00387196369376,0.682317373444,0.731031588497
1385571159669150442,833870,1385571159669150442,/world,vicon/Archie/Archie,0.293732124391,-0.976250794055,0.106203667919,0.00461858227251,-0.0037670495009,0.682293963417,0.731053640659
1385571159679851756,833871,1385571159679851756,/world,vicon/Archie/Archie,0.293736122528,-0.976253467082,0.106225148884,0.00458819477326,-0.00387337705121,0.682278289332,0.731067904729
1385571159689206944,833872,1385571159689206944,/world,vicon/Archie/Archie,0.293732332579,-0.976249983584,0.106205763678,0.00461989224005,-0.00376517070623,0.682303878623,0.731044388051
1385571159699088598,833873,1385571159699088598,/world,vicon/Archie/Archie,0.293779427674,-0.976233911251,0.106225347787,0.00460473554524,-0.00391220935356,0.682307925886,0.731039934136
1385571159709093177,833874,1385571159709093177,/world,vicon/Archie/Archie,0.293775563815,-0.97623003972,0.106220194803,0.00462026667115,-0.00390712697607,0.682317486506,0.731030939908
1385571159719129678,833875,1385571159719129678,/world,vicon/Archie/Archie,0.293783514314,-0.976242711877,0.106223708845,0.00459974606888,-0.00388499916145,0.682340686887,0.731009532179
1385571159729079776,833876,1385571159729079776,/world,vicon/Archie/Archie,0.293786807243,-0.976240354524,0.106234664218,0.00459907152765,-0.00389127708513,0.682315882655,0.731032655071
1385571159739201466,833877,1385571159739201466,/world,vicon/Archie/Archie,0.293799307526,-0.976241258657,0.106241755472,0.00453598534655,-0.00387437555184,0.682317175704,0.731031932128
1385571159748973931,833878,1385571159748973931,/world,vicon/Archie/Archie,0.293782137755,-0.976250916059,0.106248268196,0.00457160177982,-0.0039950832526,0.68230421311,0.731043159149
1385571159758868091,833879,1385571159758868091,/world,vicon/Archie/Archie,0.293908242688,-0.976277774008,0.106325067135,0.00474381286358,-0.00378286595407,0.682329750522,0.731019355227
1385571159768949882,833880,1385571159768949882,/world,vicon/Archie/Archie,0.293786166916,-0.976237854864,0.106233348954,0.00458922168764,-0.00391110039376,0.682314531861,0.731033871958
1385571159778936344,833881,1385571159778936344,/world,vicon/Archie/Archie,0.293723707143,-0.976252754401,0.106213480819,0.00460296750862,-0.00378435973418,0.682302632032,0.731045559205
1385571159789171790,833882,1385571159789171790,/world,vicon/Archie/Archie,0.293733297639,-0.976256144726,0.106207570378,0.00460959637125,-0.00378089495565,0.682303432958,0.73104478784
1385571159799186652,833883,1385571159799186652,/world,vicon/Archie/Archie,0.293792936271,-0.976236190404,0.106235970417,0.00461425772866,-0.00388120412384,0.682315978731,0.731032523249
1385571159809134613,833884,1385571159809134613,/world,vicon/Archie/Archie,0.293737250733,-0.976259739262,0.106211910367,0.00459871673248,-0.00376743423916,0.682298189894,0.731049819309
1385571159819774944,833885,1385571159819774944,/world,vicon/Archie/Archie,0.293797088057,-0.976245675799,0.106233914969,0.00458755469321,-0.00390396421087,0.682324968153,0.731024179655
1385571159829042961,833886,1385571159829042961,/world,vicon/Archie/Archie,0.293790020133,-0.976245811105,0.106237959235,0.00459182224045,-0.00390303596786,0.682320741344,0.731028103024
1385571159839162495,833887,1385571159839162495,/world,vicon/Archie/Archie,0.293790236876,-0.976247526046,0.106233486468,0.00460560920631,-0.00389050434134,0.682320666947,0.731028152533
1385571159849231851,833888,1385571159849231851,/world,vicon/Archie/Archie,0.293742246361,-0.97625777431,0.106262305221,0.00474237919943,-0.00403974389935,0.682349006836,0.731000015854
1385571159859148997,833889,1385571159859148997,/world,vicon/Archie/Archie,0.293737873951,-0.976265176829,0.106210315824,0.00460345520182,-0.00378432695425,0.682299695072,0.731048297429
1385571159869175216,833890,1385571159869175216,/world,vicon/Archie/Archie,0.293798788944,-0.97625289641,0.106243784577,0.00453474667336,-0.00388975956719,0.682330377377,0.731019535957
1385571159879224479,833891,1385571159879224479,/world,vicon/Archie/Archie,0.293785428225,-0.976242590488,0.106230420964,0.00459377179718,-0.00391786234886,0.682311566806,0.73103657461
1385571159889227895,833892,1385571159889227895,/world,vicon/Archie/Archie,0.293780077895,-0.976249086868,0.106230453717,0.00460825469455,-0.00389784759259,0.682323286745,0.731025651492
1385571159899084951,833893,1385571159899084951,/world,vicon/Archie/Archie,0.293789149707,-0.976242471365,0.106231039381,0.00460523349011,-0.00391224818426,0.682314005847,0.731034256081
1385571159909588580,833894,1385571159909588580,/world,vicon/Archie/Archie,0.293724803324,-0.976263369153,0.106232374023,0.00458721900697,-0.00385009881154,0.682286878317,0.731060017945
1385571159919214199,833895,1385571159919214199,/world,vicon/Archie/Archie,0.293744701323,-0.976254333627,0.106261518461,0.00474383799211,-0.00401936142218,0.682355927774,0.730993658363
1385571159929156847,833896,1385571159929156847,/world,vicon/Archie/Archie,0.293777821176,-0.976247630584,0.106227408646,0.00458552072243,-0.00392153210856,0.682311349788,0.731036809289
1385571159939148442,833897,1385571159939148442,/world,vicon/Archie/Archie,0.293777779526,-0.976240777175,0.106232530871,0.0046079641279,-0.003885774337,0.68231155008,0.731036672167
1385571159949149821,833898,1385571159949149821,/world,vicon/Archie/Archie,0.293777782851,-0.976245753926,0.106235205106,0.00461852194343,-0.00389434273194,0.682321394618,0.731027371441
1385571159959117556,833899,1385571159959117556,/world,vicon/Archie/Archie,0.293771888485,-0.976235291884,0.106227748822,0.0045927983345,-0.00390327327155,0.68231462898,0.731033800683
1385571159969399193,833900,1385571159969399193,/world,vicon/Archie/Archie,0.293768298534,-0.976244695911,0.106221186946,0.00461531023833,-0.00389171480297,0.682332099879,0.73101741357
1385571159979136501,833901,1385571159979136501,/world,vicon/Archie/Archie,0.293769044319,-0.976241616823,0.106235729233,0.00461465783837,-0.00391883929958,0.682319154422,0.731029355868
1385571159989316118,833902,1385571159989316118,/world,vicon/Archie/Archie,0.293771405617,-0.976234902693,0.10623178898,0.00459661832383,-0.00390022977576,0.682313550461,0.731034799558
1385571159999096234,833903,1385571159999096234,/world,vicon/Archie/Archie,0.293775639118,-0.976241371855,0.106227689005,0.00460832819603,-0.00389902490575,0.682309294256,0.731038704781
1385571160009065252,833904,1385571160009065252,/world,vicon/Archie/Archie,0.293768920812,-0.976239868683,0.106224465175,0.00460809383167,-0.00389653557712,0.682317043483,0.731031486773
1385571160019256042,833905,1385571160019256042,/world,vicon/Archie/Archie,0.293710915626,-0.976251583733,0.106199728255,0.0046440780102,-0.00376788343167,0.682298650082,0.731049100739
1385571160029141921,833906,1385571160029141921,/world,vicon/Archie/Archie,0.293764404927,-0.976236251361,0.10622861082,0.00461211410802,-0.00389827453002,0.682318215744,0.731030358004
1385571160039175362,833907,1385571160039175362,/world,vicon/Archie/Archie,0.293760548588,-0.976249276653,0.106254620157,0.00458815331482,-0.00395385550823,0.682304140733,0.731043347151
1385571160049141403,833908,1385571160049141403,/world,vicon/Archie/Archie,0.293765060168,-0.976244063769,0.106227030935,0.00462255580554,-0.00391587718178,0.682311289216,0.731036662892
1385571160058827158,833909,1385571160058827158,/world,vicon/Archie/Archie,0.293712628114,-0.976247741851,0.106205212203,0.00462731254163,-0.00377574545544,0.682289701267,0.731057518442
1385571160068971329,833910,1385571160068971329,/world,vicon/Archie/Archie,0.293764392449,-0.97623813152,0.106226775766,0.00463423274504,-0.00389006026147,0.682318433945,0.731030058218
1385571160078921053,833911,1385571160078921053,/world,vicon/Archie/Archie,0.293766378066,-0.976241568059,0.106237764611,0.00461883799133,-0.00390436860535,0.682326327489,0.731022711724
1385571160088853348,833912,1385571160088853348,/world,vicon/Archie/Archie,0.293758863938,-0.976232627115,0.10623018236,0.00461658211001,-0.00388192995544,0.682309247828,0.731038787013
1385571160099102978,833913,1385571160099102978,/world,vicon/Archie/Archie,0.293774105365,-0.976242258287,0.106226986315,0.00461342851888,-0.00389056782206,0.682316306152,0.731032173108
1385571160109149224,833914,1385571160109149224,/world,vicon/Archie/Archie,0.293703052971,-0.97625356276,0.10620625916,0.00463425037975,-0.00377439370246,0.682300578463,0.73104732973
1385571160119143428,833915,1385571160119143428,/world,vicon/Archie/Archie,0.293717199002,-0.976239614465,0.106260769072,0.00477700924269,-0.00401146049244,0.682336636491,0.731011492981
1385571160129121296,833916,1385571160129121296,/world,vicon/Archie/Archie,0.29376440359,-0.976231979412,0.106236903586,0.00460478806348,-0.00387997365737,0.682317468045,0.731031199424
1385571160139084407,833917,1385571160139084407,/world,vicon/Archie/Archie,0.293761802217,-0.976234863098,0.106236150181,0.00461686302284,-0.00388250544229,0.682313638552,0.731034684111
1385571160149099481,833918,1385571160149099481,/world,vicon/Archie/Archie,0.293725752509,-0.976247417439,0.106267187458,0.00476493772233,-0.0039868716452,0.68235413454,0.730995372967
1385571160159132681,833919,1385571160159132681,/world,vicon/Archie/Archie,0.293768820534,-0.976232951324,0.106233417435,0.00461868898441,-0.00388839140643,0.682318187031,0.731030395928
1385571160169590685,833920,1385571160169590685,/world,vicon/Archie/Archie,0.293708154028,-0.976250983676,0.106212376733,0.0046313710773,-0.00376131607123,0.682297282009,0.731050492009
1385571160179172666,833921,1385571160179172666,/world,vicon/Archie/Archie,0.293759987967,-0.976241096813,0.106233833548,0.0046229383096,-0.00387886994963,0.682322204101,0.731026670238
1385571160189077612,833922,1385571160189077612,/world,vicon/Archie/Archie,0.293767610302,-0.976229764081,0.106237680684,0.00461103582373,-0.00385544131045,0.682309382728,0.731038836289
1385571160199079138,833923,1385571160199079138,/world,vicon/Archie/Archie,0.293697121854,-0.976247287432,0.10621251618,0.00461677748246,-0.00375841523696,0.682309152665,0.731039520047
1385571160209210192,833924,1385571160209210192,/world,vicon/Archie/Archie,0.293728903319,-0.976239156532,0.106262910679,0.00476060186374,-0.00402314566079,0.682342411466,0.731006145312
1385571160219195037,833925,1385571160219195037,/world,vicon/Archie/Archie,0.293756905363,-0.976241384495,0.106230328869,0.00461924696302,-0.00389837201261,0.682327686093,0.731021473039
1385571160229078917,833926,1385571160229078917,/world,vicon/Archie/Archie,0.293763590464,-0.976234189923,0.106231206416,0.00461178951226,-0.00389085848901,0.682315578732,0.731032860847
1385571160239082072,833927,1385571160239082072,/world,vicon/Archie/Archie,0.293771183194,-0.976244463598,0.106234525963,0.00462009984229,-0.00388230376923,0.682317359819,0.731031191458
1385571160249066249,833928,1385571160249066249,/world,vicon/Archie/Archie,0.29375979613,-0.976238345002,0.106235000056,0.00462891124713,-0.00388582304438,0.682310610539,0.731037416489
1385571160259072050,833929,1385571160259072050,/world,vicon/Archie/Archie,0.293768750524,-0.976230107999,0.106227327691,0.00462096818566,-0.00388967787925,0.682313248054,0.731034984518
1385571160269093192,833930,1385571160269093192,/world,vicon/Archie/Archie,0.29370506112,-0.976250078541,0.106207613192,0.00460611151639,-0.00378092325338,0.682310963052,0.731037781551
1385571160279190296,833931,1385571160279190296,/world,vicon/Archie/Archie,0.29374803747,-0.976229634668,0.10622731585,0.00463089763769,-0.0038843244665,0.682315516263,0.731032833105
1385571160289130495,833932,1385571160289130495,/world,vicon/Archie/Archie,0.293722963596,-0.976243092973,0.106256881869,0.00476168008957,-0.00402584829643,0.682345469036,0.731003269373
1385571160299152004,833933,1385571160299152004,/world,vicon/Archie/Archie,0.293752588069,-0.976237175785,0.106224965031,0.00460949337903,-0.00390098433705,0.682320525496,0.731028204229
1385571160309123261,833934,1385571160309123261,/world,vicon/Archie/Archie,0.293759355194,-0.976240453988,0.106231566127,0.00460876299992,-0.00387733535492,0.682307533021,0.731040461231
1385571160319015571,833935,1385571160319015571,/world,vicon/Archie/Archie,0.293759139717,-0.976241204534,0.106220634609,0.00459194044389,-0.00390866857756,0.682331748251,0.731017798498
1385571160329149363,833936,1385571160329149363,/world,vicon/Archie/Archie,0.293762039259,-0.976239357374,0.106230823703,0.00462379601386,-0.00388625624882,0.68231152913,0.731036589193
1385571160339279177,833937,1385571160339279177,/world,vicon/Archie/Archie,0.293754418244,-0.976247732317,0.106225784346,0.00461027285992,-0.00391253952145,0.682322862015,0.731025956714
1385571160349050034,833938,1385571160349050034,/world,vicon/Archie/Archie,0.293866728634,-0.976294107598,0.106288627546,0.00467353549142,-0.00365064996431,0.682355964081,0.730996011689
1385571160359339297,833939,1385571160359339297,/world,vicon/Archie/Archie,0.293766044106,-0.976242976295,0.106222900118,0.00462007227853,-0.00389310885965,0.682312812578,0.731035378369
1385571160369016449,833940,1385571160369016449,/world,vicon/Archie/Archie,0.293774101046,-0.976239789774,0.106235771124,0.0045636846225,-0.0038772511559,0.682319753887,0.731029338099
1385571160378933048,833941,1385571160378933048,/world,vicon/Archie/Archie,0.293768117293,-0.976241302494,0.106225630948,0.00460728634925,-0.00388378800808,0.682315036195,0.73103343322
1385571160388902459,833942,1385571160388902459,/world,vicon/Archie/Archie,0.293727334952,-0.976245909275,0.106255875285,0.00476699837837,-0.00403278663689,0.682338594347,0.731009613495
1385571160399106867,833943,1385571160399106867,/world,vicon/Archie/Archie,0.29372996701,-0.976243451556,0.106256287453,0.00475866881613,-0.00402103266717,0.682346397153,0.731002449148
1385571160409156433,833944,1385571160409156433,/world,vicon/Archie/Archie,0.293715561209,-0.976240050645,0.106258002239,0.00476601347511,-0.00403146128296,0.682351068109,0.730997983777
1385571160419197529,833945,1385571160419197529,/world,vicon/Archie/Archie,0.293759373563,-0.976250146777,0.106225490191,0.00460614660925,-0.00391392346091,0.682318420624,0.731030120784
1385571160429080663,833946,1385571160429080663,/world,vicon/Archie/Archie,0.293710046464,-0.97626104344,0.106206642265,0.00464628208612,-0.00377520608577,0.682296692831,0.73105087568
1385571160439184592,833947,1385571160439184592,/world,vicon/Archie/Archie,0.293767959537,-0.976247123073,0.106222122481,0.00461585409587,-0.0038912221212,0.682314652602,0.731033697668
1385571160449151396,833948,1385571160449151396,/world,vicon/Archie/Archie,0.293769608146,-0.97625059041,0.106246139732,0.00460251538988,-0.00398167716293,0.682294263995,0.731052323995
1385571160459122526,833949,1385571160459122526,/world,vicon/Archie/Archie,0.293777936917,-0.976258550153,0.106192649214,0.00449553203869,-0.0037575250447,0.682318700773,0.731031368529
1385571160469138431,833950,1385571160469138431,/world,vicon/Archie/Archie,0.293763004438,-0.976248659528,0.106221609455,0.00462144392876,-0.00388862697487,0.682313122504,0.731035104284
1385571160479062669,833951,1385571160479062669,/world,vicon/Archie/Archie,0.293766992901,-0.976248650572,0.106216249805,0.00462754029187,-0.00388927845618,0.682321600764,0.731027148959
1385571160489090599,833952,1385571160489090599,/world,vicon/Archie/Archie,0.293767970634,-0.976242489677,0.106221713125,0.00462102365207,-0.00389055482341,0.682308036535,0.731039843649
1385571160499225376,833953,1385571160499225376,/world,vicon/Archie/Archie,0.293721582982,-0.976238960549,0.10625376958,0.00477320600043,-0.00400995225073,0.682356957681,0.730992557481
1385571160509225674,833954,1385571160509225674,/world,vicon/Archie/Archie,0.293760503694,-0.976248407628,0.106223686189,0.00461296560131,-0.00389708822409,0.68233731265,0.731012534104
1385571160519100253,833955,1385571160519100253,/world,vicon/Archie/Archie,0.293761248873,-0.976245758557,0.106223790096,0.00462020308968,-0.00388097719333,0.682320454784,0.731028309112
1385571160529179244,833956,1385571160529179244,/world,vicon/Archie/Archie,0.293760420312,-0.976239852928,0.106219506199,0.00460980431973,-0.00389031914946,0.682329240478,0.731020124696
1385571160539107510,833957,1385571160539107510,/world,vicon/Archie/Archie,0.293706795074,-0.976248004394,0.106198699373,0.00464288297907,-0.00378595261233,0.682300963552,0.731046855773
1385571160549162212,833958,1385571160549162212,/world,vicon/Archie/Archie,0.2937700091,-0.97623783701,0.106225920004,0.00460991248043,-0.00389524253868,0.682322778594,0.731026129222
1385571160559194992,833959,1385571160559194992,/world,vicon/Archie/Archie,0.293759278167,-0.976232675639,0.106226102027,0.0045891765424,-0.00389734377505,0.682313300123,0.731035095358
1385571160569082744,833960,1385571160569082744,/world,vicon/Archie/Archie,0.29376089364,-0.976241655533,0.106233391017,0.00460995669795,-0.00390290524742,0.682329509225,0.731019805799
1385571160579140731,833961,1385571160579140731,/world,vicon/Archie/Archie,0.293762998949,-0.976228770813,0.106232818476,0.00460459256579,-0.00390069137874,0.682312427557,0.731035794975
1385571160589187898,833962,1385571160589187898,/world,vicon/Archie/Archie,0.293754344596,-0.976237102815,0.106232610843,0.00459691092877,-0.00389552244737,0.682318168449,0.731030512577
1385571160599122398,833963,1385571160599122398,/world,vicon/Archie/Archie,0.293680230617,-0.976250102196,0.106240943031,0.00476570209561,-0.00390007601113,0.68232235377,0.731025500948
1385571160609141502,833964,1385571160609141502,/world,vicon/Archie/Archie,0.293890732622,-0.976268662463,0.106330696738,0.00472479134422,-0.00375848635619,0.682329063302,0.731020245616
1385571160619272062,833965,1385571160619272062,/world,vicon/Archie/Archie,0.29376839085,-0.976235312334,0.106238480606,0.00458344021969,-0.00389947173294,0.682310115469,0.73103809239
1385571160629085915,833966,1385571160629085915,/world,vicon/Archie/Archie,0.293871682331,-0.976266672946,0.10633168908,0.0047948862683,-0.00376138335651,0.682328005961,0.731020761225
1385571160639183180,833967,1385571160639183180,/world,vicon/Archie/Archie,0.293731256314,-0.976241247091,0.106266055688,0.00476647722277,-0.00402941568167,0.682348493332,0.731000395453
1385571160649079562,833968,1385571160649079562,/world,vicon/Archie/Archie,0.293837675476,-0.976279159261,0.106362002064,0.00496965939712,-0.00391480106338,0.68235185054,0.730996531376
1385571160659174391,833969,1385571160659174391,/world,vicon/Archie/Archie,0.29381726086,-0.976283050001,0.10630533723,0.00480563466752,-0.00363560968738,0.682308022966,0.731039978397
1385571160669000758,833970,1385571160669000758,/world,vicon/Archie/Archie,0.293759468192,-0.976234269693,0.106239133394,0.00458668780276,-0.00388651811598,0.682334925739,0.731014983697
1385571160678873553,833971,1385571160678873553,/world,vicon/Archie/Archie,0.293756140681,-0.976243116791,0.106260424505,0.00453424891602,-0.00395536755209,0.682297434601,0.731049934267
1385571160689300230,833972,1385571160689300230,/world,vicon/Archie/Archie,0.293716704221,-0.976236007496,0.106265026505,0.00476881391467,-0.00399679219538,0.682344846459,0.731003963448
1385571160698907956,833973,1385571160698907956,/world,vicon/Archie/Archie,0.293755082009,-0.976229642476,0.106233685112,0.0046032775237,-0.0038750349858,0.682314433497,0.731034067456
1385571160708823802,833974,1385571160708823802,/world,vicon/Archie/Archie,0.293764374309,-0.976235346442,0.106230646262,0.00459784009017,-0.00387748270619,0.682328080443,0.731021351011
1385571160718806853,833975,1385571160718806853,/world,vicon/Archie/Archie,0.293762999987,-0.976228061835,0.106230950836,0.00462303672247,-0.00389282170152,0.682311944127,0.731036171726
1385571160728883338,833976,1385571160728883338,/world,vicon/Archie/Archie,0.293745549068,-0.976233916216,0.106219136507,0.00461099465582,-0.00390912811573,0.682322713445,0.731026109085
1385571160738871182,833977,1385571160738871182,/world,vicon/Archie/Archie,0.293699525618,-0.976241290505,0.106204611048,0.00464654999051,-0.00376990711739,0.682284967526,0.731061844484
1385571160748920746,833978,1385571160748920746,/world,vicon/Archie/Archie,0.293755112729,-0.976230103205,0.106224868182,0.00459486858073,-0.00390700984957,0.682317491789,0.731031095683
1385571160758939054,833979,1385571160758939054,/world,vicon/Archie/Archie,0.293754590242,-0.976232395297,0.106219543292,0.00462551231817,-0.00390754923665,0.682307693614,0.731040044683
1385571160769034093,833980,1385571160769034093,/world,vicon/Archie/Archie,0.293735078372,-0.976242549198,0.106262688124,0.00472862413961,-0.0039961210519,0.682335944511,0.731012537483
1385571160779050988,833981,1385571160779050988,/world,vicon/Archie/Archie,0.293710700614,-0.976242366416,0.106265491637,0.00471934424184,-0.00401669607837,0.682344851411,0.731004170778
1385571160789079032,833982,1385571160789079032,/world,vicon/Archie/Archie,0.293754955968,-0.976237663361,0.106224313462,0.00460756617743,-0.00388862043438,0.682310151788,0.731037964631
1385571160799011549,833983,1385571160799011549,/world,vicon/Archie/Archie,0.293760951156,-0.976232434156,0.106234057803,0.00455907268865,-0.003866534447,0.682305575466,0.73104265707
1385571160809236011,833984,1385571160809236011,/world,vicon/Archie/Archie,0.293697555482,-0.976243166244,0.106202786139,0.0046310091417,-0.00378579718176,0.682278146891,0.73106822648
1385571160819254910,833985,1385571160819254910,/world,vicon/Archie/Archie,0.293748714631,-0.976231568248,0.106229877751,0.00463285949592,-0.00388747044783,0.682316750234,0.731031652212
1385571160829218703,833986,1385571160829218703,/world,vicon/Archie/Archie,0.293872473023,-0.976271724633,0.106320633028,0.00480382370886,-0.00377503756767,0.682321255136,0.731026933265
1385571160839272276,833987,1385571160839272276,/world,vicon/Archie/Archie,0.293754007546,-0.976240918615,0.106242306931,0.00457614267023,-0.00388069640125,0.682313256737,0.73103530612
1385571160849162102,833988,1385571160849162102,/world,vicon/Archie/Archie,0.293751561755,-0.976234643933,0.106237787565,0.00462310695004,-0.00387574300863,0.682310673311,0.731037448141
1385571160859634401,833989,1385571160859634401,/world,vicon/Archie/Archie,0.293766568533,-0.976232461523,0.106237795914,0.00460896360221,-0.0038617270763,0.682311165851,0.731037151911
1385571160869230441,833990,1385571160869230441,/world,vicon/Archie/Archie,0.293745031444,-0.976238169065,0.106232867848,0.0046095354401,-0.00387285691394,0.682309636446,0.731038516889
1385571160879080643,833991,1385571160879080643,/world,vicon/Archie/Archie,0.293751463136,-0.976235359574,0.106230003266,0.00461971067888,-0.00390245784918,0.682309623026,0.731038307767
1385571160889148301,833992,1385571160889148301,/world,vicon/Archie/Archie,0.293742338796,-0.976236825214,0.106232843479,0.00462612173021,-0.00388292921087,0.682312156152,0.731036006928
1385571160899121173,833993,1385571160899121173,/world,vicon/Archie/Archie,0.293753112012,-0.976229349904,0.106240217554,0.00463696363048,-0.00388613286657,0.682314154696,0.731034055869
1385571160909137499,833994,1385571160909137499,/world,vicon/Archie/Archie,0.293756999672,-0.976233895666,0.106233421946,0.0046148343967,-0.00386753762541,0.682307127729,0.731040853103
1385571160919142805,833995,1385571160919142805,/world,vicon/Archie/Archie,0.29376410303,-0.976239496094,0.10624230263,0.00455870938869,-0.00387215583394,0.682313116009,0.731035591678
1385571160929178352,833996,1385571160929178352,/world,vicon/Archie/Archie,0.293753077467,-0.976235607033,0.106230776864,0.00461181336361,-0.00387834339981,0.682314509395,0.731033925272
1385571160939075816,833997,1385571160939075816,/world,vicon/Archie/Archie,0.293717101571,-0.976248365716,0.106210807986,0.00462486842557,-0.00374204336394,0.682290013913,0.731057415405
1385571160949201518,833998,1385571160949201518,/world,vicon/Archie/Archie,0.293764850454,-0.976238297201,0.106239239479,0.00461505053173,-0.0038730215199,0.682315499375,0.731033009053
1385571160959057984,833999,1385571160959057984,/world,vicon/Archie/Archie,0.29376363855,-0.976228701505,0.106233612277,0.00462410917764,-0.00387240176391,0.682307350532,0.731040560796
1385571160969109287,834000,1385571160969109287,/world,vicon/Archie/Archie,0.293765273797,-0.976232914648,0.10623851,0.00461826918255,-0.00388276615204,0.682306767125,0.731041087253
1385571160979151877,834001,1385571160979151877,/world,vicon/Archie/Archie,0.293718867937,-0.976240458038,0.106267416733,0.00477045695048,-0.00400100645842,0.682345585764,0.73100323958
1385571160989148809,834002,1385571160989148809,/world,vicon/Archie/Archie,0.293758323764,-0.976229269332,0.106233660319,0.00461211972153,-0.00386951840942,0.682309594852,0.731038557089
1385571160999112288,834003,1385571160999112288,/world,vicon/Archie/Archie,0.293760451465,-0.976234303914,0.106237552462,0.00461344213507,-0.00389640134017,0.682316657765,0.731031813771
1385571161009226645,834004,1385571161009226645,/world,vicon/Archie/Archie,0.293758662019,-0.97623575761,0.106225229217,0.00460837473173,-0.00389340743307,0.682309624015,0.731038426649
1385571161019099898,834005,1385571161019099898,/world,vicon/Archie/Archie,0.293758690315,-0.976234991877,0.106231657601,0.00460819946111,-0.00388774026612,0.682312017432,0.731036224028
1385571161029078220,834006,1385571161029078220,/world,vicon/Archie/Archie,0.293696792847,-0.976247638768,0.106209622394,0.00463334447533,-0.0037523557336,0.682290390784,0.731056957144
1385571161039128217,834007,1385571161039128217,/world,vicon/Archie/Archie,0.293766222056,-0.976239491419,0.106234338246,0.00462809014076,-0.00389281352844,0.682306695156,0.731041038882
1385571161049082369,834008,1385571161049082369,/world,vicon/Archie/Archie,0.293747661681,-0.976235848276,0.106232410634,0.00463914861403,-0.00388779196479,0.682310570916,0.731037378108
1385571161059141527,834009,1385571161059141527,/world,vicon/Archie/Archie,0.293756690589,-0.976240730829,0.106233546231,0.00460388987932,-0.00388135968631,0.682316537614,0.731032066153
1385571161069122819,834010,1385571161069122819,/world,vicon/Archie/Archie,0.293758625748,-0.976248899178,0.106252227542,0.00459818347692,-0.00395546248053,0.682301447909,0.731045788721
1385571161079675609,834011,1385571161079675609,/world,vicon/Archie/Archie,0.293766348518,-0.97624089992,0.106228942395,0.00462493529887,-0.00389198358954,0.682315524772,0.731032822172
1385571161089010671,834012,1385571161089010671,/world,vicon/Archie/Archie,0.293756128926,-0.97623624561,0.106245259009,0.0046218397972,-0.00387378807654,0.682322396358,0.731026524684
1385571161098995151,834013,1385571161098995151,/world,vicon/Archie/Archie,0.293752988608,-0.976237802146,0.10623545242,0.00461251409482,-0.00387628293551,0.682321477403,0.731027428089
1385571161108880958,834014,1385571161108880958,/world,vicon/Archie/Archie,0.293752597957,-0.9762397787,0.106241975532,0.00463345975632,-0.00389376621632,0.68231415302,0.731034039032
1385571161118936562,834015,1385571161118936562,/world,vicon/Archie/Archie,0.293770702622,-0.976236141354,0.10623995139,0.00461352828204,-0.00386228469898,0.682313362598,0.731035069839
1385571161128984190,834016,1385571161128984190,/world,vicon/Archie/Archie,0.293766184497,-0.976237606634,0.106231167912,0.00461632954559,-0.00391738169187,0.682312642518,0.731035431072
1385571161138981385,834017,1385571161138981385,/world,vicon/Archie/Archie,0.293736088372,-0.976238388854,0.106231861937,0.00462176510444,-0.00388492427567,0.682315046272,0.731033326382
1385571161149157676,834018,1385571161149157676,/world,vicon/Archie/Archie,0.293704780674,-0.976263966442,0.106231973099,0.00459152120936,-0.00384631779187,0.6822665964,0.731078939109
1385571161159227429,834019,1385571161159227429,/world,vicon/Archie/Archie,0.293753692689,-0.976241007206,0.106232834691,0.00462047023273,-0.00389050629554,0.682331450583,0.731017993459
1385571161169159081,834020,1385571161169159081,/world,vicon/Archie/Archie,0.293805015325,-0.976289227308,0.106304893588,0.0048400057703,-0.00365214737531,0.682304668926,0.731042799654
1385571161179215515,834021,1385571161179215515,/world,vicon/Archie/Archie,0.293696803524,-0.976259356416,0.106229218529,0.00461986817204,-0.00386380646823,0.682272906429,0.731072779531
1385571161189217489,834022,1385571161189217489,/world,vicon/Archie/Archie,0.293747588399,-0.976239922105,0.106228174409,0.00459873190168,-0.00389091143071,0.682328972862,0.731020441073
1385571161199131853,834023,1385571161199131853,/world,vicon/Archie/Archie,0.293747434112,-0.976234120195,0.106233454814,0.00462970657085,-0.00388440637673,0.682305953734,0.731041765362
1385571161209062091,834024,1385571161209062091,/world,vicon/Archie/Archie,0.29374821126,-0.976238402034,0.106226894949,0.00461624651898,-0.0038992332264,0.682318019943,0.731030509561
1385571161219074365,834025,1385571161219074365,/world,vicon/Archie/Archie,0.293690021948,-0.976252719352,0.106212822077,0.00464465026277,-0.00375899939512,0.682290572157,0.731056681998
1385571161229260064,834026,1385571161229260064,/world,vicon/Archie/Archie,0.293747633664,-0.976236813665,0.106228165362,0.00462022511475,-0.00389826363585,0.682320172523,0.731028480449
1385571161239130942,834027,1385571161239130942,/world,vicon/Archie/Archie,0.293749570685,-0.976231771712,0.106227752874,0.00461889027675,-0.00389463634566,0.682317089641,0.731031385677
1385571161249551620,834028,1385571161249551620,/world,vicon/Archie/Archie,0.293687271697,-0.976247576916,0.106207603424,0.00463627344901,-0.00374094909641,0.682293530216,0.731054067012
1385571161259102773,834029,1385571161259102773,/world,vicon/Archie/Archie,0.293692180554,-0.976256500259,0.106207344399,0.00463005751933,-0.00375188869029,0.682301493996,0.731046617658
1385571161269119762,834030,1385571161269119762,/world,vicon/Archie/Archie,0.293753573048,-0.976249156592,0.106248173179,0.00459847716436,-0.00397194331189,0.682290394036,0.731056014188
1385571161279203068,834031,1385571161279203068,/world,vicon/Archie/Archie,0.293723546633,-0.976240387811,0.106266336316,0.00476939439739,-0.00402436253499,0.682344772768,0.731003877185
1385571161289126282,834032,1385571161289126282,/world,vicon/Archie/Archie,0.293709074021,-0.976237145522,0.106265359045,0.00477568697869,-0.00400955348783,0.682332193873,0.731015658861
1385571161299180669,834033,1385571161299180669,/world,vicon/Archie/Archie,0.293752807922,-0.97623662667,0.10622753968,0.00460246417598,-0.00387208540895,0.682324769477,0.731024440929
1385571161309162077,834034,1385571161309162077,/world,vicon/Archie/Archie,0.293759926565,-0.976240858866,0.106230775879,0.00461115040966,-0.00386173652308,0.682325538044,0.731023723566
1385571161319141288,834035,1385571161319141288,/world,vicon/Archie/Archie,0.293699973328,-0.97625177239,0.106203953692,0.00461784816195,-0.00377217175435,0.682303793743,0.731044444095
1385571161329159501,834036,1385571161329159501,/world,vicon/Archie/Archie,0.293711046673,-0.97624061317,0.106261061008,0.00477398844456,-0.00401240310889,0.682348756026,0.731000194805
1385571161339238188,834037,1385571161339238188,/world,vicon/Archie/Archie,0.293767291662,-0.976243621591,0.106232467295,0.00459308373714,-0.0038704607836,0.682319382509,0.731029536591
1385571161349094001,834038,1385571161349094001,/world,vicon/Archie/Archie,0.293703020497,-0.976245454641,0.106207244485,0.00463307185241,-0.00375845856082,0.68228676001,0.731060316082
1385571161359185453,834039,1385571161359185453,/world,vicon/Archie/Archie,0.293753569566,-0.976240439679,0.106232833981,0.00460394327462,-0.00388046032907,0.682326779244,0.731022511323
1385571161369100427,834040,1385571161369100427,/world,vicon/Archie/Archie,0.293770187465,-0.976243028559,0.106230656819,0.00462580986695,-0.00388330520429,0.682326229796,0.731022871022
1385571161379117620,834041,1385571161379117620,/world,vicon/Archie/Archie,0.293708710188,-0.976258318166,0.106212602448,0.00463736302986,-0.00376676185655,0.682288017161,0.731059072858
1385571161389122028,834042,1385571161389122028,/world,vicon/Archie/Archie,0.293760089119,-0.976235990939,0.106232789114,0.00461664872059,-0.00387756246695,0.682314202625,0.73103418522
1385571161399146221,834043,1385571161399146221,/world,vicon/Archie/Archie,0.293753013031,-0.976240704058,0.106240337838,0.0045713497082,-0.00386067521791,0.682319723575,0.731029406227
1385571161409173912,834044,1385571161409173912,/world,vicon/Archie/Archie,0.293767548536,-0.976241094588,0.106236638859,0.00463425959634,-0.00387986223901,0.682325160758,0.731023833609
1385571161418875693,834045,1385571161418875693,/world,vicon/Archie/Archie,0.293761802793,-0.976237531133,0.106230809116,0.00460897702872,-0.00386793844058,0.682322791361,0.731026268182
1385571161428859334,834046,1385571161428859334,/world,vicon/Archie/Archie,0.293758254797,-0.976233224762,0.106229242414,0.0046185266702,-0.00387038732804,0.682311998923,0.731036268211
1385571161438856967,834047,1385571161438856967,/world,vicon/Archie/Archie,0.293712170826,-0.976250507361,0.106211976814,0.00463438859778,-0.00374567679945,0.682287285914,0.731059882518
1385571161449196633,834048,1385571161449196633,/world,vicon/Archie/Archie,0.293766470745,-0.976236284204,0.106230219786,0.00462889058569,-0.00388603655877,0.682308738686,0.731039162566
1385571161459115166,834049,1385571161459115166,/world,vicon/Archie/Archie,0.293758463246,-0.976240507884,0.10623191907,0.00463052941371,-0.0038693075902,0.682312370158,0.731035851504
1385571161469152126,834050,1385571161469152126,/world,vicon/Archie/Archie,0.29375097146,-0.976235499199,0.106231905152,0.00463290427348,-0.00388145461716,0.682318420627,0.731030124811
1385571161479132415,834051,1385571161479132415,/world,vicon/Archie/Archie,0.293757753872,-0.976234837766,0.106230759989,0.00462771839806,-0.00390461054039,0.682306232756,0.731041409895
1385571161489105636,834052,1385571161489105636,/world,vicon/Archie/Archie,0.293707642576,-0.976256625884,0.106210382656,0.00464964203272,-0.00376772461329,0.682294351892,0.731053077729
1385571161499190989,834053,1385571161499190989,/world,vicon/Archie/Archie,0.293767352448,-0.976239494407,0.106235222758,0.00463846162897,-0.00389749825452,0.68232432583,0.73102449245
1385571161509125135,834054,1385571161509125135,/world,vicon/Archie/Archie,0.293769377163,-0.976231501406,0.106232707188,0.00462140674673,-0.00390101312901,0.68230816391,0.73103966661
1385571161519222391,834055,1385571161519222391,/world,vicon/Archie/Archie,0.293753850262,-0.976230758933,0.106231892596,0.00462992539831,-0.00388944742983,0.682308949604,0.731038941014
1385571161529136426,834056,1385571161529136426,/world,vicon/Archie/Archie,0.293756498522,-0.976230154058,0.106231262798,0.00462721049516,-0.00389779724386,0.682303947619,0.73104358226
1385571161539084920,834057,1385571161539084920,/world,vicon/Archie/Archie,0.293710752106,-0.976249914448,0.106204754305,0.00463780665616,-0.00377439723816,0.682286647219,0.731060309209
1385571161549128733,834058,1385571161549128733,/world,vicon/Archie/Archie,0.293766665606,-0.976227122048,0.106224850553,0.00463351669057,-0.00390971497098,0.682309999892,0.731037829869
1385571161559224890,834059,1385571161559224890,/world,vicon/Archie/Archie,0.293717992113,-0.976249112976,0.106281849852,0.00476643062178,-0.00412035532051,0.682323338575,0.731023368605
1385571161569128551,834060,1385571161569128551,/world,vicon/Archie/Archie,0.293709735495,-0.976229349428,0.106264487455,0.00479488041865,-0.00403504889302,0.68233265322,0.731014964178
1385571161579132428,834061,1385571161579132428,/world,vicon/Archie/Archie,0.293692404494,-0.976250304102,0.106213413652,0.00463909303181,-0.003774863145,0.682296530448,0.731051074661
1385571161589151098,834062,1385571161589151098,/world,vicon/Archie/Archie,0.293715413148,-0.976225742043,0.106261506021,0.00479629615613,-0.00401871637343,0.682328005124,0.731019383386
1385571161599158372,834063,1385571161599158372,/world,vicon/Archie/Archie,0.293755036965,-0.976238854218,0.106230956122,0.00464516982559,-0.00390471360058,0.682320938061,0.731027573415
1385571161609086804,834064,1385571161609086804,/world,vicon/Archie/Archie,0.29376226718,-0.976237361498,0.106227593001,0.00464576000721,-0.0039008030675,0.682319805647,0.731028647504
1385571161619149277,834065,1385571161619149277,/world,vicon/Archie/Archie,0.293755043702,-0.976238269577,0.106224862873,0.00463824422457,-0.0038933468904,0.682312128388,0.73103590062
1385571161629116046,834066,1385571161629116046,/world,vicon/Archie/Archie,0.293756531332,-0.97623590696,0.106226385949,0.0046279299511,-0.0038920735424,0.682319123805,0.731029443537
1385571161639194016,834067,1385571161639194016,/world,vicon/Archie/Archie,0.293709073802,-0.976241260851,0.10625780218,0.00477535158922,-0.00401742853707,0.682343425221,0.731005134279
1385571161649175404,834068,1385571161649175404,/world,vicon/Archie/Archie,0.293762986931,-0.976234415723,0.10623206546,0.00464458063016,-0.00388697648482,0.68231348,0.73103463276
1385571161659148966,834069,1385571161659148966,/world,vicon/Archie/Archie,0.29374677874,-0.976236993931,0.106229174962,0.00463923223177,-0.00390896602743,0.682310915076,0.731036943442
1385571161669130101,834070,1385571161669130101,/world,vicon/Archie/Archie,0.293762916759,-0.97623511444,0.106223740767,0.00462727862477,-0.0039141052857,0.682322813734,0.731025885951
1385571161679162646,834071,1385571161679162646,/world,vicon/Archie/Archie,0.293746168788,-0.976235450529,0.106232358746,0.00463244841911,-0.0038924261986,0.68231555602,0.731032743078
1385571161689203823,834072,1385571161689203823,/world,vicon/Archie/Archie,0.293753393149,-0.976238229726,0.106225284484,0.00462575271256,-0.00390745071474,0.682309399616,0.731038451408
1385571161699142429,834073,1385571161699142429,/world,vicon/Archie/Archie,0.293761845375,-0.97623834898,0.1062363199,0.00457202859826,-0.00386820586446,0.682307115641,0.731041129817
1385571161709133917,834074,1385571161709133917,/world,vicon/Archie/Archie,0.293658862818,-0.9762559772,0.10624143435,0.0047766462004,-0.00388778049418,0.682323378216,0.731024538818
1385571161719020271,834075,1385571161719020271,/world,vicon/Archie/Archie,0.293747788551,-0.976231259828,0.106233654776,0.00462307274811,-0.00390603036645,0.682306603899,0.731041085303
1385571161729057563,834076,1385571161729057563,/world,vicon/Archie/Archie,0.293759624899,-0.976240065834,0.106230323412,0.00461990793755,-0.00388677310121,0.68232127649,0.731027513227
1385571161738938799,834077,1385571161738938799,/world,vicon/Archie/Archie,0.293715721737,-0.97624063121,0.106264303616,0.00477692131474,-0.004004570059,0.682332330044,0.73101555101
1385571161748982898,834078,1385571161748982898,/world,vicon/Archie/Archie,0.293709468679,-0.976240106971,0.106258613506,0.00476873445071,-0.00401951760505,0.682345009102,0.731003687544
1385571161758996172,834079,1385571161758996172,/world,vicon/Archie/Archie,0.293699157634,-0.976255591311,0.106208010481,0.00463394637571,-0.00377093378943,0.68230188366,0.731046131344
1385571161769303251,834080,1385571161769303251,/world,vicon/Archie/Archie,0.293763024512,-0.976238303606,0.10623188241,0.00463257480522,-0.00388998806706,0.682310282338,0.731037677455
1385571161779169625,834081,1385571161779169625,/world,vicon/Archie/Archie,0.293758966341,-0.976238041526,0.106227423123,0.00461819597426,-0.00389786571961,0.682328865938,0.731020381123
1385571161789169698,834082,1385571161789169698,/world,vicon/Archie/Archie,0.293725704184,-0.976235602182,0.106260173902,0.00476965038691,-0.00402321179898,0.682343135068,0.731005410532
1385571161799235073,834083,1385571161799235073,/world,vicon/Archie/Archie,0.293753642729,-0.976241463989,0.106238467746,0.00455419074281,-0.00385510407718,0.68231725443,0.731031847341
1385571161809252152,834084,1385571161809252152,/world,vicon/Archie/Archie,0.293761428555,-0.976249112412,0.10624889044,0.00461355692554,-0.00395217531456,0.682305537997,0.731041892248
1385571161819144612,834085,1385571161819144612,/world,vicon/Archie/Archie,0.293763951043,-0.976248608562,0.106238050747,0.00455586136138,-0.00387049526869,0.682322109004,0.731027224499
1385571161829166763,834086,1385571161829166763,/world,vicon/Archie/Archie,0.293751257592,-0.976236468392,0.106227784734,0.00461845624234,-0.00387779591527,0.682313599041,0.731034735922
1385571161839219065,834087,1385571161839219065,/world,vicon/Archie/Archie,0.293749379066,-0.976240865806,0.10623715651,0.00462172970917,-0.00387264623472,0.682333806781,0.731015881052
1385571161849177447,834088,1385571161849177447,/world,vicon/Archie/Archie,0.293759022106,-0.976236660332,0.106226967743,0.00461585541093,-0.00387846992602,0.682304683593,0.731043069933
1385571161859168791,834089,1385571161859168791,/world,vicon/Archie/Archie,0.293725618742,-0.97623921936,0.106260976896,0.00476648379878,-0.00400144998235,0.682352140415,0.730997144661
1385571161869240412,834090,1385571161869240412,/world,vicon/Archie/Archie,0.293753993741,-0.97623707227,0.106223326784,0.00460774512295,-0.00387538990541,0.682324589129,0.731024558485
1385571161879138647,834091,1385571161879138647,/world,vicon/Archie/Archie,0.293762739711,-0.976238576694,0.106234576766,0.00456636870149,-0.00389501076245,0.682312576455,0.731035926052
1385571161889106105,834092,1385571161889106105,/world,vicon/Archie/Archie,0.293881729944,-0.97627644054,0.106332474344,0.00477951374237,-0.00377642485193,0.682329710229,0.731019193594
1385571161899165532,834093,1385571161899165532,/world,vicon/Archie/Archie,0.293720526971,-0.976240655197,0.106262659137,0.00478919960413,-0.00401852424111,0.682337821002,0.731010268779
1385571161909175617,834094,1385571161909175617,/world,vicon/Archie/Archie,0.293758871221,-0.976236429332,0.106223131512,0.00461397573427,-0.0039173748051,0.682317025754,0.731031354847
1385571161919212766,834095,1385571161919212766,/world,vicon/Archie/Archie,0.293765251013,-0.976233807436,0.106223262059,0.00461161758683,-0.00389622465221,0.682303724442,0.73104389747
1385571161929214513,834096,1385571161929214513,/world,vicon/Archie/Archie,0.293767299119,-0.976250968304,0.106246655044,0.00459265618213,-0.00396035303936,0.682286552303,0.731059699108
1385571161939213780,834097,1385571161939213780,/world,vicon/Archie/Archie,0.293756989914,-0.976236794567,0.106224823839,0.00461261452242,-0.00388659020412,0.682317524598,0.731031062151
1385571161949152221,834098,1385571161949152221,/world,vicon/Archie/Archie,0.293713150955,-0.976251338901,0.106214067125,0.00458534021955,-0.0037545863014,0.682296141068,0.73105188162
1385571161959202407,834099,1385571161959202407,/world,vicon/Archie/Archie,0.293761882773,-0.97623870556,0.106223901194,0.00460837131898,-0.00387499941281,0.682323385698,0.731025679866
1385571161969179330,834100,1385571161969179330,/world,vicon/Archie/Archie,0.293755116558,-0.976237025888,0.106214084516,0.00459187660522,-0.00388926452001,0.682324148968,0.731024995486
1385571161979116126,834101,1385571161979116126,/world,vicon/Archie/Archie,0.293751852932,-0.976241323171,0.106218343106,0.00460755981874,-0.00389545453983,0.682325229576,0.731023855227
1385571161989174086,834102,1385571161989174086,/world,vicon/Archie/Archie,0.293712442713,-0.976255864007,0.106269843537,0.0047499816411,-0.0041071380101,0.682337030952,0.731010769608
1385571161999563592,834103,1385571161999563592,/world,vicon/Archie/Archie,0.293750388756,-0.976242759331,0.106231429449,0.0045576234379,-0.00388401960515,0.68232441287,0.731024991407
1385571162009183994,834104,1385571162009183994,/world,vicon/Archie/Archie,0.293747624617,-0.976245261522,0.10623762679,0.00458568989233,-0.00397771161914,0.68230118565,0.731045991247
1385571162019104580,834105,1385571162019104580,/world,vicon/Archie/Archie,0.293710894958,-0.976253055247,0.106192263374,0.00460672917706,-0.00376777768802,0.68229453683,0.731053176527
1385571162029074436,834106,1385571162029074436,/world,vicon/Archie/Archie,0.293763960185,-0.976234426396,0.106218651689,0.00461920327362,-0.00388757735345,0.682314768357,0.731033587864
1385571162038937230,834107,1385571162038937230,/world,vicon/Archie/Archie,0.293763694024,-0.976240775096,0.106225258031,0.00461799382274,-0.00388251085052,0.682319247825,0.731029441466
1385571162048910920,834108,1385571162048910920,/world,vicon/Archie/Archie,0.29376582604,-0.976250531497,0.106229764615,0.00457422196634,-0.0038809913775,0.682315082171,0.731033612798
1385571162059023588,834109,1385571162059023588,/world,vicon/Archie/Archie,0.293777546173,-0.976242334265,0.106219669178,0.00461449700381,-0.00388945312539,0.682316397603,0.731032086938
1385571162068961550,834110,1385571162068961550,/world,vicon/Archie/Archie,0.293773339438,-0.976244106672,0.106227419304,0.00461643779438,-0.00391035931324,0.682299904395,0.731047356917
1385571162079151204,834111,1385571162079151204,/world,vicon/Archie/Archie,0.293786108894,-0.976244305188,0.10623766913,0.00464049637421,-0.00388980201229,0.682308044072,0.731039717271
1385571162089270989,834112,1385571162089270989,/world,vicon/Archie/Archie,0.293782677975,-0.976244012874,0.106232088309,0.00463342913289,-0.0039050983049,0.682314554406,0.731033604144
1385571162099265856,834113,1385571162099265856,/world,vicon/Archie/Archie,0.293780191027,-0.976242601359,0.106230515742,0.00463221577063,-0.00389451133273,0.682308150209,0.731039645654
1385571162109171396,834114,1385571162109171396,/world,vicon/Archie/Archie,0.293781640133,-0.976247298496,0.106237969234,0.00464523000487,-0.00388770924508,0.682302005966,0.731045333895
1385571162119164785,834115,1385571162119164785,/world,vicon/Archie/Archie,0.293787929875,-0.976256619977,0.106251659044,0.00459464113382,-0.00398583958165,0.682292377947,0.731054111097
1385571162129144339,834116,1385571162129144339,/world,vicon/Archie/Archie,0.293788591477,-0.976251505785,0.106228223851,0.00462897320272,-0.00389752116387,0.682320152045,0.731028448181
1385571162139187303,834117,1385571162139187303,/world,vicon/Archie/Archie,0.29379646512,-0.976252104017,0.106231180406,0.00462458132078,-0.00390619347146,0.682304817476,0.731042742218
1385571162149184864,834118,1385571162149184864,/world,vicon/Archie/Archie,0.29379015765,-0.976252703649,0.106232999548,0.00461936437943,-0.00388701841027,0.682321395668,0.73102740412
1385571162159180009,834119,1385571162159180009,/world,vicon/Archie/Archie,0.293795655895,-0.976252250567,0.106233038568,0.00461947724468,-0.00391209386842,0.682319803087,0.731028756114
1385571162169283302,834120,1385571162169283302,/world,vicon/Archie/Archie,0.29380219832,-0.97625436495,0.106231323937,0.00460644952352,-0.00388233110824,0.682314977619,0.731033500905
1385571162179176695,834121,1385571162179176695,/world,vicon/Archie/Archie,0.293782784915,-0.976247202105,0.106227423474,0.0046289435053,-0.00390738079649,0.682303898986,0.731043565518
1385571162189145056,834122,1385571162189145056,/world,vicon/Archie/Archie,0.293766316124,-0.976244935465,0.106225148476,0.00461114942487,-0.00389728815611,0.682318541959,0.73103006487
1385571162199114162,834123,1385571162199114162,/world,vicon/Archie/Archie,0.293777286683,-0.976241872992,0.106228429648,0.00461515061554,-0.00389103158636,0.682323931069,0.731025042901
1385571162209156474,834124,1385571162209156474,/world,vicon/Archie/Archie,0.293729330369,-0.976255803204,0.106202469807,0.00461145378701,-0.00376834053052,0.682283152276,0.731063768917
1385571162219155749,834125,1385571162219155749,/world,vicon/Archie/Archie,0.293773467748,-0.976248159817,0.106225351271,0.00461267482621,-0.00389985162499,0.682313180533,0.731035045712
1385571162229310627,834126,1385571162229310627,/world,vicon/Archie/Archie,0.293788592429,-0.976240718756,0.106231838672,0.00461948943654,-0.00388392313192,0.682319041622,0.731029616978
1385571162239209455,834127,1385571162239209455,/world,vicon/Archie/Archie,0.293782400323,-0.976240168574,0.106232168146,0.00462442998184,-0.0038872198075,0.682301237543,0.731046185556
1385571162249165615,834128,1385571162249165615,/world,vicon/Archie/Archie,0.293784668823,-0.976238489734,0.10622974806,0.0046255867478,-0.00387703103591,0.682313185072,0.731035081275
1385571162259165491,834129,1385571162259165491,/world,vicon/Archie/Archie,0.293782983756,-0.976240828119,0.106237664612,0.00456602284587,-0.00385286524805,0.682309790767,0.731038751564
1385571162269154624,834130,1385571162269154624,/world,vicon/Archie/Archie,0.293776143147,-0.976236675923,0.106222568187,0.00461886155713,-0.00389064472083,0.682307583868,0.731040279326
1385571162279144256,834131,1385571162279144256,/world,vicon/Archie/Archie,0.293784170055,-0.976239463011,0.106231547225,0.00460992654723,-0.00386263414147,0.682311063909,0.731037236194
1385571162289150892,834132,1385571162289150892,/world,vicon/Archie/Archie,0.293774750893,-0.97623647165,0.106224974695,0.00461385475062,-0.00388911262834,0.682307272138,0.731040610045
1385571162299159333,834133,1385571162299159333,/world,vicon/Archie/Archie,0.293775136108,-0.976236573704,0.106220158029,0.00462868193392,-0.00388448070982,0.682310532362,0.731037498041
1385571162309124460,834134,1385571162309124460,/world,vicon/Archie/Archie,0.293765021576,-0.976233096598,0.106228055424,0.00462430125424,-0.00386496340329,0.682321611738,0.731027288171
1385571162319099023,834135,1385571162319099023,/world,vicon/Archie/Archie,0.293762419553,-0.976234810834,0.106216229791,0.00462341106029,-0.00389479068906,0.682315102343,0.731033211141
1385571162329213306,834136,1385571162329213306,/world,vicon/Archie/Archie,0.293783651066,-0.976236856677,0.106218900287,0.00463018927058,-0.00389810292952,0.682315978118,0.731032333174
1385571162339194713,834137,1385571162339194713,/world,vicon/Archie/Archie,0.293905076245,-0.976275712123,0.106315208498,0.00481005609819,-0.00377650388945,0.68231817099,0.731029763359
1385571162348959217,834138,1385571162348959217,/world,vicon/Archie/Archie,0.293774726509,-0.976245428028,0.106228021653,0.00458602980567,-0.00387480500136,0.682304161994,0.731043763904
1385571162358996482,834139,1385571162358996482,/world,vicon/Archie/Archie,0.293783837404,-0.976238100519,0.106221333018,0.00461855731151,-0.00389605256109,0.682306756812,0.73104102437
1385571162368909768,834140,1385571162368909768,/world,vicon/Archie/Archie,0.293784847494,-0.97624394871,0.106225510893,0.00460778166152,-0.00389055214326,0.682324839759,0.731024243784
1385571162378869799,834141,1385571162378869799,/world,vicon/Archie/Archie,0.293769670223,-0.976245578997,0.106223117187,0.00462599670625,-0.00389665095858,0.682325560782,0.73102342327
1385571162388879526,834142,1385571162388879526,/world,vicon/Archie/Archie,0.293769779446,-0.976238088129,0.106229691442,0.00457253162311,-0.00387961400883,0.682313479793,0.731035126271
1385571162399262937,834143,1385571162399262937,/world,vicon/Archie/Archie,0.293778534083,-0.976245299581,0.106229508263,0.00456391831591,-0.00387214040978,0.682315089372,0.731033717412
1385571162409232082,834144,1385571162409232082,/world,vicon/Archie/Archie,0.293780484704,-0.976250593889,0.106221217844,0.00461315429384,-0.00389835230699,0.682321426986,0.731027353751
1385571162419192667,834145,1385571162419192667,/world,vicon/Archie/Archie,0.29377825519,-0.976237485212,0.106228507279,0.00456816458691,-0.00386825172776,0.682312498069,0.731036130079
1385571162429211423,834146,1385571162429211423,/world,vicon/Archie/Archie,0.293782731434,-0.97624327026,0.106228564108,0.00461886753608,-0.0038845256297,0.682318747232,0.73102989248
1385571162439138899,834147,1385571162439138899,/world,vicon/Archie/Archie,0.293770987344,-0.976240598594,0.106222936009,0.00462503157613,-0.00388874385374,0.682321358481,0.73102739382
1385571162449134323,834148,1385571162449134323,/world,vicon/Archie/Archie,0.293788666014,-0.97624485016,0.106233323594,0.00455873280001,-0.00385453840046,0.682319026163,0.731030168342
1385571162459192646,834149,1385571162459192646,/world,vicon/Archie/Archie,0.293772669334,-0.976238165162,0.106222579437,0.00461978301837,-0.00387868911302,0.682324415187,0.731024627366
1385571162469150291,834150,1385571162469150291,/world,vicon/Archie/Archie,0.29378050048,-0.976238859861,0.106226717265,0.00461158987426,-0.0038733761355,0.68231263837,0.731035699344
1385571162479608491,834151,1385571162479608491,/world,vicon/Archie/Archie,0.293776479523,-0.976244100847,0.106234642633,0.00457453645758,-0.00386124688095,0.682312965234,0.731035691237
1385571162489325462,834152,1385571162489325462,/world,vicon/Archie/Archie,0.293782892769,-0.976248578467,0.106239058637,0.00454233926061,-0.00388153759143,0.682323751925,0.731025716633
1385571162499158592,834153,1385571162499158592,/world,vicon/Archie/Archie,0.2937380671,-0.976248248629,0.106258797027,0.00476074528623,-0.00400484742567,0.682355123998,0.730994378402
1385571162509151683,834154,1385571162509151683,/world,vicon/Archie/Archie,0.293718050153,-0.976248305529,0.10619734927,0.00462029597641,-0.00377810135018,0.682285036557,0.731061904154
1385571162519201729,834155,1385571162519201729,/world,vicon/Archie/Archie,0.293719817895,-0.976257419191,0.106205433824,0.00463534596493,-0.00374317241316,0.682284073048,0.731062887783
1385571162529233960,834156,1385571162529233960,/world,vicon/Archie/Archie,0.293779031639,-0.976248497257,0.106232946018,0.00456047096605,-0.00386374936888,0.682311515019,0.731037119453
1385571162539221439,834157,1385571162539221439,/world,vicon/Archie/Archie,0.293750516079,-0.976254844747,0.106258121433,0.00477100680041,-0.00400763599853,0.682342509041,0.731006071592
1385571162549210151,834158,1385571162549210151,/world,vicon/Archie/Archie,0.293777006499,-0.976242939997,0.106231530253,0.00456250307067,-0.00387167655268,0.682315037909,0.731033776736
1385571162559225772,834159,1385571162559225772,/world,vicon/Archie/Archie,0.293794967924,-0.976249702522,0.106227950685,0.00457533629797,-0.00390162868823,0.682309460948,0.731038742539
1385571162569207339,834160,1385571162569207339,/world,vicon/Archie/Archie,0.293725474983,-0.97625238826,0.106206175509,0.0046350242278,-0.00374638290881,0.68228337355,0.731063526202
1385571162579209527,834161,1385571162579209527,/world,vicon/Archie/Archie,0.293741120695,-0.976251468737,0.106256253932,0.00478378215912,-0.00401072630913,0.682336322327,0.731011745963
1385571162589191339,834162,1385571162589191339,/world,vicon/Archie/Archie,0.293743418237,-0.976248262374,0.106260640347,0.00477216177552,-0.00400575793443,0.682337517891,0.7310107332
1385571162599198687,834163,1385571162599198687,/world,vicon/Archie/Archie,0.293772958519,-0.976263217993,0.106188416867,0.0044755813782,-0.00381046761418,0.682334192591,0.731016757078
1385571162609171732,834164,1385571162609171732,/world,vicon/Archie/Archie,0.293784884311,-0.976253169225,0.10621813657,0.00461923738057,-0.00390676316965,0.682321346334,0.731027345716
1385571162619197171,834165,1385571162619197171,/world,vicon/Archie/Archie,0.293771184249,-0.976252172735,0.106231228194,0.00455687044062,-0.00389799615877,0.682313616406,0.731034998768
1385571162629165052,834166,1385571162629165052,/world,vicon/Archie/Archie,0.293787174874,-0.976243955371,0.106220754173,0.00461770786122,-0.00390124156143,0.682311956861,0.731036148636
1385571162639182392,834167,1385571162639182392,/world,vicon/Archie/Archie,0.293743895101,-0.976253948057,0.10626761399,0.00472721622527,-0.00399171909094,0.682336056855,0.731012465777
1385571162649305712,834168,1385571162649305712,/world,vicon/Archie/Archie,0.293783998866,-0.976243128666,0.106223566919,0.00461351853336,-0.00388510412966,0.682313029881,0.731035259524
1385571162659149485,834169,1385571162659149485,/world,vicon/Archie/Archie,0.293781781869,-0.976243011349,0.106219012616,0.00460076304742,-0.00390800406165,0.682307192801,0.731040665857
1385571162669070200,834170,1385571162669070200,/world,vicon/Archie/Archie,0.293787480328,-0.976244390917,0.106228417703,0.00463673320121,-0.0038792619664,0.682312581698,0.731035561986
1385571162678999831,834171,1385571162678999831,/world,vicon/Archie/Archie,0.293771364415,-0.976245697657,0.106227701799,0.00461328712511,-0.00388667624542,0.682302184403,0.731045375123
1385571162689024867,834172,1385571162689024867,/world,vicon/Archie/Archie,0.293729952919,-0.976246005788,0.106257903256,0.0047659885698,-0.00401417326034,0.682336105793,0.731012045384
1385571162698945864,834173,1385571162698945864,/world,vicon/Archie/Archie,0.293778219942,-0.976248092856,0.106221045633,0.00462824013824,-0.00391153853583,0.682319526417,0.731028961895
