%time,field.linear.x,field.linear.y,field.linear.z,field.angular.x,field.angular.y,field.angular.z
1385571162649451480,0.0,0.0,0.0,0.0,0.0,0.0
1385571162649493461,0.293743895101,0.976253948057,-0.10626761399,0.00146403129051,0.012287402179,-1.5019335766
1385571162659514166,0.293783998866,0.976243128666,-0.106223566919,0.00144367913159,0.0119763101249,-1.50186915179
1385571162669363834,0.293781781869,0.976243011349,-0.106219012616,0.00139387188315,0.0119923746713,-1.50185352642
1385571162679427124,0.293771364415,0.976245697657,-0.106227701799,0.00144137295041,0.0119782715894,-1.50183950224
1385571162689405659,0.293771364415,0.976245697657,-0.106227701799,0.00144137295041,0.0119782715894,-1.50183950224
1385571162699285124,0.293778219942,0.976248092856,-0.106221045633,0.00142902090142,0.0120350636789,-1.50188729054
1385571162709308222,0.293720194211,0.976255310218,-0.106203388293,0.00164379661136,0.0118088187029,-1.50181176387
1385571162719310861,0.293720194211,0.976255310218,-0.106203388293,0.00164379661136,0.0118088187029,-1.50181176387
1385571162729313487,0.293741054936,0.976240289762,-0.106260322763,0.00150190708336,0.0123681133802,-1.50193711393
1385571162739409012,0.293692403997,0.976253081656,-0.106232834442,0.00169697116103,0.0122261399857,-1.50187087652
1385571162749380857,0.293776178463,0.97624565732,-0.10624816579,0.00130696980083,0.0121020047383,-1.50181798797
1385571162759314353,0.293766713661,0.976239998842,-0.106226588525,0.00144271727743,0.0120317015991,-1.50185795541
1385571162769505616,0.293770003029,0.976243183309,-0.106231064052,0.00142848164588,0.012019881255,-1.5018660349
1385571162779820655,0.293779677832,0.976239406301,-0.106238699995,0.00138986593363,0.011915901134,-1.50185703139
1385571162789471552,0.293779639595,0.976239858747,-0.106223907415,0.00143300034142,0.0120203198724,-1.50186884928
1385571162799498948,0.29377783207,0.976240859014,-0.106230277327,0.00146681091548,0.0119820864764,-1.50185126504
1385571162809304916,0.293784979968,0.976239004047,-0.106235533981,0.00135108272662,0.0118852430961,-1.50185370145
1385571162819436720,0.293768486744,0.976237689532,-0.106231852351,0.00144677145001,0.012029555625,-1.50187538402
1385571162829327517,0.293721218813,0.97625883225,-0.106212566699,0.00159746462715,0.0118742585509,-1.50183893263
1385571162839288792,0.293722380929,0.97624919954,-0.106204842185,0.00163691805379,0.0118800004918,-1.50181877173
1385571162849380012,0.293775850058,0.976238699156,-0.106232317848,0.0014370838402,0.0119874736984,-1.50187683134
1385571162859290528,0.293786921199,0.976246016221,-0.106234339915,0.00142219780301,0.0118978483314,-1.50187165126
1385571162869397169,0.293785917111,0.976234142323,-0.106228969924,0.0014141799535,0.012002089617,-1.50186073632
1385571162879314203,0.293782621693,0.97623780227,-0.106225529864,0.0014464505081,0.01198112149,-1.50187578507
1385571162889317450,0.29377359075,0.976235178043,-0.106226878825,0.001419527947,0.0119652392744,-1.50187791659
1385571162899414920,0.293725475632,0.976252965792,-0.106202746519,0.00160636755079,0.0118452541216,-1.50180977063
1385571162909389352,0.293838623157,0.976282500838,-0.106295821716,0.0020647254318,0.0119003164154,-1.50184718848
1385571162919257925,0.293842878719,0.976283094084,-0.106300903844,0.00205294558186,0.011912231694,-1.50179377204
1385571162929345801,0.293774392594,0.976232801164,-0.106224827795,0.00145898145907,0.0119979973809,-1.50186838351
1385571162939295055,0.29388708769,0.976269963243,-0.106317657409,0.00186692949077,0.0120941775855,-1.5018912288
1385571162949311474,0.293770399519,0.976230630726,-0.106229188117,0.00142660687764,0.0119838512789,-1.50187133391
1385571162959359014,0.293779965725,0.976233595392,-0.106223057641,0.00143942854026,0.0119969524486,-1.50189641658
1385571162969309595,0.293707800899,0.976242545868,-0.106202855058,0.00163770930464,0.0118664383756,-1.50179009863
1385571162979328369,0.293764105956,0.976231207095,-0.106229626194,0.00138094633339,0.0118943508087,-1.50184243382
1385571162989288037,0.293762358702,0.976228845358,-0.106219808929,0.00145245153718,0.011994420366,-1.50189938458
1385571162999403921,0.29376579814,0.97622494687,-0.106221934777,0.00147876696591,0.0120147964761,-1.50186436097
1385571163009369654,0.29376579814,0.97622494687,-0.106221934777,0.00147876696591,0.0120147964761,-1.50186436097
1385571163019346981,0.293766817908,0.976226087559,-0.106224926475,0.00143463300158,0.0119793726327,-1.50186908239
1385571163029298293,0.293766817908,0.976226087559,-0.106224926475,0.00143463300158,0.0119793726327,-1.50186908239
1385571163039348703,0.293763072727,0.976225872714,-0.106228773542,0.00145266514981,0.0119675582683,-1.50188346792
1385571163049307726,0.293760034143,0.976229810399,-0.106229391199,0.00144581739445,0.0119988598691,-1.50187242258
1385571163059303735,0.293748928512,0.976226674136,-0.106225661593,0.00144360404219,0.0120003334781,-1.50188240517
1385571163069298687,0.293759669351,0.976224860526,-0.106229348775,0.00144203576896,0.0119794167465,-1.50183205856
1385571163079352589,0.293702145819,0.976239314832,-0.106203529215,0.00163241144981,0.011836371008,-1.50181890296
1385571163089285028,0.293752961004,0.976221286971,-0.106229292551,0.00142176122104,0.0119987844412,-1.50184773841
1385571163099384985,0.293749775605,0.976229361152,-0.106226538302,0.00142958271834,0.0120327573136,-1.50185284629
1385571163109318332,0.293756666852,0.976224660503,-0.106219779443,0.00144206048228,0.0119972021456,-1.50183513468
1385571163119308884,0.293755168655,0.976221011462,-0.106227766684,0.00146232227392,0.0119908601889,-1.50187096729
1385571163129440985,0.293754872425,0.976221623243,-0.106225870289,0.00146619647936,0.0119695704573,-1.50185105406
1385571163139393956,0.293698856093,0.97624090614,-0.106212368298,0.00166490764432,0.0118020176104,-1.50181837838
1385571163149301439,0.293757887738,0.97622365624,-0.106235611816,0.00141868721164,0.0118847014517,-1.50186673148
1385571163159251093,0.293700775945,0.976238942869,-0.106207450029,0.00164037448626,0.0118668872579,-1.50182801146
1385571163169357447,0.29374013887,0.976228462856,-0.10620279139,0.00144627256945,0.0116345095044,-1.50187526013
1385571163179348001,0.293744293161,0.976226977443,-0.106232609134,0.00146547994225,0.0119882246388,-1.50187778656
1385571163189349745,0.293753891496,0.976227198408,-0.106240947622,0.00140123361432,0.0118656294893,-1.50199069562
1385571163199318972,0.293748785572,0.976233280733,-0.106203034583,0.00134022326342,0.0115464961919,-1.50189268261
1385571163209244691,0.293755208695,0.976229999438,-0.106203998103,0.00135329229924,0.0115334346562,-1.50168167882
1385571163219312285,0.293768115299,0.97622389603,-0.106215922168,0.00137806416733,0.0115415323181,-1.50173377575
1385571163229317975,0.293695157206,0.976240668241,-0.106208762457,0.00181686195984,0.011635416686,-1.50223680926
1385571163239284617,0.29382918097,0.976225628932,-0.106349004771,0.00208663857802,0.0122893579001,-1.50213966443
1385571163249447494,0.293830898772,0.976252256355,-0.106122104893,0.00204029297087,0.011141734688,-1.50137519633
1385571163259471193,0.293813132284,0.976266119778,-0.106287654319,0.0021474546864,0.0119071050912,-1.50182394963
1385571163269378381,0.293720643649,0.976245669005,-0.106157917567,0.00163327342314,0.0118059242741,-1.50240113219
1385571163279455257,0.293674995653,0.976213354793,-0.106178094025,0.00160237612286,0.0123982514848,-1.50225314987
1385571163289302086,0.293825120965,0.976243421366,-0.106220960262,0.00193508959849,0.01225527232,-1.50177846287
1385571163299355526,0.293667343886,0.97625220305,-0.1061857336,0.00184462795386,0.0113939593737,-1.50281786971
1385571163309340361,0.293680969557,0.9762873169,-0.106210895983,0.00159078364512,0.0115282890303,-1.50280006577
1385571163319380232,0.293628340838,0.976259424125,-0.106284359568,0.00208448644942,0.0119671722505,-1.50193092491
1385571163329348060,0.293577140556,0.976197562622,-0.10633645637,0.00216924136454,0.0123821360538,-1.50194789869
1385571163339336305,0.293577140556,0.976197562622,-0.10633645637,0.00216924136454,0.0123821360538,-1.50194789869
1385571163349347196,0.293676989803,0.976287781548,-0.106213334041,0.00154508781078,0.0113434513531,-1.50269275442
1385571163359335373,0.29373004764,0.97625439665,-0.10628158656,0.00133865815621,0.0119979435561,-1.50215852219
1385571163369345662,0.293726101265,0.976250126536,-0.10625404631,0.00146605747906,0.0120339266672,-1.50187144255
1385571163379377667,0.293650260097,0.976258454969,-0.106193953829,0.00173143319617,0.0114241910902,-1.50232951575
1385571163389321476,0.293662890682,0.976281289657,-0.106235960951,0.00147933143164,0.0114166341054,-1.50230033277
1385571163399258946,0.293633116996,0.976249321342,-0.106265233486,0.00141937745983,0.0131080598673,-1.50200670879
1385571163409355078,0.293718061939,0.976262868726,-0.106229793011,0.00144309400775,0.0116628725009,-1.50195602583
1385571163419307646,0.293581105891,0.976231731223,-0.106275605238,0.0022956100233,0.0118545284468,-1.5022467349
1385571163429433552,0.293625811473,0.976281717194,-0.106210355741,0.00168571165429,0.0113877794368,-1.50237757957
1385571163439368516,0.29383385696,0.976283160229,-0.106372447285,0.00185911861077,0.0121483313111,-1.50196422807
1385571163449333367,0.293674949494,0.976269501509,-0.106244916614,0.0016668450029,0.0118082599673,-1.50194061479
1385571163459309095,0.293663256746,0.97628635138,-0.106193080036,0.0016022802343,0.0114725788222,-1.5024223488
1385571163469390532,0.293647994714,0.976263021766,-0.106265416245,0.00167289156136,0.0119871894969,-1.50212412
1385571163479295285,0.29366533019,0.976278382278,-0.106235521974,0.00151727388555,0.0115289054846,-1.50193371419
1385571163489294995,0.293654461481,0.976265873398,-0.106248365656,0.00163329490906,0.0118368769703,-1.50211831166
1385571163499266573,0.29364310619,0.976268211252,-0.106207679559,0.00178356879695,0.0116913198273,-1.50225745055
1385571163509286484,0.293617151989,0.976270427966,-0.106278737486,0.0016319278534,0.0122801057495,-1.50221195361
1385571163519362843,0.29360231248,0.976182464532,-0.106278860963,0.00172739087484,0.0124869082637,-1.50163556986
1385571163529301569,0.293625437692,0.976271001525,-0.106302071054,0.00160660454286,0.0121609482667,-1.5022410729
1385571163539302258,0.293658360693,0.976269212974,-0.106234015317,0.00156380868394,0.0117885289939,-1.50216567041
1385571163549295130,0.293661886527,0.976265934845,-0.106205689321,0.00158015663453,0.0114674752999,-1.5021780735
1385571163559302838,0.293657215619,0.976268655013,-0.106271445947,0.00161213877486,0.0118628892525,-1.50203215623
1385571163569350667,0.293726869485,0.976258897661,-0.106297814879,0.00132519799276,0.0118713732423,-1.50224062304
1385571163579299278,0.293664635712,0.976280724431,-0.106251379387,0.00159436344788,0.0118786234161,-1.50202547145
1385571163589343136,0.29365140492,0.976277123836,-0.106207687478,0.00154210367063,0.0115581328846,-1.50219826529
1385571163599316248,0.293575188173,0.976223601336,-0.106269429355,0.00198337021648,0.0114484924352,-1.50203435293
1385571163609356846,0.293738141622,0.976255755313,-0.106277460382,0.00125435557844,0.0120448348542,-1.50215419193
1385571163619329597,0.293720420658,0.976298722348,-0.106252493508,0.00116007359995,0.0118297158671,-1.50234915412
1385571163629270652,0.293695852553,0.976268431035,-0.10621124057,0.00132652485659,0.0114971790218,-1.50220042533
1385571163639401301,0.293713486562,0.976267673805,-0.106239370155,0.00120859806322,0.0117361059555,-1.50193136667
1385571163649361978,0.293713486562,0.976267673805,-0.106239370155,0.00120859806322,0.0117361059555,-1.50193136667
1385571163659303209,0.293646092641,0.976282845613,-0.106224531603,0.00139944557425,0.0114682967836,-1.5023780084
1385571163669371059,0.293681102208,0.976351674491,-0.106212595664,0.00132546160139,0.0112584463594,-1.50258195698
1385571163679351874,0.293819838753,0.97628209988,-0.106325585032,0.00196272919828,0.0120885872814,-1.50197432094
1385571163689307263,0.293711331535,0.976257249344,-0.106260108779,0.00133632820411,0.0120536892462,-1.50209681259
1385571163699358473,0.293606917545,0.976274059196,-0.106278251416,0.0018165079187,0.0115339279724,-1.50236101926
1385571163709300297,0.293703496946,0.976253918222,-0.106241092066,0.00151952066464,0.0119088330008,-1.50220308794
1385571163719316623,0.293708309308,0.976282232222,-0.106272189966,0.00150962531477,0.0120409773831,-1.50208410435
1385571163729347930,0.293674758698,0.976289534731,-0.106226957805,0.00167706485831,0.0113506811048,-1.50232208429
1385571163739300939,0.293631661476,0.976269998163,-0.106331157727,0.0019638936916,0.0119763423474,-1.50227321546
1385571163749370422,0.293808824023,0.976302205408,-0.106438220115,0.00242548563956,0.0124945326645,-1.50207394055
1385571163759318437,0.293721908343,0.9762744815,-0.106293790767,0.00218226848369,0.0121852547439,-1.50210727661
1385571163769441995,0.293679225767,0.976300871865,-0.106218520511,0.00206043643477,0.011419647698,-1.50230332172
1385571163779334669,0.293683282359,0.976272145966,-0.106245611613,0.00177462149137,0.0112958534036,-1.50217378147
1385571163789381066,0.293714499376,0.976282463889,-0.106319545672,0.00112127418179,0.0118879873309,-1.50181749682
1385571163799295589,0.293656120525,0.97627820613,-0.106314348427,0.000874138203469,0.0119286363974,-1.50248319731
1385571163809369072,0.29369063232,0.976313528207,-0.106281040209,0.000341054949698,0.0120819348369,-1.50220682443
1385571163819377131,0.293653315696,0.97631947434,-0.106275813846,-0.000175275279389,0.0114801506109,-1.50249280056
1385571163829313240,0.293596386117,0.976275978294,-0.106262822039,-0.000598282057166,0.011768378183,-1.50277652336
1385571163839347080,0.293572703006,0.976317493634,-0.106288208245,-0.000203716119111,0.0113800839787,-1.5022925079
1385571163849316842,0.293664245746,0.9763161638,-0.106283936931,-6.37432939962e-05,0.011469369248,-1.50223026309
1385571163859366957,0.293658802149,0.976245530087,-0.106218941917,0.000985739259874,0.0119692008332,-1.5021325517
1385571163869401070,0.293576301648,0.976284761627,-0.106303530775,0.00209487683035,0.0114216220601,-1.5023367189
1385571163879370921,0.293691950854,0.976345824352,-0.106339895846,0.0021298497821,0.0111689151436,-1.50246999327
1385571163889279098,0.293602861135,0.976264945337,-0.106322146358,0.00241043611201,0.0117624412661,-1.50231772094
1385571163899373685,0.293629336545,0.976303852729,-0.106287703553,0.00172943519063,0.0114250173232,-1.50257363895
1385571163909285206,0.29362140607,0.976271454791,-0.106272788959,0.00151751853271,0.0112750618345,-1.50221332962
1385571163919497013,0.293588308094,0.97624671022,-0.106256063491,0.00144241231728,0.0112748083066,-1.50239398877
1385571163929349303,0.293721294762,0.97629550955,-0.106312021725,0.00137505815377,0.0116079099851,-1.50252323437
1385571163939296414,0.293599181112,0.976223314679,-0.106384928527,0.00156549816352,0.0121878035889,-1.50230758827
1385571163949383432,0.29360937289,0.976302256532,-0.106274598023,0.0019725093816,0.0115874058498,-1.50253402368
1385571163959335455,0.2936688356,0.976365389064,-0.106338403079,0.00206961574883,0.0112860283033,-1.50273135938
1385571163969272781,0.293573103456,0.976283739072,-0.10631129231,0.00235205410231,0.0117473774355,-1.50257561259
1385571163979332993,0.293567405983,0.976283203046,-0.106339259209,0.00198231238749,0.0114767108258,-1.5023630281
1385571163989348791,0.293643294262,0.976381679714,-0.106329098578,0.00154306507478,0.0113717805362,-1.50269419147
1385571163999300322,0.293566912887,0.976267155053,-0.106280521847,0.00163291211425,0.011628369863,-1.50234968509
1385571164009301046,0.293651160791,0.976317702349,-0.106333464805,0.00142740717963,0.011480936431,-1.50264575829
1385571164019498465,0.293639716674,0.976351357086,-0.106306366649,0.00173978858094,0.012104888424,-1.50260232734
1385571164029314643,0.293592051957,0.976319049573,-0.106305439528,0.00224420408057,0.0114636139219,-1.50255902034
1385571164039248070,0.293625620415,0.976387279642,-0.106339000276,0.00208058500601,0.0115434364906,-1.50294827279
1385571164049457978,0.293526634405,0.976373613066,-0.106414214529,0.00236118081842,0.0113221902443,-1.50270518316
1385571164059330388,0.293564103197,0.976351465754,-0.106304170171,0.00208370573225,0.011258166489,-1.5027565915
1385571164069381941,0.293609106102,0.976419384129,-0.106285689228,0.00171245221754,0.0111925909445,-1.50308746703
1385571164079342617,0.293631832176,0.976307531993,-0.106300253761,0.00112710450526,0.0117954714658,-1.50250040312
1385571164089416647,0.293604849824,0.976292986285,-0.106347238684,0.00117714065357,0.0124914742209,-1.50245383253
1385571164099288333,0.293622507558,0.976458337317,-0.106357072051,0.00131851499831,0.0114351835719,-1.50308068864
1385571164109330656,0.293586104969,0.976338580436,-0.106278016478,0.00159533151324,0.0115663037156,-1.50264886985
1385571164119315788,0.293570839073,0.976434727522,-0.106288304781,0.00164258240399,0.011604346745,-1.5028363316
1385571164129382107,0.293562850623,0.976443178983,-0.106284823781,0.0019073591581,0.0112148629281,-1.50265487492
1385571164139354818,0.293588510788,0.976406693742,-0.106367892166,0.00170872582944,0.0114311973073,-1.50271024173
1385571164149268796,0.293579936265,0.97646232563,-0.106364891748,0.00152352314335,0.011408631573,-1.50311311499
1385571164159390134,0.293484349233,0.976473367224,-0.106330339963,0.00209170014438,0.0111585340607,-1.50296943278
1385571164169267235,0.293585423148,0.976384664334,-0.106278796997,0.00122827340964,0.0117954689542,-1.5025560866
1385571164179298222,0.29355593128,0.976458804783,-0.106302612342,0.00122078007207,0.0114615325041,-1.50327372662
1385571164189256764,0.293525706282,0.976435312866,-0.106357987012,0.00100287919947,0.0115589401579,-1.50275276618
1385571164199319771,0.293568425657,0.976501525383,-0.106331920048,0.00113059618659,0.0116521800772,-1.50224761031
1385571164209329321,0.293532929805,0.97648912155,-0.106254514084,0.000387153534798,0.0116662859487,-1.50300614143
1385571164219311306,0.293523566686,0.97643367041,-0.106266368713,0.000579879161546,0.0116578364349,-1.50244174098
1385571164229371387,0.293480956772,0.976504606575,-0.106283584029,0.00111644472993,0.0112770831243,-1.50282016958
1385571164239340961,0.293535967408,0.976496251288,-0.106313458772,0.00103927586836,0.0117683408655,-1.50300384946
1385571164249343339,0.293526002765,0.97644042193,-0.106266434991,0.00127676715013,0.0117371070507,-1.50238642004
1385571164259434970,0.293528707476,0.976530241892,-0.106338290406,0.00146760307151,0.0112947998097,-1.50298912085
1385571164269487832,0.293574456744,0.976542407561,-0.106372937231,0.00134124160195,0.0115749490879,-1.50324146195
1385571164279370171,0.293532997889,0.97652970023,-0.106339086197,0.00137492814131,0.0118359218541,-1.50262421463
1385571164289393763,0.293503524458,0.976571561651,-0.106233371219,0.00154159424889,0.0112115015726,-1.50328993423
1385571164299327794,0.293445746031,0.976555584026,-0.106328627536,0.00150194656523,0.0120688637925,-1.50298867228
1385571164309311436,0.293464708505,0.976537952362,-0.106385085343,0.00174383979095,0.0117406017013,-1.50265319313
1385571164319436509,0.293470870884,0.976594516396,-0.106414622206,0.00166921931784,0.0121487340205,-1.50345450804
1385571164329315535,0.293500830688,0.97655677569,-0.106304406559,0.00169013177588,0.0115641802322,-1.5029244885
1385571164339373100,0.293399336568,0.976528473245,-0.106360587601,0.00184383271783,0.0115744936944,-1.50277520505
1385571164349374520,0.293369819081,0.976554156508,-0.106528749636,0.00114438747893,0.0099048537761,-1.50321023017
1385571164359307759,0.293332863897,0.976472237762,-0.106656372406,0.00039677829434,0.00983806753679,-1.50269029705
1385571164369304344,0.293239575168,0.976643569228,-0.106419422809,-0.000248763312481,0.010689155562,-1.50376085152
1385571164379357413,0.293237065699,0.976739215656,-0.106082063806,-0.000113411920969,0.0123450545095,-1.50336362805
1385571164389322975,0.293262145922,0.976798671318,-0.105956524711,0.000161107571416,0.0126585137727,-1.50304939983
1385571164399304279,0.293329142345,0.976866285085,-0.106203865762,0.000827589661241,0.0109138406035,-1.50225855931
1385571164409293562,0.293288762254,0.976843881616,-0.106470412509,0.00153055039151,0.0102878987958,-1.50224787412
1385571164419317672,0.293183683488,0.976712616217,-0.106498174637,0.00160682787651,0.0110414405285,-1.5024417701
1385571164429315032,0.293328697794,0.976872604881,-0.106132401713,0.000795918744529,0.0116722447693,-1.50245176531
1385571164439311700,0.293224185194,0.976903072378,-0.106020652879,0.000594596671623,0.0118129757084,-1.50270194543
1385571164449330593,0.293129515558,0.976797495159,-0.106233792516,0.00044406782936,0.0121473835593,-1.50278654321
1385571164459630156,0.293137909989,0.976816751272,-0.106424266763,0.000318742211338,0.0107586108663,-1.50201180304
1385571164469495611,0.293159481899,0.976776330135,-0.106282170546,0.000935438761054,0.0111453419542,-1.50230506832
1385571164479556308,0.293277019594,0.977000859328,-0.106103904754,0.00163745038596,0.0111710347417,-1.50181468741
1385571164489354459,0.293252077328,0.976915230784,-0.106105783892,0.00240156013392,0.0111009960799,-1.50252062511
1385571164499278818,0.293286881261,0.977023120838,-0.106257831737,0.00229864841546,0.0112751777236,-1.50253282812
1385571164509356301,0.293285487979,0.976857442166,-0.106389205047,0.00222147831623,0.0109006294506,-1.50273556952
1385571164519357853,0.293322992335,0.977017101931,-0.106250906881,0.00202718412541,0.0112339031456,-1.50262909669
1385571164529301498,0.293368638244,0.976923750771,-0.106160474206,0.00272911644367,0.0113178686778,-1.50305616602
1385571164539355945,0.293325457738,0.976961440204,-0.106218187738,0.00135189882643,0.0121440244423,-1.50253723461
1385571164549354173,0.293313506482,0.976916410146,-0.106394996974,0.00147012284954,0.0114932358963,-1.50336746325
1385571164559342942,0.293400629781,0.976946624187,-0.106187309542,0.00117459488806,0.011476482922,-1.50347011653
1385571164569408903,0.293400629781,0.976946624187,-0.106187309542,0.00117459488806,0.011476482922,-1.50347011653
1385571164579320112,0.293515727436,0.977022613112,-0.10593547725,0.00142840567197,0.0108606420797,-1.50358011102
1385571164589283973,0.293453579124,0.977083623716,-0.106207629794,0.00105179914055,0.0111214096559,-1.50324918116
1385571164599498216,0.293419892234,0.976959529194,-0.106369755936,0.00102876069913,0.0112857390784,-1.50404002754
1385571164609307162,0.293381957109,0.976961493475,-0.10625487971,0.00137720917573,0.0112914277714,-1.50321576018
1385571164619293442,0.293406062926,0.977076161057,-0.106130787809,0.00149502419792,0.0109862704583,-1.50325149075
1385571164629291030,0.293379869411,0.977090309142,-0.106135563342,0.00137911737689,0.0109548194347,-1.50315578705
1385571164639378489,0.293365834656,0.977054295242,-0.106311829867,0.00110526588843,0.0113044004529,-1.50377563307
1385571164649318108,0.293305266568,0.977000498096,-0.106339612072,0.00151908346961,0.0111325123087,-1.50296017125
1385571164659306085,0.293381291713,0.977056748948,-0.106308923293,0.0012526435026,0.0108591996959,-1.50332285743
1385571164669296643,0.293339402755,0.976997678578,-0.106219158197,0.00116326719906,0.0110754801911,-1.5030686899
1385571164679313180,0.293388088548,0.977112495241,-0.106138410579,0.00127189440295,0.0112258506366,-1.50292431901
1385571164689302858,0.293372263886,0.977090524029,-0.10618170088,0.0014985847845,0.0111028409422,-1.50372376896
1385571164699318723,0.293405394174,0.977085355789,-0.106298055685,0.00183692213296,0.010917468156,-1.50289088844
1385571164709318244,0.293398927138,0.97703692529,-0.106176946762,0.00280520166498,0.0101260984382,-1.50456486677
1385571164719260814,0.293422844589,0.977057194024,-0.10621964667,0.00228585340508,0.0109445317433,-1.50345390315
1385571164729294266,0.293496386669,0.977144985565,-0.106086081913,0.00264264715995,0.0110172292244,-1.5039387539
1385571164739331385,0.293382940189,0.977022701268,-0.106240354639,0.0017318730572,0.0113119292213,-1.50392011388
1385571164749308096,0.293439953198,0.977149122889,-0.10638901185,0.000990343349953,0.0106276696599,-1.50368876144
1385571164759326363,0.293346625176,0.977125369891,-0.106302064717,0.000936429119156,0.0108634594013,-1.5040423843
1385571164769530175,0.293409858668,0.977278130477,-0.106108439036,0.0014191426919,0.0112494769429,-1.50289082922
1385571164779497746,0.293453638358,0.977285417992,-0.106077312264,0.00176199528807,0.0114190795569,-1.50340012859
1385571164789315949,0.293461046028,0.977227810915,-0.106340316003,0.00253235653226,0.010114054709,-1.50391865279
1385571164799390118,0.293399524394,0.97718427431,-0.106415022319,0.00265708711989,0.0104703031654,-1.50363090597
1385571164809349547,0.293428666915,0.977224302443,-0.106302682004,0.00227864319859,0.011368663538,-1.50425153061
1385571164819402268,0.293368149605,0.977326154782,-0.106101550512,0.0015411269698,0.0116110837331,-1.50413938852
1385571164829338853,0.293348067622,0.977146693508,-0.10624490756,0.00109605538031,0.0107728069859,-1.50487568089
1385571164839317128,0.29320338124,0.977203559484,-0.106423557328,0.00161197637329,0.010562529813,-1.5059500149
1385571164849351942,0.293190735357,0.977228655406,-0.106385202402,0.001745973652,0.0117206403903,-1.50551035442
1385571164859321417,0.292934191039,0.977260342618,-0.106163240115,0.00233486992418,0.0116501495416,-1.50705344701
1385571164869322080,0.292984813007,0.977252832727,-0.106160967894,0.00175735000161,0.0109983854367,-1.50571181127
1385571164879364807,0.292875281298,0.977363728479,-0.106399378587,0.00140776719974,0.0120061410011,-1.50565699492
1385571164889277120,0.292875281298,0.977363728479,-0.106399378587,0.00140776719974,0.0120061410011,-1.50565699492
1385571164899431669,0.292801993643,0.977370863005,-0.106320475592,0.00144511938371,0.011577827144,-1.50656877855
1385571164909311098,0.292723765222,0.977422266421,-0.106338698569,0.00121128995681,0.0109613821825,-1.50639881711
1385571164919393825,0.292624068251,0.97747643848,-0.106258789598,0.00141942983395,0.0114507140688,-1.50660983318
1385571164929273666,0.292624068251,0.97747643848,-0.106258789598,0.00141942983395,0.0114507140688,-1.50660983318
1385571164939352177,0.292630483631,0.977563025313,-0.106352059764,0.00187611349773,0.0112349902519,-1.50599002422
1385571164949299082,0.292505359963,0.977507614138,-0.106424908183,0.00256896756697,0.0107996585425,-1.50651126416
1385571164959274274,0.292429320226,0.9776346299,-0.10639164587,0.00311303971512,0.0111482428431,-1.50599470267
1385571164969278446,0.292304003479,0.977589640754,-0.10633299684,0.0036058694019,0.0114015455122,-1.50688703883
1385571164979369569,0.292239779992,0.97769728412,-0.106214321504,0.00409846617577,0.0111302790228,-1.50633468635
1385571164989281457,0.292065708489,0.977657632515,-0.106288751549,0.0038532376268,0.0104738556127,-1.50667883807
1385571164999341866,0.291934335805,0.977860025379,-0.106391088031,0.00321492775062,0.0109526379787,-1.50585527982
1385571165009267756,0.291764505875,0.977823520117,-0.106418500052,0.00254063495829,0.0115396610183,-1.50646554581
1385571165019364219,0.291668680385,0.97804564516,-0.106272709727,0.00186984013159,0.0119564977764,-1.50590422788
1385571165029297472,0.29142525932,0.977990111607,-0.106180120169,0.00197140604168,0.00991744439562,-1.50649580999
1385571165039308710,0.291385149262,0.978230578888,-0.106294207614,0.00103361632624,0.0107660342871,-1.50586558427
1385571165049371401,0.291145787695,0.978254279386,-0.106468492192,0.00122519129312,0.0116146702432,-1.50682586868
1385571165059311381,0.291071113255,0.978490405109,-0.106432301286,0.00119064810477,0.0127825694011,-1.50686838096
1385571165069337028,0.290868116243,0.978417529085,-0.106346830822,0.00206175954968,0.010661964215,-1.50730846027
1385571165079365618,0.290890270994,0.978677968323,-0.106314855494,0.00268997717874,0.0102535448002,-1.50727368441
1385571165089321846,0.290687332657,0.978721925935,-0.106357992673,0.0023670388334,0.0115709948797,-1.50774035518
1385571165099387626,0.290533615017,0.979008195556,-0.106457272729,0.00133972782177,0.0125727023442,-1.50772460681
1385571165109358283,0.290174299511,0.978929471193,-0.106653112031,0.000354096294583,0.0119926260999,-1.5087339825
1385571165119312332,0.290071288384,0.979122005781,-0.106538220154,-0.000557185487282,0.0096443967457,-1.50934995117
1385571165129323890,0.289772279137,0.979337658716,-0.106249961695,-0.000665673472202,0.0111996330461,-1.51018218303
1385571165139313499,0.289514427271,0.97966891118,-0.106196758159,-0.000344227100237,0.0153341836025,-1.51079924795
1385571165149351782,0.289262798937,0.979762036255,-0.106535292504,0.000875494733183,0.0118161805553,-1.51175649373
1385571165159292694,0.289048429,0.980108766397,-0.106794604406,0.00101472686856,0.0103528137931,-1.51290616896
1385571165169318909,0.288736000286,0.980290094642,-0.106484763346,0.0013837791113,0.012562340876,-1.51403763879
1385571165179326021,0.288519314008,0.980666324627,-0.106257083196,0.00178753411286,0.0117246290832,-1.51527243168
1385571165189287703,0.288056930938,0.980835375771,-0.106179906327,0.000651482403905,0.0122079997465,-1.51616606451
1385571165199344939,0.28769154804,0.981213505295,-0.10643201655,-0.000207239475361,0.0115153612381,-1.51771488352
1385571165209346948,0.286692077515,0.981789636946,-0.106468491291,-0.00270239661991,0.0113319387409,-1.52076059836
1385571165219310502,0.286692077515,0.981789636946,-0.106468491291,-0.00270239661991,0.0113319387409,-1.52076059836
1385571165229346931,0.286206715364,0.982224958323,-0.106258546723,-0.00390454080467,0.0131545637882,-1.52177348594
1385571165239335636,0.285681946093,0.982596346096,-0.106592105727,-0.00407456054726,0.0124100667312,-1.52396484062
1385571165249305058,0.285099933847,0.983076168899,-0.106660217395,-0.00398379883431,0.011886736084,-1.52524640173
1385571165259356532,0.28441613288,0.983441882277,-0.106405763163,-0.00353107952787,0.0129852407999,-1.52765811092
1385571165269592960,0.283856556875,0.984080156916,-0.106181722028,-0.00360687731654,0.0136306439525,-1.52982455513
1385571165279364627,0.283293500524,0.9844637786,-0.10629420851,-0.00343554526811,0.0129782754012,-1.53156145492
1385571165289328612,0.282588857811,0.984970333826,-0.106539525723,-0.00415318484884,0.0112013699267,-1.53414369695
1385571165299280637,0.281768695084,0.985581563991,-0.106522576737,-0.00453484851029,0.0115497715891,-1.53655059333
1385571165309342341,0.280968026132,0.986144297429,-0.106433925237,-0.00549074611383,0.0130459876053,-1.53941914964
1385571165319321675,0.280419845386,0.986744159882,-0.106385894135,-0.00618270314921,0.0121895010509,-1.54246261327
1385571165329302450,0.279566717052,0.987379088938,-0.106369707664,-0.00666689596765,0.013286133709,-1.54508939212
1385571165339308016,0.278729083507,0.988025032496,-0.106256595948,-0.00771853963775,0.0140513786626,-1.54772805331
1385571165349319646,0.277847775882,0.988695875748,-0.106222209983,-0.00816916244893,0.0161617569548,-1.55064904256
1385571165359325754,0.277049912197,0.989361767351,-0.106379851899,-0.00839488680381,0.0149819565062,-1.55334778404
1385571165369339794,0.276276005108,0.990121642508,-0.106544253392,-0.00892539432263,0.0154336866258,-1.55773038977
1385571165379310682,0.275380794846,0.990743857601,-0.106529102149,-0.00912238941642,0.0167732996657,-1.56027107337
1385571165389321095,0.274562273963,0.991521059799,-0.106574874302,-0.00859747410033,0.017069443255,-1.56411414108
1385571165399379214,0.273937450866,0.992141398465,-0.106738631886,-0.00728315968563,0.0174362008887,-1.5666534369
1385571165409311932,0.272770757577,0.992939712626,-0.10667809623,-0.00734681612488,0.0193537257645,-1.56953361943
1385571165419390071,0.27201555513,0.993762109497,-0.106905498718,-0.00673938675975,0.0193366735727,-1.57221609791
1385571165429372473,0.271179855801,0.994426375988,-0.106911868487,-0.00686513108683,0.020121578018,-1.57509470737
1385571165439365414,0.270325741786,0.995273214264,-0.106961252421,-0.00726799113632,0.0231229342424,-1.57742528318
1385571165449294838,0.269866398641,0.99596688618,-0.107406953099,-0.00769894619353,0.0221787778576,-1.58104592887
1385571165459287078,0.269006992059,0.996806947237,-0.107787397684,-0.00774103812693,0.0228260088202,-1.5830004771
1385571165469310949,0.268418137761,0.997559418802,-0.107987964986,-0.00716669975943,0.0256054130308,-1.58559676998
1385571165479307904,0.267868331537,0.998417971959,-0.108086160922,-0.00546144926083,0.0264379492073,-1.58753928633
1385571165489334630,0.267228129796,0.999217396682,-0.108562917354,-0.00255078226517,0.0267314481126,-1.58952746512
1385571165499305502,0.266918893951,1.00009894017,-0.109033859004,-0.000254001321366,0.0291038264824,-1.59107877259
1385571165509309733,0.2664161863,1.00080521216,-0.109425658142,0.0041653383249,0.0300959719592,-1.59220178791
1385571165519293870,0.266085130945,1.00156128599,-0.109879373837,0.00688269687865,0.030234916106,-1.59336804651
1385571165529376011,0.265810877567,1.00241859527,-0.110290702038,0.0096532703122,0.0318307501465,-1.59441973584
1385571165539296944,0.265518962435,1.0031794432,-0.110812422247,0.0112939715083,0.0336344074605,-1.59469878707
1385571165549369569,0.265196856739,1.00394600443,-0.111605474585,0.0130948048863,0.0328010987752,-1.59588631004
1385571165559310243,0.26491690443,1.00470239704,-0.112057312976,0.0150690566374,0.0332941306711,-1.59697048508
1385571165569341792,0.264721380489,1.00567504594,-0.112608281003,0.0183658616721,0.0342945536811,-1.59803565791
1385571165579372741,0.264768792318,1.00641936158,-0.113290182388,0.0227655610545,0.0346807782298,-1.59953150681
1385571165589443274,0.264589697241,1.00748693574,-0.114149557373,0.0278087080707,0.0344482649862,-1.60056740617
1385571165599342853,0.264518111587,1.00836513181,-0.115172037948,0.0332925216717,0.0340852198622,-1.60151353105
1385571165609332997,0.264636717748,1.00938163013,-0.115978085849,0.0383530687439,0.0333296884729,-1.60310273565
1385571165619300829,0.264576578273,1.01036058261,-0.117088824921,0.0435053630344,0.0323207858885,-1.60413367138
1385571165629314001,0.264630623838,1.01132518527,-0.118259158752,0.0472292834371,0.0318999736125,-1.60510551874
1385571165639276289,0.264719605752,1.01248085509,-0.119854079276,0.0499039313639,0.030693836046,-1.60587271714
1385571165649311105,0.264777385441,1.01349603149,-0.121327364368,0.0508373641925,0.0283581437061,-1.60655596855
1385571165659313513,0.265052889127,1.01472931339,-0.122767511211,0.0499881095845,0.0275181380349,-1.60678974649
1385571165669316203,0.264846194159,1.01590720991,-0.124581693532,0.0491612568798,0.0262261213309,-1.60657921618
1385571165679366966,0.265383153222,1.01719268125,-0.126751660969,0.0482986103872,0.0226734632741,-1.60714903503
1385571165689321064,0.265367241485,1.01834002639,-0.128738165535,0.046846618921,0.0218646388555,-1.60788770578
1385571165699325341,0.265659160874,1.01968954185,-0.130613945619,0.045572421911,0.0191184009174,-1.60800341352
1385571165709274676,0.265951675039,1.02101227542,-0.132868621545,0.0452449737222,0.0160965587436,-1.60858700365
1385571165719313047,0.266211678522,1.02235959232,-0.135578172458,0.0446393495218,0.0130412496484,-1.60876567449
1385571165729396560,0.266713981929,1.02369208252,-0.138151039385,0.0434739063904,0.00900479840181,-1.60877238708
1385571165739305067,0.267010682922,1.02505138562,-0.14058265303,0.0428692582861,0.00604623209182,-1.6090715247
1385571165749325677,0.267297227876,1.02647783818,-0.143226924824,0.0424672626481,0.00321629189971,-1.60901863438
1385571165759335040,0.267844055566,1.02788229384,-0.146402791931,0.0409026725376,-1.09477135507e-05,-1.6097108027
1385571165769403755,0.268100421291,1.02935408813,-0.1495032984,0.0398647728477,-0.000765427389916,-1.61043550614
1385571165779499526,0.268707749202,1.0306731011,-0.152515819235,0.0387131464995,-0.00359272641584,-1.6107795646
1385571165789302603,0.268966929117,1.03211928321,-0.155661061236,0.0373408554021,-0.00484873079319,-1.61171506818
1385571165799327394,0.2692228176,1.03357909672,-0.158975587535,0.0355002477447,-0.00628780390294,-1.61231741046
1385571165809283414,0.269651352734,1.03500010013,-0.16248283225,0.0334600018096,-0.00645773200935,-1.61197706548
1385571165819272772,0.270213580087,1.03637258401,-0.165903178066,0.0325351784854,-0.00839977816515,-1.61295330175
1385571165829390712,0.270642619544,1.03771735017,-0.169348400012,0.0306853361377,-0.0113773789476,-1.61268716949
1385571165839299619,0.271062389992,1.03902992599,-0.172883297424,0.0302247750753,-0.0131995816303,-1.61259337713
1385571165849342643,0.271660764736,1.04020008399,-0.176823150279,0.0297933671125,-0.0157279556821,-1.61286444876
1385571165859267587,0.272324073311,1.04134972561,-0.180485527634,0.0294358432942,-0.0176286679107,-1.61200006704
1385571165869337924,0.27318349246,1.04372107284,-0.187846981758,0.0274033267588,-0.021885182543,-1.61159507168
1385571165879349358,0.27318349246,1.04372107284,-0.187846981758,0.0274033267588,-0.021885182543,-1.61159507168
1385571165889336034,0.273840056427,1.04472880219,-0.191878134455,0.0244136763501,-0.0250675834485,-1.61155251349
1385571165899349829,0.274113798612,1.04586113403,-0.19577318596,0.0216663663142,-0.0265871604066,-1.61162272981
1385571165909394096,0.274721692574,1.0467759743,-0.199832405079,0.0196109836154,-0.0286978580531,-1.61149710626
1385571165919435965,0.275230087578,1.0476202932,-0.20376847401,0.0166723837451,-0.0317717768328,-1.61140619944
1385571165929295509,0.275482533577,1.04843573998,-0.207801678268,0.0145531764927,-0.0344698657878,-1.61087816125
1385571165939296889,0.275936713643,1.04930984871,-0.211960170533,0.0117283052768,-0.0369648984971,-1.61059800354
1385571165949303235,0.276245886775,1.04995015473,-0.216059399351,0.00876678431102,-0.0392716856642,-1.61057673397
1385571165959272993,0.276663837635,1.05074021002,-0.220184679448,0.00573413276357,-0.0426262766569,-1.61028390012
1385571165969274428,0.276865475939,1.05127793793,-0.224518099604,0.0025955295872,-0.0448906737584,-1.61038448248
1385571165979294057,0.277068098369,1.05196977402,-0.228745257409,-0.00111312587822,-0.047808719488,-1.61025542141
1385571165989355797,0.277249098671,1.05242664771,-0.233198657287,-0.00474942666475,-0.049702715099,-1.60954540776
1385571165999356313,0.277390705045,1.05290409917,-0.237552487655,-0.00752783495534,-0.0540716739062,-1.60964297874
1385571166009322177,0.277543671864,1.0533783237,-0.241999158524,-0.0110824939452,-0.055788513853,-1.60887062237
1385571166019323433,0.277932292228,1.05368679752,-0.246621533237,-0.0131297861343,-0.0602001349891,-1.60810024328
1385571166029303558,0.278041574622,1.0539515555,-0.251282636079,-0.014405504237,-0.0620911083205,-1.60805332121
1385571166039353156,0.278181821547,1.05414961639,-0.255993744522,-0.0149799206522,-0.0649355355262,-1.60748227774
1385571166049324719,0.278189907072,1.05430002692,-0.260547504825,-0.0151986060156,-0.065371206435,-1.60684259741
1385571166059289123,0.278240990525,1.05433591548,-0.265150710773,-0.0153424333066,-0.0677976010031,-1.60690920646
1385571166069398693,0.278302341024,1.05436927857,-0.26997108557,-0.0153764866606,-0.0690555791043,-1.60618568918
1385571166079275155,0.278277670922,1.05431794034,-0.274842059128,-0.0151260316819,-0.0695182012012,-1.60612497404
1385571166089375623,0.278299259675,1.05416065055,-0.279635368649,-0.014835109642,-0.0716141078167,-1.60565458745
1385571166099284187,0.278120021412,1.05387142313,-0.284367698838,-0.0142901737382,-0.0716285396523,-1.60515299836
1385571166109332333,0.277916346722,1.05353880453,-0.289160036978,-0.0139393989755,-0.0729787266201,-1.60489608042
1385571166119348901,0.277933782731,1.05321495501,-0.294145005636,-0.0143343175654,-0.0743347472058,-1.60472417149
1385571166129303968,0.277646313581,1.05264083154,-0.299076675683,-0.0143393190633,-0.0752305197361,-1.60449328707
1385571166139293988,0.277227281832,1.05212343938,-0.303915513792,-0.0144642220307,-0.0757253933825,-1.60399774441
1385571166149312902,0.277095170516,1.05139495649,-0.308829452794,-0.0151673151324,-0.0759974547876,-1.60326687368
1385571166159299979,0.276580559507,1.05076797855,-0.313909010483,-0.0150750067444,-0.0771574784088,-1.60281024691
1385571166169707149,0.276287694441,1.04991406534,-0.319038878607,-0.015500959817,-0.0780847499794,-1.60228385217
1385571166179355663,0.275826990449,1.04906512844,-0.323996064466,-0.0158722763768,-0.0791405502412,-1.60185504928
1385571166189428977,0.275226020664,1.04799537626,-0.32913437084,-0.0159978533519,-0.0797482614724,-1.60136635773
1385571166199492376,0.274945777714,1.04693549907,-0.334383822756,-0.0168577617159,-0.0812817008404,-1.60122885839
1385571166209329999,0.274272026796,1.04570778623,-0.33965735763,-0.0169461262691,-0.082675884342,-1.60096357558
1385571166219369707,0.273721216863,1.04455711324,-0.344845081378,-0.0179910091791,-0.0842503051686,-1.60021476955
1385571166229294658,0.273123798983,1.04315489468,-0.350124342539,-0.0189055244874,-0.0845166960771,-1.60000747112
1385571166239318069,0.272424181799,1.04172711824,-0.355447546846,-0.018705392659,-0.0873171305718,-1.59974050308
1385571166249328998,0.271700148116,1.04017410515,-0.360851479137,-0.0193924810558,-0.0890456043949,-1.59895761053
1385571166259464880,0.270930609479,1.03853511909,-0.366118089711,-0.0200079151658,-0.0897711164938,-1.59825282079
1385571166269415767,0.270090049374,1.03685350606,-0.371512929921,-0.0201069321975,-0.0909653963714,-1.59787897587
1385571166279344725,0.269367508655,1.03504470699,-0.377154075553,-0.0200179611938,-0.092087278054,-1.59711989527
1385571166289285424,0.268693486445,1.03311285826,-0.38278401216,-0.0193277280448,-0.0926655776568,-1.59735474323
1385571166299303447,0.267397179841,1.03113431468,-0.388304179127,-0.0186617049313,-0.0928573674,-1.59732492297
1385571166309313418,0.266625846891,1.02898491631,-0.394109010197,-0.0179616077068,-0.0942524839931,-1.59696075328
1385571166319359168,0.265652103616,1.02680589513,-0.40022929227,-0.0171355084666,-0.0939772765437,-1.59664657639
1385571166329302962,0.264558611584,1.02457918635,-0.406058080428,-0.0156029636313,-0.0954871977474,-1.59606369688
1385571166339302258,0.263694414643,1.02206494501,-0.411743559096,-0.0147415611687,-0.0959255942685,-1.59523202205
1385571166349346016,0.262759805304,1.01966229078,-0.417373891543,-0.0137682253994,-0.0960256449402,-1.59431667882
1385571166359344897,0.261635219988,1.01709983469,-0.422658560123,-0.0128038623639,-0.0964654247434,-1.59356023144
1385571166369301279,0.26048081068,1.0145115217,-0.427877877977,-0.0122934329969,-0.098666698251,-1.59295164335
1385571166379303989,0.259259093454,1.01184555525,-0.433176653606,-0.0112356947243,-0.100387917371,-1.59277408293
1385571166389346195,0.258117334726,1.00898849305,-0.437954043644,-0.0106555727595,-0.0998927716204,-1.59241593523
1385571166399335405,0.257028721135,1.00619631903,-0.442817157979,-0.00975574466504,-0.101222697857,-1.59176067249
1385571166409258617,0.25587993486,1.0032455964,-0.4475383937,-0.00844363468598,-0.102227258983,-1.59143943803
1385571166419339942,0.254589537341,1.00033484091,-0.452134181344,-0.0069064609582,-0.101803664669,-1.59078192064
1385571166429306646,0.253339432674,0.997127925944,-0.456466658537,-0.0061950790686,-0.103747611358,-1.58986361539
1385571166439376077,0.25194525845,0.99389812023,-0.460580805413,-0.00496768742368,-0.101918337037,-1.58904554323
1385571166449447981,0.250893724569,0.990700848191,-0.464689904935,-0.00438040726662,-0.104125555568,-1.58873770406
1385571166459289504,0.249478235205,0.987333365847,-0.468630341603,-0.00326774932856,-0.10345779321,-1.58786345391
1385571166469356812,0.248173603574,0.983947592182,-0.472200380843,-0.00306141927516,-0.105179892349,-1.58736909242
1385571166479339625,0.246845914309,0.980416429128,-0.475848605016,-0.00133963401284,-0.105753273992,-1.58673558917
1385571166489306915,0.245587116379,0.976840313515,-0.479029839219,-0.00151415204322,-0.104835759681,-1.58562415827
1385571166499326452,0.24408425159,0.973221499947,-0.482385943286,0.000476460973496,-0.105419509558,-1.58511902686
1385571166509295893,0.242778940667,0.969487508775,-0.485415764954,0.00020982248021,-0.105409195928,-1.58441862853
1385571166519290037,0.241392299724,0.965707493089,-0.488406052865,0.00135430691182,-0.105565032294,-1.58441165891
1385571166529300701,0.23992985317,0.961815117353,-0.491000479937,0.00253444174999,-0.105172100692,-1.58343241145
1385571166539399913,0.237212696092,0.953858813365,-0.496084103444,0.00365044657131,-0.104465084726,-1.58270451735
1385571166549263890,0.237212696092,0.953858813365,-0.496084103444,0.00365044657131,-0.104465084726,-1.58270451735
1385571166559306214,0.235870226871,0.949815714458,-0.498344962357,0.0044189368533,-0.103555610685,-1.58182984627
1385571166569314957,0.234538099922,0.945657783345,-0.500441064484,0.00517078318912,-0.102705428852,-1.58101094698
1385571166579402474,0.232851959603,0.941463782031,-0.502382004993,0.00690072723215,-0.101767719229,-1.58022929829
1385571166589336215,0.231724545775,0.937088587392,-0.504329542026,0.0073917352338,-0.102149002477,-1.57944206539
1385571166599319483,0.230164529502,0.932726198517,-0.505925457863,0.00844192439829,-0.101992979805,-1.57856654891
1385571166609351354,0.228746053612,0.928213831725,-0.507360012353,0.00941985886015,-0.100481956457,-1.57789299753
1385571166619306324,0.22727730615,0.923638440818,-0.508852519015,0.0106841295597,-0.100062298843,-1.57705414273
1385571166629296242,0.225904225118,0.919022506467,-0.510367878656,0.0118621556823,-0.0987457410199,-1.57651595672
1385571166639348236,0.224592092144,0.914365248712,-0.511455286567,0.012810876994,-0.0985779063332,-1.57616374716
1385571166649295449,0.223270463146,0.909592329681,-0.512354232913,0.0140328447506,-0.0986084526605,-1.57591331532
1385571166659312918,0.22196593309,0.904710609536,-0.513271862658,0.0151046485979,-0.0982496799297,-1.5750012924
1385571166669309872,0.220455734611,0.899828317525,-0.514166816018,0.0168163674584,-0.0965648368701,-1.5741177415
1385571166679337418,0.219163773029,0.89483369219,-0.514738420771,0.0174821841912,-0.0969434836775,-1.57302651647
1385571166689306335,0.217779279284,0.889837198574,-0.515151008716,0.018812957879,-0.096527880367,-1.57165370791
1385571166699303990,0.216494738524,0.884681515801,-0.51566778664,0.0202362099909,-0.0964034366543,-1.57101781846
1385571166709311114,0.215060568145,0.879564121407,-0.515843783001,0.0211123973698,-0.0964990579254,-1.56995267773
1385571166719353078,0.21382471806,0.874157096978,-0.516246447361,0.021317970011,-0.0946005104636,-1.56972405789
1385571166729347282,0.21256828539,0.868829614636,-0.516292147448,0.0220844213376,-0.095274481833,-1.5687700958
1385571166739334833,0.211313624964,0.863506893955,-0.516141348199,0.0227256241759,-0.0942511715852,-1.56766719609
1385571166749328741,0.209878158796,0.857987462812,-0.516157537667,0.0233972635207,-0.0946196180815,-1.56712199779
1385571166759351275,0.208691955584,0.852391677206,-0.515832583108,0.0235576710073,-0.0940868866398,-1.56604231437
1385571166769484002,0.207569097779,0.846878314895,-0.515481655301,0.0233774820955,-0.0939196915183,-1.56436686115
1385571166779323046,0.206224709976,0.841202660951,-0.515117446201,0.0233962058066,-0.0928483390021,-1.56372205426
1385571166789326576,0.205146201972,0.835472651407,-0.514546819013,0.0235100710241,-0.0934168619064,-1.56234138045
1385571166799277547,0.20401236228,0.829679712094,-0.513978525963,0.0244975218604,-0.093577227193,-1.56125415184
1385571166809283912,0.202829116143,0.823779897743,-0.513280269793,0.0253872353984,-0.092728609164,-1.56025960942
1385571166819325671,0.201702824348,0.817881702892,-0.512553510075,0.0259814320092,-0.0924667661579,-1.55925151785
1385571166829289689,0.200713677935,0.811887072358,-0.511687879399,0.0265508882958,-0.0916997840556,-1.5583678832
1385571166839372848,0.199663020512,0.805737611652,-0.510846981871,0.0271424995149,-0.0903275744455,-1.55758162648
1385571166849318477,0.198590547164,0.799696295889,-0.509787751176,0.0285672277413,-0.090095430493,-1.55604399559
1385571166859301952,0.19746685763,0.793552787517,-0.508683974561,0.0300878937244,-0.0877565989024,-1.55458516329
1385571166869332319,0.196805678853,0.787410874276,-0.507624514771,0.0305715665349,-0.0882045828771,-1.55354566214
1385571166879343829,0.195665169781,0.781059881017,-0.506494784249,0.0308552588015,-0.0859810438863,-1.55240722423
1385571166889446744,0.194850725553,0.774698538375,-0.505223084697,0.0311095850023,-0.0837327979465,-1.55091037789
1385571166899392047,0.193952433238,0.768334404551,-0.503970694597,0.0314441550135,-0.0824417262998,-1.54966303485
1385571166909336934,0.19293752495,0.761919149479,-0.502587566922,0.0320164070398,-0.0801021021536,-1.54824894875
1385571166919315267,0.192270812852,0.75554191804,-0.501299480345,0.0322122077461,-0.0785821614349,-1.54727336479
1385571166929314396,0.191541234583,0.748939318265,-0.499822620284,0.0328578286482,-0.0748387237873,-1.54555945704
1385571166939311493,0.190889789373,0.742399930604,-0.498492331273,0.03419179654,-0.0743960013739,-1.54438943244
1385571166949331407,0.190253164752,0.735847031495,-0.496865470982,0.0358031138741,-0.0721390191114,-1.54334257085
1385571166959317876,0.189504837648,0.729215350803,-0.495431265655,0.0367162702658,-0.0688151008625,-1.5423873437
1385571166969322768,0.188888327801,0.722420404847,-0.49387439035,0.038259991466,-0.066617797725,-1.54065294172
1385571166979293264,0.18860660423,0.715742774782,-0.492311894257,0.039079150218,-0.063126830769,-1.53932352712
1385571166989302110,0.187916476815,0.70899529177,-0.490702623008,0.0417395853491,-0.0609874931686,-1.53772734803
1385571166999366345,0.187510137389,0.702197364272,-0.488996067419,0.0423417880412,-0.0581304288145,-1.53636962786
1385571167009322095,0.187094708632,0.695327807594,-0.487446425852,0.043160149632,-0.0554892093459,-1.53524680115
1385571167019302998,0.18663192331,0.688510987077,-0.485597191939,0.0444735154452,-0.0525617254005,-1.53331666593
1385571167029342099,0.186307082517,0.681670488512,-0.484092771172,0.0460125519591,-0.0497522727186,-1.53244269605
1385571167039318629,0.186039199984,0.674704564808,-0.482295427505,0.0466150358564,-0.048589290509,-1.53100014184
1385571167049316489,0.185915159014,0.667821315876,-0.480508218764,0.0466444596021,-0.0456242643401,-1.52917444726
1385571167059350045,0.185628658321,0.66090314162,-0.47873743187,0.0475618776751,-0.0440262940345,-1.52807453215
1385571167069417523,0.185476214086,0.653924983184,-0.477006102651,0.0483255375939,-0.0415928502905,-1.52636089707
1385571167079303627,0.185456486826,0.647021702745,-0.475322629654,0.048990199843,-0.0395305933861,-1.5251928921
1385571167089292065,0.185371969192,0.639985220146,-0.473528067654,0.0503247789267,-0.0375581545995,-1.52354568926
1385571167099422812,0.18554147352,0.633042062419,-0.471831026817,0.0509574186728,-0.0363972510516,-1.52254335229
1385571167109338970,0.185428542818,0.625981725048,-0.470019244982,0.0521987574754,-0.0350728404533,-1.52082796617
1385571167119360037,0.185648850159,0.619001892592,-0.468252253793,0.0533590016686,-0.0332860613648,-1.5194751318
1385571167129461024,0.185880463741,0.612005763094,-0.466475657864,0.053907789747,-0.0317791994325,-1.51787631754
1385571167139428135,0.185895262152,0.604944204768,-0.464587260743,0.0545456169572,-0.0302766967988,-1.51591078067
1385571167149318821,0.186383895086,0.597898889452,-0.462876998464,0.0552016865678,-0.0296704127277,-1.51487437139
1385571167159257304,0.186877175271,0.590988179212,-0.46119167037,0.0558301570654,-0.0277310541698,-1.51316918643
1385571167169343908,0.187378532631,0.583944307184,-0.45953013755,0.0566661862588,-0.0270264327955,-1.51189049415
1385571167179364007,0.187785106349,0.576874299217,-0.457776533267,0.0575135073068,-0.0268988083049,-1.51018440522
1385571167189306268,0.188379302691,0.56979434556,-0.456104333072,0.057751875943,-0.0249789212846,-1.50860229219
1385571167199408690,0.188893729951,0.56279653587,-0.454516483625,0.0580306989977,-0.0247822222029,-1.50705766126
1385571167209331242,0.189595617495,0.555796772541,-0.452859611072,0.0582749831176,-0.0248586152049,-1.5059184867
1385571167219292283,0.190287808382,0.548811333847,-0.451371776298,0.0585288467132,-0.0241761266187,-1.50437925313
1385571167229433279,0.191046021855,0.541797422194,-0.449788872172,0.0577795584631,-0.0233968615583,-1.50331829508
1385571167239331926,0.191876244166,0.534753612145,-0.448315029596,0.0579946527802,-0.0233230150176,-1.50158736004
1385571167249296443,0.192803182865,0.527756984621,-0.446950605967,0.0575406606516,-0.0221266081252,-1.50026345854
1385571167259387377,0.19389646594,0.520754126432,-0.44556050333,0.057384476931,-0.0227713387315,-1.49881020019
1385571167269487673,0.194720698818,0.513820174112,-0.444153936551,0.0575932510971,-0.0226922018158,-1.49694504202
1385571167279452942,0.196075691138,0.506787417171,-0.443017038314,0.0583473587125,-0.022601951631,-1.49574023944
1385571167289438462,0.197113535566,0.499793062058,-0.441725889114,0.0586630954153,-0.023790800296,-1.49476993728
1385571167299334064,0.198288653411,0.492794412065,-0.440548061044,0.0589160132202,-0.0237254680526,-1.49320159107
1385571167309832671,0.199794439014,0.485867785037,-0.439441508225,0.0594490724801,-0.0231376972598,-1.49194580509
1385571167319374763,0.201084437424,0.478918726236,-0.438288135285,0.0597121830634,-0.022873935381,-1.49056934526
1385571167329287190,0.202516542451,0.472046152869,-0.437149568457,0.0598183229318,-0.0238864313828,-1.48965652459
1385571167339357482,0.203971802758,0.465119129224,-0.43612217958,0.0588987744672,-0.0227871396756,-1.48852054871
1385571167349354443,0.205521821895,0.458262925065,-0.435175156902,0.0580750750953,-0.0220820583556,-1.48713947544
1385571167359307552,0.206996520712,0.451405091912,-0.434174414193,0.0571165462623,-0.0212468646421,-1.48654956982
1385571167369289565,0.208763730064,0.44452402535,-0.43331396499,0.0561839254871,-0.0196470391646,-1.4849829368
1385571167379314512,0.210313549291,0.437768762042,-0.43240295409,0.055174453467,-0.018338071924,-1.4831777658
1385571167389324807,0.212147639454,0.431005647879,-0.43158098283,0.0545494046664,-0.017071101922,-1.48193725871
1385571167399305590,0.213992805269,0.424207068149,-0.430886368891,0.0538372357281,-0.0151548016186,-1.48050110067
1385571167409335234,0.215777293311,0.417382382595,-0.430126757928,0.0525435606042,-0.0130123158458,-1.47947065851
1385571167419255135,0.217573606954,0.410698349108,-0.429461119797,0.0517248285836,-0.010483135626,-1.47843876938
1385571167429239202,0.219639414399,0.4040514986,-0.428850857193,0.0512804208645,-0.00804403008262,-1.47686753644
1385571167439305302,0.221527122983,0.397433817345,-0.428231744859,0.0503829514873,-0.00495289821356,-1.47599187088
1385571167449388587,0.22379640913,0.390893061605,-0.427870359307,0.0502599745079,-0.00258631357903,-1.47450607331
1385571167459295870,0.225926375849,0.384309086424,-0.427382012989,0.0495782059125,0.000548451948054,-1.47335104618
1385571167469484579,0.228040957622,0.37785041821,-0.427022554097,0.0491054397828,0.00399111605027,-1.4724592963
1385571167479344337,0.230223867945,0.37131324577,-0.426654786651,0.0492985536453,0.00715113826752,-1.47129687327
1385571167489440724,0.232583690094,0.364917414895,-0.426465065661,0.0490500466197,0.0104953325814,-1.47005897684
1385571167499345786,0.234813304674,0.358487627833,-0.426221816673,0.0494678730565,0.0137367898046,-1.46911421885
1385571167509287854,0.236898846738,0.352081260645,-0.425992996287,0.0500961782672,0.0155924458008,-1.46798814493
1385571167519358871,0.239427874243,0.345800407601,-0.425949978802,0.0486969473612,0.0169677562757,-1.46681823786
1385571167529305782,0.241794913943,0.339482471047,-0.425789314306,0.0474375503601,0.0199670709941,-1.46538070981
1385571167539404594,0.244256990166,0.333281321567,-0.425715694929,0.046447406961,0.0216770612293,-1.4644961655
1385571167549268989,0.246885044722,0.327058358551,-0.4259940834,0.0460127710371,0.0225138666734,-1.46365584916
1385571167559347007,0.249332898361,0.320883374282,-0.425964885418,0.0448983410978,0.0231941187029,-1.46230305878
1385571167569310989,0.251888509763,0.314810493257,-0.426082552052,0.0447012262091,0.0235718743219,-1.46100296877
1385571167579329889,0.254390715828,0.30879784501,-0.426187278693,0.0446424157206,0.0252750982598,-1.45964213959
1385571167589369578,0.257153955063,0.302836058273,-0.426554001424,0.0437818604609,0.0268402355403,-1.45881768729
1385571167599305258,0.260022379051,0.296952568205,-0.426901643935,0.0431838151838,0.0277050834649,-1.45816986596
1385571167609310164,0.262617823606,0.291088154351,-0.427183164701,0.0432241444107,0.0290447745063,-1.45701464789
1385571167619365962,0.265315161868,0.285329300066,-0.427498458577,0.042372256422,0.0309040410767,-1.45614697064
1385571167629287625,0.267925103368,0.279691242981,-0.4278087398,0.0422308704868,0.0319103651665,-1.45501747977
1385571167639401310,0.270721753325,0.274005977433,-0.428312344375,0.0417903316548,0.0339326645946,-1.45389997945
1385571167649708379,0.273636879873,0.268419987674,-0.428763817699,0.0404476765633,0.0350532592999,-1.45330821898
1385571167659352185,0.276471341017,0.262886203252,-0.429235406507,0.0397366492825,0.0374814684299,-1.45243737244
1385571167669339958,0.279308438534,0.25735563944,-0.429678352191,0.038720698285,0.0383835594117,-1.45222526367
1385571167679396408,0.281818938858,0.252035826772,-0.430133745595,0.0383383475942,0.0393147162932,-1.45092899348
1385571167689343710,0.284794603331,0.246727702235,-0.430713904076,0.0370835590484,0.0405445168777,-1.45013287642
1385571167699361372,0.287868407479,0.241486815263,-0.431431914214,0.035615277268,0.0416587791691,-1.4490894605
1385571167709334457,0.290643959591,0.236210265754,-0.432089057274,0.0348375997937,0.0423029749626,-1.44816953863
1385571167719318274,0.29367619808,0.231023498412,-0.432741851071,0.0336404323223,0.0434088136039,-1.44711350982
1385571167729562053,0.29671790563,0.226019570988,-0.433425831231,0.0334544268786,0.0447894624842,-1.44659770212
1385571167739363830,0.299733266785,0.22094822245,-0.434378468283,0.0335819009373,0.0457187249665,-1.44586303677
1385571167749304715,0.302829800908,0.216049996163,-0.435100601,0.0335019453245,0.0453398837112,-1.44518528672
1385571167759367169,0.305679551382,0.21117858719,-0.435645874456,0.0345103042617,0.0470904898461,-1.44392337756
1385571167769374487,0.308955434195,0.206339219905,-0.436687671226,0.0345842266919,0.0475372250605,-1.44408563514
1385571167779305487,0.31204011475,0.201626144249,-0.437508153415,0.0343829574495,0.0488497779719,-1.44300127177
1385571167789405510,0.315258904234,0.196989703922,-0.438325477016,0.0340714822074,0.0489076913836,-1.4424154778
1385571167799356626,0.318203720532,0.192377158476,-0.439186509814,0.0334946139579,0.0494823224562,-1.44198925183
1385571167809427915,0.321302958546,0.187890805215,-0.439871022402,0.032450669345,0.0511393614663,-1.44045177574
1385571167819342536,0.324384346271,0.183425395574,-0.440920398854,0.0320893391924,0.0507008662757,-1.44023123096
1385571167829317736,0.327729378446,0.179008620632,-0.44182852391,0.0311210097668,0.0511971312163,-1.44012638441
1385571167839468328,0.330994800765,0.174696219444,-0.442791672357,0.0307824986807,0.0512901924283,-1.43973564801
1385571167849359508,0.334015148575,0.170428620713,-0.44366573266,0.0307076397989,0.0513979176332,-1.43920763164
1385571167859285685,0.337343310169,0.166265553575,-0.444618331547,0.0305905913411,0.0514909228482,-1.43869971031
1385571167869510005,0.34049473405,0.162200106487,-0.445700684376,0.0303620519879,0.0526755193241,-1.43850584052
1385571167879280678,0.343808710625,0.158183783466,-0.446668414057,0.0294774244183,0.0524553474356,-1.43789086571
1385571167889434171,0.350108333202,0.150316090428,-0.448552833801,0.0272487953913,0.0547167406075,-1.43679583754
1385571167899267525,0.350108333202,0.150316090428,-0.448552833801,0.0272487953913,0.0547167406075,-1.43679583754
1385571167909369572,0.353248012847,0.146580526676,-0.449559755293,0.0266639618653,0.0537861558058,-1.43629685167
1385571167919358510,0.356431492818,0.142777332312,-0.450669521461,0.0242637798883,0.0542473306124,-1.43598708388
