%time,field.linear.x,field.linear.y,field.linear.z,field.angular.x,field.angular.y,field.angular.z
1385565572827714940,-0.0,0.0,0.0,1.0,0.0,0.0
1385565572917748300,-0.0,0.0,5.44109167151e-08,1.0,0.0,0.118003145458
1385565573017678123,0.0214403598485,0.0622628114378,-0.0129558931687,1.0,0.0,0.0629687081178
1385565573117717449,0.0189373876746,0.0548352854893,-0.0110787273528,1.0,0.0,0.0700709634729
1385565573217682590,0.0219227573914,0.063409558157,-0.0102134537683,1.0,0.0,0.0635999509822
1385565573317684992,0.0208303681343,0.0600430661583,-0.00843848140476,1.0,0.0,0.0606922720917
1385565573417671608,0.0194881834199,0.056002744543,-0.00610914945621,1.0,0.0,0.0580599193897
1385565573517639835,0.0171387389888,0.049019433714,-0.00330372456999,1.0,0.0,0.0559851616195
1385565573617857243,0.0145476683813,0.0413849348324,-0.000100379331791,1.0,0.0,0.0543579321342
1385565573717767080,0.0119100357843,0.0335199590566,0.00350401875626,1.0,0.0,0.0530181365388
1385565573817657537,0.00938725161732,0.0262152871837,0.00738416566974,1.0,0.0,0.051985136556
1385565573917759475,0.0072118679363,0.0198289348574,0.0115479262664,1.0,0.0,0.0511848677039
1385565574018102728,0.00539578306313,0.0146624249326,0.0159434949835,1.0,0.0,0.0505254399362
1385565574118076888,0.00403490047103,0.0107033397087,0.0205352663264,1.0,0.0,0.0499928888597
1385565574217214197,0.00313768151967,0.00797325837932,0.025275314781,1.0,0.0,0.0496373111984
1385565574317396752,0.00254654733885,0.00638594606327,0.0301833494392,1.0,0.0,0.0492971652508
1385565574417266469,0.00229591347378,0.00564616621691,0.0352413388763,1.0,0.0,0.0490921989191
1385565574517179801,0.00225595447423,0.00573511966696,0.0403814502401,1.0,0.0,0.0489319685418
1385565574618369339,0.0024989358157,0.00627760684157,0.0456361276142,1.0,0.0,0.0487729649462
1385565574717380305,0.00280666625634,0.00719754786349,0.050974690388,1.0,0.0,0.0486661704601
1385565574817274381,0.00336263394796,0.00827101787724,0.0563383814272,1.0,0.0,0.0485307016427
1385565574918172466,0.00358630278969,0.00937547814594,0.0618318225153,1.0,0.0,0.0484547565612
1385565575018053598,0.0041779105091,0.0104542921652,0.0673448204285,1.0,0.0,0.0483098858191
1385565575117095232,0.00438299308608,0.0110993666993,0.0729544462934,1.0,0.0,0.0482365878212
1385565575217428694,0.00485001167969,0.0116419591414,0.0785603015838,1.0,0.0,0.0481324078965
1385565575317740810,0.00516050348785,0.0113414455602,0.0843058437771,1.0,0.0,0.0479521002581
1385565575417723332,0.00540192358562,0.0114173754272,0.0899356842314,1.0,0.0,0.0477384708312
1385565575517431682,0.00487093669592,0.0109068275361,0.0955943982416,1.0,0.0,0.0475779214393
1385565575617663343,0.00589088727794,0.00973472578981,0.101318297317,1.0,0.0,0.0473360101247
1385565575717486960,0.00632361589526,0.00835080871753,0.106990241569,1.0,0.0,0.0471591105618
1385565575817431669,0.00912979387947,0.00510256160941,0.11236109994,1.0,0.0,0.0472088492824
1385565575917438652,0.0134053505436,0.00190327348141,0.117030053753,1.0,0.0,0.0473072152245
1385565576017516526,0.016802958247,0.0010516976581,0.120119822797,1.0,0.0,0.0471644176317
1385565576117447961,0.0211365489963,-8.78028964423e-05,0.121417539576,1.0,0.0,0.0472264371208
1385565576217415699,0.0271809220856,-0.00561314684972,0.121300767721,1.0,0.0,0.0468898626369
1385565576317439026,0.0330767214345,-0.00903894459067,0.11972833829,1.0,0.0,0.0464465739041
1385565576417435916,0.0394639304045,-0.0110648856905,0.116896856905,1.0,0.0,0.046066385545
1385565576517419433,0.0468556029353,-0.0130074071436,0.113118600234,1.0,0.0,0.0454477278405
1385565576617442199,0.0544200610752,-0.0138606477951,0.108430496434,1.0,0.0,0.0444974861396
1385565576717427989,0.0629727301832,-0.0154170754263,0.102989593078,1.0,0.0,0.04331504682
1385565576817450695,0.0706004146446,-0.015919073778,0.0993852164887,1.0,0.0,0.0418929654137
1385565576917567029,0.0774634003911,-0.0162760532647,0.0982240800856,1.0,0.0,0.0403070216492
1385565577017438235,0.0837721659333,-0.0166479286764,0.0992878919811,1.0,0.0,0.0386105726655
1385565577117555324,0.0891406583435,-0.016775715999,0.102311012834,1.0,0.0,0.0369096812892
1385565577217555643,0.0933496137106,-0.0165684182013,0.106921061199,1.0,0.0,0.0352788807534
1385565577317465518,0.0963540850816,-0.0163879290645,0.112691483832,1.0,0.0,0.0336842808334
1385565577417486437,0.0976502428558,-0.0164303049806,0.119420787368,1.0,0.0,0.0321514035821
1385565577517437602,0.096718771194,-0.0162919428199,0.126960709254,1.0,0.0,0.030661749869
1385565577617456310,0.0929408356801,-0.0157437037565,0.135196983614,1.0,0.0,0.0291836191881
1385565577717795953,0.0897324309422,-0.0161631251541,0.142441622268,1.0,0.0,0.0278094598836
1385565577817545040,0.0871432963524,-0.016391188757,0.148545669902,1.0,0.0,0.0264827627985
1385565577917453229,0.0812329682342,-0.0171944414714,0.155061365205,1.0,0.0,0.0252329121797
1385565578017607830,0.0758761191788,-0.0183936656371,0.15834974368,1.0,0.0,0.0238599607139
1385565578117445866,0.0700323822433,-0.0204001793002,0.160591348485,1.0,0.0,0.0226305606153
1385565578217451212,0.0648226906322,-0.0201567561311,0.161775821327,1.0,0.0,0.0212989384373
1385565578317481859,0.0603612184552,-0.0213416615665,0.161833324147,1.0,0.0,0.0200310551505
1385565578417462045,0.0569910161003,-0.0229769319885,0.160937056775,1.0,0.0,0.0188438829885
1385565578517482862,0.053131025032,-0.0235404400454,0.1598518593,1.0,0.0,0.0175916124182
1385565578617501125,0.0504305376697,-0.024351330809,0.15794026554,1.0,0.0,0.0163422654469
1385565578717553883,0.048197557012,-0.0262090938209,0.155303802904,1.0,0.0,0.015254367503
1385565578817546928,0.0461763664561,-0.0262151638943,0.152519080249,1.0,0.0,0.0142999027093
1385565578917583975,0.0460061837936,-0.0264077234342,0.148740713073,1.0,0.0,0.0133355585773
1385565579017456424,0.0474957384695,-0.0260352012332,0.144038422853,1.0,0.0,0.0125072672724
1385565579117482581,0.0482105904465,-0.0258595026142,0.139928687438,1.0,0.0,0.011688582731
1385565579217484639,0.049429752092,-0.0257134967166,0.13587706331,1.0,0.0,0.0109086873467
1385565579317435649,0.0510729591071,-0.0260444740897,0.131806215443,1.0,0.0,0.0102042222912
1385565579417944943,0.0527929676226,-0.0257256537525,0.128075696518,1.0,0.0,0.00954501180173
1385565579517387642,0.0549882428027,-0.0253226951877,0.12432391108,1.0,0.0,0.00893903143861
1385565579617513682,0.0574422185816,-0.0248835404966,0.120412985432,1.0,0.0,0.00841582050427
1385565579717579989,0.0593831130109,-0.0245218630552,0.116828415359,1.0,0.0,0.00791618276365
1385565579817467843,0.0613916802893,-0.0243088993425,0.113045230307,1.0,0.0,0.00752371280525
1385565579917547107,0.0625988047952,-0.0238987139609,0.109599974226,1.0,0.0,0.00714096621981
1385565580017478139,0.0633734336434,-0.0238094583451,0.106344839399,1.0,0.0,0.00681414631254
1385565580117473277,0.063595805498,-0.023696468764,0.10313662197,1.0,0.0,0.0064733062968
1385565580217422911,0.0632317466893,-0.0241575147662,0.0999604929603,1.0,0.0,0.00612412094075
1385565580317500165,0.0627211759816,-0.0239896747071,0.0968068649182,1.0,0.0,0.0058761450365
1385565580417555840,0.0616819510462,-0.0245262289037,0.093547216937,1.0,0.0,0.00558128766217
1385565580517536854,0.0601793042974,-0.0250912550894,0.0905035602948,1.0,0.0,0.00527743530499
1385565580617456271,0.0583597025964,-0.0258151691791,0.0875803300492,1.0,0.0,0.00495589363038
1385565580717548904,0.0566416814149,-0.0263817597678,0.0843169452661,1.0,0.0,0.004682768886
1385565580817485062,0.054693491384,-0.0272107777744,0.0812934460792,1.0,0.0,0.00441718129761
1385565580917561934,0.0529363758656,-0.0276026402168,0.0782145036834,1.0,0.0,0.00419490119995
1385565581017405303,0.0511990907567,-0.0279799466009,0.0752211940244,1.0,0.0,0.00397948201823
1385565581117470823,0.0496487444079,-0.0280609184028,0.0723539479086,1.0,0.0,0.00384664823865
1385565581217469766,0.0480974424702,-0.0281870650222,0.0696220279434,1.0,0.0,0.00367772157774
1385565581317435747,0.047056213526,-0.02809874821,0.0667681378282,1.0,0.0,0.00361162827685
1385565581417513806,0.0461205931492,-0.0279090568673,0.0640313413645,1.0,0.0,0.00355236662387
1385565581517475031,0.045437787812,-0.0277207608023,0.061275890881,1.0,0.0,0.00350749896899
1385565581617449627,0.044848012684,-0.0274885527004,0.0587948249768,1.0,0.0,0.00348215211881
1385565581717431493,0.0445995757446,-0.0271073876636,0.0563500177397,1.0,0.0,0.0035383061711
1385565581817433029,0.044168059302,-0.0268090325178,0.054397970053,1.0,0.0,0.00356726835419
1385565581917558786,0.0440659351775,-0.026812438305,0.0522974071321,1.0,0.0,0.00362858455747
1385565582017546660,0.044137988214,-0.0262722147975,0.050312599261,1.0,0.0,0.00383051368572
1385565582117467299,0.0438656481324,-0.0261895345741,0.0487025111541,1.0,0.0,0.00399670421204
1385565582217469867,0.0437287248557,-0.0259638231388,0.0470287863332,1.0,0.0,0.004259950861
1385565582317438762,0.0432401331692,-0.0259256060942,0.0459663768983,1.0,0.0,0.00447005581745
1385565582417474598,0.0428465973182,-0.0259982198868,0.0445122355549,1.0,0.0,0.00475865854606
1385565582517438167,0.0422451519514,-0.0261799862487,0.0433161260185,1.0,0.0,0.00504289522464
1385565582617422638,0.0415191138099,-0.0264967856839,0.0421863724513,1.0,0.0,0.00529757765926
1385565582717444085,0.040641507376,-0.0269754425848,0.0410799488063,1.0,0.0,0.00546820753513
1385565582817489348,0.0397445933476,-0.0270558414121,0.0402121778762,1.0,0.0,0.00568835093984
1385565582917555654,0.0388360827302,-0.0273884079372,0.0391219211596,1.0,0.0,0.00586632996363
1385565583017454128,0.0377671750569,-0.0273706913403,0.0384414775217,1.0,0.0,0.00598093505248
1385565583117428024,0.0367904510644,-0.0269874765214,0.0377283202007,1.0,0.0,0.00612927347997
1385565583217437622,0.0357066860005,-0.0268019271715,0.0367744886768,1.0,0.0,0.00616078534946
1385565583317477860,0.034713300993,-0.0259561284346,0.0360259958737,1.0,0.0,0.00622656907869
1385565583417486105,0.0336591515634,-0.0252268861106,0.0353084383211,1.0,0.0,0.00626879020871
1385565583517390390,0.0326682918345,-0.0242149168035,0.0344934629527,1.0,0.0,0.00628371401678
1385565583617427613,0.0316179045827,-0.0230939515995,0.0339299925002,1.0,0.0,0.00629328005466
1385565583717433461,0.0306469417967,-0.0222301484738,0.0332096933039,1.0,0.0,0.0062382495933
1385565583817502366,0.0297145470781,-0.0212052992161,0.0323724827662,1.0,0.0,0.00616780790217
1385565583917401513,0.0289621160842,-0.0200613481509,0.0314609843164,1.0,0.0,0.00614441182076
1385565584017563549,0.0281371000746,-0.0190841075369,0.0306370620396,1.0,0.0,0.00605773797363
1385565584117428954,0.0275283673557,-0.0179706268537,0.0297839410304,1.0,0.0,0.0060351840922
1385565584217464805,0.0269953718233,-0.0172285246133,0.0289400630315,1.0,0.0,0.00596818640884
1385565584317483468,0.0266179622436,-0.0163871122019,0.0279920281301,1.0,0.0,0.00598961628149
1385565584417482512,0.0262497198681,-0.0158066125455,0.0272282314516,1.0,0.0,0.00599478521927
1385565584517562772,0.0259109730542,-0.0153736982777,0.0265179248925,1.0,0.0,0.00600635120693
1385565584617418311,0.0256752892714,-0.0148929142271,0.0257525269737,1.0,0.0,0.00609691604558
1385565584717484848,0.0253359836824,-0.014693888418,0.0251309318803,1.0,0.0,0.0061516838814
1385565584817497770,0.0251700604018,-0.0142920038053,0.0244647549402,1.0,0.0,0.00631691827424
1385565584917528478,0.0249074387346,-0.0142286413507,0.0236726387601,1.0,0.0,0.00644337863999
1385565585017481508,0.02466851459,-0.0140722018384,0.0232047389503,1.0,0.0,0.00658983132535
1385565585117434710,0.0245878730803,-0.0140284503318,0.0228140829807,1.0,0.0,0.00679085031417
1385565585217567688,0.0244939822136,-0.0140098006803,0.0224290493617,1.0,0.0,0.00696238610746
1385565585317627746,0.0244357214407,-0.0139466327452,0.0221180615243,1.0,0.0,0.00714426267943
1385565585417449905,0.024436190895,-0.0137284728491,0.0218019810648,1.0,0.0,0.00737093930115
1385565585517544573,0.0243365629897,-0.0133768027076,0.0215775851966,1.0,0.0,0.00757428802576
1385565585617521626,0.0242944924107,-0.0128356475286,0.021090951287,1.0,0.0,0.00781564994163
1385565585717503553,0.0241343526395,-0.012162618248,0.0205744881074,1.0,0.0,0.00803052717184
1385565585817434201,0.023891578394,-0.0113512167572,0.0202364779708,1.0,0.0,0.00822068472565
1385565585917646008,0.0236619321817,-0.0104291670331,0.0197986159054,1.0,0.0,0.00839612081593
1385565586017529068,0.0232668545145,-0.00935901502839,0.0195632321537,1.0,0.0,0.00852983851793
1385565586117465621,0.0228976194856,-0.00807084144071,0.0193871593156,1.0,0.0,0.00870900536236
1385565586217539455,0.0224055193444,-0.00668974971308,0.0190735008408,1.0,0.0,0.00889637483796
1385565586317660354,0.0218458641312,-0.00537325285846,0.0187032259709,1.0,0.0,0.00905636212578
1385565586417493992,0.0213023900406,-0.00400182815452,0.0183454945381,1.0,0.0,0.00927351703975
1385565586517422594,0.020704309027,-0.00286995343692,0.018034738835,1.0,0.0,0.00947726419486
1385565586617580191,0.0200189033059,-0.0018643441435,0.0180229931301,1.0,0.0,0.00969734089741
1385565586717670317,0.0193373756186,-0.00102910157207,0.0179359149906,1.0,0.0,0.00989769529183
1385565586817420984,0.0186553702654,-0.000512539687807,0.0178083106491,1.0,0.0,0.0100705004226
1385565586917484947,0.0179786834954,2.66956765178e-05,0.0178261633402,1.0,0.0,0.0102892023256
1385565587017426951,0.0172273251102,9.26971359762e-05,0.0177440193884,1.0,0.0,0.010424741977
1385565587117495437,0.0164998748579,5.02295061644e-05,0.0177069630088,1.0,0.0,0.0105432217778
1385565587217402318,0.0157489281094,-0.000145311865764,0.0176287557681,1.0,0.0,0.0106189297614
1385565587317434767,0.0151102829182,-0.000437415043713,0.0174753273826,1.0,0.0,0.010685769777
1385565587417484091,0.0144266104742,-0.000740437136522,0.0174399719206,1.0,0.0,0.0107710629673
1385565587517451904,0.0138959855944,-0.00116051659771,0.0174464410256,1.0,0.0,0.010837575893
1385565587617491254,0.0133370814271,-0.00147499367311,0.017543211747,1.0,0.0,0.0108685742894
1385565587717481878,0.0128788691533,-0.00166750603294,0.0176072879822,1.0,0.0,0.0109366295908
1385565587817498011,0.0123630517582,-0.00173406609041,0.0177512949636,1.0,0.0,0.0109608012056
1385565587917481747,0.0119211107405,-0.00166272561755,0.0177598037225,1.0,0.0,0.010946989608
1385565588017506669,0.0115738092802,-0.00120035018967,0.0176760009728,1.0,0.0,0.0109992858395
1385565588117491695,0.0112036674915,-0.000698288080351,0.0175309211112,1.0,0.0,0.0110003857441
1385565588217554550,0.0110135260754,0.000212554998757,0.0173562491118,1.0,0.0,0.0110879190603
1385565588317433210,0.0109005895278,0.0010992362348,0.0170897693014,1.0,0.0,0.0111133049383
1385565588417519398,0.0108163860271,0.00221008271474,0.0167507083441,1.0,0.0,0.0111552872644
1385565588517437262,0.0108704956053,0.00354477162896,0.0164115526206,1.0,0.0,0.0112181537325
1385565588617393745,0.0109875769154,0.0047784911289,0.0160133915362,1.0,0.0,0.0113109275962
1385565588717514463,0.0111696971617,0.00591878373294,0.015618830095,1.0,0.0,0.0113209070803
1385565588817629393,0.0114181793562,0.00700751980358,0.0151767540849,1.0,0.0,0.0113188303499
1385565588917559601,0.0116860822713,0.00784358825645,0.0147771814643,1.0,0.0,0.0112874253895
1385565589017427036,0.0120027418752,0.00863423257438,0.0142362250686,1.0,0.0,0.0112732886779
1385565589117539124,0.012321546892,0.00911183174365,0.0137032133117,1.0,0.0,0.0111824563168
1385565589218013720,0.0126156358092,0.00936321855926,0.013202660094,1.0,0.0,0.0110549941838
1385565589317427855,0.0127093677263,0.00952591318283,0.0127694909909,1.0,0.0,0.0109490517581
1385565589417552745,0.0128533756038,0.009405881608,0.0121164379369,1.0,0.0,0.0108051731985
1385565589517425877,0.0127616167856,0.00918598662928,0.0116712505657,1.0,0.0,0.0106280074985
1385565589617499624,0.0128296571299,0.00903676327927,0.0111306545061,1.0,0.0,0.0106186127134
1385565589717493682,0.0127380387294,0.00857651981918,0.0106307766787,1.0,0.0,0.0104481753235
1385565589817389409,0.0126087248078,0.00814643904966,0.0102259851555,1.0,0.0,0.0103642206167
1385565589917648070,0.0124686602535,0.00758901216536,0.00973629622463,1.0,0.0,0.0102611534945
1385565590017622014,0.0122875747314,0.00694109487901,0.00924604047126,1.0,0.0,0.0100890098708
1385565590117452592,0.0120779571728,0.00632431393882,0.00880301610767,1.0,0.0,0.00996674840548
1385565590217406448,0.0119298382851,0.00556889316902,0.00843988432801,1.0,0.0,0.0097642043157
1385565590317504068,0.0117338398291,0.0046952666814,0.00810012907861,1.0,0.0,0.00956266083376
1385565590417473596,0.0116394848504,0.00377907336149,0.00782684685177,1.0,0.0,0.00932673140399
1385565590517438382,0.0115297339935,0.00293604493593,0.00757250228268,1.0,0.0,0.00914727956722
1385565590617563065,0.0114501161935,0.00180262489992,0.00739479119005,1.0,0.0,0.00881495194106
1385565590717473748,0.0113577565739,0.000848942570355,0.00718174537826,1.0,0.0,0.00846605882736
1385565590817438629,0.0111658293988,-7.10782299854e-05,0.00696501582567,1.0,0.0,0.00814328116133
1385565590917470689,0.0109775011114,-0.00101159265562,0.00682367306943,1.0,0.0,0.00777348409739
1385565591017683092,0.0107022542317,-0.00177553787961,0.00674090205087,1.0,0.0,0.00738381172182
1385565591117499325,0.0103802461411,-0.00236032418481,0.006677720838,1.0,0.0,0.0070095305563
1385565591217711031,0.0100158838478,-0.00292247033366,0.00662236042505,1.0,0.0,0.00660227632334
1385565591317488558,0.00956523993204,-0.00324532375851,0.00646621374497,1.0,0.0,0.00621217577597
1385565591417581648,0.00915742053415,-0.00350162524671,0.00632826601859,1.0,0.0,0.00585252758802
1385565591517631501,0.00870794791913,-0.00388341514077,0.00620851919741,1.0,0.0,0.0053864158576
1385565591617659039,0.0083020610778,-0.00417054512247,0.00618167516748,1.0,0.0,0.00495402168718
1385565591717489982,0.00796286857936,-0.00446776618404,0.00612880999032,1.0,0.0,0.00448389121495
1385565591817972094,0.00751337034555,-0.00483693293667,0.00610026959396,1.0,0.0,0.00403708924596
1385565591917508242,0.00718564450594,-0.00514180594629,0.00601281544486,1.0,0.0,0.0035753325779
1385565592017521695,0.00685151745458,-0.00557658681072,0.00594633405507,1.0,0.0,0.00305289892179
1385565592117504282,0.00656643818424,-0.00607392923711,0.00586935135873,1.0,0.0,0.00250531012868
1385565592217492913,0.00630598634701,-0.00666319978023,0.00580062836262,1.0,0.0,0.00199247986075
1385565592317550424,0.00610274160049,-0.00733550517635,0.00581306702656,1.0,0.0,0.00142786990772
1385565592417447593,0.00604437700075,-0.00800821342897,0.00572270972317,1.0,0.0,0.000881855351182
1385565592517440315,0.00595696708012,-0.0086858170703,0.00560898318954,1.0,0.0,0.000368191666735
1385565592617498519,0.00605226429029,-0.00943040305226,0.00539669251042,1.0,0.0,-0.000154283492596
1385565592717412118,0.00619874940624,-0.00995122893424,0.00519728945312,1.0,0.0,-0.000655293150794
1385565592817401081,0.00652879485686,-0.0104916096517,0.0048865549186,1.0,0.0,-0.00115120134695
1385565592917867676,0.00685400264786,-0.0108967806151,0.00456561782976,1.0,0.0,-0.0015922734639
1385565593017550169,0.00725549431273,-0.0112395171091,0.00424308361774,1.0,0.0,-0.00213675530808
1385565593117506407,0.00771573417995,-0.011415837007,0.00394837340147,1.0,0.0,-0.00264455517565
1385565593217547543,0.00822982679746,-0.011496783368,0.00371818339179,1.0,0.0,-0.00316865254062
1385565593317491336,0.00867671326138,-0.0114670789487,0.00348518044699,1.0,0.0,-0.00362488898414
1385565593417499885,0.00912966069686,-0.0114266080744,0.00330404877468,1.0,0.0,-0.00409944377589
1385565593517495602,0.0094782336231,-0.0112533493048,0.00317494208279,1.0,0.0,-0.00461543531818
1385565593617487917,0.00980633058839,-0.0110621301893,0.00307927796798,1.0,0.0,-0.00512699623434
1385565593717473029,0.0100891301652,-0.0109393934534,0.00291481541949,1.0,0.0,-0.00565022280611
1385565593817660855,0.0101999978842,-0.0107635085272,0.00273687462478,1.0,0.0,-0.00613301250415
1385565593917642248,0.010356155779,-0.0105735903067,0.00257759418032,1.0,0.0,-0.00660942435132
1385565594017645955,0.010269234875,-0.0104310468772,0.00247063223371,1.0,0.0,-0.00715937590799
1385565594117619126,0.0100998425337,-0.0103081823383,0.00239603154627,1.0,0.0,-0.00759048412452
1385565594217482511,0.00992260441095,-0.0102347477289,0.00234232125488,1.0,0.0,-0.00807802701933
1385565594317630497,0.00957833144325,-0.0102629272173,0.00228776770027,1.0,0.0,-0.00857205650673
1385565594417488971,0.00926965557005,-0.0101875574762,0.00224219607549,1.0,0.0,-0.0089831449259
1385565594517669448,0.00889645499023,-0.0101891435226,0.00224901490472,1.0,0.0,-0.0094238782105
1385565594617624390,0.00851002827413,-0.0102701457887,0.00229730444841,1.0,0.0,-0.00988218782424
1385565594717445538,0.00813698769284,-0.0104065176223,0.00228675603865,1.0,0.0,-0.0103155899887
1385565594817465361,0.00772953992095,-0.0104612455968,0.00244602624148,1.0,0.0,-0.0106232206346
1385565594917448223,0.00722312813978,-0.0106517732946,0.00245433520968,1.0,0.0,-0.0109980788125
1385565595017451002,0.0067039616618,-0.0108724991278,0.00246771972018,1.0,0.0,-0.0113433776659
1385565595117413780,0.00614135404539,-0.010998043989,0.00242459551291,1.0,0.0,-0.0116757703714
1385565595217488760,0.00562752025381,-0.0110771537934,0.00241124274993,1.0,0.0,-0.0120061132259
1385565595317470883,0.00509531270708,-0.0110920192334,0.00237551565046,1.0,0.0,-0.0123268170133
1385565595417630590,0.00464705537139,-0.0109810657316,0.00226484309967,1.0,0.0,-0.0126447660953
1385565595517665171,0.00429946477658,-0.0108220062005,0.00216275154368,1.0,0.0,-0.0129169671321
1385565595617620132,0.0039962381113,-0.0105660035384,0.00206942427147,1.0,0.0,-0.0132304815822
1385565595717579565,0.00383444019108,-0.0102692247163,0.00198103480848,1.0,0.0,-0.0134886097659
1385565595817525390,0.00372766105252,-0.00994779394926,0.00200108560318,1.0,0.0,-0.0137721327897
1385565595917427396,0.00367201682704,-0.00957440329347,0.00197575639971,1.0,0.0,-0.0140359745286
1385565596017536887,0.00364064297346,-0.00930609641153,0.00198058435878,1.0,0.0,-0.0143069878788
1385565596117635698,0.00360019930605,-0.00897862109421,0.00198624491031,1.0,0.0,-0.0145875043729
1385565596217499094,0.00377468908523,-0.00865024896969,0.00191203302438,1.0,0.0,-0.0147879257232
1385565596317510022,0.00396608911807,-0.00837287094905,0.00188196482991,1.0,0.0,-0.0149407184375
1385565596417659531,0.00422886063926,-0.00826546562019,0.00180750420108,1.0,0.0,-0.0151486399216
1385565596517412534,0.00457900695433,-0.00815312795262,0.00176075777149,1.0,0.0,-0.0153512294109
1385565596617482547,0.00501543327993,-0.00823529160627,0.00166539470572,1.0,0.0,-0.0154951040977
1385565596717561337,0.0055235824037,-0.0082519754017,0.00153101182617,1.0,0.0,-0.0157388086653
1385565596817506949,0.0060478944852,-0.00842731824417,0.00147682502579,1.0,0.0,-0.0159598636662
1385565596917405333,0.00653160639185,-0.00867880897915,0.00140460773996,1.0,0.0,-0.0162022883519
1385565597017690520,0.00698877391351,-0.00886790038619,0.00144023017749,1.0,0.0,-0.0163969671503
1385565597117523069,0.00735264798884,-0.00916450381697,0.00148139795012,1.0,0.0,-0.0166408987229
1385565597217901374,0.00762438627229,-0.00939897025122,0.00149964545948,1.0,0.0,-0.0168627047061
1385565597317492923,0.00781824304276,-0.00970655727068,0.00152344663274,1.0,0.0,-0.0170198744984
1385565597417489857,0.00778747103809,-0.00985777189787,0.00151324952858,1.0,0.0,-0.0172081593946
1385565597517721040,0.00757298058723,-0.00997914138601,0.00138681516404,1.0,0.0,-0.0173689762678
1385565597617431520,0.00725421402739,-0.00986849302446,0.001233412574,1.0,0.0,-0.0175062643245
1385565597717514192,0.00666056218897,-0.00981939032276,0.00106136047616,1.0,0.0,-0.0176753831934
1385565597817575739,0.00608508187433,-0.0096584073286,0.000871102048745,1.0,0.0,-0.0177530660179
1385565597917623737,0.00526783277183,-0.00954171394323,0.000733249027545,1.0,0.0,-0.0178771903492
1385565598017667726,0.00447156525219,-0.00940430929014,0.000584444661833,1.0,0.0,-0.0179604229986
1385565598117777499,0.00374595037467,-0.00940688898593,0.000529022671885,1.0,0.0,-0.0179804816311
1385565598217603788,0.00307641645892,-0.00944460765602,0.000524570770452,1.0,0.0,-0.0180143596237
1385565598317461471,0.00249468122365,-0.00946844334398,0.000559537701346,1.0,0.0,-0.0180803110441
1385565598417497783,0.00209377336631,-0.00958452761153,0.000608342794083,1.0,0.0,-0.0181161195878
1385565598517693083,0.00189284792534,-0.00956054052711,0.000661154688952,1.0,0.0,-0.018111546665
1385565598617481679,0.00186790753559,-0.00950201155944,0.000805536498929,1.0,0.0,-0.0181189100094
1385565598717595652,0.00188977435774,-0.0095385160356,0.000957306782165,1.0,0.0,-0.0181014895933
1385565598817456320,0.00211885114468,-0.0093758524617,0.00112251453328,1.0,0.0,-0.0180896484375
1385565598917441868,0.0023929964405,-0.00920232440365,0.00124236644684,1.0,0.0,-0.0180562250392
1385565599017587604,0.00283151837157,-0.00896161775023,0.00136949214753,1.0,0.0,-0.0180173953476
1385565599117419561,0.0033417531284,-0.00863373550073,0.00146689443492,1.0,0.0,-0.017996159516
1385565599217965096,0.00391031675611,-0.00823494458951,0.00159682739475,1.0,0.0,-0.0179331831127
1385565599317936180,0.00443950776157,-0.00774495680921,0.00171382523347,1.0,0.0,-0.0178480624217
1385565599417791350,0.00495103093346,-0.00706342433553,0.00174576810373,1.0,0.0,-0.0177451289455
1385565599517854345,0.00532606873184,-0.00636298802596,0.00177914091808,1.0,0.0,-0.0176546602105
1385565599617979822,0.00559831226995,-0.00562387259661,0.00175826902899,1.0,0.0,-0.0175410628725
1385565599717802497,0.00569388533111,-0.00488698311049,0.00178483424297,1.0,0.0,-0.0173984690452
1385565599817942829,0.00577215280745,-0.00398857591693,0.00177603662083,1.0,0.0,-0.0172737730727
1385565599917745713,0.00570297874699,-0.00328770695908,0.00179298046135,1.0,0.0,-0.017209727209
1385565600017982425,0.0055499422748,-0.00258067509961,0.00188619695703,1.0,0.0,-0.0171220219068
1385565600117941331,0.00535978034416,-0.00204403606778,0.00189460664956,1.0,0.0,-0.0169799829301
1385565600217932988,0.00510896710169,-0.00173061677006,0.00189122432147,1.0,0.0,-0.0168790005445
1385565600317957323,0.00485629235764,-0.00161740131488,0.0018969308545,1.0,0.0,-0.0167881491332
1385565600417942476,0.0045867645835,-0.00174283432864,0.00194077361888,1.0,0.0,-0.0166713738608
1385565600517898748,0.00426431063844,-0.00205717982236,0.00190628188551,1.0,0.0,-0.0165900690722
1385565600617782764,0.00395359084229,-0.0025542987646,0.00194916442109,1.0,0.0,-0.0165145109544
1385565600717767831,0.00374522445364,-0.00303951268275,0.00192382761746,1.0,0.0,-0.0163971391265
1385565600817801134,0.00353795342821,-0.00356081233285,0.00188611533215,1.0,0.0,-0.0162638234701
1385565600917768668,0.00338638952094,-0.00406552657767,0.00190919446239,1.0,0.0,-0.0161464674096
1385565601017786396,0.00337269690909,-0.0043640239084,0.00186201697708,1.0,0.0,-0.0159817154115
1385565601117776795,0.00340738814569,-0.00472009019011,0.00178584908233,1.0,0.0,-0.0158171331173
1385565601217941412,0.00353717699585,-0.00507580224214,0.00170835736018,1.0,0.0,-0.0156309450443
1385565601317806995,0.0037287623598,-0.00535005333361,0.00158309524926,1.0,0.0,-0.0154187035899
1385565601417788518,0.00397599251138,-0.00556592752724,0.00144482364484,1.0,0.0,-0.015213178118
1385565601518017144,0.00424824950698,-0.00573520446043,0.00131138178388,1.0,0.0,-0.0149911163967
1385565601617709401,0.0044873514949,-0.00576904650022,0.00117273571411,1.0,0.0,-0.0148101072401
1385565601717799594,0.00471695247421,-0.0057323321167,0.0010382808303,1.0,0.0,-0.0146255898716
1385565601817835503,0.00491113027919,-0.00557033827482,0.000918056580301,1.0,0.0,-0.0144459599095
1385565601917789755,0.00505437346712,-0.00536770695335,0.000816906389577,1.0,0.0,-0.0142941236164
1385565602017693768,0.00521248303623,-0.00516694538103,0.000643683097571,1.0,0.0,-0.0141255387961
1385565602117741786,0.00543926900041,-0.00499869253135,0.000478400598092,1.0,0.0,-0.0139678609383
1385565602217970952,0.00570739455724,-0.00489755307084,0.000338973157034,1.0,0.0,-0.0137956332368
1385565602317907808,0.00605635242313,-0.00487535942932,0.000210592565735,1.0,0.0,-0.0136439303545
1385565602417841019,0.00648585918405,-0.00492225663076,0.000110675853579,1.0,0.0,-0.0134717073605
1385565602517619273,0.00690393065586,-0.00507718024607,5.1173594435e-05,1.0,0.0,-0.0133332555899
1385565602617509923,0.00728543419864,-0.00527354122655,-1.5344628956e-05,1.0,0.0,-0.0131927588171
1385565602717656107,0.00757337047335,-0.00550070853522,-0.000103517776202,1.0,0.0,-0.0130104166867
1385565602817659139,0.00772571440328,-0.00584680531504,-0.000251485221892,1.0,0.0,-0.0128303932586
1385565602917523783,0.00778100230655,-0.00621424460816,-0.000289381709068,1.0,0.0,-0.0126097982586
1385565603017781582,0.00774011404087,-0.00660308795917,-0.000296681619038,1.0,0.0,-0.0124255471724
1385565603117512583,0.00766326390059,-0.00717339752405,-0.000291856916593,1.0,0.0,-0.0122306636507
1385565603217612140,0.00760545728928,-0.00760848246848,-0.00024829456888,1.0,0.0,-0.0120472499183
1385565603317548169,0.00760825513265,-0.00811090592031,-0.000222502469868,1.0,0.0,-0.011814863411
1385565603417672438,0.00767300363297,-0.00852597077269,-0.000228556989455,1.0,0.0,-0.0115963372356
1385565603517553436,0.00782151143513,-0.00896792106945,-0.000196777253474,1.0,0.0,-0.011396325742
1385565603617434014,0.00807786796481,-0.00915707878263,-7.5903060317e-05,1.0,0.0,-0.011203464745
1385565603717339607,0.00836535817239,-0.00927827676665,6.64604738679e-06,1.0,0.0,-0.0110055955754
1385565603817299287,0.008772101203,-0.00922902289681,2.2886835795e-05,1.0,0.0,-0.0108630116747
1385565603917325731,0.0093205417073,-0.00897055052762,-5.64109079772e-05,1.0,0.0,-0.0105825664249
1385565604017501840,0.00993192168602,-0.00870722299267,-0.000126130613493,1.0,0.0,-0.0103147139199
1385565604117338138,0.0106275092709,-0.00825461719129,-0.000175518046743,1.0,0.0,-0.00999732952449
1385565604217341604,0.0113001855003,-0.00787490938373,-0.000226514988541,1.0,0.0,-0.00967166959871
1385565604317368598,0.0119710553452,-0.0074931759144,-0.000293724343455,1.0,0.0,-0.00930625420394
1385565604417470017,0.0126308632993,-0.00701377665507,-0.000292059279566,1.0,0.0,-0.00893557196947
1385565604517320000,0.0132097978957,-0.00668208598791,-0.000306840027773,1.0,0.0,-0.00857744375854
1385565604617316844,0.0137400508833,-0.00625395595678,-0.000302970265794,1.0,0.0,-0.00821905971528
1385565604717315289,0.0141735929217,-0.00597422708273,-0.000251606243128,1.0,0.0,-0.00785985373656
1385565604817342571,0.0145941041403,-0.00556129348593,-0.000210887812582,1.0,0.0,-0.00749562622716
1385565604917333242,0.0148987245752,-0.0052354723891,-0.0001236076843,1.0,0.0,-0.00710978691835
1385565605017388032,0.0151835596499,-0.00481299516537,-1.20970669066e-05,1.0,0.0,-0.00676698755611
1385565605117392590,0.0153203304456,-0.004460010536,0.000125008111591,1.0,0.0,-0.00641944526268
1385565605217281630,0.0153241270555,-0.00415837253867,0.000281218526853,1.0,0.0,-0.00607981362001
1385565605317368681,0.0153774141531,-0.00370945494606,0.000420064405981,1.0,0.0,-0.00563283092718
1385565605417365805,0.0152832019214,-0.00339321094933,0.000556494467394,1.0,0.0,-0.00527048682855
1385565605517361413,0.0151952864508,-0.00300409631885,0.000669725553221,1.0,0.0,-0.00486555601578
1385565605617413919,0.0152340646798,-0.00263643899829,0.000680943335514,1.0,0.0,-0.00449321876127
1385565605717428141,0.0152116941346,-0.00237023848163,0.000696910210611,1.0,0.0,-0.0041136658937
1385565605817298178,0.015322448099,-0.00202154467979,0.00063483475705,1.0,0.0,-0.00376216958947
1385565605917393038,0.0154374470666,-0.00179741222937,0.00051223915332,1.0,0.0,-0.00341081083855
1385565606017309452,0.015624561532,-0.00163960889613,0.000430043758371,1.0,0.0,-0.00308943555949
1385565606117380090,0.0158030943606,-0.0016338895485,0.000518758781742,1.0,0.0,-0.00274713475055
1385565606217310421,0.0159842028563,-0.00163176419223,0.000582182549813,1.0,0.0,-0.00241407459536
1385565606317390179,0.0162002840426,-0.00168689154848,0.000607538475864,1.0,0.0,-0.00209868389569
1385565606417375136,0.0163720750988,-0.00175836922822,0.00051463519067,1.0,0.0,-0.00176041221016
1385565606517395536,0.0164976683272,-0.00187970234168,0.000396301295617,1.0,0.0,-0.00150484899402
1385565606617325629,0.0166632014311,-0.00187803282443,0.000320039365177,1.0,0.0,-0.00124007870532
1385565606717332461,0.0167278388645,-0.0017919073385,0.00030791226626,1.0,0.0,-0.00090962023206
1385565606817478068,0.0166980442659,-0.00173997731639,0.000203655490496,1.0,0.0,-0.000576951398068
1385565606917391617,0.0166141294765,-0.00166907645723,0.000183796603719,1.0,0.0,-0.000247445417268
1385565607017479053,0.0164224345905,-0.00158037341132,0.000156334957316,1.0,0.0,0.00012390311475
1385565607117382110,0.0161088520988,-0.00146756254037,0.000139239564506,1.0,0.0,0.0004738589147
1385565607217482228,0.0157180573552,-0.00145326704213,0.000199719852461,1.0,0.0,0.000832588428923
1385565607317334552,0.0152181665825,-0.00145888200153,0.00027710701989,1.0,0.0,0.0012110710586
1385565607417339377,0.0146819392227,-0.00154157455159,0.000233632280243,1.0,0.0,0.00159692013668
1385565607517901371,0.0140063422583,-0.00167375968149,0.000218865324285,1.0,0.0,0.00195351925173
1385565607617319957,0.0133156328809,-0.00170281683415,0.0002060713265,1.0,0.0,0.00229341838273
1385565607717551777,0.0127027577945,-0.00171463170901,9.45131241267e-05,1.0,0.0,0.00267588979556
1385565607817320813,0.0120148963595,-0.00174564321094,1.75182105964e-05,1.0,0.0,0.00304026096133
1385565607917383932,0.0113880156719,-0.00176521765093,-4.02867849529e-06,1.0,0.0,0.00335136706162
1385565608017484419,0.0108221662448,-0.00179572188076,-7.34711908218e-05,1.0,0.0,0.00359653067454
1385565608117340373,0.0103702859427,-0.00166676946111,-6.27132603452e-05,1.0,0.0,0.00389021312485
1385565608217324621,0.0100357188357,-0.00151601229183,-8.06147408461e-05,1.0,0.0,0.00409850992716
1385565608317393854,0.00988021246589,-0.00113246260072,-0.000151387734803,1.0,0.0,0.00439572686698
1385565608417303623,0.0099066874034,-0.000865664105627,-0.000158095993121,1.0,0.0,0.00465996360988
1385565608517340220,0.0100768620006,-0.000465990068487,-8.48711657026e-05,1.0,0.0,0.00489662170891
1385565608617402717,0.0104011049204,-0.000166687819671,-4.67719062646e-05,1.0,0.0,0.00514520919508
1385565608717396946,0.010804862343,0.000203080096003,6.75293233808e-06,1.0,0.0,0.00539779219872
1385565608817325038,0.0112871953467,0.000324273874624,8.02362623909e-05,1.0,0.0,0.0055821493555
1385565608917444535,0.011765714686,0.000440187407352,0.000164119932005,1.0,0.0,0.00576383270178
1385565609017345561,0.0122476259297,0.000417056084917,0.000231796768954,1.0,0.0,0.00591510532861
1385565609117498253,0.0126428320402,0.000344358237751,0.000295134745794,1.0,0.0,0.00604009370545
1385565609217620378,0.0129174350919,0.000247172942442,0.000327123618849,1.0,0.0,0.00612662276093
1385565609317501394,0.0130760932714,0.000235675294275,0.000324598682181,1.0,0.0,0.00621496962952
1385565609417339969,0.0129881586016,0.000240823882938,0.000239765836823,1.0,0.0,0.0063536855749
1385565609517395702,0.012773995493,0.000110037507447,0.000100056262997,1.0,0.0,0.00636743123758
1385565609617424234,0.0122752329789,0.00022284991582,2.46624743145e-06,1.0,0.0,0.00644663250233
1385565609717357388,0.0116633907933,0.000229985129133,-0.000236012712601,1.0,0.0,0.00654275810599
1385565609817318627,0.0109031963215,0.000302169377023,-0.000409882208498,1.0,0.0,0.00654661394149
1385565609917409425,0.01009464232,0.000359806269041,-0.000555499289947,1.0,0.0,0.00653617877178
1385565610017339203,0.00930350347566,0.000389345102935,-0.000716305316818,1.0,0.0,0.00655439051349
1385565610117450299,0.00847673134613,0.00048614597553,-0.000788668212485,1.0,0.0,0.00657121183857
1385565610217507388,0.00773722799518,0.000729654255967,-0.000868678878986,1.0,0.0,0.00664842967222
1385565610317329896,0.00707045026446,0.000850296006471,-0.000907249611058,1.0,0.0,0.00675587467241
1385565610417376564,0.00646257950748,0.00101177740104,-0.000951008937847,1.0,0.0,0.0067454618114
1385565610517386742,0.00594433151645,0.0011917083565,-0.000966363598515,1.0,0.0,0.00674044078102
1385565610617650979,0.00559047362889,0.00149531904231,-0.00096073927582,1.0,0.0,0.00670247285384
1385565610717439635,0.00527998606296,0.00186544446649,-0.00092184212131,1.0,0.0,0.00669836126368
1385565610817331539,0.00515614016921,0.00243673445194,-0.000935955546252,1.0,0.0,0.00665049185656
1385565610917526432,0.00511825216433,0.00325011204973,-0.000920653668497,1.0,0.0,0.00674840992986
1385565611017328362,0.00519044988619,0.00408178040375,-0.000912234546495,1.0,0.0,0.006743999431
1385565611117420114,0.00536229438127,0.00504020077159,-0.000858916290922,1.0,0.0,0.00672004491961
1385565611217513701,0.00559575711923,0.00592540858936,-0.000840051895387,1.0,0.0,0.00669461913152
1385565611317394900,0.00589956062314,0.00679548977965,-0.000837618404726,1.0,0.0,0.00663968172872
1385565611417400737,0.00631260992818,0.0073786161096,-0.000842528505334,1.0,0.0,0.00650184294325
1385565611517414635,0.00670881129991,0.00799376215387,-0.000828950498501,1.0,0.0,0.00642857757772
1385565611617377575,0.0071782843299,0.00841723735549,-0.000875433901125,1.0,0.0,0.00625415113743
1385565611717495811,0.00755789645734,0.00879316707551,-0.000836903796429,1.0,0.0,0.00610808135145
1385565611817517430,0.00793699435918,0.0090675352896,-0.000821685990867,1.0,0.0,0.00596451562141
1385565611917399762,0.00820997111397,0.00923882517726,-0.000727347776095,1.0,0.0,0.0057845618094
1385565612017479241,0.0084030891066,0.00928842867008,-0.000571014641319,1.0,0.0,0.00560916230363
1385565612117286603,0.00842892986402,0.00921011453433,-0.000416568989233,1.0,0.0,0.00550107526453
1385565612217377253,0.00838742876451,0.00898472476039,-0.000262737709709,1.0,0.0,0.00535587208896
1385565612317306092,0.00806791367961,0.00839916508765,-0.000115202243122,1.0,0.0,0.00523258732434
1385565612417366060,0.00759660888061,0.00794576167151,7.16001591276e-05,1.0,0.0,0.00526153942935
1385565612517548523,0.00704744840994,0.00716270988262,0.000134672096062,1.0,0.0,0.00522120540302
1385565612617529191,0.00636966726007,0.00627333874184,0.000165235996274,1.0,0.0,0.00520353002763
1385565612717558267,0.00564887224751,0.00540520609591,0.00017184315605,1.0,0.0,0.00518944607471
1385565612817280305,0.00487561491306,0.00455584693339,0.000171526009765,1.0,0.0,0.00522021527963
1385565612917370617,0.00394583692069,0.00389695128228,0.000151874223917,1.0,0.0,0.00530841525155
1385565613017364295,0.00303209217145,0.00328735377556,0.000156398451735,1.0,0.0,0.00540027019708
1385565613117379836,0.00216470495377,0.00292845844576,0.000137459731172,1.0,0.0,0.00548149416953
1385565613217387478,0.00128994586868,0.00254625143555,9.26172833537e-05,1.0,0.0,0.00558822296288
1385565613317404011,0.000592380303913,0.00241671047363,3.89716300679e-05,1.0,0.0,0.00567727427076
1385565613417458491,6.44705137089e-05,0.00240343525359,-9.57947808506e-05,1.0,0.0,0.0058333473509
1385565613517422629,-0.000261598500436,0.00263002978762,-0.000169171068257,1.0,0.0,0.00594387878968
1385565613618382108,-0.000336630170161,0.00301329864732,-0.000216748823833,1.0,0.0,0.006004391637
1385565613717450025,-0.000217687694101,0.00346111938594,-0.000256936537962,1.0,0.0,0.0060561241243
1385565613818306340,4.88324662203e-06,0.00412386319933,-0.000288323556906,1.0,0.0,0.00614664360742
1385565613917410182,0.000382475390806,0.00488451571362,-0.000348604009068,1.0,0.0,0.00631215320966
1385565614017355574,0.000817527138995,0.00567994277055,-0.000428508279047,1.0,0.0,0.00646536324805
1385565614117369698,0.00132409605558,0.00649594516685,-0.00053174068952,1.0,0.0,0.00663875174162
1385565614217423749,0.00174062835887,0.00733863081994,-0.000613224289716,1.0,0.0,0.00684168271429
1385565614317412983,0.0021248742971,0.0081343488012,-0.000615879208545,1.0,0.0,0.00697343653526
1385565614417299963,0.00235517771752,0.00893378394236,-0.00067462947777,1.0,0.0,0.00714635311769
1385565614517312549,0.00247904515511,0.00972287001428,-0.000730037525864,1.0,0.0,0.00728295398946
1385565614617527149,0.00245770555984,0.0104381151938,-0.000796790797317,1.0,0.0,0.00743224342156
1385565614717339892,0.00225934310417,0.0111136057069,-0.000902917249178,1.0,0.0,0.00762578164802
1385565614817526267,0.00197771093469,0.0116881159862,-0.0010863573081,1.0,0.0,0.00777978920779
1385565614917333941,0.00160741303361,0.0121480167618,-0.00125147960896,1.0,0.0,0.00793599910575
1385565615017386878,0.0011654866452,0.012542406364,-0.00137769281254,1.0,0.0,0.00809810951119
1385565615117421338,0.000781189148819,0.0128634652126,-0.00146433591174,1.0,0.0,0.00817695215356
1385565615217393433,0.000379366296883,0.0130827181721,-0.00137262792612,1.0,0.0,0.00828035225864
1385565615317407387,2.7334507301e-05,0.0132519810393,-0.00127234636243,1.0,0.0,0.00838965590106
1385565615417373338,-0.000206669836775,0.0132381340049,-0.00118099391129,1.0,0.0,0.00848139978205
1385565615517406118,-0.000308773983982,0.0131097226708,-0.00112459447304,1.0,0.0,0.00855087570932
1385565615617423882,-0.000295543716974,0.0128078510788,-0.00105193555438,1.0,0.0,0.00863463836836
1385565615717427288,-0.000118457323859,0.0123827770921,-0.000950451537488,1.0,0.0,0.00872284039001
1385565615817401821,0.000166559287674,0.0118382769211,-0.000769511821041,1.0,0.0,0.0087633101921
1385565615917432783,0.000551301988386,0.0110112399421,-0.000607033753364,1.0,0.0,0.0088389758176
1385565616017416264,0.00101639738234,0.0101969638189,-0.000507073479716,1.0,0.0,0.00884971086881
1385565616117701195,0.00147260956556,0.00931637626863,-0.000367695159869,1.0,0.0,0.00894563919064
1385565616217415081,0.00197358992613,0.00847333828217,-0.000198605020583,1.0,0.0,0.00895120019812
1385565616317410802,0.00243426997437,0.00779955308499,-0.000105115126087,1.0,0.0,0.00896614368845
1385565616417378512,0.00286556020817,0.00721545791444,-0.000114076929648,1.0,0.0,0.00897403186558
1385565616517324261,0.00327346150038,0.00678853013508,-0.00014957485336,1.0,0.0,0.00892805595098
1385565616617365632,0.00354232262881,0.00633340379559,-0.000189845310764,1.0,0.0,0.00890518871947
1385565616717659264,0.00375562193188,0.00601224529344,-0.000287402229389,1.0,0.0,0.00888255408698
1385565616817383997,0.00385055039856,0.00568825806312,-0.000442515541566,1.0,0.0,0.0088994731778
1385565616917371449,0.00382298138911,0.00528909359076,-0.000620744809711,1.0,0.0,0.00892027405495
1385565617017369080,0.00376020212925,0.00481005526421,-0.000781427698343,1.0,0.0,0.00895514171825
1385565617117403662,0.00362084478353,0.00430926839097,-0.000934459927719,1.0,0.0,0.00895862798708
1385565617217607868,0.00349489665518,0.0038120236487,-0.00109760545178,1.0,0.0,0.00898164390953
1385565617317596761,0.00336889878774,0.00333651570698,-0.00129912432169,1.0,0.0,0.00897248939472
1385565617417508610,0.00318407587035,0.00293599633299,-0.00149781898114,1.0,0.0,0.00900424978382
1385565617517411462,0.00304675093996,0.00260882675579,-0.00170562770455,1.0,0.0,0.00906331406718
1385565617617366513,0.00290079224636,0.00228627401913,-0.00179380291152,1.0,0.0,0.00911383600004
1385565617717516447,0.00274545654531,0.00205902640928,-0.00185730459599,1.0,0.0,0.00919520694739
1385565617817436366,0.00257238025894,0.00201675696582,-0.00190981690845,1.0,0.0,0.00931142835704
1385565617917402158,0.00238595110052,0.00201053391365,-0.001960041473,1.0,0.0,0.00941777917145
1385565618017402280,0.00220289248026,0.00209397211584,-0.00198103526596,1.0,0.0,0.0095025308762
1385565618117391074,0.00210142610116,0.00222556950654,-0.00197523507636,1.0,0.0,0.00952518466126
1385565618217399824,0.00180890837552,0.00231024740923,-0.00198054589856,1.0,0.0,0.00959436826109
1385565618317915359,0.00161074281187,0.00256824023279,-0.0019454864535,1.0,0.0,0.00966772952246
1385565618417322135,0.00135626420255,0.00276060680181,-0.00183353772795,1.0,0.0,0.00968675250876
1385565618517353531,0.00100062726108,0.00277486778018,-0.00166697253251,1.0,0.0,0.00969839752083
1385565618617420015,0.000686857129355,0.002931721304,-0.00148071208385,1.0,0.0,0.00972257131934
1385565618717577378,0.000378032781388,0.00297090794453,-0.00126582153466,1.0,0.0,0.0097136315158
1385565618817730580,7.98519536088e-05,0.0030109470568,-0.00110966875209,1.0,0.0,0.00967922465336
1385565618917579829,-0.000162483165833,0.00310251308867,-0.000924254086169,1.0,0.0,0.00963133124948
1385565619017548923,-0.000469637003037,0.00311346401974,-0.000727687244555,1.0,0.0,0.00962939940869
1385565619117413329,-0.000660874501874,0.00318437393815,-0.000509446267637,1.0,0.0,0.00960678544131
1385565619217383991,-0.000842430176204,0.00324392920988,-0.000237984723189,1.0,0.0,0.0095809213616
1385565619317406602,-0.00101508968845,0.00329791956383,5.49745521695e-05,1.0,0.0,0.00959066634475
1385565619417306286,-0.00116640053797,0.00340722312837,0.000307021688842,1.0,0.0,0.00960624258411
1385565619517320219,-0.00125945696737,0.00353508722297,0.000571704858707,1.0,0.0,0.00962291786161
1385565619617625956,-0.00130816788758,0.00364212250003,0.000877338658305,1.0,0.0,0.00964259090317
1385565619717884294,-0.00125594459164,0.00375568674555,0.00115252974878,1.0,0.0,0.00961336411845
1385565619817560654,-0.00119219290643,0.003860948736,0.00135833043402,1.0,0.0,0.0096172813291
1385565619917373323,-0.00112834115642,0.0039425932647,0.00156071045865,1.0,0.0,0.00970642352007
1385565620017418626,-0.000935837585377,0.0040150767106,0.00170420510469,1.0,0.0,0.00978419839676
1385565620117327698,-0.000705383710706,0.0040778589196,0.00181085946247,1.0,0.0,0.00987424493083
1385565620217353753,-0.000398813160837,0.00415068185495,0.00184510189088,1.0,0.0,0.00997972335661
1385565620317396864,-7.09303578873e-06,0.00417585517718,0.00182908153011,1.0,0.0,0.0100613265185
1385565620417393681,0.000421671972661,0.00421012003967,0.00187337228984,1.0,0.0,0.0102326529594
1385565620517496471,0.000899948926694,0.00427622818624,0.00187286684776,1.0,0.0,0.0102999550205
1385565620617424952,0.00140466931179,0.0043987415772,0.00186430754355,1.0,0.0,0.0104339900262
1385565620717395188,0.00195700691067,0.00448184010514,0.0018484430659,1.0,0.0,0.0105157492536
1385565620817379094,0.00246147635233,0.00458119940685,0.00185196016835,1.0,0.0,0.0106357558944
1385565620917550808,0.00300555086418,0.00478568817849,0.00187284457566,1.0,0.0,0.0107004631632
1385565621017391207,0.00346263422999,0.00498050236357,0.00191293784544,1.0,0.0,0.0107469215007
1385565621117353246,0.00395630017024,0.00534180805642,0.00180936648477,1.0,0.0,0.0107833672064
1385565621217500011,0.00433197210633,0.00567602271012,0.00165750610945,1.0,0.0,0.0108147800962
1385565621317386838,0.00470203260693,0.00609533383164,0.00150805097535,1.0,0.0,0.0108842723043
1385565621417402266,0.0050146782472,0.00661317511146,0.00132003130314,1.0,0.0,0.0108548839324
1385565621517444781,0.00519049375935,0.0071002905153,0.00119325066244,1.0,0.0,0.0108088849125
1385565621617360546,0.00526695750255,0.00756532731124,0.00111632959503,1.0,0.0,0.0107456540323
1385565621717324398,0.00509068000829,0.00792621973377,0.00104806719814,1.0,0.0,0.0106645259804
1385565621817471657,0.00488783780308,0.00844222539548,0.00097636144246,1.0,0.0,0.0105627531499
1385565621917397921,0.00460081426479,0.00887102327467,0.000942965486474,1.0,0.0,0.0105309073671
1385565622017413790,0.00434781714137,0.00926095967676,0.000831228573133,1.0,0.0,0.0103788666316
1385565622117383933,0.00409037395128,0.00959706172888,0.00075526733664,1.0,0.0,0.0102430000979
1385565622217317660,0.00394447564363,0.0100103077782,0.000776663467847,1.0,0.0,0.0100340370249
1385565622317410564,0.00376827435517,0.0103031516276,0.000781121262949,1.0,0.0,0.00978389089684
1385565622417340130,0.00363761393083,0.0106838268533,0.000833307391297,1.0,0.0,0.00953615275208
1385565622517422172,0.00363206710017,0.0111085280969,0.000893148734208,1.0,0.0,0.00926340468299
1385565622617337070,0.00370072058954,0.0114330359636,0.000964517380037,1.0,0.0,0.00903348546867
1385565622717376049,0.00383193012713,0.0117359859784,0.00102249974893,1.0,0.0,0.00873448833554
1385565622817480434,0.00406927222742,0.0119598719291,0.00104031155369,1.0,0.0,0.00846698670622
1385565622917537851,0.0043579802051,0.0120144301331,0.000991941373794,1.0,0.0,0.00813239127778
1385565623017532181,0.00474397413783,0.0118468279744,0.000983889946615,1.0,0.0,0.00774414733453
1385565623117485803,0.00515309307801,0.0116186474898,0.000881208416563,1.0,0.0,0.00732682820391
1385565623217421313,0.00564067112878,0.0112164210894,0.000738832530493,1.0,0.0,0.00689899905421
1385565623317358478,0.00603182340005,0.0107375505183,0.00065834563905,1.0,0.0,0.00653416510374
1385565623417355251,0.00655332657337,0.0101688891367,0.000451603517464,1.0,0.0,0.00612385085871
1385565623517560364,0.00683182194738,0.00945708327502,0.00028459533549,1.0,0.0,0.00584383116642
1385565623617553843,0.00717880352085,0.00869153400532,7.05208557075e-05,1.0,0.0,0.00557440473823
1385565623717414265,0.00753386238559,0.00770423896682,-0.000183669856247,1.0,0.0,0.00527505183289
1385565623817450152,0.00784531415033,0.00686802638909,-0.000402852312119,1.0,0.0,0.00501158660365
1385565623917410242,0.00811525295604,0.00601733469093,-0.000629723238674,1.0,0.0,0.00471659839002
1385565624017387864,0.00831839068472,0.00539263561337,-0.000810954025219,1.0,0.0,0.00445352433891
1385565624117509001,0.00841325395347,0.00478777494573,-0.00095192699193,1.0,0.0,0.00418372523766
1385565624217327529,0.00846498097957,0.00445793899514,-0.00105889776099,1.0,0.0,0.00391408709376
1385565624317569781,0.00847625102147,0.00430374587026,-0.0011361605559,1.0,0.0,0.00369445469595
1385565624417404932,0.00836788592522,0.00415824573625,-0.00114769346306,1.0,0.0,0.00345234811304
1385565624517364482,0.00821759622753,0.00432382526806,-0.00112527383096,1.0,0.0,0.00333337297394
1385565624617396373,0.00804962202745,0.00456058338581,-0.00109310628248,1.0,0.0,0.00318534209565
1385565624717460310,0.00772604570195,0.00490321373016,-0.00111329316824,1.0,0.0,0.00306175186099
1385565624817577353,0.00736910829633,0.0052789845941,-0.00110654686854,1.0,0.0,0.00300652762942
1385565624917375519,0.00697740600037,0.00552091934695,-0.00112601612755,1.0,0.0,0.0028493957446
1385565625017449907,0.00647837948779,0.00590499406197,-0.00111952404244,1.0,0.0,0.00275799004204
1385565625117358582,0.00592882369885,0.00619194471512,-0.0011130954997,1.0,0.0,0.00262654784703
1385565625217867247,0.00536132101985,0.00645546896234,-0.0011297038363,1.0,0.0,0.00254824694066
1385565625317365005,0.00479665172347,0.00638015028533,-0.000985738665679,1.0,0.0,0.00247480565609
1385565625417346344,0.00427725393135,0.00626768399593,-0.00082547309626,1.0,0.0,0.00238202435041
1385565625517572564,0.0038114878139,0.0058208765509,-0.000617325291323,1.0,0.0,0.00227177332524
1385565625617632129,0.00336425885069,0.00526903658991,-0.000370108286613,1.0,0.0,0.00217305611484
1385565625717494003,0.00298559755272,0.00473267767917,-0.000203166084166,1.0,0.0,0.00204749002912
1385565625817530269,0.00256005687527,0.00423629375927,1.04415355849e-06,1.0,0.0,0.0019881410603
1385565625917568921,0.00228897796991,0.0035767227041,0.000259370761986,1.0,0.0,0.00175971391022
1385565626017466976,0.00201236478892,0.00320523639611,0.000464246441606,1.0,0.0,0.00156864291442
1385565626117493285,0.00170922328154,0.00269078935886,0.000663367574399,1.0,0.0,0.00127858509375
1385565626217455437,0.00155578971061,0.00227528774929,0.000823572933933,1.0,0.0,0.000927280080763
1385565626317427147,0.00131350221485,0.00170012213112,0.00104147166199,1.0,0.0,0.000514871746883
1385565626417523778,0.00122566368554,0.00116077621652,0.00124309745734,1.0,0.0,0.000109745924989
1385565626517660363,0.00107517000917,0.000565563454168,0.00143956232635,1.0,0.0,-0.000298189522561
1385565626617507200,0.0010463527981,-4.19736877705e-05,0.00167224479992,1.0,0.0,-0.000734740619854
1385565626717676505,0.00103120604574,-0.000763647423322,0.00186675562575,1.0,0.0,-0.00119648565979
1385565626817633207,0.000978898792226,-0.00145229492639,0.0019632569724,1.0,0.0,-0.00159526921583
1385565626917429036,0.000888647826586,-0.00224990859044,0.00202800974417,1.0,0.0,-0.0020049859456
1385565627017479947,0.000669179886504,-0.00300832241881,0.00212428653148,1.0,0.0,-0.0024392832935
1385565627117520657,0.000455999521172,-0.00359378860102,0.00217921133438,1.0,0.0,-0.00288550030057
1385565627217514826,8.03889520825e-05,-0.00424542786926,0.00221051954122,1.0,0.0,-0.00334892861892
1385565627317477761,-0.000407742498007,-0.00478395540373,0.0022360061864,1.0,0.0,-0.00377223300365
1385565627417577849,-0.000892789914207,-0.00524513621533,0.002239218009,1.0,0.0,-0.00418773514995
1385565627517579807,-0.00148063293856,-0.0056389384256,0.00223004486551,1.0,0.0,-0.00457572758445
1385565627617574307,-0.00200787906178,-0.00590983156505,0.0022531157328,1.0,0.0,-0.00501428833906
1385565627717457242,-0.00249750993738,-0.00610118539967,0.00223343873749,1.0,0.0,-0.0054630906411
1385565627817479842,-0.00299490680214,-0.00617290962623,0.00221790171565,1.0,0.0,-0.00584308811788
1385565627917512912,-0.00335306709827,-0.00611839561986,0.0022168779014,1.0,0.0,-0.00621520340275
1385565628017622278,-0.00364666887205,-0.00598807268075,0.00221114444801,1.0,0.0,-0.00660959583399
1385565628117509407,-0.00385241354613,-0.00572551777782,0.00218430132907,1.0,0.0,-0.0069610411945
1385565628217485572,-0.00404072259383,-0.00542567662285,0.00218562998483,1.0,0.0,-0.00732232521147
1385565628317739165,-0.00410135313518,-0.00508553745257,0.00219501277057,1.0,0.0,-0.00763783532813
1385565628417454665,-0.00422239777729,-0.00468179704269,0.00218155227933,1.0,0.0,-0.00793318728601
1385565628517622219,-0.004270504763,-0.00429647810988,0.00213440829915,1.0,0.0,-0.00816009693658
1385565628617548878,-0.00426526343066,-0.00384158231222,0.00203398779953,1.0,0.0,-0.00843793868241
1385565628717654190,-0.00416544527811,-0.00331973758995,0.0018938615109,1.0,0.0,-0.00872255611222
1385565628817403990,-0.00397514175238,-0.00283390611229,0.00174169958978,1.0,0.0,-0.00900848009863
1385565628917474564,-0.00372226215453,-0.00240866345183,0.00165687150831,1.0,0.0,-0.0092734801601
1385565629017522777,-0.0033284763093,-0.00196952922005,0.00162850465525,1.0,0.0,-0.00951317980892
1385565629117644527,-0.00284051482818,-0.0015496343036,0.00161916932273,1.0,0.0,-0.00973042299052
1385565629217510724,-0.00231249036546,-0.00140218326258,0.00159511044851,1.0,0.0,-0.0100516590128
1385565629317400432,-0.00178419695737,-0.00127947836046,0.00159998277645,1.0,0.0,-0.0102503389525
1385565629417426444,-0.00124377913191,-0.00128185146135,0.00163058502342,1.0,0.0,-0.0104434900866
1385565629517481106,-0.000781751737112,-0.00142515383955,0.0016790597425,1.0,0.0,-0.0105847193888
1385565629617481696,-0.000389430653715,-0.00168020795377,0.00170270498309,1.0,0.0,-0.0107537980393
1385565629717399190,-0.000175807167305,-0.00196586451439,0.00176741599448,1.0,0.0,-0.0109873182453
1385565629817499221,-1.62725082636e-05,-0.00233367560184,0.00182852173526,1.0,0.0,-0.0111926198586
1385565629917619679,-2.86789895976e-05,-0.00275462869094,0.00181059134902,1.0,0.0,-0.0113164797336
1385565630017597758,-9.53275954375e-05,-0.00323170484774,0.00172844746381,1.0,0.0,-0.0114912884825
1385565630117738768,-0.000344381648543,-0.00363926447925,0.00164714665769,1.0,0.0,-0.0116352363268
1385565630217558133,-0.000740147360728,-0.0041481431274,0.0015372848162,1.0,0.0,-0.0116903431316
1385565630317700047,-0.00118453310812,-0.00440574306254,0.00138154886433,1.0,0.0,-0.0117844708555
1385565630417439860,-0.00180010259622,-0.0046376109814,0.0012028360095,1.0,0.0,-0.0118616049968
1385565630517748433,-0.00247302012395,-0.00478729481333,0.000981714007442,1.0,0.0,-0.0119165069432
1385565630617525515,-0.00315342416546,-0.00467020222229,0.000678410729259,1.0,0.0,-0.0120236785351
1385565630717668218,-0.00375613931022,-0.00449247195022,0.000426187461303,1.0,0.0,-0.0120836683435
1385565630817649684,-0.00427600656163,-0.00411661892959,0.00022782527919,1.0,0.0,-0.012271556199
1385565630917641154,-0.00465832579484,-0.00360153869246,3.49560613884e-05,1.0,0.0,-0.0123655301305
1385565631017701481,-0.00491528408327,-0.00283533025786,-0.00015966666215,1.0,0.0,-0.0124315654658
1385565631117540210,-0.00500018297086,-0.00215838472076,-0.000250657061698,1.0,0.0,-0.0125173468842
1385565631217430154,-0.00502155603887,-0.00136075990907,-0.000267771516069,1.0,0.0,-0.0126628288732
1385565631317772711,-0.00482277760256,-0.000678787560654,-0.00022523652159,1.0,0.0,-0.0128044535713
1385565631417450894,-0.00456635939894,-6.14986222917e-05,-0.000189157833579,1.0,0.0,-0.0129589071241
1385565631517466835,-0.00431997615427,0.000408680170361,-0.000224774401354,1.0,0.0,-0.0130941558705
1385565631617449855,-0.0040309223053,0.000744939478816,-0.000232160244713,1.0,0.0,-0.0133059337163
1385565631717668926,-0.00376454648952,0.000868236827614,-0.000275756563849,1.0,0.0,-0.0134348470695
1385565631817721767,-0.00355099521078,0.00106254298884,-0.000344348470191,1.0,0.0,-0.0136039518673
1385565631917522006,-0.00338524112638,0.00101934938118,-0.000393653223029,1.0,0.0,-0.0138075097194
1385565632017461281,-0.00332170544542,0.000948507994738,-0.000501624232461,1.0,0.0,-0.0140823343814
1385565632117440155,-0.00334105051503,0.000722145830197,-0.000680853931547,1.0,0.0,-0.0142764851912
1385565632217541396,-0.00333365661213,0.000618612705247,-0.00097930508402,1.0,0.0,-0.0145522318042
1385565632317536450,-0.00343999182648,0.000373880988729,-0.00128374902423,1.0,0.0,-0.0147754939638
1385565632417542444,-0.00362489531818,4.15330137048e-05,-0.00154902225396,1.0,0.0,-0.015056764932
1385565632517484546,-0.00383138362568,-0.000335987295321,-0.00181118969934,1.0,0.0,-0.0153032197543
1385565632617525376,-0.00410562116314,-0.00076403260405,-0.00200195347373,1.0,0.0,-0.0155585007596
1385565632717553984,-0.00440661207497,-0.00122377740101,-0.00216886415154,1.0,0.0,-0.0158705539666
1385565632817536008,-0.00472909319376,-0.00168270387594,-0.00230855832404,1.0,0.0,-0.0161093105238
1385565632917652548,-0.00506429000902,-0.0022656971927,-0.00238567103928,1.0,0.0,-0.0163841440305
1385565633017595418,-0.00541198192457,-0.00270182975519,-0.00247014091116,1.0,0.0,-0.0166687885392
1385565633117557667,-0.00569190498836,-0.00318215583049,-0.00255035250887,1.0,0.0,-0.0169114045898
1385565633217557391,-0.00596779083485,-0.00355315281462,-0.00260335645058,1.0,0.0,-0.0170958458712
1385565633317754036,-0.0061842144367,-0.00385233655111,-0.00260992527672,1.0,0.0,-0.0172624700301
1385565633417785279,-0.006403906616,-0.00409182613736,-0.00255353666625,1.0,0.0,-0.0175151216207
1385565633517674402,-0.00659693702138,-0.00430402900142,-0.00244815650107,1.0,0.0,-0.0177031482809
1385565633617691619,-0.00682349999683,-0.00446140755476,-0.00232359982462,1.0,0.0,-0.0179521008967
1385565633717511226,-0.00703126819325,-0.00456105163388,-0.00216237188717,1.0,0.0,-0.0182405114173
1385565633817778021,-0.00716294353797,-0.00476120359751,-0.00204759594149,1.0,0.0,-0.0184948231956
1385565633917520242,-0.00726017379716,-0.00479874624134,-0.00188274047451,1.0,0.0,-0.0188077960214
1385565634017559497,-0.00727594881245,-0.00502240754291,-0.00174891302215,1.0,0.0,-0.0191075420221
1385565634117569630,-0.00731899536713,-0.00524878417778,-0.00162036985271,1.0,0.0,-0.019434259106
1385565634217464168,-0.00727784117601,-0.00558116843208,-0.00150953532324,1.0,0.0,-0.0197567159886
1385565634317656431,-0.00732685343207,-0.0057916846157,-0.00144435037364,1.0,0.0,-0.020061142175
1385565634417703435,-0.00730899344848,-0.00609583561646,-0.0014486122904,1.0,0.0,-0.0203141943478
1385565634517503895,-0.00738046044035,-0.00629335393308,-0.00155568428226,1.0,0.0,-0.0205495034139
1385565634617454367,-0.0075657188935,-0.00633641633017,-0.001685175447,1.0,0.0,-0.0208570535234
1385565634717580059,-0.00781623915453,-0.00640524545645,-0.00189944941502,1.0,0.0,-0.0210798477151
1385565634817588617,-0.00817097237755,-0.00630379183774,-0.0021850497641,1.0,0.0,-0.021376425991
1385565634917611496,-0.00859627237395,-0.006176085263,-0.00244120370336,1.0,0.0,-0.0217056898176
1385565635017701778,-0.00907573966606,-0.00607364457963,-0.00278405611759,1.0,0.0,-0.0220927493522
1385565635117536799,-0.00953638253698,-0.00599688775431,-0.00311828704439,1.0,0.0,-0.0224457994832
