%time,field.header.seq,field.header.stamp,field.header.frame_id,field.child_frame_id,field.transform.translation.x,field.transform.translation.y,field.transform.translation.z,field.transform.rotation.x,field.transform.rotation.y,field.transform.rotation.z,field.transform.rotation.w
1385565570467897175,282036,1385565570467897175,/world,vicon/Archie/Archie,0.163367065548,-0.0941341235269,0.112097776368,0.00194153688152,-0.00300969909992,0.637792176191,0.770200176665
1385565570477989345,282037,1385565570477989345,/world,vicon/Archie/Archie,0.163425380226,-0.0940707568088,0.112028630915,0.00167137564987,-0.00273907961362,0.637690876974,0.770285693344
1385565570488047313,282038,1385565570488047313,/world,vicon/Archie/Archie,0.163433032104,-0.0940812433092,0.112042741631,0.00170435316682,-0.00276275084855,0.637704923846,0.770273907445
1385565570498015873,282039,1385565570498015873,/world,vicon/Archie/Archie,0.163343317931,-0.0941067584176,0.112049977887,0.00194353787886,-0.00278006033032,0.637789951413,0.770202877041
1385565570507813477,282040,1385565570507813477,/world,vicon/Archie/Archie,0.163355211307,-0.0941203935327,0.112067694109,0.00200525300297,-0.00284927502417,0.637792877414,0.770200042919
1385565570518112235,282041,1385565570518112235,/world,vicon/Archie/Archie,0.163326064474,-0.0941133235133,0.11205230329,0.00197013084959,-0.00280013067987,0.63780287281,0.77019203663
1385565570527995889,282042,1385565570527995889,/world,vicon/Archie/Archie,0.16341563085,-0.0940790239964,0.112027887505,0.00170179227585,-0.00273625800584,0.637716468826,0.770264449513
1385565570538285302,282043,1385565570538285302,/world,vicon/Archie/Archie,0.163331265997,-0.0941130181408,0.112052761156,0.00197969228385,-0.00280825900051,0.63779296021,0.770200191123
1385565570548024015,282044,1385565570548024015,/world,vicon/Archie/Archie,0.163394369286,-0.0941235772702,0.112094709405,0.00193425871528,-0.00299161343032,0.637770222125,0.770218444769
1385565570557907516,282045,1385565570557907516,/world,vicon/Archie/Archie,0.163396479717,-0.0941333440312,0.112092032997,0.00193572195272,-0.00299604556695,0.637756389402,0.770229877678
1385565570567863596,282046,1385565570567863596,/world,vicon/Archie/Archie,0.163385079895,-0.094119449679,0.112094603815,0.00192854010149,-0.00299372621249,0.637761624543,0.770225569944
1385565570577876478,282047,1385565570577876478,/world,vicon/Archie/Archie,0.16335187043,-0.094116428277,0.112054477019,0.00194618977077,-0.00279559489226,0.637783325703,0.770208300689
1385565570588055697,282048,1385565570588055697,/world,vicon/Archie/Archie,0.163371917996,-0.0941321366986,0.112099384117,0.00194134271502,-0.00301464755787,0.637775936109,0.770213605702
1385565570598038843,282049,1385565570598038843,/world,vicon/Archie/Archie,0.163432431071,-0.0940721856383,0.112035164879,0.00167900588642,-0.00272204697465,0.637685495412,0.770290192292
1385565570608725160,282050,1385565570608725160,/world,vicon/Archie/Archie,0.163334766031,-0.0941188158792,0.112056382579,0.00196509850374,-0.00281536577625,0.637802214279,0.770192539281
1385565570618922632,282051,1385565570618922632,/world,vicon/Archie/Archie,0.163394307436,-0.0940938909824,0.112059534678,0.00194322346871,-0.0027657189653,0.637766907948,0.770222010726
1385565570628616443,282052,1385565570628616443,/world,vicon/Archie/Archie,0.163402552135,-0.0941291472641,0.112105482271,0.0019612061461,-0.00303419591091,0.637760660262,0.770226127542
1385565570638470777,282053,1385565570638470777,/world,vicon/Archie/Archie,0.163394598375,-0.0941275339204,0.112097204226,0.00192335860718,-0.0029965454381,0.637765569536,0.770222305391
1385565570648672285,282054,1385565570648672285,/world,vicon/Archie/Archie,0.163400451119,-0.0941317895301,0.112103603345,0.00195447216364,-0.00303421477179,0.637767738788,0.770220283386
1385565570658559069,282055,1385565570658559069,/world,vicon/Archie/Archie,0.163372580554,-0.0941312413172,0.112100935208,0.00195026391772,-0.00301920445415,0.637781750511,0.770208750658
1385565570668551239,282056,1385565570668551239,/world,vicon/Archie/Archie,0.163379054911,-0.0941326671458,0.112101585862,0.00194756116681,-0.00302972630674,0.637779162178,0.770210859477
1385565570678527772,282057,1385565570678527772,/world,vicon/Archie/Archie,0.16340000296,-0.0941346327138,0.112108283837,0.0019670302327,-0.0030446715951,0.637747235817,0.770237186829
1385565570688712274,282058,1385565570688712274,/world,vicon/Archie/Archie,0.163352952948,-0.0941156331837,0.112070278599,0.00199131620598,-0.0028422161042,0.637775218947,0.770214727569
1385565570697957690,282059,1385565570697957690,/world,vicon/Archie/Archie,0.163412218563,-0.0940769950179,0.112030852894,0.0016737499387,-0.00273348893684,0.637711656882,0.770268504663
1385565570707978060,282060,1385565570707978060,/world,vicon/Archie/Archie,0.163392205387,-0.0941244851347,0.112097215266,0.00192994347918,-0.00302321676586,0.637754694556,0.770231189352
1385565570718078036,282061,1385565570718078036,/world,vicon/Archie/Archie,0.163439139312,-0.0940807279792,0.11203144952,0.00168017423515,-0.00274458773209,0.637697380412,0.770280270595
1385565570727989260,282062,1385565570727989260,/world,vicon/Archie/Archie,0.163348203735,-0.094110577791,0.112055994484,0.0019599875479,-0.00280000907931,0.637791013959,0.770201883217
1385565570738098798,282063,1385565570738098798,/world,vicon/Archie/Archie,0.163424089071,-0.0940746795289,0.112035875586,0.00168980613276,-0.00274405588652,0.637707795081,0.770271629235
1385565570747956621,282064,1385565570747956621,/world,vicon/Archie/Archie,0.163406951608,-0.0940793948039,0.112032532304,0.00166791579621,-0.0027403135145,0.637702315295,0.770276226951
1385565570758024818,282065,1385565570758024818,/world,vicon/Archie/Archie,0.163398059674,-0.0941261671905,0.112097396696,0.00192265911655,-0.00300319895647,0.637770907128,0.770217861517
1385565570768045700,282066,1385565570768045700,/world,vicon/Archie/Archie,0.163374476793,-0.0941390979327,0.112100996912,0.00194923495177,-0.00303197736098,0.63779628614,0.770196666432
1385565570777857096,282067,1385565570777857096,/world,vicon/Archie/Archie,0.163385074439,-0.0941382322961,0.112098686019,0.00195775173311,-0.00303005767745,0.637782450781,0.770208109172
1385565570788098388,282068,1385565570788098388,/world,vicon/Archie/Archie,0.163399468222,-0.0940619185768,0.112005645858,0.00176564472544,-0.00259210536551,0.637707443358,0.770272276649
1385565570798160084,282069,1385565570798160084,/world,vicon/Archie/Archie,0.163374462755,-0.094134975469,0.112103345351,0.00194634768949,-0.00303197685554,0.637781189342,0.770209175075
1385565570807966413,282070,1385565570807966413,/world,vicon/Archie/Archie,0.163420143792,-0.0940822278358,0.112036133628,0.00166417817711,-0.00273340658288,0.637713591493,0.77026692401
1385565570818043320,282071,1385565570818043320,/world,vicon/Archie/Archie,0.163396103337,-0.0941333896614,0.112109323385,0.00195851106005,-0.0030444668471,0.637766581801,0.770221190694
1385565570828029340,282072,1385565570828029340,/world,vicon/Archie/Archie,0.16338172702,-0.0941113391529,0.112061056838,0.00196486153134,-0.00279297050283,0.637799524017,0.770194849242
1385565570838113706,282073,1385565570838113706,/world,vicon/Archie/Archie,0.163395425749,-0.0941044201812,0.112068461347,0.0019595422521,-0.00280286408124,0.637783544991,0.770208058829
1385565570848644422,282074,1385565570848644422,/world,vicon/Archie/Archie,0.16343832724,-0.0940786703177,0.112047837897,0.00171114671613,-0.00277818207145,0.637694020718,0.770282863383
1385565570857973534,282075,1385565570857973534,/world,vicon/Archie/Archie,0.163385381704,-0.0941418291849,0.112104386124,0.0019623753095,-0.00301178424155,0.637780954975,0.7702094077
1385565570868127125,282076,1385565570868127125,/world,vicon/Archie/Archie,0.16334021625,-0.0941219703276,0.112061788631,0.00197345539603,-0.00282783674394,0.637799020224,0.770195117237
1385565570877870443,282077,1385565570877870443,/world,vicon/Archie/Archie,0.163377633005,-0.0941295249583,0.112098716888,0.00193744984285,-0.00301148243587,0.637779385513,0.770210771592
1385565570888014266,282078,1385565570888014266,/world,vicon/Archie/Archie,0.163420112299,-0.0940727598481,0.112033408116,0.00167331630369,-0.0027296864666,0.637704666797,0.770274306186
1385565570898028956,282079,1385565570898028956,/world,vicon/Archie/Archie,0.163422530047,-0.0940709323791,0.112042006137,0.00165932832012,-0.00271306524553,0.637699917598,0.770278326972
1385565570907870088,282080,1385565570907870088,/world,vicon/Archie/Archie,0.163445640268,-0.0940762178414,0.112035623801,0.00169934934217,-0.00272409203277,0.637679875234,0.770294793087
1385565570917903257,282081,1385565570917903257,/world,vicon/Archie/Archie,0.16343816955,-0.0940751533962,0.11203850582,0.00166960863852,-0.00273887921713,0.637690867709,0.770285705559
1385565570927936038,282082,1385565570927936038,/world,vicon/Archie/Archie,0.16333349437,-0.0941146453371,0.112060943055,0.00196529232449,-0.00281805026208,0.637796320317,0.770197409765
1385565570938027891,282083,1385565570938027891,/world,vicon/Archie/Archie,0.163436586673,-0.0940746480157,0.112040171035,0.00170120694936,-0.00274695993601,0.637688823946,0.770287299597
1385565570947921161,282084,1385565570947921161,/world,vicon/Archie/Archie,0.163373940524,-0.0941326782708,0.112095341416,0.00192534476767,-0.00299377787862,0.637796625392,0.77019659502
1385565570957869579,282085,1385565570957869579,/world,vicon/Archie/Archie,0.16341575769,-0.0940799566497,0.112036306158,0.00168162892194,-0.0027358964427,0.637707867803,0.770271615949
1385565570968109079,282086,1385565570968109079,/world,vicon/Archie/Archie,0.163382482962,-0.0941235360985,0.112098133741,0.0019142648123,-0.00297978235314,0.637763179212,0.770224372329
1385565570977945083,282087,1385565570977945083,/world,vicon/Archie/Archie,0.163386671719,-0.0941289010294,0.112101625404,0.00192575307083,-0.00299778384883,0.637774187872,0.770215158284
1385565570988043794,282088,1385565570988043794,/world,vicon/Archie/Archie,0.163384145866,-0.0941236425669,0.112092747043,0.00190292481877,-0.00298885579036,0.637764367377,0.770223381443
1385565570997943752,282089,1385565570997943752,/world,vicon/Archie/Archie,0.163440181424,-0.0940739339653,0.112043601384,0.00170386951925,-0.00274604592834,0.637683459308,0.7702917381
1385565571007984365,282090,1385565571007984365,/world,vicon/Archie/Archie,0.163465249679,-0.0940533700605,0.112039237317,0.00165588818522,-0.00271377873601,0.637672740241,0.77030083071
1385565571018025705,282091,1385565571018025705,/world,vicon/Archie/Archie,0.163411876036,-0.0940744740073,0.112041287747,0.00168085392802,-0.00272985985326,0.637712315125,0.770267957098
1385565571027975964,282092,1385565571027975964,/world,vicon/Archie/Archie,0.163386092187,-0.0941195134761,0.112101464654,0.00193142408852,-0.00300760890104,0.637754986384,0.770231005109
1385565571038033370,282093,1385565571038033370,/world,vicon/Archie/Archie,0.163388169809,-0.0941298303022,0.112114661605,0.00194588121677,-0.00301511339265,0.637757478862,0.77022887559
1385565571048055700,282094,1385565571048055700,/world,vicon/Archie/Archie,0.163325257567,-0.0941156884443,0.112060535054,0.00196162513277,-0.00281301072988,0.637797501129,0.770196459711
1385565571057951135,282095,1385565571057951135,/world,vicon/Archie/Archie,0.163369903395,-0.0941307703406,0.112108624471,0.00195037663869,-0.00301625382302,0.637786238836,0.770205045293
1385565571067971258,282096,1385565571067971258,/world,vicon/Archie/Archie,0.163423171876,-0.0941166014021,0.112124446516,0.00195642637415,-0.00301408071073,0.637757808629,0.770228579868
1385565571077800023,282097,1385565571077800023,/world,vicon/Archie/Archie,0.163342712458,-0.0941036173206,0.112065961875,0.0019675279188,-0.00280162132876,0.637772389377,0.770217280448
1385565571088129217,282098,1385565571088129217,/world,vicon/Archie/Archie,0.16334622377,-0.0941085911687,0.112066202663,0.00197140972402,-0.00279504757375,0.637778787675,0.7702119963
1385565571097964509,282099,1385565571097964509,/world,vicon/Archie/Archie,0.16338201922,-0.0941270174713,0.112113755405,0.0019674484678,-0.0030463555975,0.637764209983,0.770223124379
1385565571107993948,282100,1385565571107993948,/world,vicon/Archie/Archie,0.163409338192,-0.0940730002295,0.112045195437,0.00165777991938,-0.00271078319436,0.637701097092,0.770277361856
1385565571117900615,282101,1385565571117900615,/world,vicon/Archie/Archie,0.163365864312,-0.0941324267529,0.112110560843,0.00195806630832,-0.00302291262595,0.637785146186,0.77020590447
1385565571127905044,282102,1385565571127905044,/world,vicon/Archie/Archie,0.163419906,-0.0940766314991,0.112042769569,0.00167763187144,-0.00272884294341,0.637707605728,0.770271866657
1385565571137967111,282103,1385565571137967111,/world,vicon/Archie/Archie,0.163365727027,-0.0941370825465,0.11210843238,0.00196185879474,-0.00301413758723,0.637794109118,0.770198507178
1385565571147986774,282104,1385565571147986774,/world,vicon/Archie/Archie,0.163404820796,-0.0940686415123,0.112046365522,0.0016807286821,-0.0027361858577,0.637699234233,0.770278764537
1385565571157897360,282105,1385565571157897360,/world,vicon/Archie/Archie,0.163401462642,-0.0940816447474,0.112049779241,0.0016862683528,-0.00273456761065,0.63771530275,0.770265455072
1385565571168063344,282106,1385565571168063344,/world,vicon/Archie/Archie,0.163336382662,-0.0941061600802,0.112061918327,0.00196315379989,-0.00280392753609,0.637785427368,0.770206487024
1385565571178008529,282107,1385565571178008529,/world,vicon/Archie/Archie,0.163329311377,-0.0941220641655,0.11206218169,0.00198023793155,-0.00281525016385,0.637796294355,0.770197403223
1385565571188085274,282108,1385565571188085274,/world,vicon/Archie/Archie,0.163363969506,-0.0941383690183,0.112108782057,0.0019628329877,-0.00302457960175,0.637794699167,0.770197975146
1385565571197981370,282109,1385565571197981370,/world,vicon/Archie/Archie,0.16338161282,-0.0941338107619,0.112109008554,0.00196889876844,-0.00302304326473,0.637754133281,0.770231556177
1385565571207790942,282110,1385565571207790942,/world,vicon/Archie/Archie,0.16337003406,-0.0941402238386,0.112112419444,0.00196273054903,-0.00302962691182,0.637789654447,0.770202133034
1385565571218006778,282111,1385565571218006778,/world,vicon/Archie/Archie,0.163389416155,-0.0940713364909,0.11201415831,0.00175154810579,-0.00257490749623,0.637725575813,0.770257354321
1385565571227990750,282112,1385565571227990750,/world,vicon/Archie/Archie,0.163403156141,-0.0940794871328,0.112041062873,0.00168615380409,-0.0027451867511,0.637716788871,0.770264187163
1385565571238064011,282113,1385565571238064011,/world,vicon/Archie/Archie,0.163387368275,-0.0941310331128,0.112117252099,0.00197044571564,-0.0030370326245,0.637754477815,0.770231211912
1385565571248008488,282114,1385565571248008488,/world,vicon/Archie/Archie,0.163359982893,-0.0940611865508,0.11200073173,0.00171445750929,-0.00254601539477,0.637726119025,0.770257084066
1385565571257805550,282115,1385565571257805550,/world,vicon/Archie/Archie,0.163391723054,-0.0941332593912,0.112111463146,0.00195346106925,-0.00302909433147,0.637766702198,0.770221164436
1385565571267960265,282116,1385565571267960265,/world,vicon/Archie/Archie,0.163367368543,-0.0941362630187,0.112111962221,0.00194870183028,-0.00301885035792,0.637786722243,0.770204639063
1385565571277970281,282117,1385565571277970281,/world,vicon/Archie/Archie,0.163380515654,-0.0940667117991,0.112014544008,0.00177357158094,-0.00258214358043,0.637713349683,0.77026740202
1385565571288077185,282118,1385565571288077185,/world,vicon/Archie/Archie,0.16332520553,-0.0941233101999,0.112064605427,0.0019907706458,-0.00281589639034,0.637797018404,0.770196774126
1385565571298065112,282119,1385565571298065112,/world,vicon/Archie/Archie,0.163340390895,-0.094107413722,0.11206102148,0.00196585602649,-0.00279149100337,0.637780253657,0.770210809476
1385565571307924316,282120,1385565571307924316,/world,vicon/Archie/Archie,0.163385874974,-0.0941301634442,0.112102928045,0.00193173410204,-0.00300892546112,0.63776853404,0.770219781465
1385565571317960548,282121,1385565571317960548,/world,vicon/Archie/Archie,0.163383748064,-0.0940633050215,0.112014330086,0.00174622430113,-0.00258048100135,0.6377222278,0.770260119692
1385565571327995605,282122,1385565571327995605,/world,vicon/Archie/Archie,0.163383631485,-0.0941217983855,0.112093600718,0.00192358673426,-0.0030014188625,0.637766551526,0.77022147273
1385565571338050838,282123,1385565571338050838,/world,vicon/Archie/Archie,0.163318632665,-0.0941180183582,0.112062798789,0.00197659699215,-0.00281125828418,0.637813906779,0.770182842064
1385565571348052985,282124,1385565571348052985,/world,vicon/Archie/Archie,0.163392923587,-0.0941236242144,0.11209821752,0.00193177014117,-0.00300400130176,0.637752318811,0.770233227076
1385565571357975607,282125,1385565571357975607,/world,vicon/Archie/Archie,0.163445765448,-0.0940622877187,0.112047733689,0.00167603793711,-0.00269048236375,0.637692798129,0.770284264032
1385565571367986113,282126,1385565571367986113,/world,vicon/Archie/Archie,0.163408615858,-0.094078621936,0.112040872242,0.00170066149632,-0.00274718248523,0.637707458811,0.770271872598
1385565571377906854,282127,1385565571377906854,/world,vicon/Archie/Archie,0.163410725284,-0.0940749113537,0.112037390805,0.00167638166365,-0.00272075277825,0.637714555722,0.770266144049
1385565571388549638,282128,1385565571388549638,/world,vicon/Archie/Archie,0.163368156014,-0.0941321186952,0.112103629383,0.0019587350548,-0.00300403411695,0.637790346505,0.77020167037
1385565571398609483,282129,1385565571398609483,/world,vicon/Archie/Archie,0.16341662229,-0.0940763311729,0.112047347272,0.00166776723292,-0.00272411817296,0.637710110692,0.770269830938
1385565571408486961,282130,1385565571408486961,/world,vicon/Archie/Archie,0.163427986737,-0.0940789378425,0.112047201782,0.0017195319353,-0.0027671237381,0.637689589885,0.770286552647
1385565571418454899,282131,1385565571418454899,/world,vicon/Archie/Archie,0.163418720681,-0.094069041878,0.1120314332,0.00167100043236,-0.002744400079,0.6377005326,0.770277681584
1385565571428524011,282132,1385565571428524011,/world,vicon/Archie/Archie,0.163394882657,-0.0941343226374,0.112110154203,0.00196859120277,-0.00302444780366,0.637763823038,0.770223528197
1385565571438663220,282133,1385565571438663220,/world,vicon/Archie/Archie,0.163382735923,-0.0941254500796,0.112095802965,0.00192824076521,-0.00299357870355,0.637773716976,0.77021555834
1385565571448647629,282134,1385565571448647629,/world,vicon/Archie/Archie,0.163429267804,-0.0940832173963,0.11205632998,0.00170985661805,-0.00276995981292,0.637707476613,0.770271755931
1385565571458528905,282135,1385565571458528905,/world,vicon/Archie/Archie,0.163361528515,-0.0941332859542,0.112104967097,0.0019245858548,-0.00299591832184,0.637781860795,0.770208814857
1385565571468568399,282136,1385565571468568399,/world,vicon/Archie/Archie,0.163376614032,-0.0941375846252,0.112102983277,0.00194036823125,-0.00300917684212,0.637784820865,0.770206272436
1385565571478544601,282137,1385565571478544601,/world,vicon/Archie/Archie,0.163400415474,-0.0941246423926,0.112103135464,0.00192898372101,-0.0029934276309,0.637762666255,0.770224707436
1385565571488622346,282138,1385565571488622346,/world,vicon/Archie/Archie,0.163431424589,-0.0940797474484,0.112055826153,0.00172161158525,-0.00279040411864,0.637691130445,0.770285188648
1385565571498429364,282139,1385565571498429364,/world,vicon/Archie/Archie,0.163378030878,-0.094139760406,0.112102847062,0.00193859825646,-0.00300540932713,0.637783602661,0.77020730036
1385565571508535382,282140,1385565571508535382,/world,vicon/Archie/Archie,0.16337390779,-0.0941397972104,0.11210582485,0.00195824482241,-0.00302297656107,0.637774595181,0.770214640624
1385565571518591137,282141,1385565571518591137,/world,vicon/Archie/Archie,0.163393276976,-0.0941306982632,0.112105184169,0.001928103379,-0.00298606031639,0.637760406998,0.770226608945
1385565571528494975,282142,1385565571528494975,/world,vicon/Archie/Archie,0.163417449775,-0.0940726249643,0.112040057764,0.00167462412844,-0.00273292340609,0.637699652683,0.770278442988
1385565571538503797,282143,1385565571538503797,/world,vicon/Archie/Archie,0.163389375225,-0.0940649538676,0.112015660727,0.00176128459483,-0.00258925178505,0.637710065323,0.7702701255
1385565571548684068,282144,1385565571548684068,/world,vicon/Archie/Archie,0.163408201857,-0.0940777900088,0.112038401981,0.00168958021724,-0.00273537073939,0.637708256536,0.770271278584
1385565571558551807,282145,1385565571558551807,/world,vicon/Archie/Archie,0.163366740393,-0.0941396871969,0.112106167374,0.00195557447548,-0.00300733734028,0.63778419627,0.77020675837
1385565571568613774,282146,1385565571568613774,/world,vicon/Archie/Archie,0.163381314269,-0.0941307640653,0.112099309736,0.00191791478212,-0.00299044596436,0.637758668522,0.770228056852
1385565571578574295,282147,1385565571578574295,/world,vicon/Archie/Archie,0.163422632473,-0.0940796643165,0.112050005723,0.00172497307046,-0.0027542517107,0.637680067347,0.770294469845
1385565571588601890,282148,1385565571588601890,/world,vicon/Archie/Archie,0.163442040615,-0.0940903386046,0.112051521126,0.00171920422136,-0.00276910502623,0.637684691072,0.770290601764
1385565571598576970,282149,1385565571598576970,/world,vicon/Archie/Archie,0.163446916759,-0.0940588649048,0.112042378294,0.00168782926494,-0.00270712574063,0.637703818457,0.770275056475
1385565571608636709,282150,1385565571608636709,/world,vicon/Archie/Archie,0.163363463835,-0.0941405676623,0.112103245993,0.00194492347898,-0.00300051257116,0.637794671547,0.770198137587
1385565571618634667,282151,1385565571618634667,/world,vicon/Archie/Archie,0.163412552777,-0.0940831196801,0.112045812581,0.00168934539357,-0.00273882737332,0.637711903935,0.770268247117
1385565571627895670,282152,1385565571627895670,/world,vicon/Archie/Archie,0.16337350142,-0.0941415992655,0.112106699318,0.00194040772215,-0.00300943902861,0.637778528807,0.770211481534
1385565571638071976,282153,1385565571638071976,/world,vicon/Archie/Archie,0.163388752718,-0.0941257897638,0.112100655231,0.00191938328559,-0.00296868855612,0.637757788856,0.770228865734
1385565571648022453,282154,1385565571648022453,/world,vicon/Archie/Archie,0.163374262314,-0.0941408575665,0.112105056162,0.00195564978475,-0.00300483806869,0.637785825208,0.770205419058
1385565571658251309,282155,1385565571658251309,/world,vicon/Archie/Archie,0.163427413723,-0.0940730607424,0.112040530299,0.00167484831614,-0.00271932220965,0.637695778367,0.770281698097
1385565571668094738,282156,1385565571668094738,/world,vicon/Archie/Archie,0.163372003685,-0.0941382159652,0.112110933814,0.00196455578683,-0.00302543833423,0.637788473515,0.770203122751
1385565571678029941,282157,1385565571678029941,/world,vicon/Archie/Archie,0.163329271646,-0.0941240370367,0.112062016367,0.00197367381457,-0.00280227300642,0.637804442338,0.770190720024
1385565571688151477,282158,1385565571688151477,/world,vicon/Archie/Archie,0.163330852877,-0.0941203781554,0.112069290189,0.00198327064289,-0.00281055619991,0.637802885558,0.770191954376
1385565571698067206,282159,1385565571698067206,/world,vicon/Archie/Archie,0.163329296021,-0.0941235497963,0.112068487879,0.00198997368823,-0.00281401302842,0.637803376405,0.770191517989
1385565571708014924,282160,1385565571708014924,/world,vicon/Archie/Archie,0.163371385814,-0.0940737333613,0.112008745725,0.00172231795076,-0.00254483757922,0.637729196988,0.770254522045
1385565571718120168,282161,1385565571718120168,/world,vicon/Archie/Archie,0.16342404022,-0.0940731230211,0.112044171478,0.00167144958917,-0.00270076679533,0.637688501891,0.770287794705
1385565571727919126,282162,1385565571727919126,/world,vicon/Archie/Archie,0.163372742238,-0.094139022457,0.112107470737,0.00193754294903,-0.00299572434863,0.637775307074,0.770214209976
1385565571737965467,282163,1385565571737965467,/world,vicon/Archie/Archie,0.163456402415,-0.094073920023,0.112053829989,0.00166717312495,-0.00268889182867,0.637686543752,0.770289466572
1385565571748175799,282164,1385565571748175799,/world,vicon/Archie/Archie,0.163329048529,-0.0941287598727,0.112064749927,0.00196848969634,-0.00279690031986,0.637795439409,0.770198208168
1385565571757956933,282165,1385565571757956933,/world,vicon/Archie/Archie,0.163429491845,-0.0941190375599,0.112114062714,0.0019458043964,-0.00298527325615,0.637766830062,0.770221249033
1385565571768046977,282166,1385565571768046977,/world,vicon/Archie/Archie,0.163402982459,-0.094132910065,0.112108022016,0.00195576559617,-0.00300161070855,0.637758040923,0.770228437901
1385565571777943320,282167,1385565571777943320,/world,vicon/Archie/Archie,0.163441245516,-0.0940852091628,0.112048875107,0.00169346329395,-0.00275330350626,0.637680011674,0.770294589241
1385565571787967541,282168,1385565571787967541,/world,vicon/Archie/Archie,0.163400172481,-0.0940755534864,0.112008996515,0.00175055928662,-0.00257267352329,0.637704988988,0.77027440819
1385565571797948240,282169,1385565571797948240,/world,vicon/Archie/Archie,0.163460347111,-0.0940928666902,0.112052920285,0.00171583685673,-0.00273842576912,0.637684199511,0.770291125888
1385565571807947671,282170,1385565571807947671,/world,vicon/Archie/Archie,0.163442590004,-0.0940912098099,0.112040517176,0.00167929012599,-0.00272873966853,0.637692651663,0.770284243626
1385565571817900763,282171,1385565571817900763,/world,vicon/Archie/Archie,0.163406306793,-0.0941427048452,0.112104326336,0.00196570964956,-0.00302327055402,0.63775021874,0.770234804665
1385565571827880418,282172,1385565571827880418,/world,vicon/Archie/Archie,0.163455428607,-0.0940877670875,0.112047244376,0.00168912849596,-0.00274556505172,0.637684595897,0.770290831357
1385565571837960099,282173,1385565571837960099,/world,vicon/Archie/Archie,0.163404503454,-0.0940766435537,0.112013088659,0.00175644067457,-0.00257131775676,0.637700665918,0.770277978349
1385565571848001695,282174,1385565571848001695,/world,vicon/Archie/Archie,0.163425652974,-0.0940914315335,0.112033254938,0.00167365369352,-0.00272464104803,0.637701519013,0.770276929333
1385565571857962921,282175,1385565571857962921,/world,vicon/Archie/Archie,0.16339697635,-0.0941445222338,0.112109118356,0.00196408674428,-0.00300928867775,0.637774428769,0.770214817148
1385565571868122636,282176,1385565571868122636,/world,vicon/Archie/Archie,0.16344143859,-0.0940865826579,0.112046254046,0.00167491872412,-0.00271640064942,0.637677187595,0.77029709868
1385565571877969923,282177,1385565571877969923,/world,vicon/Archie/Archie,0.163448513034,-0.0940909428503,0.112049341746,0.00170036950017,-0.00275599038888,0.637676676069,0.77029732575
1385565571887894838,282178,1385565571887894838,/world,vicon/Archie/Archie,0.163412556121,-0.0940877505225,0.112035799289,0.00166139548327,-0.00272202480034,0.63770954198,0.770270322948
1385565571898049048,282179,1385565571898049048,/world,vicon/Archie/Archie,0.163362040644,-0.094122953416,0.112074057506,0.00197228420763,-0.00283468290907,0.637772444031,0.770217102058
1385565571908042263,282180,1385565571908042263,/world,vicon/Archie/Archie,0.163419425042,-0.0940920840848,0.112045265956,0.00167292227069,-0.00272432442884,0.63771609541,0.770264864214
1385565571917919794,282181,1385565571917919794,/world,vicon/Archie/Archie,0.163416511341,-0.094087978461,0.1120511003,0.00167620166765,-0.00273418115565,0.637703496128,0.770275253158
1385565571927928887,282182,1385565571927928887,/world,vicon/Archie/Archie,0.163446052729,-0.0940923114084,0.112055077864,0.00171674784984,-0.00275018180931,0.637682393976,0.770292576681
1385565571937933893,282183,1385565571937933893,/world,vicon/Archie/Archie,0.163420203489,-0.0940826425724,0.112041323971,0.00165409781864,-0.00272052220735,0.637714114606,0.770266558246
1385565571947991630,282184,1385565571947991630,/world,vicon/Archie/Archie,0.16337376983,-0.0940681466912,0.112003642558,0.00169725229089,-0.00251449652976,0.637725862481,0.770257438111
1385565571957902173,282185,1385565571957902173,/world,vicon/Archie/Archie,0.163419469802,-0.0940822971637,0.112049616716,0.00167392799271,-0.00272521845488,0.637701867522,0.770276638169
1385565571967954465,282186,1385565571967954465,/world,vicon/Archie/Archie,0.163480069283,-0.0941282477265,0.112138253047,0.00199995375263,-0.00305846281338,0.637681143405,0.770291766369
1385565571977909362,282187,1385565571977909362,/world,vicon/Archie/Archie,0.163398444933,-0.0941414001844,0.11210915022,0.00193149970314,-0.00300558915688,0.63777687617,0.770212887432
1385565571988644728,282188,1385565571988644728,/world,vicon/Archie/Archie,0.163494672723,-0.0940765010687,0.112065417404,0.0017261313362,-0.00275638222462,0.637629593147,0.770336241372
1385565571998497170,282189,1385565571998497170,/world,vicon/Archie/Archie,0.163418441657,-0.0940871574059,0.112048741134,0.00168392010927,-0.00273947610922,0.637714284974,0.7702662854
1385565572008596490,282190,1385565572008596490,/world,vicon/Archie/Archie,0.163450869907,-0.0941266325419,0.112123622629,0.00194356900594,-0.00299507189997,0.637747009045,0.770237628617
1385565572018360733,282191,1385565572018360733,/world,vicon/Archie/Archie,0.163445968543,-0.0940908351574,0.112044966374,0.00169595746603,-0.00274939816116,0.637690404309,0.770285994155
1385565572028377756,282192,1385565572028377756,/world,vicon/Archie/Archie,0.163344012113,-0.0941320772844,0.112073382318,0.00196885654473,-0.0028067652693,0.637804934371,0.770190308537
1385565572038359356,282193,1385565572038359356,/world,vicon/Archie/Archie,0.163420964426,-0.0940916803341,0.112047419343,0.00168349669777,-0.00274011534267,0.637703714419,0.77027503544
1385565572048479058,282194,1385565572048479058,/world,vicon/Archie/Archie,0.1633571088,-0.0941245362192,0.112077652014,0.00198710697537,-0.00282922965107,0.637778645277,0.770211949072
1385565572058534873,282195,1385565572058534873,/world,vicon/Archie/Archie,0.163382808813,-0.0941421467712,0.112109715109,0.00192263914644,-0.00299903231206,0.637778598571,0.770211508918
1385565572068380721,282196,1385565572068380721,/world,vicon/Archie/Archie,0.163412625906,-0.0941411914335,0.112117869074,0.00195744683005,-0.00302674608161,0.637752473791,0.770232944883
1385565572078382016,282197,1385565572078382016,/world,vicon/Archie/Archie,0.163404613605,-0.0941159402309,0.11208312277,0.0019810031228,-0.00281728232001,0.637760442107,0.77022708147
1385565572088242455,282198,1385565572088242455,/world,vicon/Archie/Archie,0.163401259992,-0.0941335366255,0.112107429619,0.00191001185775,-0.00298680295575,0.637756757217,0.770229673206
1385565572098294872,282199,1385565572098294872,/world,vicon/Archie/Archie,0.163415781185,-0.0940956436313,0.112050674703,0.00168565556898,-0.00273987410056,0.637706238859,0.770272941609
1385565572108151708,282200,1385565572108151708,/world,vicon/Archie/Archie,0.16337380741,-0.0941422106714,0.112118590726,0.0019404333065,-0.00300305115318,0.637776815615,0.770212925019
1385565572118222061,282201,1385565572118222061,/world,vicon/Archie/Archie,0.163386936323,-0.0941488870115,0.112119565977,0.00192446151793,-0.00300366117725,0.637777480382,0.770212412251
1385565572128468169,282202,1385565572128468169,/world,vicon/Archie/Archie,0.163409961041,-0.094089435861,0.112053591194,0.00167632107578,-0.00272643781957,0.637713806139,0.77026674467
1385565572138322077,282203,1385565572138322077,/world,vicon/Archie/Archie,0.163387588576,-0.0941405511043,0.112115691175,0.00193867518309,-0.00301169446027,0.637774158048,0.770215096295
1385565572148252643,282204,1385565572148252643,/world,vicon/Archie/Archie,0.163408245122,-0.0941360582313,0.112110220039,0.00191342309051,-0.00299000543534,0.637761625493,0.770225621314
1385565572159219928,282205,1385565572159219928,/world,vicon/Archie/Archie,0.163423368661,-0.0940925320434,0.112053850147,0.00168883250764,-0.00273717874412,0.637709666767,0.770270106268
1385565572168017960,282206,1385565572168017960,/world,vicon/Archie/Archie,0.163408803731,-0.0940902015982,0.112054030645,0.00167101056389,-0.00272834313159,0.637708646697,0.770271021002
1385565572177908621,282207,1385565572177908621,/world,vicon/Archie/Archie,0.163433896715,-0.0940878688099,0.11205744553,0.0016953226476,-0.00275477836201,0.637681066623,0.770293706548
1385565572187965386,282208,1385565572187965386,/world,vicon/Archie/Archie,0.163405396258,-0.0941427115618,0.112119685746,0.00195814524141,-0.00302952161506,0.637758074205,0.770228295022
1385565572198577908,282209,1385565572198577908,/world,vicon/Archie/Archie,0.163420951551,-0.094094051346,0.112050981994,0.00168212640626,-0.00271649600956,0.637710491212,0.770269511598
1385565572208511838,282210,1385565572208511838,/world,vicon/Archie/Archie,0.163439335661,-0.094090560351,0.112065586739,0.00170144186147,-0.0027796184255,0.637696433255,0.770280882426
1385565572218617984,282211,1385565572218617984,/world,vicon/Archie/Archie,0.16341266006,-0.0940922650716,0.112054646938,0.00169102150382,-0.00275445017979,0.63770692952,0.770272306067
1385565572228179357,282212,1385565572228179357,/world,vicon/Archie/Archie,0.16341323008,-0.0940900586777,0.112048682697,0.00167326305846,-0.00271927957617,0.637712175547,0.770268126608
1385565572238362511,282213,1385565572238362511,/world,vicon/Archie/Archie,0.163435006884,-0.0940863447439,0.112062719279,0.00170951879881,-0.00276970195216,0.637690965478,0.770285426868
1385565572248178395,282214,1385565572248178395,/world,vicon/Archie/Archie,0.163405354014,-0.0940882168734,0.112051285574,0.00168255157678,-0.00273993431694,0.637705851216,0.77027326911
1385565572258342091,282215,1385565572258342091,/world,vicon/Archie/Archie,0.163401985588,-0.0941374511345,0.112109685112,0.00195214906491,-0.00304558312939,0.637758390843,0.770227984721
1385565572268319413,282216,1385565572268319413,/world,vicon/Archie/Archie,0.163427558519,-0.0940859864561,0.112056732772,0.0017106636612,-0.00277533561934,0.637685234462,0.77029014851
1385565572278109593,282217,1385565572278109593,/world,vicon/Archie/Archie,0.163377204521,-0.0941439952329,0.11210423567,0.00193281853471,-0.00301825491954,0.637791692548,0.770200565611
1385565572288134690,282218,1385565572288134690,/world,vicon/Archie/Archie,0.163381680761,-0.0940683361371,0.112000869111,0.00171935464324,-0.00255894544053,0.63770653463,0.770273244575
1385565572298006457,282219,1385565572298006457,/world,vicon/Archie/Archie,0.163430118141,-0.0940840968899,0.112042345802,0.00166497514975,-0.00273692836045,0.637688608688,0.770287592676
1385565572307851747,282220,1385565572307851747,/world,vicon/Archie/Archie,0.163407881819,-0.0940867355011,0.112041278076,0.00167798072142,-0.00274625269477,0.637715695922,0.770265106085
1385565572318074219,282221,1385565572318074219,/world,vicon/Archie/Archie,0.163373654404,-0.0940779550725,0.112006952327,0.00172104907993,-0.00255595427679,0.637729037752,0.770254619912
1385565572328047650,282222,1385565572328047650,/world,vicon/Archie/Archie,0.163380437276,-0.0941448373275,0.112104766477,0.00193296884516,-0.00301274165854,0.637780920162,0.770209507145
1385565572338029788,282223,1385565572338029788,/world,vicon/Archie/Archie,0.163385895426,-0.0941378959163,0.112098235623,0.00192321480382,-0.00297041532865,0.637760710233,0.770226430578
1385565572348110038,282224,1385565572348110038,/world,vicon/Archie/Archie,0.163424469463,-0.0940819120211,0.112043218139,0.00166360623018,-0.00273774532502,0.63768768928,0.770288353868
1385565572357780214,282225,1385565572357780214,/world,vicon/Archie/Archie,0.163419881161,-0.0940844749558,0.112021836052,0.00167422612051,-0.00274056741092,0.637712877703,0.770267467747
1385565572368035662,282226,1385565572368035662,/world,vicon/Archie/Archie,0.163370882998,-0.0941427392854,0.112105686046,0.00192797537413,-0.0029951848257,0.637772209564,0.770216800964
1385565572377990850,282227,1385565572377990850,/world,vicon/Archie/Archie,0.163427060398,-0.0940922997497,0.112053683033,0.0016898853115,-0.00274603257205,0.637680193824,0.770294472262
1385565572387873673,282228,1385565572387873673,/world,vicon/Archie/Archie,0.163387524633,-0.0940806985945,0.112015962573,0.00175303790971,-0.00257936665539,0.637705348493,0.770274082537
1385565572397968979,282229,1385565572397968979,/world,vicon/Archie/Archie,0.163374878778,-0.0941453186574,0.112107971397,0.0019138825109,-0.00298702952715,0.637768244071,0.770220151361
1385565572408734077,282230,1385565572408734077,/world,vicon/Archie/Archie,0.163359480591,-0.0941274470681,0.112070700981,0.00198403573834,-0.00283230859876,0.637765486855,0.770222841395
1385565572418914415,282231,1385565572418914415,/world,vicon/Archie/Archie,0.163421655482,-0.0940899038697,0.112038828266,0.00166601267974,-0.00274106984861,0.637692865273,0.770284051839
1385565572428581525,282232,1385565572428581525,/world,vicon/Archie/Archie,0.16341428623,-0.0940948581029,0.112041743026,0.00166055716611,-0.00272841444005,0.637709134921,0.770270639154
1385565572438671583,282233,1385565572438671583,/world,vicon/Archie/Archie,0.16342802134,-0.0940992091116,0.112043463032,0.0016635530607,-0.00274480191542,0.637692895488,0.770284018852
1385565572448589125,282234,1385565572448589125,/world,vicon/Archie/Archie,0.163438035544,-0.0940871681549,0.112039712867,0.00166971275566,-0.00272820178673,0.637689710243,0.770286701446
1385565572458532720,282235,1385565572458532720,/world,vicon/Archie/Archie,0.163378528318,-0.0940776320599,0.111998432911,0.00171316660471,-0.0025398713038,0.637715755886,0.770265687155
1385565572468083598,282236,1385565572468083598,/world,vicon/Archie/Archie,0.163398562884,-0.0941500341192,0.112112829384,0.0019632230801,-0.0030680047819,0.637752338346,0.770232879093
1385565572477995936,282237,1385565572477995936,/world,vicon/Archie/Archie,0.163435817084,-0.0940939683105,0.112055995283,0.00169247836259,-0.00274750099917,0.637672196277,0.770301081948
1385565572487994603,282238,1385565572487994603,/world,vicon/Archie/Archie,0.16340286263,-0.0941426557772,0.112103697272,0.0019323947021,-0.00298801784706,0.637742789401,0.770241177922
1385565572498155252,282239,1385565572498155252,/world,vicon/Archie/Archie,0.163399632184,-0.0941374601333,0.112113114958,0.00194224106903,-0.00304528315173,0.637747638718,0.770236913722
1385565572507869607,282240,1385565572507869607,/world,vicon/Archie/Archie,0.163419777224,-0.0940938230353,0.112041690757,0.00165662131144,-0.00272247015947,0.637701128443,0.770277297176
1385565572517831643,282241,1385565572517831643,/world,vicon/Archie/Archie,0.163420033426,-0.0940924199096,0.112042770875,0.00168782771702,-0.00274883237875,0.637694561167,0.770282572707
1385565572528546284,282242,1385565572528546284,/world,vicon/Archie/Archie,0.163369455189,-0.0940766458738,0.112002375592,0.00172384144327,-0.00254622379147,0.637724473495,0.77025842483
1385565572538623323,282243,1385565572538623323,/world,vicon/Archie/Archie,0.163369364412,-0.0940779720361,0.112002263953,0.00170902261736,-0.00256049114014,0.637717849761,0.770263894534
1385565572548647435,282244,1385565572548647435,/world,vicon/Archie/Archie,0.163431460456,-0.0940851293992,0.112059671038,0.00170034914156,-0.00275314213299,0.637690139476,0.770286190345
1385565572558025028,282245,1385565572558025028,/world,vicon/Archie/Archie,0.163455467981,-0.0940940273647,0.112047766305,0.00172457365373,-0.00278963039134,0.637682432362,0.770292385568
1385565572568049442,282246,1385565572568049442,/world,vicon/Archie/Archie,0.163383595709,-0.0941530239117,0.112103181244,0.00195293859732,-0.0030149192093,0.637776088143,0.770213449432
1385565572577920788,282247,1385565572577920788,/world,vicon/Archie/Archie,0.163439150651,-0.0940887724615,0.112055759906,0.00171469558816,-0.00277148510238,0.637682145997,0.770292710186
1385565572588062041,282248,1385565572588062041,/world,vicon/Archie/Archie,0.163446866577,-0.0940926421501,0.112048437155,0.00170832441856,-0.00276631268483,0.637670493773,0.770302389009
1385565572598043531,282249,1385565572598043531,/world,vicon/Archie/Archie,0.163420910474,-0.0940873495063,0.11204529994,0.00167463461872,-0.00274517891788,0.6377021166,0.770276359546
1385565572608118157,282250,1385565572608118157,/world,vicon/Archie/Archie,0.163393274521,-0.0940761177013,0.112006166028,0.00169417164056,-0.00251418766764,0.637700374481,0.770278547689
1385565572618240125,282251,1385565572618240125,/world,vicon/Archie/Archie,0.163419771936,-0.0940937652419,0.112038745884,0.00166805020829,-0.00273022908305,0.637706147622,0.770273089717
1385565572627934342,282252,1385565572627934342,/world,vicon/Archie/Archie,0.163433277127,-0.0940858731762,0.112051880797,0.00168848728766,-0.00275503948265,0.637685366978,0.770290160596
1385565572638173803,282253,1385565572638173803,/world,vicon/Archie/Archie,0.16338062251,-0.0940812982823,0.112000806685,0.00173727341322,-0.00254297903986,0.637728394272,0.770255159203
1385565572648077026,282254,1385565572648077026,/world,vicon/Archie/Archie,0.163460180846,-0.0940742652692,0.112040444508,0.00166403123116,-0.00268096804562,0.637707268647,0.770272343347
1385565572658046211,282255,1385565572658046211,/world,vicon/Archie/Archie,0.163400471572,-0.0940773574825,0.112009232816,0.00175114012527,-0.00256781581146,0.637710302229,0.770270024252
1385565572668296104,282256,1385565572668296104,/world,vicon/Archie/Archie,0.16341719193,-0.094079864805,0.112037591091,0.00167259958077,-0.00272920360953,0.637715924351,0.770264989265
1385565572678115006,282257,1385565572678115006,/world,vicon/Archie/Archie,0.163440177843,-0.0940846508696,0.112035556129,0.00165626430287,-0.00270233152451,0.637698664614,0.770279408619
1385565572688098461,282258,1385565572688098461,/world,vicon/Archie/Archie,0.163407459526,-0.0941292581338,0.112101667351,0.00196735250166,-0.00303031832628,0.637772488551,0.77021633295
1385565572698182808,282259,1385565572698182808,/world,vicon/Archie/Archie,0.163412473105,-0.0940652476296,0.111999168704,0.00173257914951,-0.00256868318799,0.637715330962,0.770265899993
1385565572708121356,282260,1385565572708121356,/world,vicon/Archie/Archie,0.163429693036,-0.0940782608976,0.112035764485,0.00167426775691,-0.00273988167619,0.637705116022,0.77027389601
1385565572718190163,282261,1385565572718190163,/world,vicon/Archie/Archie,0.163341062862,-0.0941148463739,0.112062930091,0.00197444516954,-0.00279636552435,0.63780077726,0.7701937746
1385565572727988130,282262,1385565572727988130,/world,vicon/Archie/Archie,0.163417617377,-0.0940747496062,0.112044208394,0.00166351717618,-0.00272039462584,0.637705027507,0.770274061654
1385565572738182088,282263,1385565572738182088,/world,vicon/Archie/Archie,0.163432852447,-0.0940936044624,0.112041954319,0.00169008059644,-0.00272804083035,0.637713742825,0.770266761345
1385565572747997197,282264,1385565572747997197,/world,vicon/Archie/Archie,0.163409600461,-0.0940783409315,0.112044580281,0.00166227886518,-0.00271421580924,0.637712080743,0.77026824674
1385565572757984596,282265,1385565572757984596,/world,vicon/Archie/Archie,0.163433072708,-0.0940790971106,0.112052308277,0.00166165771727,-0.00271433025461,0.637674481982,0.770299374486
1385565572768005898,282266,1385565572768005898,/world,vicon/Archie/Archie,0.163385330116,-0.0941433894537,0.112111607968,0.00194761663838,-0.00301550622592,0.637783518313,0.770207307989
1385565572778046954,282267,1385565572778046954,/world,vicon/Archie/Archie,0.163414198303,-0.0940805750229,0.112044006626,0.00167305018407,-0.00273060333843,0.637721706476,0.770260196166
1385565572788123300,282268,1385565572788123300,/world,vicon/Archie/Archie,0.163356713891,-0.0941262843839,0.112075998152,0.00200295508005,-0.00285331262643,0.637786772488,0.770205089322
1385565572797993873,282269,1385565572797993873,/world,vicon/Archie/Archie,0.163434928929,-0.0940809523417,0.112056875527,0.00172089118571,-0.00275939533044,0.637683376395,0.770291721195
1385565572808658547,282270,1385565572808658547,/world,vicon/Archie/Archie,0.163406303484,-0.0941412182413,0.112119928365,0.00195547402279,-0.00302000868517,0.637748016193,0.770236667207
1385565572818044035,282271,1385565572818044035,/world,vicon/Archie/Archie,0.163413260452,-0.0940942687067,0.112046977494,0.00165490319464,-0.00271806385492,0.637709293487,0.770270556639
1385565572828241809,282272,1385565572828241809,/world,vicon/Archie/Archie,0.163482013649,-0.0940723720457,0.112047323757,0.00168532210347,-0.00272335141407,0.637674036234,0.770299660236
1385565572838073906,282273,1385565572838073906,/world,vicon/Archie/Archie,0.163384214355,-0.0941392268188,0.112103569013,0.00195067891954,-0.00300928260015,0.637779660227,0.77021051932
1385565572848012987,282274,1385565572848012987,/world,vicon/Archie/Archie,0.163423634328,-0.0940947281704,0.112046707918,0.00167234102811,-0.00273952087681,0.63770999894,0.770269858915
1385565572857973650,282275,1385565572857973650,/world,vicon/Archie/Archie,0.163337480873,-0.0941357026112,0.112065655801,0.00195946735878,-0.00279976254101,0.637798127948,0.770195994409
1385565572867978598,282276,1385565572867978598,/world,vicon/Archie/Archie,0.163378045731,-0.0941489583137,0.11211067277,0.00194435222983,-0.00303626124923,0.637781884596,0.770208587522
1385565572877790710,282277,1385565572877790710,/world,vicon/Archie/Archie,0.163433763881,-0.0940918644984,0.112038640943,0.00166032901129,-0.00272085522275,0.63768961583,0.770286825875
1385565572888596891,282278,1385565572888596891,/world,vicon/Archie/Archie,0.163422142062,-0.0940636107484,0.11201017698,0.00171643060146,-0.00253555734448,0.637715585637,0.770265835053
1385565572898723879,282279,1385565572898723879,/world,vicon/Archie/Archie,0.163364841658,-0.0941325102349,0.112066314179,0.00196531690937,-0.00281700220583,0.637773143895,0.770216605218
1385565572908502070,282280,1385565572908502070,/world,vicon/Archie/Archie,0.163400068261,-0.0940754037578,0.112019645779,0.0017237978323,-0.00256090881556,0.637706563143,0.770273204514
1385565572918560503,282281,1385565572918560503,/world,vicon/Archie/Archie,0.163418604963,-0.0940847174742,0.112030285814,0.00166654976146,-0.00273747857802,0.637718927487,0.770262486655
1385565572928349385,282282,1385565572928349385,/world,vicon/Archie/Archie,0.163388503301,-0.0941442542904,0.112109025617,0.00193891792704,-0.00302303002774,0.637775284278,0.770214118704
1385565572938401664,282283,1385565572938401664,/world,vicon/Archie/Archie,0.163381817484,-0.0941493268777,0.112116298889,0.00192731571855,-0.00300276141485,0.637787298193,0.770204278839
1385565572948341432,282284,1385565572948341432,/world,vicon/Archie/Archie,0.163368307931,-0.0941348341932,0.112087261228,0.00190594711756,-0.00299292845506,0.637782246108,0.770208553766
1385565572958488625,282285,1385565572958488625,/world,vicon/Archie/Archie,0.16341865769,-0.0940899682705,0.112049382023,0.00168139760721,-0.00272789716099,0.637704175549,0.770274701627
1385565572968707717,282286,1385565572968707717,/world,vicon/Archie/Archie,0.16335648534,-0.0941259483463,0.112077897019,0.00198581272963,-0.00284595776254,0.637777525937,0.770212817656
1385565572978106602,282287,1385565572978106602,/world,vicon/Archie/Archie,0.163423595322,-0.0941291035908,0.112121478347,0.00192503845362,-0.00297540018156,0.637771455423,0.770217509453
1385565572988147451,282288,1385565572988147451,/world,vicon/Archie/Archie,0.16343168931,-0.0941300075381,0.112122419274,0.00195432335679,-0.00301490306929,0.637744508399,0.770239594533
1385565572998052408,282289,1385565572998052408,/world,vicon/Archie/Archie,0.163445939096,-0.0940886324769,0.112050406817,0.00166913973788,-0.00272306455737,0.637678487267,0.770296011783
1385565573007946013,282290,1385565573007946013,/world,vicon/Archie/Archie,0.163381627618,-0.0941413359642,0.112107901971,0.00192853670015,-0.00301582424935,0.637778972952,0.770211118597
1385565573018053195,282291,1385565573018053195,/world,vicon/Archie/Archie,0.163392162704,-0.094075539691,0.112021728813,0.0017461506706,-0.00258722194888,0.637716601094,0.770264755736
1385565573028033569,282292,1385565573028033569,/world,vicon/Archie/Archie,0.163410921005,-0.0940835574362,0.112047411514,0.00167311472618,-0.00273104156335,0.637706431976,0.770272840437
1385565573038106968,282293,1385565573038106968,/world,vicon/Archie/Archie,0.163409032054,-0.094085364869,0.112042958056,0.00167831039577,-0.00271867682703,0.637729920314,0.770253426352
1385565573048087293,282294,1385565573048087293,/world,vicon/Archie/Archie,0.163379646865,-0.094141198974,0.112110701351,0.00194189265748,-0.00300806958442,0.637783555563,0.770207320676
1385565573057940832,282295,1385565573057940832,/world,vicon/Archie/Archie,0.163437956956,-0.0941283975009,0.112119591888,0.00192475671782,-0.00299560789654,0.637754072965,0.770231824882
1385565573068040785,282296,1385565573068040785,/world,vicon/Archie/Archie,0.163375690478,-0.0941400945846,0.11210436217,0.00193724125698,-0.00301233155329,0.637798710538,0.770194766141
1385565573077815102,282297,1385565573077815102,/world,vicon/Archie/Archie,0.163407783079,-0.0940761862841,0.112040429481,0.00168246133733,-0.00274385860057,0.637706097574,0.770273051379
1385565573088275327,282298,1385565573088275327,/world,vicon/Archie/Archie,0.163366584769,-0.094130145053,0.112108327824,0.00194111666557,-0.00303434698249,0.637779711698,0.77021040252
1385565573098098345,282299,1385565573098098345,/world,vicon/Archie/Archie,0.163406937588,-0.0940737678855,0.112043153856,0.00167842650224,-0.00273519585792,0.637712821661,0.770267524096
1385565573108010964,282300,1385565573108010964,/world,vicon/Archie/Archie,0.16339764481,-0.0941252784578,0.112107734912,0.00194462275039,-0.0030487173279,0.637762839991,0.770224307388
1385565573118060806,282301,1385565573118060806,/world,vicon/Archie/Archie,0.163322602078,-0.0941120622056,0.112065236853,0.0019576476915,-0.00282454960765,0.637797399918,0.770196511413
1385565573129027438,282302,1385565573129027438,/world,vicon/Archie/Archie,0.163404278688,-0.0941134928095,0.112107275139,0.00191790730263,-0.00299080291685,0.637775024456,0.770214512269
1385565573138105990,282303,1385565573138105990,/world,vicon/Archie/Archie,0.163391324941,-0.0941209625085,0.112112535587,0.00195917410898,-0.00305065122649,0.637746668662,0.77023765279
1385565573148043615,282304,1385565573148043615,/world,vicon/Archie/Archie,0.163349068749,-0.0940471547929,0.111998462709,0.00171225172103,-0.00253006006297,0.637728067559,0.770255528275
1385565573158003721,282305,1385565573158003721,/world,vicon/Archie/Archie,0.163400427834,-0.0941208553974,0.112104519473,0.00196244357241,-0.00305269493828,0.637743598103,0.770240178741
1385565573168108713,282306,1385565573168108713,/world,vicon/Archie/Archie,0.163409654212,-0.0940708329656,0.112033548494,0.00167194638568,-0.00274993505528,0.637713017427,0.770267323633
1385565573178098993,282307,1385565573178098993,/world,vicon/Archie/Archie,0.163333327454,-0.0941035836633,0.11205544531,0.00196119586529,-0.00280763143649,0.637788750161,0.770203727
1385565573188112458,282308,1385565573188112458,/world,vicon/Archie/Archie,0.163366739793,-0.0940464343832,0.111990247248,0.00172407014846,-0.00252599841494,0.637712586876,0.770268332112
1385565573198103722,282309,1385565573198103722,/world,vicon/Archie/Archie,0.163365724077,-0.0941176743782,0.112109613275,0.00197429497233,-0.00304015074369,0.637761411503,0.77022544858
1385565573207868089,282310,1385565573207868089,/world,vicon/Archie/Archie,0.163321290266,-0.0941033580169,0.112071105022,0.00200424934287,-0.00286103788143,0.637767492197,0.770221022398
1385565573218058615,282311,1385565573218058615,/world,vicon/Archie/Archie,0.163366716299,-0.0941159564719,0.11209295704,0.00190484291135,-0.00299657511607,0.637761709616,0.770225547394
1385565573227974964,282312,1385565573227974964,/world,vicon/Archie/Archie,0.163372935716,-0.0941176661128,0.112106728348,0.00196405783209,-0.00305239390933,0.63776000324,0.770226592397
1385565573238109871,282313,1385565573238109871,/world,vicon/Archie/Archie,0.163369086122,-0.0941217258443,0.112104262379,0.0019757736866,-0.00303196957792,0.637766956875,0.770220885329
1385565573248038842,282314,1385565573248038842,/world,vicon/Archie/Archie,0.163375058938,-0.094122500484,0.112111325606,0.00196582754749,-0.00303210337261,0.637762811608,0.770224342644
1385565573258059027,282315,1385565573258059027,/world,vicon/Archie/Archie,0.163348309,-0.0941289799502,0.112106605548,0.00195361365156,-0.00301936802853,0.637795010918,0.770197760876
1385565573268032046,282316,1385565573268032046,/world,vicon/Archie/Archie,0.163363028265,-0.0940944159018,0.112068974802,0.00197894271909,-0.00280641097073,0.637779945768,0.770210976694
1385565573278116747,282317,1385565573278116747,/world,vicon/Archie/Archie,0.163356491465,-0.0941262086964,0.112109544376,0.00195363551094,-0.00302677580398,0.637785600363,0.770205524458
1385565573288145637,282318,1385565573288145637,/world,vicon/Archie/Archie,0.163363050466,-0.094111900927,0.112101417845,0.00190070616349,-0.00298226556796,0.637762405542,0.770225036911
1385565573298022943,282319,1385565573298022943,/world,vicon/Archie/Archie,0.163364701557,-0.0941186379046,0.112098782283,0.00191484216501,-0.0029793480907,0.637769229127,0.770219363067
1385565573308416835,282320,1385565573308416835,/world,vicon/Archie/Archie,0.163344135915,-0.0941250190449,0.112106053457,0.00192080100703,-0.00299721245141,0.637781281733,0.77020929877
1385565573318755360,282321,1385565573318755360,/world,vicon/Archie/Archie,0.163367832,-0.0941153729885,0.112109557794,0.00196432313186,-0.00303875864706,0.637755615745,0.770230278531
1385565573328575955,282322,1385565573328575955,/world,vicon/Archie/Archie,0.163348760572,-0.0941194728227,0.112103591539,0.00194964088207,-0.00302476812541,0.63777936668,0.770210704363
1385565573338786290,282323,1385565573338786290,/world,vicon/Archie/Archie,0.163412807847,-0.0940712741494,0.112046290274,0.00173148673293,-0.00279815537284,0.63769049367,0.770285665557
1385565573348507512,282324,1385565573348507512,/world,vicon/Archie/Archie,0.163364817492,-0.0941186922657,0.112108896475,0.00197603218414,-0.00302901677035,0.637760342192,0.7702263734
1385565573358559491,282325,1385565573358559491,/world,vicon/Archie/Archie,0.163366915597,-0.0941283827031,0.112097911778,0.00192462757237,-0.00296944085051,0.637704584582,0.770272900363
1385565573368558785,282326,1385565573368558785,/world,vicon/Archie/Archie,0.163346957577,-0.0941242305286,0.112102152759,0.00192270346094,-0.00299848626886,0.637862135667,0.770142329816
1385565573378669827,282327,1385565573378669827,/world,vicon/Archie/Archie,0.163413111736,-0.0940682278422,0.112048380532,0.00170868216378,-0.0027699312156,0.637694355727,0.770282621224
1385565573388710507,282328,1385565573388710507,/world,vicon/Archie/Archie,0.163372889358,-0.0941146633639,0.112096168666,0.0019331801381,-0.00299173490489,0.63766696484,0.770303936306
1385565573398323066,282329,1385565573398323066,/world,vicon/Archie/Archie,0.163414477364,-0.0941146378268,0.112107667196,0.00193914624878,-0.00297928610452,0.637786308815,0.770205159587
1385565573408458087,282330,1385565573408458087,/world,vicon/Archie/Archie,0.163358087593,-0.0941278113435,0.112105859079,0.00194244914522,-0.00298942025723,0.637829807101,0.770169090156
1385565573418414655,282331,1385565573418414655,/world,vicon/Archie/Archie,0.163388839418,-0.0941243927495,0.112112003782,0.00193784793582,-0.00302115880718,0.63766227444,0.770307692484
1385565573427976507,282332,1385565573427976507,/world,vicon/Archie/Archie,0.163433896772,-0.0940517808679,0.112040204445,0.00171219494913,-0.00272295107414,0.637699729471,0.770278332136
1385565573438055147,282333,1385565573438055147,/world,vicon/Archie/Archie,0.163459521015,-0.094109176609,0.112128756336,0.00200087198929,-0.00298784057497,0.637590171016,0.770367342989
1385565573448084750,282334,1385565573448084750,/world,vicon/Archie/Archie,0.163384861757,-0.0941047719093,0.11210015699,0.0019249465822,-0.00297054348945,0.637864560494,0.770140424155
1385565573458035432,282335,1385565573458035432,/world,vicon/Archie/Archie,0.163391150859,-0.0941204189892,0.11210280029,0.00197807022787,-0.00301571014145,0.637876228872,0.77013044958
1385565573468078919,282336,1385565573468078919,/world,vicon/Archie/Archie,0.163413327786,-0.0941172668126,0.11212454802,0.00195947948185,-0.003001045527,0.63781559653,0.770180770332
1385565573477947379,282337,1385565573477947379,/world,vicon/Archie/Archie,0.16337671324,-0.0940623393333,0.112008357447,0.00184212524416,-0.00293134117846,0.637507089531,0.770436710321
1385565573487987931,282338,1385565573487987931,/world,vicon/Archie/Archie,0.163258622964,-0.0940924101596,0.112087459435,0.0022581125839,-0.00322199372102,0.63771276926,0.770264203768
1385565573498029916,282339,1385565573498029916,/world,vicon/Archie/Archie,0.163390628399,-0.0941653213734,0.112091917326,0.00200343354995,-0.00305176712645,0.637933112637,0.770083123288
1385565573508039887,282340,1385565573508039887,/world,vicon/Archie/Archie,0.163321008457,-0.0941462731076,0.112180472483,0.00209070056153,-0.00293215306615,0.637750107869,0.770234919594
1385565573518035398,282341,1385565573518035398,/world,vicon/Archie/Archie,0.163310192469,-0.0941483198079,0.112173833117,0.00208243391849,-0.00289290855378,0.637760523062,0.770226466549
1385565573527885322,282342,1385565573527885322,/world,vicon/Archie/Archie,0.163315887565,-0.0941255985845,0.112070339018,0.00202034301554,-0.00286054899001,0.637789756048,0.770202546447
1385565573538105253,282343,1385565573538105253,/world,vicon/Archie/Archie,0.163340871043,-0.0941343466074,0.112104991848,0.00198940891269,-0.00301485266466,0.637822275175,0.770175108794
1385565573548682134,282344,1385565573548682134,/world,vicon/Archie/Archie,0.163385224837,-0.0940718152578,0.112059612642,0.00167448298544,-0.0027411111361,0.637595568095,0.77036457211
1385565573558748044,282345,1385565573558748044,/world,vicon/Archie/Archie,0.163474736594,-0.0940598041877,0.11206302058,0.00169116749944,-0.00270703281415,0.637557810979,0.770395904445
1385565573568825643,282346,1385565573568825643,/world,vicon/Archie/Archie,0.163346934256,-0.0941386623834,0.112095897479,0.00198184033006,-0.00301655605089,0.637832275791,0.770166839495
1385565573578560074,282347,1385565573578560074,/world,vicon/Archie/Archie,0.163333893969,-0.0941270628097,0.112107976517,0.00195968619569,-0.00307688271652,0.637729472091,0.77025178536
1385565573588689060,282348,1385565573588689060,/world,vicon/Archie/Archie,0.163390090383,-0.0940919853267,0.112143172798,0.00193087528316,-0.00316090622669,0.637656975053,0.770311536041
1385565573598518296,282349,1385565573598518296,/world,vicon/Archie/Archie,0.163317778917,-0.0940676929017,0.112056901922,0.00208418954858,-0.0032200605059,0.63768708129,0.770285968794
1385565573608236884,282350,1385565573608236884,/world,vicon/Archie/Archie,0.163313265579,-0.09418077956,0.112021791414,0.00187697458932,-0.00260674027324,0.637945279441,0.770074997848
1385565573618220579,282351,1385565573618220579,/world,vicon/Archie/Archie,0.16334544752,-0.0941322472402,0.112114750361,0.00193466106483,-0.00301057487379,0.637619515961,0.770343135487
1385565573628257792,282352,1385565573628257792,/world,vicon/Archie/Archie,0.163373736047,-0.0941137158249,0.112106077167,0.00188410038877,-0.0029375164407,0.63766966611,0.770302030431
1385565573638207933,282353,1385565573638207933,/world,vicon/Archie/Archie,0.16334621054,-0.0941301981169,0.112097629108,0.00191534994815,-0.00292951180767,0.637923583074,0.770091716326
1385565573648137087,282354,1385565573648137087,/world,vicon/Archie/Archie,0.163347799506,-0.094132490104,0.112108472336,0.00195914514489,-0.00304556394674,0.637730786165,0.770250823218
1385565573658264341,282355,1385565573658264341,/world,vicon/Archie/Archie,0.163464203735,-0.0940595245378,0.1121051234,0.00177657622721,-0.00276026769912,0.637418566985,0.770510736565
1385565573668034253,282356,1385565573668034253,/world,vicon/Archie/Archie,0.163250868058,-0.0941545873521,0.112141581174,0.00226117765637,-0.00313004454329,0.637801053092,0.770191473967
1385565573677950665,282357,1385565573677950665,/world,vicon/Archie/Archie,0.163444517002,-0.0940695152067,0.112061448033,0.00175070530926,-0.0026957973144,0.637842222582,0.770160351355
