%time,field.linear.x,field.linear.y,field.linear.z,field.angular.x,field.angular.y,field.angular.z
1385565572826810447,0.0,0.0,0.0,0.0,0.0,0.0
1385565572826821399,0.163413260452,0.0940942687067,-0.112046977494,-0.000917241071095,0.00629802504634,-1.38305270835
1385565572836787456,0.163482013649,0.0940723720457,-0.112047323757,-0.000876832651756,0.00634500820807,-1.38296116626
1385565572846695787,0.163384214355,0.0941392268188,-0.112103569013,-0.000833672871689,0.00712382915983,-1.38323776712
1385565572856699483,0.163423634328,0.0940947281704,-0.112046707918,-0.000917750586465,0.00635332065062,-1.38305471202
1385565572866776189,0.163337480873,0.0941357026112,-0.112065655801,-0.000553031653324,0.00681227370468,-1.38328365737
1385565572876729180,0.163378045731,0.0941489583137,-0.11211067277,-0.000877853871793,0.00715731534316,-1.38324382985
1385565572886693583,0.163433763881,0.0940918644984,-0.112038640943,-0.000912281399435,0.00630926886375,-1.38300163302
1385565572896701482,0.163422142062,0.0940636107484,-0.11201017698,-0.00058972416181,0.00609533322631,-1.38306733269
1385565572906702590,0.163364841658,0.0941325102349,-0.112066314179,-0.000565790560103,0.00684630992301,-1.38321893339
1385565572916930193,0.163400068261,0.0940754037578,-0.112019645779,-0.000610637720679,0.00614379191274,-1.38304411233
1385565572926755212,0.163418604963,0.0940847174742,-0.112030285814,-0.00092414099975,0.00634277729541,-1.3830778852
1385565572936701514,0.163388503301,0.0941442542904,-0.112109025617,-0.000869285951153,0.00713000909275,-1.38322656448
1385565572946719871,0.163381817484,0.0941493268777,-0.112116298889,-0.000861414274058,0.00708397359855,-1.3832575748
1385565572956680980,0.163368307931,0.0941348341932,-0.112087261228,-0.000881741693277,0.00704157485215,-1.38324439268
1385565572966698711,0.16341865769,0.0940899682705,-0.112049382023,-0.000888924761385,0.00634697150679,-1.38303946982
1385565572976703148,0.16335648534,0.0941259483463,-0.112077897019,-0.000571192661319,0.00691705491215,-1.38323055368
1385565572986719074,0.163423595322,0.0941291035908,-0.112121478347,-0.000829874615736,0.00703893791338,-1.38321616291
1385565572996750151,0.16343168931,0.0941300075381,-0.112122419274,-0.0008349026533,0.00713717400572,-1.38314654012
1385565573006742485,0.163445939096,0.0940886324769,-0.112050406817,-0.000901434156057,0.00632392269388,-1.38297274522
1385565573016849783,0.163381627618,0.0941413359642,-0.112107901971,-0.000876119996382,0.00710566284355,-1.38323608722
1385565573026705420,0.163392162704,0.094075539691,-0.112021728813,-0.000609843943012,0.00621283027465,-1.38307037081
1385565573036704309,0.163410921005,0.0940835574362,-0.112047411514,-0.000905714210667,0.00634124882771,-1.38304537048
1385565573046703939,0.163409032054,0.094085364869,-0.112042958056,-0.000882132227555,0.00632880004081,-1.38310623667
1385565573056698798,0.163379646865,0.094141198974,-0.112110701351,-0.000845696229434,0.00711074876028,-1.38324788506
1385565573066706829,0.163437956956,0.0941283975009,-0.112119591888,-0.000855926010062,0.00706972683798,-1.38317123071
1385565573076698182,0.163375690478,0.0941400945846,-0.11210436217,-0.000858438018634,0.00711136388244,-1.38328729023
1385565573086840761,0.163407783079,0.0940761862841,-0.112040429481,-0.000907660021099,0.00637291551936,-1.38304460681
1385565573096871589,0.163366584769,0.094130145053,-0.112108327824,-0.000880376009374,0.00715024180321,-1.38323817337
1385565573106718179,0.163406937588,0.0940737678855,-0.112043153856,-0.000902882435362,0.00635441604783,-1.38306199175
1385565573116846126,0.16339764481,0.0941252784578,-0.112107734912,-0.000893148941213,0.00717687025084,-1.38319450435
1385565573126749036,0.163322602078,0.0941120622056,-0.112065236853,-0.000587447754736,0.00684813524944,-1.38328200417
1385565573136705890,0.163404278688,0.0941134928095,-0.112107275139,-0.000860540244792,0.00705356486239,-1.38322559815
1385565573146714109,0.163391324941,0.0941209625085,-0.112112535587,-0.000873048710021,0.00719842857012,-1.38315250757
1385565573156695581,0.163349068749,0.0940471547929,-0.111998462709,-0.000589248852428,0.00608152495061,-1.38309970186
1385565573166819621,0.163400427834,0.0941208553974,-0.112104519473,-0.000870590243379,0.0072057505967,-1.38314454985
1385565573176726782,0.163409654212,0.0940708329656,-0.112033548494,-0.000931666458159,0.00636885723543,-1.38306264719
1385565573186702299,0.163333327454,0.0941035836633,-0.11205544531,-0.000560323845473,0.00682660673511,-1.38325937681
1385565573196689794,0.163366739793,0.0940464343832,-0.111990247248,-0.000565739214327,0.00609035329155,-1.3830594536
1385565573206697493,0.163365724077,0.0941176743782,-0.112109613275,-0.000836498986269,0.00720152348451,-1.38319065519
1385565573216849494,0.163321290266,0.0941033580169,-0.112071105022,-0.000561937608425,0.00696380948303,-1.38320461266
1385565573226703386,0.163366716299,0.0941159564719,-0.11209295704,-0.000887906545774,0.00704580745772,-1.38319110436
1385565573236699087,0.163372935716,0.0941176661128,-0.112106728348,-0.000867873006369,0.00720732737554,-1.38318714231
1385565573246723360,0.163369086122,0.0941217258443,-0.112104262379,-0.000823837098313,0.00719080089805,-1.38320496827
1385565573256707471,0.163375058938,0.094122500484,-0.112111325606,-0.000839290805046,0.00717832470935,-1.38319422299
1385565573266699514,0.163348309,0.0941289799502,-0.112106605548,-0.000842159593877,0.00714309181452,-1.38327772665
1385565573276700294,0.163363028265,0.0940944159018,-0.112068974802,-0.000531350945986,0.00684737053773,-1.38323647326
1385565573286692476,0.163356491465,0.0941262086964,-0.112109544376,-0.000851488215556,0.00715454112248,-1.3832533654
1385565573296697493,0.163363050466,0.094111900927,-0.112101417845,-0.000876032463591,0.00701848670508,-1.38319277376
1385565573306699172,0.163364701557,0.0941186379046,-0.112098782283,-0.000850597177977,0.00703201595502,-1.38321043899
1385565573316838442,0.163344135915,0.0941250190449,-0.112106053457,-0.00086431609568,0.0070671224842,-1.3832419065
1385565573326759142,0.163367832,0.0941153729885,-0.112109557794,-0.000850030531683,0.00718666591804,-1.38317560861
1385565573336829686,0.163348760572,0.0941194728227,-0.112103591539,-0.000855022781967,0.00714635985867,-1.38323716457
1385565573346823969,0.163412807847,0.0940712741494,-0.112046290274,-0.000901254614235,0.00651910938202,-1.38300452505
1385565573356758122,0.163364817492,0.0941186922657,-0.112108896475,-0.000819610595016,0.00718658898875,-1.38318776137
1385565573366713351,0.163366915597,0.0941283827031,-0.112097911778,-0.000822295571315,0.00702930517328,-1.38304246643
1385565573376702471,0.163346957577,0.0941242305286,-0.112102152759,-0.000863752767821,0.00707142080799,-1.38345188102
1385565573386689425,0.163413111736,0.0940682278422,-0.112048380532,-0.000900421483357,0.00644653834851,-1.38301432222
1385565573396716897,0.163372889358,0.0941146633639,-0.112096168666,-0.000837209541745,0.0070745995833,-1.38294499811
1385565573406693318,0.163414477364,0.0941146378268,-0.112107667196,-0.000813235256513,0.00706290363725,-1.38325474805
1385565573416852698,0.163358087593,0.0941278113435,-0.112105859079,-0.000821474807017,0.00708268130264,-1.38336780109
1385565573426719706,0.163388839418,0.0941243927495,-0.112112003782,-0.000867501783042,0.00712588908992,-1.38293311091
1385565573436748334,0.163433896772,0.0940517808679,-0.112040204445,-0.000835134073843,0.00637863618999,-1.38302783243
1385565573447065628,0.163459521015,0.094109176609,-0.112128756336,-0.000727241369463,0.00715500328649,-1.38274546194
1385565573456768708,0.163384861757,0.0941047719093,-0.11210015699,-0.00082467095863,0.00703123959244,-1.38345789237
1385565573466722501,0.163391150859,0.0941204189892,-0.11210280029,-0.000800576052594,0.0071685697656,-1.38348856046
1385565573476701768,0.163413327786,0.0941172668126,-0.11212454802,-0.000809941084103,0.00712232847701,-1.38333098681
1385565573486717622,0.16337671324,0.0940623393333,-0.112008357447,-0.000899041049905,0.00686561545155,-1.38252948139
1385565573496694569,0.163258622964,0.0940924101596,-0.112087459435,-0.000630745938476,0.00784370774331,-1.38306575096
1385565573506803966,0.163390628399,0.0941653213734,-0.112091917326,-0.000808047235021,0.00725640560287,-1.38363661715
1385565573516773461,0.163321008457,0.0941462731076,-0.112180472483,-0.000519314133458,0.00718364416443,-1.38316001486
1385565573526717327,0.163310192469,0.0941483198079,-0.112173833117,-0.00048208652004,0.00711263772784,-1.38318669053
1385565573536749614,0.163315887565,0.0941255985845,-0.112070339018,-0.000536724128264,0.00698356915563,-1.38326239378
1385565573546727520,0.163340871043,0.0941343466074,-0.112104991848,-0.000781514154102,0.0071817693324,-1.3833484186
1385565573556709200,0.163385224837,0.0940718152578,-0.112059612642,-0.000915534523313,0.00635863852462,-1.38275761999
1385565573566730990,0.163474736594,0.0940598041877,-0.11206302058,-0.000846059837437,0.00632745030587,-1.3826592567
1385565573576724820,0.163346934256,0.0941386623834,-0.112095897479,-0.00079543877228,0.00717472789078,-1.38337441927
1385565573586706813,0.163333893969,0.0941270628097,-0.112107976517,-0.00090555785308,0.00723951133516,-1.3831081257
1385565573596810685,0.163390090383,0.0940919853267,-0.112143172798,-0.00105642538982,0.00733230294657,-1.3829208268
1385565573606731743,0.163317778917,0.0940676929017,-0.112056901922,-0.000895964164265,0.00761893006342,-1.38299935668
1385565573616847566,0.163313265579,0.09418077956,-0.112021791414,-0.000435101849842,0.00640962906646,-1.38366418602
1385565573626726747,0.16334544752,0.0941322472402,-0.112114750361,-0.000858518624288,0.00710556647128,-1.38282199305
1385565573636799293,0.163373736047,0.0941137158249,-0.112106077167,-0.000843697896183,0.00692847252099,-1.38295155173
1385565573646862154,0.16334621054,0.0941301981169,-0.112097629108,-0.000787638215362,0.00695573544434,-1.38361078368
1385565573656778451,0.163347799506,0.094132490104,-0.112108472336,-0.00086645596692,0.007190572585,-1.38311121451
1385565573666690335,0.163464203735,0.0940595245378,-0.1121051234,-0.000781166323462,0.00651852330486,-1.382298152
1385565573676742283,0.163250868058,0.0941545873521,-0.112141581174,-0.000509627060823,0.00770590648552,-1.3832940095
1385565573686682880,0.163444517002,0.0940695152067,-0.112061448033,-0.000742354273173,0.00638578334484,-1.38339753434
1385565573696669084,0.163379882471,0.0941331413717,-0.112125569889,-0.000810515886043,0.00725238434692,-1.3828761404
1385565573706769622,0.163397552573,0.0940749409763,-0.112063831077,-0.000854345221925,0.00627881112764,-1.38264035505
1385565573716688768,0.163306480057,0.0941189164417,-0.112074635334,-0.000526938511761,0.00675537357713,-1.38346194106
1385565573726713871,0.16332160753,0.0941734567956,-0.112151000688,-0.000550298332705,0.00712032454027,-1.38354260803
1385565573736719004,0.163347288193,0.0941356318262,-0.11211671278,-0.00091207664276,0.0071060947039,-1.3829512188
1385565573746720640,0.163348864099,0.0941327780332,-0.112113495628,-0.000793481287028,0.00691234943216,-1.38312797745
1385565573756866343,0.163366182153,0.0941420140677,-0.112109908174,-0.00077615854623,0.00712170246906,-1.38329557032
1385565573766727189,0.163331110969,0.0941070149195,-0.112180520261,-0.000433542161244,0.00731283256273,-1.38298406854
1385565573776689873,0.163354203698,0.0941343458203,-0.112136517289,-0.000807084939652,0.00671568838502,-1.38299437219
1385565573786676772,0.163349968678,0.0941397504468,-0.112106521882,-0.000775560024018,0.00687204396097,-1.38314607873
1385565573796676176,0.163354022022,0.0941365129895,-0.112100888867,-0.000823884454236,0.0071558836034,-1.38313471741
1385565573806677599,0.16331871197,0.0941511826854,-0.112154477361,-0.000595125729038,0.00722618522569,-1.38320826183
1385565573816681090,0.163293829875,0.0941136868205,-0.112057459627,-0.000904088698126,0.00747265226211,-1.38305535841
1385565573826922860,0.163344074263,0.0941404715228,-0.112109805049,-0.000823044232886,0.0070198443494,-1.38313240026
1385565573836832418,0.163342774729,0.0940883620403,-0.112022240256,-0.000761391126815,0.00627187164061,-1.38290641288
1385565573846811441,0.163366470069,0.094106052236,-0.112070733631,-0.000603837018551,0.00636954111049,-1.38329747556
1385565573856701122,0.163392976803,0.094090958535,-0.112058659917,-0.000901724858294,0.00630319724727,-1.38279551509
1385565573866725857,0.163297172405,0.0941254167208,-0.112072500955,-0.00062516708961,0.00677095695486,-1.38316013455
1385565573876694454,0.163342074941,0.0941439217858,-0.112100632684,-0.000759234505436,0.00721806604697,-1.38343560598
1385565573886670325,0.163398586324,0.0940985493259,-0.1120400279,-0.000877045106917,0.00644427557124,-1.38296452893
1385565573896675680,0.163390786589,0.0940965549337,-0.112059220166,-0.000838848028325,0.00625336052356,-1.38267204864
1385565573906681175,0.163377299537,0.0941349448821,-0.112114404784,-0.000693700386132,0.00698566432543,-1.38302832383
1385565573916930804,0.163389104265,0.0941061334502,-0.112044349989,-0.000715914505386,0.00638163804639,-1.38324176818
1385565573926706188,0.163354549773,0.0941528103953,-0.112121223127,-0.00100119993222,0.00722404931136,-1.38291785197
1385565573936702120,0.163347761091,0.0941340027252,-0.112128431897,-0.00107882205338,0.0070981710199,-1.38291856918
1385565573946821047,0.163329512588,0.0941579607154,-0.11212646376,-0.0010725356451,0.00710582445251,-1.38352838753
1385565573956703351,0.16338505593,0.0940976786208,-0.112083214601,-0.000875198252082,0.00635797386286,-1.38313560773
1385565573966688702,0.163352144756,0.094083955268,-0.112032834014,-0.000848386132138,0.00608341126706,-1.38240321364
1385565573976832136,0.163280584977,0.0940830497165,-0.112196768287,-0.000179616052695,0.00710966373967,-1.38304172444
1385565573986717724,0.163375334101,0.0940825448253,-0.112037818715,-0.000278614583592,0.00614549082179,-1.3833557616
1385565573996703798,0.16340573348,0.0940807759392,-0.112104196443,-0.000344306978093,0.00692559851782,-1.38251492512
1385565574006835327,0.163301306583,0.0940565004811,-0.112006011114,-0.000831251731847,0.0066557453924,-1.38256128618
1385565574016848755,0.163386974038,0.0940815040532,-0.112063101258,-0.000764461484664,0.00602785392409,-1.38345923999
1385565574026707494,0.163349344186,0.0941259653495,-0.112115925556,-0.000812716121222,0.00737518297823,-1.38308037173
1385565574036864647,0.163204842321,0.0941604643613,-0.112086790478,-0.000663964221688,0.00773063682591,-1.38303470803
1385565574046833300,0.163354635578,0.0941089149775,-0.112071742799,-0.000534448406022,0.00582171452617,-1.3830630919
1385565574056763792,0.163366780188,0.0940370521729,-0.112120795074,-9.28497144802e-05,0.0067231166927,-1.38304659509
1385565574066797171,0.163386272673,0.0940827461844,-0.112057609049,5.61419229112e-05,0.00616575007594,-1.38295801706
1385565574076722861,0.163325641443,0.0941350446679,-0.112078919244,7.91902573083e-05,0.00599673720194,-1.38315214008
1385565574086700299,0.16340607499,0.0941045690981,-0.112186496976,-0.000131466700651,0.00684182753983,-1.38260886086
1385565574096705598,0.163311471191,0.0940876712475,-0.112073461187,-0.00129717723533,0.00597618949315,-1.38326108566
1385565574106734780,0.163259478457,0.0940822962523,-0.112000043582,-0.00121008964215,0.00648859088062,-1.38289880103
1385565574116932007,0.163307056483,0.0941211823776,-0.112158919033,-0.000897736448023,0.00757859861382,-1.3826166267
1385565574126754930,0.163340294866,0.0941209173307,-0.112083164423,-0.00035086652913,0.006067380075,-1.38303502237
1385565574136839975,0.163333649353,0.0940737616323,-0.112121467871,0.00025964601473,0.00568583857021,-1.38271877643
1385565574146848450,0.163314455557,0.0940893462168,-0.112144209243,-3.09786187149e-05,0.00621557318188,-1.38284341459
1385565574156733760,0.163281070622,0.0941202292717,-0.112027388709,-0.000579996078128,0.00596591441579,-1.38323603303
1385565574166707000,0.163258152941,0.0941010459817,-0.112086157473,-0.000737611663873,0.00688339335281,-1.38274137433
1385565574176718016,0.163263940681,0.0940717608616,-0.112007483762,-0.000943163096198,0.00665913183511,-1.38261779135
1385565574186689426,0.163270949431,0.094089250329,-0.112076980745,-0.000949158477961,0.00610401439411,-1.38299581229
1385565574196706173,0.163302328024,0.0940519516748,-0.112121456165,-0.00071294598297,0.00646658997517,-1.38261145105
1385565574206708650,0.163251072308,0.0941205744403,-0.112104727648,1.57361286346e-05,0.0060480899375,-1.38308529437
1385565574216776657,0.163286580189,0.094159150272,-0.112112352983,-4.67926380315e-05,0.00623572419195,-1.38304564337
1385565574226871929,0.163268504716,0.0940614466139,-0.112075763518,-0.000380770280983,0.00619178220928,-1.38237252277
1385565574236799955,0.163233774706,0.0941081941022,-0.112077461645,-0.000681238316109,0.00579324856054,-1.38313467354
1385565574246814054,0.163224143566,0.0941209207683,-0.112025059463,-0.000824052526986,0.00650104613587,-1.38265196119
1385565574256763747,0.163323193506,0.0941345486838,-0.112104517154,-0.000947405831209,0.00667123408433,-1.38213367089
1385565574266728485,0.163269917411,0.0941565368233,-0.112109104681,-0.000733070916985,0.0061377386656,-1.38308393759
1385565574276709553,0.163202387501,0.0941118151044,-0.112034036042,-0.000552625680565,0.00616449776524,-1.38261902364
1385565574286720256,0.163278010729,0.0941048902363,-0.112064592682,-0.000812791302507,0.00632257794053,-1.38236325613
1385565574296707744,0.163168506475,0.0941556142249,-0.112088062291,-0.000627782315692,0.00607928514698,-1.38310356862
1385565574306676424,0.16321553667,0.0941108567861,-0.112090512515,-0.000696160855372,0.00611434809558,-1.38244635056
1385565574316842562,0.163202855019,0.0941316857293,-0.112031389709,-0.00051616624342,0.0065311839262,-1.3824229453
1385565574326722036,0.163197363726,0.0942126862671,-0.112182647648,-0.000428827358203,0.00639004425358,-1.38303726262
1385565574336900010,0.163233986532,0.094122030958,-0.112092771619,-0.000360531863806,0.00629990138164,-1.38203902512
1385565574346805210,0.16319334624,0.0942018058133,-0.112115058267,-0.000247176612603,0.00658576821683,-1.38262014196
1385565574356713028,0.163164734688,0.0941834505387,-0.111976251425,9.79332014614e-06,0.00578437451936,-1.38276311794
1385565574367027029,0.163141864867,0.094103607831,-0.112003948852,-0.000285796587173,0.00605812129752,-1.38200603144
1385565574376709744,0.163169813729,0.0941674083707,-0.112110462177,-0.000903273508103,0.00593585289281,-1.38295989941
1385565574386703242,0.163151355497,0.0941897569352,-0.112024706369,-0.000682029207548,0.00630860205916,-1.3823473631
1385565574396847947,0.163239110215,0.0941463253033,-0.112047721046,-0.000808516791486,0.00646092831049,-1.38192833922
1385565574406739049,0.163180220232,0.0941693026683,-0.112057457361,-0.000356188103816,0.00607189816231,-1.38281016938
1385565574417022884,0.163211833461,0.0941688109582,-0.112096855351,-0.00018873458688,0.00585556653286,-1.38209326218
1385565574426743352,0.163195297399,0.0941559473044,-0.112092011528,-0.00058794347641,0.00618037104066,-1.3821552508
1385565574437689215,0.163042971374,0.0942084022855,-0.112080051148,-0.000334415544878,0.00593056449183,-1.38304554441
1385565574446742017,0.163180281204,0.0941385324243,-0.112065255641,-0.000878588225654,0.00594453118278,-1.38199951632
1385565574456699876,0.163115178301,0.0941650537916,-0.111998318744,-0.000401276501547,0.00628931575482,-1.38230863434
1385565574466914083,0.163209790914,0.0942109886561,-0.112060476521,-0.000227833807419,0.00629083184447,-1.38268804735
1385565574476716926,0.163083956208,0.0942514287903,-0.112112403023,0.000258752307611,0.00688210309772,-1.382376405
1385565574486692677,0.163138988682,0.0941636558711,-0.111997657029,1.41849052141e-05,0.00569003664293,-1.38248732935
1385565574496877542,0.163136252674,0.0942489792201,-0.112094436415,-0.000371205926154,0.00638852520637,-1.3826147226
1385565574506743763,0.163228875707,0.0941739767335,-0.112135670744,-0.000997612036005,0.00645772394595,-1.38179640273
1385565574516710693,0.163166077801,0.094158248609,-0.11204369979,-0.000182050925922,0.00607840304374,-1.38245916654
1385565574527039756,0.163181028392,0.0941845657621,-0.112021445954,0.000310145096302,0.0057822771951,-1.38227241412
1385565574536800572,0.163167180288,0.0941793280387,-0.112042493059,0.000310814042195,0.00607424970955,-1.38190093737
1385565574546879842,0.163103895688,0.0942315222024,-0.112035687612,3.30344928165e-05,0.00595632876796,-1.38280546885
1385565574556693159,0.163162732452,0.0942472529885,-0.112136832576,-0.000263596577631,0.00680241183663,-1.3821913149
1385565574566772460,0.163161884498,0.0941838661513,-0.112015570625,-0.000276544352132,0.00574620699699,-1.38225031281
1385565574576896498,0.163160913539,0.0942847761932,-0.112091404697,-0.000721146078592,0.00681393258164,-1.38277913746
1385565574586807169,0.163152725612,0.0942229212572,-0.112111270025,-0.00037516019,0.00658695894325,-1.3818372067
1385565574596802955,0.163149236994,0.0942426893663,-0.112126662592,-0.000275345731629,0.005892345189,-1.38259273068
1385565574606744900,0.163170496367,0.094241334058,-0.112031387432,-0.000176142193699,0.00563215930685,-1.38274157949
1385565574616805331,0.163162457473,0.0942146462616,-0.112041008826,-0.000380937358498,0.00590071085289,-1.38235661874
1385565574626789074,0.163095663261,0.094244364181,-0.112048909254,-0.000208222573903,0.0058231663554,-1.38319165906
1385565574636766602,0.163104588295,0.0942623177768,-0.11202366667,-3.096462962e-05,0.00643442972705,-1.38259517512
1385565574646837934,0.163139648605,0.0943041318863,-0.112048466869,0.000171016514828,0.00617848959302,-1.38297149373
1385565574656914630,0.163113417624,0.0942772929916,-0.111988326623,0.000150900204885,0.00584532963743,-1.38284555725
1385565574666786918,0.163152579826,0.0942836158961,-0.11212674599,-0.000642338962191,0.00607356277799,-1.38238053292
1385565574676713516,0.163049173673,0.0942162777463,-0.112082406255,-0.00017584264432,0.00579717263514,-1.38302080683
1385565574686689964,0.163204407557,0.0942429001947,-0.112136899029,-0.000705475656645,0.00687148935966,-1.38265001392
1385565574696784456,0.163106265237,0.0942390099609,-0.112017936966,-0.000284065430536,0.00666743991507,-1.38321339319
1385565574706688821,0.163025950972,0.0942297089442,-0.11198299412,0.000105118842882,0.00691538061937,-1.38271213902
1385565574716731796,0.163071342209,0.0943111636167,-0.112263410941,-0.000270054336177,0.00682906779197,-1.38295177583
1385565574726881311,0.162904756378,0.0941918387861,-0.112152124943,0.000695976722454,0.00567925038802,-1.38335443264
1385565574736839637,0.16307954521,0.0943241368469,-0.112018659171,0.000130312612608,0.00572466980399,-1.38271597138
1385565574746750180,0.163051005695,0.0942824795148,-0.111964803515,-8.45912027425e-05,0.00615180218839,-1.38333021402
1385565574756741409,0.163053083301,0.0942994765497,-0.112135495386,-0.000322919841485,0.00577763702992,-1.38303046546
1385565574766707056,0.162901111239,0.0942868820726,-0.112174679718,-4.56592603209e-05,0.00517240174453,-1.38277268629
1385565574776716777,0.162997976441,0.0943032607737,-0.112076041526,0.000305006636007,0.00514426774021,-1.38361973334
1385565574786706652,0.162986090335,0.094434389056,-0.112014561718,0.00108501508656,0.00631045284017,-1.38331401374
1385565574796787190,0.162909024829,0.0943334606469,-0.112080498569,0.000925503879225,0.00602303654265,-1.38348982209
1385565574806768060,0.162910481152,0.094351523434,-0.112201475813,-5.429356399e-05,0.00560208134581,-1.38355357964
1385565574816825108,0.162817694732,0.0943195044121,-0.1121182381,3.63888273667e-05,0.00504000228641,-1.3827734272
1385565574826787279,0.162805974185,0.0943409172593,-0.11198564038,0.000306641444393,0.00549682053912,-1.38373062722
1385565574836924766,0.162912660467,0.094379351014,-0.112086346407,0.000282445642902,0.00578681140894,-1.38347167193
1385565574846739460,0.162813260975,0.0942562591384,-0.112130435399,0.000545821556245,0.00494532484735,-1.38283328037
1385565574856698269,0.162855225731,0.0944078182295,-0.1120991397,0.000235572589049,0.0055370910738,-1.38395621566
1385565574866805112,0.162856614573,0.0943166841767,-0.112053171095,0.000356254325564,0.00565605429943,-1.38279622402
1385565574876742405,0.162766674886,0.0943601986008,-0.112004985231,0.00055331554002,0.0054073126686,-1.38401868408
1385565574886696308,0.162705420383,0.0943660092589,-0.112165473124,0.000937963571744,0.00475686770032,-1.38399484787
1385565574896709706,0.162756510427,0.0943683689037,-0.112146542326,0.000417372665912,0.0051799108651,-1.38378963481
1385565574906698959,0.162686753972,0.094403274845,-0.112047903335,0.000822604062788,0.00567560852165,-1.3845933232
1385565574917022934,0.162682358512,0.0943450095848,-0.112034763796,0.000405456433717,0.00582837937926,-1.3837705111
1385565574926784331,0.162598886531,0.0943193290802,-0.112122868683,0.000259676567186,0.00547341625172,-1.3845323766
1385565574936814013,0.162524247886,0.0942904203437,-0.112179301431,7.34122559002e-05,0.00492148878719,-1.38376588512
1385565574946814432,0.16246190492,0.0942392978673,-0.112071614548,-6.16394797156e-05,0.00553552911086,-1.38450792509
1385565574956836754,0.1624549391,0.0942822708006,-0.112018786784,-0.000378782402938,0.00555739965078,-1.38364059072
1385565574966748638,0.162415949014,0.0942014950001,-0.112064776465,-0.000717415481476,0.00526625114391,-1.38401188154
1385565574976749824,0.162426196606,0.0942036241975,-0.112194341528,-0.000920772247218,0.00538666774036,-1.38394757627
1385565574986790045,0.162333250118,0.0942170988407,-0.112115102324,-0.000542604233546,0.00497066787206,-1.38337589527
1385565574996745508,0.162358952993,0.094260691108,-0.112015527441,-0.000765556396713,0.00570957714975,-1.38379527663
1385565575006757248,0.162297659435,0.0942702357545,-0.11204100441,-0.000722248635978,0.00544203822889,-1.38239952247
1385565575016893623,0.162249147387,0.0942294460568,-0.112055062469,-0.00120694387919,0.00518390129276,-1.38362155246
1385565575026747610,0.162263617738,0.0943000310218,-0.112175783906,-0.00116096642524,0.00538046907263,-1.38226440404
1385565575036816551,0.162142396558,0.0942601362772,-0.112095845168,-0.00162598842854,0.00634473768658,-1.38270673676
1385565575046889107,0.162130805799,0.0943340661726,-0.112135083893,-0.00179383562149,0.00584557022983,-1.38274884184
1385565575056711426,0.16223742128,0.0942240970008,-0.112196546046,-0.00218473995701,0.00622954989162,-1.38294484083
1385565575066808422,0.162105510222,0.0942887112562,-0.112184986342,-0.00164027864069,0.00559104688436,-1.38353587989
1385565575076703790,0.162057231088,0.094251305814,-0.112119808742,-0.00195642004471,0.00549668625734,-1.38238998921
1385565575086763209,0.162011092904,0.0942378648764,-0.112179090597,-0.0015643342488,0.00554847501581,-1.38359117651
1385565575096743938,0.161869840041,0.0942658355426,-0.112211762771,-0.00167408413056,0.00596165715,-1.38323030446
1385565575106688808,0.161770069321,0.094182062924,-0.112175109062,-0.00249592260009,0.00635234969198,-1.38365524915
1385565575116847400,0.161685355164,0.0942096312731,-0.112178861899,-0.00205238546069,0.00592695973671,-1.38407571586
1385565575126776553,0.161597111175,0.0940941848917,-0.112176932717,-0.00206779469053,0.00517588509347,-1.38337939013
1385565575136797835,0.161511591008,0.0941226384649,-0.112200212499,-0.00257810001359,0.00496269433158,-1.38445615018
1385565575146857355,0.161369035516,0.093959071766,-0.112075012932,-0.00331663841716,0.00550510880464,-1.38388605108
1385565575156722024,0.161249243054,0.0939814452181,-0.112208536769,-0.00344697049192,0.00679860085502,-1.38522072716
1385565575166804394,0.161032628369,0.0938497687488,-0.112168278001,-0.00322388303155,0.00605521460887,-1.38444579656
1385565575176777335,0.16082499652,0.0938680211023,-0.111969253056,-0.00427937226592,0.0061537174932,-1.38484420788
1385565575186691656,0.160814169313,0.0936898066485,-0.112183703531,-0.00499861899165,0.00473651423062,-1.38478567984
1385565575196837073,0.160736942577,0.0937086837283,-0.112341539526,-0.00586960674544,0.00524347810598,-1.38567389317
1385565575206928806,0.160600721499,0.0936598218425,-0.112183041605,-0.00577422887088,0.00651616199293,-1.38507390553
1385565575216873916,0.160540691224,0.0936671873693,-0.112021701453,-0.00563923596042,0.00706725002267,-1.38557985876
1385565575226727216,0.160359179525,0.0936214734695,-0.112117987691,-0.00486565014231,0.00582894444663,-1.38548251242
1385565575236806743,0.160260450124,0.0934594222535,-0.112543737732,-0.00400237987217,0.00531073021763,-1.38595729908
1385565575246785520,0.160117464763,0.0936386235303,-0.112707775408,-0.00284295694023,0.00702141795427,-1.38582469268
1385565575256689674,0.159957078225,0.09344605558,-0.112424327377,-0.00284081811524,0.00975035070279,-1.38705496214
1385565575267090067,0.159684825302,0.0934424405378,-0.112015167029,-0.00349926205798,0.00768798608447,-1.38678841011
1385565575276700015,0.159544408891,0.093177222863,-0.112091740889,-0.00351195395777,0.00388712346665,-1.38734230508
1385565575286750727,0.159185048557,0.0931663325732,-0.112435963503,-0.00389733389675,0.00632064073456,-1.38681628997
1385565575296722992,0.159115771047,0.0930165984918,-0.112607922696,-0.00382946954604,0.00671683654283,-1.38754978703
1385565575306723233,0.15893326242,0.0931065234587,-0.112254926246,-0.00386314984338,0.00816453105429,-1.38649559545
1385565575316874819,0.158728579891,0.0929604400777,-0.112009704196,-0.00367026330255,0.00785563231516,-1.38703955949
1385565575326696472,0.158603946029,0.0929565774592,-0.112154004345,-0.00345692963281,0.00505727301884,-1.38647743006
1385565575336795816,0.15842045028,0.0928205224082,-0.112513762533,-0.0045265749322,0.00577517421651,-1.3869808791
1385565575346904606,0.158161513497,0.0928881042101,-0.112487024179,-0.00477508784238,0.00649605810742,-1.38638051729
1385565575356765969,0.158041249396,0.0927943963889,-0.112259933609,-0.00462569171817,0.00663812129292,-1.38712775086
1385565575366786452,0.157772597736,0.0928633902979,-0.112147846948,-0.00447682441709,0.00589308764545,-1.38688469151
1385565575376780097,0.15758847046,0.0927338234932,-0.112430457411,-0.00413790457972,0.00525448700523,-1.38776379329
1385565575386705806,0.157288497984,0.0927789896046,-0.112503196367,-0.00366336145091,0.00750076862537,-1.3872318954
1385565575396738982,0.15693560497,0.092719102661,-0.112251984414,-0.00358076165751,0.00792414329315,-1.38709599591
1385565575406762536,0.156601985116,0.0927801747116,-0.112365786055,-0.00304411864724,0.00652398072564,-1.38737978184
1385565575416807378,0.156362399458,0.0925594658477,-0.112595692305,-0.00299090903983,0.00311278447103,-1.38733721535
1385565575426714584,0.155996982653,0.0924950494328,-0.112510484811,-0.00283850521955,0.00427874854059,-1.38756629914
1385565575436794899,0.155684217979,0.0925804530943,-0.112291842813,-0.00293555589317,0.00764353749917,-1.38768676109
1385565575446882304,0.155273759096,0.0924666537511,-0.112191763935,-0.00316441044639,0.00780489771792,-1.38813478895
1385565575456761735,0.154750576638,0.0924695855944,-0.112323073525,-0.00316848772931,0.00668809040483,-1.38842845059
1385565575466699612,0.154358719732,0.0923360251459,-0.112534250046,-0.00342442534302,0.00394703523446,-1.38856584488
1385565575476719485,0.154006327822,0.0923293120429,-0.112546082037,-0.00339592605827,0.00246900156681,-1.38969961875
1385565575486763659,0.153521330581,0.0922712964576,-0.112312843308,-0.00301298884482,0.00475816511846,-1.3891765467
1385565575496733813,0.153174262457,0.0924641600371,-0.112546533061,-0.00221035887366,0.00599363869988,-1.38944665216
1385565575506703805,0.152596089408,0.0924788237078,-0.112509909902,-0.00255921379026,0.00749179177861,-1.38904746728
1385565575516808530,0.152215605619,0.0925168917686,-0.112303663679,-0.00284059820787,0.0070146492267,-1.38885874398
1385565575526725720,0.151589413476,0.0925351568387,-0.112160071486,-0.00147407108034,0.00691735645091,-1.38904784993
1385565575536724038,0.151134935023,0.092706860529,-0.112318921152,-0.000932426611364,0.0056973298588,-1.389562819
1385565575546907332,0.150619499786,0.0925896945722,-0.112553083368,-7.03994756967e-05,0.0043711795064,-1.3897832108
1385565575556791902,0.150115637955,0.0927021563165,-0.112482352546,0.000601076385191,0.00439337588563,-1.38939858023
1385565575566780355,0.1495469133,0.0927095993999,-0.112396631797,0.00106583209251,0.00548803807853,-1.38982834678
1385565575576741305,0.149037544012,0.0929669943126,-0.112373629586,0.000330046556321,0.00678490153018,-1.38907609353
1385565575586736006,0.148509551195,0.0929902255007,-0.112530354461,0.00044345187819,0.00606471418232,-1.38929187717
1385565575596707629,0.147667516864,0.0932048244232,-0.112486612531,0.000549529038815,0.00714364422917,-1.38912294448
1385565575606714949,0.147079875669,0.0931722113195,-0.112429948837,-2.00378328342e-05,0.00812648837482,-1.38940185094
1385565575616765962,0.146489223371,0.0933668322686,-0.112472180711,-0.000955815873024,0.00676029108015,-1.38922771715
1385565575626726130,0.145733619325,0.0934139206265,-0.112752310989,-0.000535501046051,0.00608635222113,-1.38976231077
1385565575636785099,0.144914774907,0.0936315805191,-0.112938719056,-0.000467182381342,0.00750565348715,-1.3891147483
1385565575646868191,0.144068392985,0.0937679470093,-0.112974120557,-0.000487484815184,0.00821596848136,-1.38882931558
1385565575656788004,0.143191134024,0.0938916474789,-0.113057859102,-0.000458266642534,0.0084132022241,-1.38894632896
1385565575666718752,0.142350769337,0.094069677835,-0.113291909387,-0.000581224186151,0.0101657850115,-1.38797403976
1385565575676697852,0.141414056069,0.0942251568654,-0.113684624526,-0.00124179287457,0.0109312031482,-1.38821393559
1385565575686724999,0.140494661933,0.0945433754976,-0.11380006675,-0.00122240143229,0.0116805018732,-1.38662947627
1385565575696699551,0.139354902536,0.0947761946073,-0.114070192874,-0.00210893131876,0.0134666932415,-1.38733575121
1385565575706748885,0.138347992857,0.0950303907826,-0.114410732107,-0.00305619243218,0.0160387435604,-1.38632019092
1385565575716763417,0.137322288414,0.0953197093841,-0.114898724557,-0.00390135207442,0.0170533211566,-1.38669065046
1385565575726713235,0.13616574582,0.095562074427,-0.115245525149,-0.0049362072435,0.0180118545076,-1.38643815174
1385565575736761969,0.135156808994,0.0959424730548,-0.115741022412,-0.00566056150182,0.0218691344698,-1.38660343272
1385565575746712890,0.133997411164,0.0962926606756,-0.116173554508,-0.00669302763601,0.023742872855,-1.38624238062
1385565575756717707,0.132946733171,0.0967048863087,-0.116716855016,-0.00665273354587,0.0250269027546,-1.38523963197
1385565575766718765,0.131717330872,0.0969874240674,-0.117424317814,-0.00638324457079,0.027156666063,-1.38548956621
1385565575776685723,0.13044423674,0.0974899015466,-0.117918409089,-0.0053617734719,0.0288098527561,-1.38470935001
1385565575786671996,0.129407783242,0.0979668655411,-0.118694708446,-0.0049037928652,0.0296759663656,-1.38522717711
1385565575796851000,0.128026817136,0.0983827520211,-0.119618752571,-0.00423886750468,0.0312567770622,-1.38475750847
1385565575806692065,0.126780412467,0.0988205902042,-0.120428598623,-0.00391736060615,0.033637924241,-1.38558591535
1385565575816684744,0.125579704031,0.0992432438615,-0.121098332971,-0.00323686622236,0.0324111845204,-1.38493389342
1385565575826695460,0.124246818083,0.0998110740378,-0.122165282087,-0.00236351764332,0.0337862989514,-1.38484837099
1385565575836690306,0.122975687755,0.100439892783,-0.123480161569,-0.000947352459321,0.0344494743847,-1.38477711676
1385565575846757610,0.121518934575,0.101081114824,-0.124708411252,0.000942239928005,0.0355607585285,-1.38511872198
1385565575856679624,0.120244803055,0.101671369345,-0.125903512901,0.00293388634163,0.0357097283539,-1.38600192874
1385565575866783724,0.118877815974,0.102365397414,-0.127552806802,0.0049699275148,0.0364065786308,-1.38684090445
1385565575876671595,0.117506331413,0.103027479889,-0.12926351216,0.00758550478833,0.0358064269765,-1.38737592515
1385565575886681817,0.115991555085,0.103748428341,-0.130727624375,0.0101463510954,0.0353070554241,-1.38712807403
1385565575896681725,0.114557432076,0.104460227069,-0.132463581489,0.0122950329394,0.0360544895202,-1.38770313818
1385565575906665923,0.113118383397,0.105246884956,-0.134496939213,0.0144502906624,0.0361750541777,-1.38689082738
1385565575916685169,0.111672300074,0.106007866491,-0.136565225411,0.0161758130228,0.0343843992884,-1.3874523603
1385565575926678407,0.110213022152,0.106749427704,-0.138603273955,0.0171444742401,0.0340524243884,-1.38771469409
1385565575936711305,0.10861497665,0.107561039281,-0.140665509667,0.0194800606367,0.0326350902884,-1.38754109707
1385565575946887280,0.107228409433,0.10848685641,-0.143273971722,0.0211821169317,0.0322981480562,-1.38762229135
1385565575956816738,0.105784305032,0.109520670346,-0.145893247166,0.0238005022452,0.0314136787668,-1.38680628357
1385565575966863045,0.104390292273,0.110557862979,-0.14837678699,0.0257541637551,0.0319922858956,-1.38633268203
1385565575976816992,0.103036073855,0.111584970332,-0.151124429179,0.0278919922251,0.0332140589703,-1.38676891826
1385565575986754313,0.101693124433,0.112623591807,-0.154146085633,0.0294326059806,0.0338935250325,-1.38594943178
1385565575996744784,0.100247124922,0.113917071037,-0.157257242614,0.0310645396078,0.034631307245,-1.38583105768
1385565576006793734,0.0989518296891,0.114987399679,-0.160464769999,0.0327330273359,0.0352555370722,-1.38601219852
1385565576016802100,0.0976133600744,0.116194824367,-0.163837653646,0.033254265117,0.0357586278756,-1.38619578133
1385565576026713121,0.096118583748,0.117383926339,-0.167313006956,0.0342308558161,0.0354680507503,-1.38636543627
1385565576036796094,0.0947801958527,0.11860588398,-0.170711835895,0.0329945707209,0.0369026463535,-1.38716809226
1385565576046872969,0.0935919056459,0.11985762975,-0.174351681465,0.0318100690726,0.0376855152136,-1.38743544625
1385565576056783434,0.0922219703408,0.121305196405,-0.178055383942,0.0313937567019,0.0390373543467,-1.38788066926
1385565576066768487,0.0907519625892,0.12244977816,-0.181729170156,0.0301357263283,0.0393525752125,-1.38790249087
1385565576076720059,0.0894746785976,0.123814695449,-0.185373492912,0.0292801913943,0.0393064650059,-1.38836264521
1385565576086699920,0.0879433976771,0.125210925936,-0.189214462047,0.028179479664,0.0414295015185,-1.38878691156
1385565576096917245,0.0865677682267,0.126653641106,-0.193196295442,0.0255041103929,0.0414194816719,-1.38937313674
1385565576106708172,0.0851936373236,0.128069283146,-0.197079436664,0.0222993462242,0.0426541086797,-1.39034483391
1385565576116864469,0.0837271142584,0.129534244742,-0.201040387915,0.0195932533546,0.0439978275427,-1.39058745362
1385565576126857696,0.0823368846045,0.131090648377,-0.205155240712,0.0164428026728,0.0447953566415,-1.39098753711
1385565576136809630,0.0809025124268,0.132645452383,-0.209187519392,0.0142826988151,0.0450708247866,-1.39100198337
1385565576146824251,0.0796035315847,0.134247709547,-0.2134314812,0.0137140771207,0.0451726330008,-1.39085182958
1385565576156850815,0.0782988278259,0.135857812211,-0.21759142463,0.0123560988378,0.0454351518645,-1.39116472334
1385565576166806261,0.0769194666517,0.137426677121,-0.221846335666,0.0117734657451,0.0465382901433,-1.39242226493
1385565576176718724,0.0756173358211,0.139111701507,-0.226145878641,0.0110929566452,0.0470705711056,-1.39276721283
1385565576186840638,0.0741341876139,0.140905947102,-0.23042773556,0.0108363175439,0.0485017959731,-1.39332307804
1385565576196712520,0.0729893445051,0.142654895158,-0.234926279928,0.0106072463674,0.0478451066575,-1.39385814824
1385565576206673712,0.071755982585,0.144409680502,-0.239190472752,0.0107487880223,0.0485241952756,-1.39424831462
1385565576216846004,0.0702288158763,0.146297154451,-0.243658185708,0.0113282114548,0.0488282857793,-1.39477018814
1385565576226709440,0.0690961440729,0.148139113066,-0.248283793617,0.00984884115336,0.0488260448717,-1.39510164094
1385565576236761882,0.0678187317557,0.150050155421,-0.252715653733,0.00990318990842,0.0488137924218,-1.39557765954
1385565576246852469,0.0663047923125,0.151994589204,-0.257155328569,0.00995266257944,0.0481523210825,-1.39562246425
1385565576256880363,0.0652388258621,0.154062402279,-0.261814762395,0.00960218785309,0.049142521562,-1.39624502783
1385565576266849622,0.0638260436547,0.155892648908,-0.266382312239,0.00843374865353,0.048938012455,-1.39637913374
1385565576276729246,0.0624030507462,0.158030940895,-0.270987213584,0.00908794253669,0.048787552045,-1.39638764851
1385565576286693663,0.06112015881,0.160060144542,-0.275469949883,0.00963845406375,0.0500768843804,-1.3964339143
1385565576296808779,0.0597517853514,0.162262798452,-0.28009923385,0.0109946686038,0.0501309929313,-1.3966078948
1385565576306710942,0.0586362026622,0.164386173403,-0.284886459738,0.0118542595385,0.0511571124304,-1.39669402913
1385565576316891168,0.0571607297232,0.166656903881,-0.289562583234,0.0131246298242,0.0521272270088,-1.39628222329
1385565576326786521,0.0559887119914,0.168910862419,-0.294312912731,0.0140305081839,0.0541029731738,-1.39625900103
1385565576336823343,0.0546512617822,0.171209433171,-0.298783878404,0.0144805550985,0.0546338892375,-1.39640300324
1385565576346773194,0.0532958341626,0.173543685762,-0.303518952805,0.0145351212245,0.055698242979,-1.3971563431
1385565576356708061,0.051992229666,0.175905447941,-0.308424004403,0.0139043316242,0.0558395722019,-1.39765755063
1385565576366759059,0.050667957736,0.17830153097,-0.31293809972,0.0135861569474,0.0564605576772,-1.39821690215
1385565576376718688,0.0492428841799,0.18073032662,-0.317705188958,0.012993662074,0.0574390834883,-1.39850478991
1385565576386708156,0.0479390137597,0.183125768387,-0.322417322753,0.012741795014,0.057327738871,-1.39895381848
1385565576396908678,0.0465037445083,0.185631132285,-0.327097867725,0.0128784404437,0.0595961020312,-1.39926349413
1385565576406715908,0.0450443611686,0.188287208562,-0.331850797583,0.0135228972483,0.0579067288842,-1.39992098466
1385565576416803206,0.0438472940336,0.190758862552,-0.336649098434,0.0138227865328,0.0582981088767,-1.40075510505
1385565576426826232,0.0425213148919,0.193419779775,-0.341318150869,0.0140461051262,0.0590782769523,-1.40188880506
1385565576436719804,0.0411438304447,0.196173334964,-0.346172161015,0.015231642871,0.0582699297393,-1.40246674231
1385565576446685680,0.0396862432595,0.198830110193,-0.350876044264,0.0156491699392,0.0589678844119,-1.40289252901
1385565576456686165,0.038529118348,0.201576416993,-0.355802424686,0.0155929055563,0.0595303609984,-1.40362760739
1385565576466812693,0.0371865341334,0.204454611219,-0.360603245997,0.0166713160588,0.0592151694985,-1.40417619961
1385565576476747966,0.0356551370861,0.207241229396,-0.365379525231,0.0177258226508,0.0593190417556,-1.40482736434
1385565576486846495,0.0343847983343,0.210245844617,-0.370495177844,0.0181255308529,0.0601755985778,-1.40588138132
1385565576496706858,0.033146825483,0.213148681792,-0.375454806886,0.0182493845294,0.0606331150351,-1.4070120488
1385565576506683709,0.0317000347769,0.216089039893,-0.380453372291,0.0194032516341,0.0607293533826,-1.40795257772
1385565576517039194,0.0303244086971,0.219158515285,-0.385547827111,0.0197502191715,0.0607899208319,-1.40848146448
1385565576526703962,0.0288284225486,0.222349781917,-0.390835852797,0.0199785208006,0.0617951745132,-1.40948711495
1385565576536714078,0.0276066776498,0.225410587,-0.396233584457,0.0199783154557,0.0615339515644,-1.4103677223
1385565576546863097,0.0262011334927,0.228643488407,-0.401682790943,0.0203395135651,0.0622372111957,-1.41111630704
1385565576556691350,0.0247317646467,0.231843257317,-0.406957879295,0.0217115732393,0.0621711460304,-1.41223520618
1385565576566691975,0.0234401608084,0.235110102406,-0.412050137543,0.0210914006254,0.0622000901241,-1.41298765878
1385565576576859677,0.0222049511252,0.238367346452,-0.416882076439,0.0200236143759,0.0632845679494,-1.41346758421
1385565576586745374,0.0208132248408,0.241742347611,-0.421696978381,0.0193022653217,0.064165649602,-1.41455923097
1385565576596677309,0.0193366088883,0.245084297095,-0.426426802859,0.0191867723335,0.064758476266,-1.41486361195
1385565576606841321,0.0178859610893,0.248489914549,-0.430872406503,0.0185130954893,0.0651153920867,-1.4161650124
1385565576616903590,0.0165740807932,0.251986227471,-0.435226145256,0.018059124989,0.0652161925737,-1.41669843688
1385565576626722643,0.0151822389894,0.255444129446,-0.439488701034,0.0180923914086,0.0652691236809,-1.41755540288
1385565576636696780,0.0138501976735,0.258921041991,-0.443543085877,0.017625915029,0.0650928810325,-1.4186341169
1385565576646721056,0.0125843977567,0.262382037501,-0.447504128669,0.0176920931061,0.0647891147653,-1.41934111382
1385565576656808668,0.0112246941815,0.265847686721,-0.451158484403,0.0178119684581,0.0647369600145,-1.42014217272
1385565576666727417,0.00986841283805,0.269491489607,-0.454813618464,0.0176133342329,0.0634556674176,-1.42134047619
1385565576676713007,0.00843549182707,0.273043834436,-0.458307415243,0.0185950484574,0.0624023524683,-1.42224357933
1385565576686831133,0.00721710899833,0.276761661205,-0.461502902182,0.0182910611125,0.0612069394924,-1.42294416443
1385565576696756450,0.00586257002634,0.28030922229,-0.464742203175,0.0193303622636,0.0600678475369,-1.42340822224
1385565576706706327,0.00459491420735,0.283978101089,-0.467669380055,0.0195968939505,0.0593969261461,-1.42483992674
1385565576716852407,0.00329219917873,0.287667212555,-0.470402002578,0.019939083109,0.057800631814,-1.42558590558
1385565576726710020,0.00199753270608,0.291313275711,-0.473158845466,0.0209495764531,0.056780395146,-1.42661601039
1385565576736752034,0.000549265490807,0.295147242811,-0.475377128893,0.0206651048726,0.0543356361516,-1.42747944321
1385565576746752689,-0.000726107844337,0.298741454983,-0.47769892122,0.0221211221481,0.0516742936645,-1.4281644155
1385565576756680926,-0.00212780368863,0.302631301592,-0.479888218723,0.0223899810734,0.0510958561126,-1.42918735782
1385565576766842277,-0.00314930538569,0.306346762931,-0.481944867134,0.0218967065849,0.049281443751,-1.43013914658
1385565576776701149,-0.00444408182971,0.31014630675,-0.483689007724,0.0220333397143,0.047487024823,-1.4312650847
1385565576786816591,-0.00573244080656,0.313918139552,-0.48548118527,0.0221083375294,0.0453503912865,-1.43181159321
1385565576796684185,-0.00704242543844,0.317647397313,-0.486987282785,0.0222628958663,0.0437244162982,-1.43281329747
1385565576806680543,-0.00837314425894,0.321579182788,-0.488258330465,0.0215054402201,0.0422954376384,-1.43332259887
1385565576816876183,-0.00961002038139,0.325373569718,-0.489529117799,0.0219776980471,0.0395120488008,-1.43437841197
1385565576826697419,-0.0109754143121,0.329329742586,-0.49061459444,0.0224836960498,0.0378492729432,-1.43510050103
1385565576836675804,-0.0119321016726,0.333063788614,-0.491611159359,0.0217906912363,0.0355979452416,-1.43618617907
1385565576847466130,-0.0133392798811,0.336850235671,-0.492428931458,0.0215450199709,0.0333092345385,-1.43711655662
1385565576856763595,-0.0144716716065,0.340755694344,-0.493097006412,0.0215166716898,0.0319939224122,-1.43796313886
1385565576866720697,-0.0157317049082,0.344586122434,-0.493659867644,0.021077353738,0.0295971180305,-1.43894713217
1385565576876814929,-0.0169542378233,0.348498120053,-0.494046232433,0.0204832563565,0.0281959777057,-1.43925820829
1385565576886762406,-0.0182238594077,0.35227821992,-0.49442301598,0.0207263871918,0.0260980879983,-1.4400828364
1385565576896726126,-0.0194690824875,0.356188862193,-0.494581305495,0.0201811595925,0.0251079976913,-1.44081227579
1385565576906675028,-0.0205593628575,0.360130137051,-0.494723185274,0.0196304250536,0.0248631773749,-1.44160028094
1385565576917099519,-0.0216969564996,0.36386414388,-0.494570274817,0.0195509206976,0.0224529356643,-1.44280872808
1385565576926770997,-0.0228571145009,0.367725408254,-0.494477330661,0.0189008322667,0.0207087929511,-1.44340040509
1385565576936838164,-0.0240648867394,0.371571289622,-0.494117038447,0.0186067047326,0.0184523293961,-1.4440738425
1385565576946698144,-0.0252829836506,0.375481827524,-0.493759942451,0.0180974537575,0.0176819690303,-1.44450402138
1385565576956670257,-0.0263757266949,0.379268996851,-0.493324887597,0.0176785484535,0.0163019723219,-1.44534639601
1385565576966677622,-0.0273775774396,0.382926868787,-0.492750586947,0.0169257357844,0.0145026235787,-1.44646581477
1385565576976672441,-0.0284501508268,0.3867935672,-0.492171187621,0.0170959773759,0.0134887714583,-1.44674565177
1385565576986852469,-0.0296339718004,0.390524873792,-0.491343761185,0.0165637462912,0.0119382696714,-1.44800636595
1385565576996681264,-0.0307929271079,0.394380137815,-0.490506106934,0.0162949248099,0.0114801730881,-1.44837752397
1385565577006702731,-0.0318911431949,0.398135725365,-0.489615791693,0.016358558322,0.00991079783697,-1.44921205305
1385565577016896863,-0.0329064351348,0.401851409769,-0.488670248686,0.0162236336566,0.00949718423611,-1.45001221734
1385565577026793785,-0.0338076322756,0.405554458818,-0.487627114896,0.016416660947,0.00815750144509,-1.45008886779
1385565577036782289,-0.0350469525146,0.409301113484,-0.486465718919,0.0163993941769,0.00844265007958,-1.45112503704
1385565577046926293,-0.0360342472479,0.412974803441,-0.485312422388,0.0157238313776,0.00651135483645,-1.45141764205
1385565577056780114,-0.03711900065,0.416590239623,-0.483983670598,0.0156065235915,0.00555616672613,-1.45218112923
1385565577066717317,-0.0382123860643,0.420325617301,-0.482650790874,0.0151016335261,0.00546681941653,-1.4527672315
1385565577076941697,-0.039207306858,0.423939725468,-0.481276052795,0.0146498419392,0.00418392669584,-1.45329534826
1385565577086803800,-0.0402344213551,0.427497656138,-0.479845800661,0.0147022810526,0.00350773601123,-1.45456869567
1385565577097357615,-0.0413147150592,0.431134376305,-0.478342712654,0.0143792735146,0.00241173145052,-1.45453173967
1385565577106769676,-0.0424037608358,0.434666761415,-0.476761152398,0.0145928277417,0.00141690914624,-1.45533834976
1385565577116792551,-0.0433260429269,0.438196192689,-0.475297562301,0.014190890797,0.000922805951735,-1.45579990016
1385565577126712015,-0.0442064014341,0.441704648864,-0.473681540038,0.0142819338336,-9.0463452679e-05,-1.45641187631
1385565577136948765,-0.0452475866927,0.445284705412,-0.471916796037,0.0143193996057,-0.000591188690831,-1.45709887507
1385565577146768804,-0.0461662391511,0.448674843341,-0.470317758496,0.0138886656846,-0.00119601182097,-1.45752799085
1385565577156702127,-0.0472471996436,0.452080418688,-0.468577336075,0.0144125771162,-0.00198637600783,-1.45818916332
1385565577166715616,-0.0481836711555,0.455522885265,-0.466842909293,0.013888313857,-0.00238136118046,-1.45871129417
1385565577176713093,-0.049230148285,0.458885976352,-0.465024851895,0.0138645514705,-0.00272077596886,-1.45953428249
1385565577186689573,-0.0500120661541,0.46222681189,-0.463283485249,0.0131699842476,-0.00313890465707,-1.45998827397
1385565577196674748,-0.050923060913,0.465600526704,-0.461503773533,0.0127633290989,-0.00330317665824,-1.46008275741
1385565577206671454,-0.0520177672602,0.468868813303,-0.459533275492,0.0128958140826,-0.00349290864918,-1.46055148015
1385565577216683691,-0.0529433375903,0.472205424305,-0.457753037915,0.0121338312415,-0.00334442533722,-1.46141956605
1385565577226672916,-0.0538936858381,0.47540998065,-0.455863731355,0.0114191945693,-0.00446898707333,-1.4619797875
1385565577236802423,-0.0547902565067,0.478695418887,-0.453921881322,0.0108893080823,-0.00406905362325,-1.4627008746
1385565577246714116,-0.0555696504874,0.481899967284,-0.452249037337,0.0110905934511,-0.00389666493783,-1.46293747932
1385565577256670542,-0.0567734311433,0.485045242589,-0.450167253068,0.0110471129354,-0.00468217587393,-1.46357827588
1385565577266677598,-0.0575226844181,0.488159603401,-0.448434158878,0.010458369075,-0.0044799770282,-1.46418416224
1385565577276691512,-0.0585168027388,0.491251518082,-0.446349156586,0.0101300940512,-0.00577539721345,-1.46486305076
1385565577286669358,-0.0593813915599,0.494314866256,-0.44438684604,0.0102261176478,-0.00653274199332,-1.46538920393
1385565577296669346,-0.0602426384008,0.497372497585,-0.442578429582,0.00932986385354,-0.00623350412809,-1.46559308821
1385565577306670868,-0.0611916537696,0.500398389382,-0.440667679486,0.00959972823729,-0.00676199995755,-1.46630697091
1385565577316675526,-0.0620886438928,0.503357286348,-0.438795877934,0.00917489191862,-0.00701786084885,-1.4666507079
1385565577326671738,-0.0629193908611,0.50627740267,-0.436907992361,0.00918133083067,-0.0080219791146,-1.46754306959
1385565577336772087,-0.0639364424949,0.509212583583,-0.434848941128,0.00852908897006,-0.00814191713953,-1.46781439116
1385565577346897325,-0.0647530663512,0.512123658893,-0.433133094017,0.00897270252536,-0.00859702555418,-1.46810899601
1385565577356707198,-0.0656380163207,0.514910281778,-0.431335624322,0.00881038584239,-0.00912205413969,-1.4688330991
1385565577366768508,-0.0664472529605,0.517681675348,-0.429571520225,0.00820818256959,-0.0092327625777,-1.4691559122
1385565577376710431,-0.0673250000074,0.520460720775,-0.427703983136,0.00803357542824,-0.0104051265073,-1.46965873306
1385565577386747010,-0.0683667323414,0.523294972029,-0.425895000904,0.00806617143783,-0.0115243627485,-1.47045686396
1385565577396691731,-0.0690293652302,0.526002694908,-0.424246962405,0.00828571541158,-0.0123891628811,-1.47072385439
1385565577406783005,-0.0698806264523,0.528542084943,-0.422598873513,0.00828067984696,-0.012527427833,-1.47146965911
1385565577416727821,-0.0707365048675,0.531222365237,-0.420751353403,0.00834525085963,-0.0135169625907,-1.47180493381
1385565577426676817,-0.0714723823179,0.533814277659,-0.419159629058,0.00841512795817,-0.0151657713756,-1.4723901735
1385565577436684896,-0.0725011725554,0.536444661697,-0.41750863594,0.00951878254122,-0.0159819048884,-1.47283038655
1385565577446733439,-0.0732226426338,0.538962644607,-0.415952640431,0.00998531794529,-0.0174415938953,-1.47345409204
1385565577456754615,-0.074041633498,0.541346196531,-0.414372828098,0.0101104447918,-0.0188202806027,-1.47433284489
1385565577466755889,-0.0749220926685,0.543844298274,-0.412744775233,0.0106268831627,-0.0195593794028,-1.47434267983
1385565577476704285,-0.0757482966498,0.54626522104,-0.411298253049,0.0115520212385,-0.0207984253401,-1.47471823589
1385565577486678902,-0.0765788849509,0.548566074251,-0.409868315988,0.0117379422648,-0.0221196689144,-1.47548060693
1385565577496748669,-0.0772954656053,0.55092187803,-0.408461843386,0.0117866489213,-0.0231379563391,-1.47615930225
1385565577506688617,-0.0782574651762,0.553172711708,-0.407187077043,0.0114426253706,-0.0243366138366,-1.47684755581
1385565577516686169,-0.0790901891735,0.555415138121,-0.405732659515,0.0116344002257,-0.0257757316023,-1.47727151412
1385565577526798308,-0.079831900007,0.557573004519,-0.404600214448,0.010821841432,-0.0255722672134,-1.4775528808
1385565577536679110,-0.0807231499861,0.559736607349,-0.403355139182,0.0107944067418,-0.0266955190497,-1.47827776495
1385565577546718833,-0.08147024753,0.561818990487,-0.402261900529,0.0103439067161,-0.0269457639019,-1.47860869016
1385565577556786747,-0.0823338128018,0.563994169278,-0.401135476695,0.0102828772642,-0.0280928912736,-1.47904789206
1385565577566730071,-0.0831007921651,0.565949276405,-0.400101651744,0.0101373380412,-0.0277432722802,-1.47957181358
1385565577576717290,-0.0838959973717,0.567921420562,-0.399099356152,0.00992060643337,-0.0282466003827,-1.47992314346
1385565577586696689,-0.0848291105847,0.569848692749,-0.398188743448,0.00948122571083,-0.0271677187334,-1.48029444322
1385565577596703344,-0.0854398090326,0.571757189006,-0.39734768769,0.00933744244515,-0.0269795070082,-1.48079207817
1385565577606815485,-0.0862704302224,0.573728353071,-0.396480600972,0.00956694685122,-0.0267161471138,-1.48064241904
1385565577616954284,-0.0870683589099,0.575563385213,-0.39576487995,0.00999312770932,-0.0265128559897,-1.48159519937
1385565577626715153,-0.0878287812473,0.577423502973,-0.39498150057,0.00960646963462,-0.0250234544275,-1.48205837828
1385565577636754271,-0.0886313431295,0.57916625581,-0.394379253685,0.00994211382033,-0.0251574640283,-1.48241188702
1385565577646723557,-0.0892913156701,0.580791006947,-0.393794208061,0.0101241573168,-0.0237737730785,-1.482902405
1385565577656686155,-0.0900845983072,0.582519038339,-0.393161648316,0.0107075295204,-0.0230467840444,-1.4827880592
1385565577666759082,-0.0909812573611,0.584181039503,-0.392685364931,0.0111048928471,-0.021281501122,-1.48284458149
1385565577676699646,-0.0916805105831,0.585839206963,-0.39217093671,0.0109699681387,-0.0207032351839,-1.48332728706
1385565577686684087,-0.092401659654,0.587333821409,-0.391636541375,0.0104517418351,-0.0198288208625,-1.48384135813
1385565577696693126,-0.0933120323979,0.588878118641,-0.391348709939,0.0106244208355,-0.0188539039931,-1.48476726849
1385565577706690418,-0.0939252402119,0.59033898934,-0.391004238239,0.00998729628482,-0.0179741161939,-1.48516173634
1385565577717023607,-0.0948400747973,0.591904834859,-0.390570052786,0.00985995855663,-0.0165006809156,-1.4859216799
1385565577726779384,-0.0955883841294,0.593300046848,-0.390347212782,0.00940869128085,-0.0159533773662,-1.48566459385
1385565577736719483,-0.0962959277183,0.59473014513,-0.390069842257,0.00945144543873,-0.0157734324307,-1.48590308733
1385565577746723895,-0.0971031591489,0.596008249474,-0.389963810299,0.00915075337227,-0.0147355357542,-1.4867471756
1385565577756805856,-0.0976473431102,0.597269948965,-0.389783065616,0.00846121841639,-0.015601788629,-1.48751651645
1385565577766743790,-0.0985992969039,0.598618828632,-0.389575296428,0.00778787999609,-0.0153422975846,-1.48822874434
1385565577776703256,-0.0993316394196,0.599894492481,-0.389624395616,0.00741193855819,-0.0159019912003,-1.48883229648
1385565577786681410,-0.0999823300026,0.601002846122,-0.389514012887,0.00680688348494,-0.0159217404037,-1.48931697403
1385565577796845981,-0.100853351271,0.602320284105,-0.389503137182,0.00655490306616,-0.0169080985838,-1.48975236875
1385565577806719972,-0.101495563784,0.603454895847,-0.389554823076,0.00711675147406,-0.0182325358078,-1.48971492287
1385565577816855047,-0.102268267317,0.60459177432,-0.389665566171,0.00805640509574,-0.0185403993373,-1.48984376678
1385565577826887960,-0.102901895022,0.605650971964,-0.389992188236,0.00892405305064,-0.0190062467422,-1.49113191289
1385565577836800134,-0.103540352747,0.606773047466,-0.390093567724,0.00898759613256,-0.0194442481842,-1.49171800362
1385565577846822593,-0.104416169757,0.607730743507,-0.390306458937,0.00900366227768,-0.0194484802092,-1.49293313659
1385565577856808161,-0.105231545014,0.608735283209,-0.390467914937,0.00890142627495,-0.0200428524199,-1.49285052972
1385565577866810263,-0.105902752107,0.609816058791,-0.390844504806,0.00903357571044,-0.0202973306035,-1.49302623044
1385565577876737234,-0.106718603009,0.610869848192,-0.391108482819,0.00999166862786,-0.020570470035,-1.49331803651
1385565577886736374,-0.107179100089,0.611754971115,-0.39166586032,0.0104651785165,-0.0199805610505,-1.49358878577
1385565577896720175,-0.108034530359,0.612712952767,-0.392000230934,0.0100980566447,-0.0193173399503,-1.49394016976
1385565577906703739,-0.108826779562,0.613554687444,-0.392525040455,0.00865186363581,-0.0191284075467,-1.49511696136
1385565577916822490,-0.109568031235,0.614403831367,-0.392956501534,0.00758801621293,-0.0190183574929,-1.49604137452
1385565577926726939,-0.110483465173,0.615250007593,-0.393386688241,0.00658477845195,-0.0184103876792,-1.49654206852
1385565577936721111,-0.1111565345,0.616052192611,-0.394017734242,0.00550797663094,-0.0193513082283,-1.49646589011
1385565577946797811,-0.111822619439,0.616687108034,-0.394686137161,0.00494473662507,-0.0182415739877,-1.49665281487
1385565577956695116,-0.112647334528,0.617435978573,-0.395409809177,0.00459584340093,-0.0179491600498,-1.49730369324
1385565577966703777,-0.113221953157,0.61818163798,-0.396080255183,0.0040196217901,-0.0188671260256,-1.49737803618
