%time,field.linear.x,field.linear.y,field.linear.z,field.angular.x,field.angular.y,field.angular.z
1385575623043316270,-0.0,0.0,0.0,1.0,0.0,0.0
1385575623533246266,-0.0,0.0,1.09786129428e-07,1.0,0.0,0.29643908655
1385575624033279204,-0.385800843964,0.0610183506869,-0.00482418312654,1.0,0.0,0.0194023015643
1385575624533262776,-0.0161684333368,0.0029769576308,0.0247298271514,1.0,0.0,-0.0594246259
1385575625033281457,0.127716108411,-0.019728100738,0.0435900743625,1.0,0.0,-0.0512730702578
1385575625533305156,0.0450074770834,-0.00792909551211,0.0721682431736,1.0,0.0,-0.0423239109758
1385575626033257320,-0.117256595025,0.0197082586818,0.0960867978856,1.0,0.0,-0.0415726535111
1385575626533341956,-0.10405736874,0.0151407914221,0.115968105165,1.0,0.0,-0.036734979269
1385575627033366104,0.0284373713951,0.00779316168554,0.112845557876,1.0,0.0,-0.0239950152125
1385575627533328431,0.104203751388,0.0255267971761,0.0903760978998,1.0,0.0,-0.015990345198
1385575628033217515,0.104355784154,0.0527711189054,0.127412581881,1.0,0.0,-0.0116395013929
1385575628533274721,0.0199232014036,0.059290134295,0.146562222093,1.0,0.0,-0.00695419810345
1385575629033352216,-0.0608344720542,0.041160868419,0.137803953791,1.0,0.0,-0.00368693065998
1385575629533282147,-0.0674675509828,0.0214193034251,0.124372442699,1.0,0.0,-0.00250500853474
1385575630033208406,-0.0139905269194,0.0134429404543,0.107650916258,1.0,0.0,-0.0022135388002
1385575630533282606,0.0511412675376,0.0246786521616,0.0941206369077,1.0,0.0,-0.00200391507514
1385575631033295217,0.065086668656,0.0373678053697,0.0787455548908,1.0,0.0,-0.00227825889261
1385575631533319244,0.0204992642829,0.0352804944207,0.067070463777,1.0,0.0,-0.00220820940296
1385575632033321721,-0.0319744623198,0.0191114252053,0.0568953463725,1.0,0.0,-0.00236747053555
1385575632533302749,-0.047346504921,0.00470132578333,0.0466988408629,1.0,0.0,-0.00174288053545
1385575633033235168,-0.0135229977303,0.00342781884202,0.0410541955229,1.0,0.0,-0.00104670306025
1385575633533212610,0.0323107451595,0.0175564625234,0.0354791716855,1.0,0.0,0.000872308894161
1385575634033326595,0.0463300965707,0.031334085063,0.0300295181336,1.0,0.0,0.0026752887397
1385575634533178195,0.0167019996142,0.0280335640498,0.027659724733,1.0,0.0,0.00409811268896
1385575635033246320,-0.0246708711022,0.0111023896472,0.0250135075832,1.0,0.0,0.00689493761665
1385575635533323664,-0.0374890806427,-0.00623767847861,0.0224165835458,1.0,0.0,0.0104012073883
1385575636033225026,-0.0165855594216,-0.00551494371985,0.0210843477897,1.0,0.0,0.0139056613955
1385575636533269260,0.0172099969726,0.0104223474318,0.0201458645197,1.0,0.0,0.0171232366346
1385575637033205781,0.0319114515623,0.0225382778696,0.0183589346184,1.0,0.0,0.0199502747596
1385575637533324307,0.0189642041912,0.016441560783,0.0153119832408,1.0,0.0,0.021267986521
1385575638033309749,-0.00806261844569,0.000747344807555,0.0117187143787,1.0,0.0,0.0221537194984
1385575638533270870,-0.0205054083399,-0.00941549959566,0.00934852224944,1.0,0.0,0.0218965259625
1385575639033195278,-0.0142756684537,-0.00574118572596,0.00882201259299,1.0,0.0,0.0214399991883
1385575639533307468,0.00178950768017,0.00720354789868,0.00987524446146,1.0,0.0,0.0204842120356
1385575640033268646,0.0106875839536,0.0166722898074,0.0107116274064,1.0,0.0,0.0206964099605
1385575640533203034,0.00560445825124,0.00917815578246,0.0104062927429,1.0,0.0,0.0213680618609
1385575641033389892,-0.00891781067389,-0.00767375757029,0.00763005828457,1.0,0.0,0.021868622123
1385575641533264594,-0.0207942758421,-0.0169325982597,0.00611106469518,1.0,0.0,0.0221413693554
1385575642033350045,-0.0225220107436,-0.0114013612466,0.00669909951699,1.0,0.0,0.0221348776442
1385575642533235628,-0.0125600748521,0.00526530890797,0.00735222244989,1.0,0.0,0.0225073731502
1385575643033251392,0.00105541926283,0.0187173928941,0.00741173223618,1.0,0.0,0.0228836492335
1385575643533206761,0.00869109851768,0.0125526912434,0.00617158500468,1.0,0.0,0.0232126474173
1385575644033370694,0.00488096884693,-0.00953464438432,0.00377634607198,1.0,0.0,0.0240969188176
1385575644533226310,-0.00529987841464,-0.0232855893368,0.0019721914138,1.0,0.0,0.0241251547176
1385575645033256535,-0.0152542522896,-0.0179298206109,0.00242247932986,1.0,0.0,0.0234054212422
1385575645533226190,-0.0153806715294,0.00185455663526,0.00299526941607,1.0,0.0,0.0226557207736
1385575646033332776,-0.0062970216294,0.0168629615154,0.00357777877504,1.0,0.0,0.0217744131233
1385575646533307562,0.00522940458647,0.0138065525082,0.00458970283039,1.0,0.0,0.02171687263
1385575647033331872,0.00923663726759,-0.00398737950367,0.0035727669051,1.0,0.0,0.022285818751
1385575647533307799,0.0039588114825,-0.0172025388522,0.00178139370615,1.0,0.0,0.0222401607856
1385575648033354119,-0.00645838685956,-0.0153049103761,0.00114722150228,1.0,0.0,0.0216005483751
1385575648533233693,-0.0165120447064,-0.00140743480363,0.00247246529234,1.0,0.0,0.021559683192
1385575649033258424,-0.0177700192687,0.0141598281724,0.00233390976598,1.0,0.0,0.0220704998975
1385575649533247343,-0.00788219267489,0.0134844962539,0.00307590445334,1.0,0.0,0.0228962924176
1385575650033217407,0.00744600470229,0.00034463265381,0.0014595441583,1.0,0.0,0.0239316667227
1385575650533314364,0.010890800897,-0.0131542719139,-0.000758611022713,1.0,0.0,0.0247079674046
1385575651033418024,-0.00180896140096,-0.0169030681338,-0.00180260110313,1.0,0.0,0.0254090611896
1385575651533479284,-0.0175322282278,-0.00745268273466,-0.00131047563456,1.0,0.0,0.0252521762517
1385575652033183485,-0.0214722275762,0.00738763173358,-0.000480144945318,1.0,0.0,0.0257946364863
1385575652533318390,-0.00580625603897,0.0166484704006,-0.000211420450564,1.0,0.0,0.0270444122276
1385575653033301875,0.0126554801366,0.0136182774423,-0.000947170134503,1.0,0.0,0.02813987408
1385575653533244647,0.0191605394621,0.000641856058104,-0.002193454293,1.0,0.0,0.0296052135328
1385575654033274615,0.00706275428063,-0.0154785164213,-0.0011673860372,1.0,0.0,0.0310957047323
1385575654533373090,-0.012734511736,-0.0194469342066,-0.00189651695991,1.0,0.0,0.0318201454659
1385575655033285295,-0.0221724595831,-0.00965469065781,-0.000847967438303,1.0,0.0,0.0320316741282
1385575655533279611,-0.0140188058788,0.00734063975355,-0.00123776655478,1.0,0.0,0.0328201580915
1385575656033219747,0.00285652486483,0.0191872286296,-0.00175078311793,1.0,0.0,0.0333894527153
1385575656533239195,0.0131029474305,0.0148027732789,-0.000513133466749,1.0,0.0,0.0336656794898
1385575657033331594,0.00952307780892,0.00137129957683,-0.000563628837637,1.0,0.0,0.0338272458083
1385575657533489680,-0.00249010047524,-0.00555112676499,-0.000983101518938,1.0,0.0,0.0340796769317
1385575658033273370,-0.0143431088153,-9.01724383008e-05,-0.00124120372053,1.0,0.0,0.0340805235953
1385575658533259083,-0.0197714500427,0.0132167261328,0.000437903304162,1.0,0.0,0.0330568713302
1385575659033325094,-0.0118877018291,0.0184359104252,0.00183298666363,1.0,0.0,0.0314351512838
1385575659533232106,-0.00157586678378,0.00849691796566,0.0035088319589,1.0,0.0,0.0294703499793
1385575660033334732,0.00203605645758,-0.0072116475928,0.00537178544308,1.0,0.0,0.0271001191356
1385575660533261788,-0.00420783457925,-0.0146209577591,0.0061140859845,1.0,0.0,0.0248527935907
1385575661033332816,-0.0139520776237,-0.00860592870044,0.00523610306864,1.0,0.0,0.0223312770276
1385575661533236382,-0.0172404139528,0.000311632869072,0.00437752216135,1.0,0.0,0.0196753442474
1385575662033204092,-0.00983600656941,0.00378227697128,0.00301626113046,1.0,0.0,0.0172379220467
1385575662533424852,-0.000301875660594,0.00277168584082,0.00139049157345,1.0,0.0,0.013934336247
1385575663033399705,0.00135476486668,-0.00431132357986,0.00111824064185,1.0,0.0,0.0107345674981
1385575663533364029,-0.00643401688732,-0.00750921449685,0.00111336630954,1.0,0.0,0.00836135818366
1385575664033288041,-0.0170934050025,-0.00264671836582,0.00148856449422,1.0,0.0,0.0054482526331
1385575664533349062,-0.0214238784235,0.00403888566723,0.00255967245161,1.0,0.0,0.00306686884627
1385575665033303421,-0.0120234883896,0.00938479761351,0.00303994344268,1.0,0.0,0.0023623151926
1385575665533294275,0.00606715043926,0.0120091534904,0.00113698041288,1.0,0.0,0.00258299812847
1385575666033390381,0.0118822915394,0.00528858680292,-0.00105862169768,1.0,0.0,0.00354894836015
1385575666533345689,-8.68862025257e-05,-0.00119594618591,-0.00323616797523,1.0,0.0,0.00511709832153
1385575667033298422,-0.0207957141176,-0.00534296869879,-0.00516281206618,1.0,0.0,0.00738754679775
1385575667533218842,-0.0323320722112,-0.000601658900931,-0.00336414551154,1.0,0.0,0.00994025002375
1385575668033254699,-0.0238159263294,0.0136184359028,5.20707333706e-05,1.0,0.0,0.0124216544531
1385575668533213712,-0.00337234369018,0.0254349718769,0.000987927587134,1.0,0.0,0.0145663975347
1385575669033320220,0.00626013910258,0.0274891205335,-3.78936736568e-06,1.0,0.0,0.0165869551983
1385575669533240846,0.000693860209639,0.0160337611819,-0.00158475181679,1.0,0.0,0.0188457959138
1385575670033919147,-0.015294150187,0.00113935500856,-0.00387281446681,1.0,0.0,0.0220391994063
1385575670533340589,-0.0229428641586,0.0023715253922,-0.00382193201917,1.0,0.0,0.0245497302623
1385575671033594382,-0.0167378353833,0.0180478984061,-0.00336378523253,1.0,0.0,0.0268146767637
1385575671533658449,-0.000929383618181,0.0316069605228,-0.00268711926786,1.0,0.0,0.0287682852634
1385575672033249995,0.00756902371583,0.0289057393733,-0.00142438766122,1.0,0.0,0.0305858916819
1385575672533305668,0.00268597675129,0.0122225549655,-0.00145790447325,1.0,0.0,0.033666183476
1385575673033208574,-0.00929623088439,-0.00737290993053,-0.00221318038268,1.0,0.0,0.035846732685
1385575673533313093,-0.0201571182238,-0.00947975029463,-0.00101160879083,1.0,0.0,0.0367385441299
1385575674033515927,-0.0214003171575,0.0104291359922,0.00028967357463,1.0,0.0,0.0374581293012
1385575674533314367,-0.0104525323508,0.0351708410276,0.00116859306316,1.0,0.0,0.037406025352
1385575675033379208,-0.000290328133185,0.0407613540339,0.0017024324353,1.0,0.0,0.0373762853191
1385575675533292368,0.00242568682486,0.0214319524851,0.0012629573804,1.0,0.0,0.038599214988
1385575676033451750,-0.00290993215798,-0.00869504944509,-0.000282567768904,1.0,0.0,0.0404208050881
1385575676533262037,-0.0126129690989,-0.0192432309305,-0.00115444517687,1.0,0.0,0.0408294001232
1385575677033207086,-0.0230101815711,0.00205688256813,1.27871564946e-05,1.0,0.0,0.0415494260725
1385575677533225459,-0.0202698697946,0.0383838697217,0.000858531190258,1.0,0.0,0.0415257290551
1385575678033239446,-0.00921327869554,0.0518755142941,0.00379081257747,1.0,0.0,0.0414190861143
1385575678533305072,0.000955677946133,0.0287302593119,0.0028617140992,1.0,0.0,0.0421459202427
1385575679033354126,0.00409429993107,-0.00740483082813,0.000388025006081,1.0,0.0,0.0434557444771
1385575679533273896,-0.00372702365104,-0.0252182963771,-0.00270018006578,1.0,0.0,0.0445465318071
1385575680033236626,-0.0192674056404,-0.00971614776313,-0.0040209124767,1.0,0.0,0.0452336370115
1385575680533258263,-0.0273781263423,0.023995312849,-0.00337503151135,1.0,0.0,0.0458795960657
1385575681033334337,-0.0156925528931,0.0424153778289,-0.00117773163406,1.0,0.0,0.0472294972246
1385575681533237606,0.00239029031777,0.0273555419973,0.000438259541045,1.0,0.0,0.049490433462
1385575682033281844,0.00980525804716,-0.00794994495987,0.00170341241251,1.0,0.0,0.0524288174477
1385575682533212019,-0.00437983664779,-0.0301085502259,0.00285130326548,1.0,0.0,0.0553568341275
1385575683033175193,-0.0246053214821,-0.024358766345,0.00261974674165,1.0,0.0,0.0575234964121
1385575683533357951,-0.0342245425597,0.00834690152427,0.000752924478026,1.0,0.0,0.0572952605006
1385575684033282486,-0.023886403257,0.0409656938966,0.00129407097638,1.0,0.0,0.0557465061565
1385575684533188569,-0.00488510311981,0.0447952601729,0.000745288527053,1.0,0.0,0.0538515067719
1385575685033274815,0.00693470437867,0.0150330835035,0.000174028864923,1.0,0.0,0.0521742232236
1385575685533490103,0.00800352136107,-0.0228838271912,-0.00154024297809,1.0,0.0,0.0501338140076
1385575686033331075,-0.00403762900921,-0.0404845083251,-0.00294367198961,1.0,0.0,0.047580595758
1385575686533482904,-0.0204663338746,-0.0237719225053,-0.000488606475896,1.0,0.0,0.0433349965922
1385575687033366198,-0.0261368213973,0.0132791968936,0.00140043825359,1.0,0.0,0.0383713273975
1385575687533382366,-0.0161814980984,0.0330085937724,0.00341331218657,1.0,0.0,0.0348853782768
1385575688033282529,0.00155739224915,0.0166673179356,0.00187127824517,1.0,0.0,0.033303506252
1385575688533264864,0.0133092879695,-0.0178934704679,-0.00103373340009,1.0,0.0,0.0326175591609
1385575689033221886,0.0125864747276,-0.0425068611561,-0.0041550081192,1.0,0.0,0.032251508408
1385575689533236170,-0.0024370637841,-0.0376715397101,-0.00353139637135,1.0,0.0,0.0301960714775
1385575690033332885,-0.0195769366315,-0.0101942252151,-0.00218429458262,1.0,0.0,0.0278798323223
1385575690533287670,-0.0231206333114,0.0163843366882,-0.000221900335267,1.0,0.0,0.0259580333054
1385575691033358479,-0.00766532764015,0.0163006537705,0.00113482369414,1.0,0.0,0.0254718803458
1385575691533232422,0.0135368933197,-0.00587266950351,0.0011790353755,1.0,0.0,0.0262599467286
1385575692033214652,0.0198520055353,-0.0285349577643,0.00162655142002,1.0,0.0,0.0265261840342
1385575692533315969,0.00640497529746,-0.0323540204218,0.00232834214631,1.0,0.0,0.0260757008103
1385575693033291251,-0.0181205469897,-0.0130534345145,0.0039712247066,1.0,0.0,0.0249217758687
1385575693533257217,-0.0307422628898,0.0118630298876,0.00538087913008,1.0,0.0,0.0241940369254
1385575694033358335,-0.019413443952,0.0221464878194,0.0057767961474,1.0,0.0,0.0241539455194
1385575694533332373,0.00579101114373,0.0118237750407,0.0038315308958,1.0,0.0,0.0249018195819
1385575695033480109,0.0166097243194,-0.00623300774927,0.00183565164198,1.0,0.0,0.025810988248
1385575695533568698,0.00335803605232,-0.0132118432809,3.21002247472e-05,1.0,0.0,0.0268426051329
1385575696033305523,-0.0171107592037,-0.00415755924435,-0.000556141145218,1.0,0.0,0.0280107668582
1385575696533279910,-0.0273318774402,0.00640714985837,-0.00111395097359,1.0,0.0,0.0294991879593
1385575697033415639,-0.0185661864479,0.0104426955463,-0.000842557490228,1.0,0.0,0.0306759761675
1385575697533211053,-0.00238242354199,0.00399507835582,0.000118013653129,1.0,0.0,0.0307210120263
1385575698033416218,0.00839638941156,-0.00652431096042,0.000481666636509,1.0,0.0,0.0306313623674
1385575698533366725,0.00491444513169,-0.0131286408925,-0.000513495633559,1.0,0.0,0.0302284766448
1385575699033268064,-0.0110606565455,-0.00832385827735,0.00114558751279,1.0,0.0,0.0294497918396
1385575699533276430,-0.0240281211722,0.00150894586128,0.000930510210039,1.0,0.0,0.0289557764505
1385575700033347820,-0.0228736669326,0.0108491370409,-1.63653398237e-05,1.0,0.0,0.0290169062804
1385575700533250538,-0.00838351072956,0.0112266261366,-0.000843002476478,1.0,0.0,0.0294626888413
1385575701033334795,0.00744607254576,0.00122440292488,-0.00303875841319,1.0,0.0,0.0298310209642
1385575701533435943,0.00854977010974,-0.0113488284104,-0.00240076880393,1.0,0.0,0.0296401028171
1385575702033224250,-0.00677325409102,-0.00944666034909,-0.000833393005428,1.0,0.0,0.0287621890532
1385575702533629236,-0.0207158849541,0.00609604779893,5.66464946117e-05,1.0,0.0,0.0278767042328
1385575703033323683,-0.0218737083153,0.0181317632607,0.000185558588134,1.0,0.0,0.0271778876441
1385575703533316592,-0.0127514241012,0.0192842287489,0.00011768159255,1.0,0.0,0.0267537631762
1385575704033284980,-0.000484592856773,0.0124843178153,-0.000650764714271,1.0,0.0,0.0263266879399
1385575704533332708,0.00531068501848,0.00278894720004,-0.00142804961581,1.0,0.0,0.0270425449123
1385575705033303006,-0.00154363824208,-0.00265292727977,-0.00232300841037,1.0,0.0,0.0279914503154
1385575705533224956,-0.0142593501364,0.000733081793193,-0.00205202753875,1.0,0.0,0.0288944228784
1385575706033438305,-0.0166423633319,0.00888551209743,-0.00279826363546,1.0,0.0,0.0304749054774
1385575706533326921,-0.0073836109404,0.0161371312837,-0.00283201145795,1.0,0.0,0.0329130495989
1385575707033348860,0.00920661735324,0.0144519410163,-0.00302489842222,1.0,0.0,0.0367276592737
1385575707533403918,0.0190879155706,-0.00216323362456,-0.00186297779178,1.0,0.0,0.0401418850714
1385575708033236862,0.0110813863731,-0.0237123616053,-0.000692997001898,1.0,0.0,0.0426824511237
1385575708533211360,-0.00915179665342,-0.0292975721936,0.00221837531559,1.0,0.0,0.0462702649901
1385575709033356074,-0.0251268277566,-0.0125285884097,0.00286701008544,1.0,0.0,0.0492183578269
1385575709533298968,-0.0269371681625,0.0222688586017,0.00234887593211,1.0,0.0,0.0522489710205
1385575710033255954,-0.0101299475954,0.0447688979182,0.00103779727923,1.0,0.0,0.0542493154737
1385575710533332397,0.0121759093571,0.0373566299492,-0.00042602343609,1.0,0.0,0.0550072734061
1385575711033222164,0.0179424963139,0.000710095542917,-0.000595419429608,1.0,0.0,0.0552056832208
1385575711533283353,0.00388730534169,-0.031621277029,-0.0016183565721,1.0,0.0,0.0548172502082
1385575712033398840,-0.0218759750619,-0.0286413794992,-0.00365619513939,1.0,0.0,0.0557695204404
1385575712533197532,-0.0391184914385,0.0109294524615,-0.00432750050453,1.0,0.0,0.0574829029178
1385575713033299510,-0.0331532743796,0.054910724764,-0.00315337940794,1.0,0.0,0.0590911202803
1385575713533272119,-0.00470564027489,0.0677847876886,0.00105193122705,1.0,0.0,0.0592693850987
1385575714033297360,0.0261131738836,0.0318384283749,0.00664013065687,1.0,0.0,0.0578977297176
1385575714533318248,0.0277280597432,-0.0273053481015,0.0102874009675,1.0,0.0,0.0564217762657
1385575715033298941,-0.0133122071176,-0.0544610553722,0.00844462704605,1.0,0.0,0.0562542149258
1385575715533296159,-0.0571980724889,-0.0151050604779,0.00594068849145,1.0,0.0,0.0565296401219
1385575716033388255,-0.0556531350371,0.0598100126735,0.0029525660157,1.0,0.0,0.0562427287196
1385575716533219961,-0.00692607737205,0.104645036625,0.00257627760367,1.0,0.0,0.0538267086455
1385575717033239326,0.0512263769121,0.0731575523878,0.00899122423509,1.0,0.0,0.0517916914205
1385575717533350954,0.0681793404078,-0.0238305812219,0.0149099737383,1.0,0.0,0.0535537772913
1385575718033254079,0.0190172727512,-0.113232696701,0.0105480578757,1.0,0.0,0.0556385337556
1385575718533361030,-0.0649080451771,-0.105626076379,0.00208518945698,1.0,0.0,0.0570075283864
1385575719033285940,-0.105847889775,0.00909153505566,-0.0031375256995,1.0,0.0,0.0577866421824
1385575719533429635,-0.0617138915435,0.131594123428,-0.005430187614,1.0,0.0,0.0575813779507
1385575720033514677,0.0378730574493,0.152795596359,-0.00408659236913,1.0,0.0,0.055462013364
1385575720533460970,0.110865217485,0.046208061864,0.0088145409944,1.0,0.0,0.0563342122843
1385575721033373853,0.0857544170059,-0.112152694023,0.00766094553052,1.0,0.0,0.0619231948142
1385575721533298179,-0.0211252489802,-0.189579318211,0.00199712422551,1.0,0.0,0.0630607692158
1385575722033316031,-0.130295579192,-0.0874546557725,0.00371361177933,1.0,0.0,0.0604077068854
1385575722533347177,-0.131550438896,0.123506222407,0.00308266006776,1.0,0.0,0.0564828584387
1385575723033368686,-0.00912049693394,0.242627796946,0.00651573249544,1.0,0.0,0.0539353730777
1385575723533310672,0.136207481483,0.146747255145,0.0126782702606,1.0,0.0,0.0530063585937
1385575724033328283,0.169858528093,-0.0831403344081,0.0227830546912,1.0,0.0,0.0591149245607
1385575724533285647,0.0561702740155,-0.273163814804,-0.00134033653232,1.0,0.0,0.0641442354367
1385575725033208694,-0.118892227675,-0.242681640271,0.00287995900799,1.0,0.0,0.0598228249279
1385575725533325359,-0.196379547607,0.0305018483531,0.0101026710018,1.0,0.0,0.0579628875242
1385575726033272376,-0.0874400537792,0.287281647404,0.00375492154916,1.0,0.0,0.054602714012
1385575726533434798,0.0976339841594,0.300791587236,0.00414239574793,1.0,0.0,0.0508671255927
1385575727033311941,0.198449438352,0.048630077549,0.0211985962608,1.0,0.0,0.0556687189331
1385575727533432873,0.128450579466,-0.253957620789,0.00939000492513,1.0,0.0,0.0649517284848
1385575728033257054,-0.051218767333,-0.358528491646,-0.00937957043124,1.0,0.0,0.0609648916173
1385575728533283254,-0.20697809854,-0.128079894533,0.0168252633678,1.0,0.0,0.0549086684503
1385575729033242882,-0.170352630824,0.226997272104,0.0125983716569,1.0,0.0,0.0526931689504
1385575729533346557,0.00964513743984,0.374945120013,-0.00493162972085,1.0,0.0,0.0467884027705
1385575730033473504,0.180554473554,0.200381624895,0.0116435488273,1.0,0.0,0.0427888902448
1385575730533264481,0.193083038772,-0.142702429168,0.0170939354385,1.0,0.0,0.0512217953202
1385575731033435673,0.0434460321802,-0.349733020856,-0.0115395570978,1.0,0.0,0.059377925422
1385575731533251256,-0.167977560421,-0.258949630483,-0.00449315736313,1.0,0.0,0.0533942801618
1385575732033223906,-0.231055304026,0.0904762111702,0.0105782824593,1.0,0.0,0.0497416697569
1385575732533244356,-0.0814116674381,0.352182813726,-0.00365403262785,1.0,0.0,0.0469168088972
1385575733033164879,0.137534431141,0.307505948997,0.00456012267925,1.0,0.0,0.0422339028309
1385575733533356284,0.250576200396,-0.00825819925917,0.0221319543382,1.0,0.0,0.0436061503913
1385575734033356805,0.137005778238,-0.314410981834,0.00569465778138,1.0,0.0,0.0533162224837
1385575734533244037,-0.0924656578858,-0.356111864464,-0.00593396802408,1.0,0.0,0.0518974607732
1385575735033336061,-0.254513371758,-0.0697749574934,0.0130247492875,1.0,0.0,0.0492171010142
1385575735533314281,-0.165243078726,0.275930905116,0.00453765248581,1.0,0.0,0.0495755633302
1385575736033258459,0.0571627122732,0.371447130409,-0.00713977233388,1.0,0.0,0.0460465196455
1385575736533291012,0.248053100026,0.152065872934,0.00934324133284,1.0,0.0,0.0429559137408
1385575737033370113,0.218995056505,-0.199566810657,0.0109892834723,1.0,0.0,0.05088321771
1385575737533271649,0.00873697192809,-0.37023230026,-0.00688654761188,1.0,0.0,0.0561254505663
1385575738033290101,-0.226000198763,-0.224726057702,-0.000591380001604,1.0,0.0,0.0509405827753
1385575738533188186,-0.247720732867,0.134037647688,0.0103067099383,1.0,0.0,0.0503171443732
1385575739033311049,-0.0567835777604,0.361249869116,-0.00492186664495,1.0,0.0,0.0490751102523
1385575739533386077,0.190447867594,0.285952312708,-0.00167491832342,1.0,0.0,0.0446897892271
1385575740033371270,0.281323085797,-0.0281256379146,0.0134403115112,1.0,0.0,0.045500094961
1385575740533346101,0.114329775465,-0.309915849272,0.00391484312323,1.0,0.0,0.0528481127378
1385575741033217825,-0.150793338618,-0.328425633526,-0.0111870796457,1.0,0.0,0.05237790227
1385575741533402034,-0.299243916425,-0.0467651630748,0.00171489069784,1.0,0.0,0.0497238087227
1385575742033448455,-0.174690846596,0.286945356403,0.00523448350156,1.0,0.0,0.0489490052652
1385575742533371537,0.0986455745599,0.370034573874,-0.000289453858435,1.0,0.0,0.0461984242668
1385575743033320217,0.300027776216,0.140096568192,0.0101773315444,1.0,0.0,0.0430668891743
1385575743533264452,0.242657229585,-0.203240979732,0.0115917920502,1.0,0.0,0.0466372244258
1385575744033754184,-0.0127635447536,-0.356038074217,0.00225708296253,1.0,0.0,0.0473233943611
1385575744533392150,-0.277306733182,-0.203255532231,-0.00703089444868,1.0,0.0,0.0431220958915
1385575745033346022,-0.29639734798,0.133682043134,0.00300059598483,1.0,0.0,0.0434495682214
1385575745533272040,-0.0572151978103,0.345509649919,0.00341328630881,1.0,0.0,0.0434374772927
1385575746033321440,0.232852571579,0.254913517382,0.00472101441801,1.0,0.0,0.039915481824
1385575746533394900,0.319051534119,-0.0491365314641,0.0108396271965,1.0,0.0,0.0425330085146
1385575747033316746,0.134999361118,-0.307628715998,0.00196770631708,1.0,0.0,0.0494688562555
1385575747533387261,-0.168783321577,-0.301292494811,-0.00496037959523,1.0,0.0,0.048147588359
1385575748033308876,-0.345484995798,-0.0224290849213,-0.00205926863268,1.0,0.0,0.0468984389572
1385575748533202832,-0.196871452991,0.290289642591,0.00359180972881,1.0,0.0,0.0469877169338
1385575749033400474,0.130629496943,0.335686681936,0.00356458166849,1.0,0.0,0.0431163785718
1385575749533394968,0.356826448193,0.0931429524049,0.00198693360679,1.0,0.0,0.038617506389
1385575750033332808,0.266882209997,-0.22136086074,0.0112641518542,1.0,0.0,0.0452897037575
1385575750533234163,-0.0428101364832,-0.357420400514,-0.00144682219655,1.0,0.0,0.0493354748446
1385575751033347999,-0.320263711004,-0.179811408368,-0.0021077601615,1.0,0.0,0.0483118723038
1385575751533390883,-0.301349257212,0.165062426052,0.0037751670667,1.0,0.0,0.0511414570689
1385575752033226719,-0.0191144637784,0.364323457599,0.000705904312747,1.0,0.0,0.0508448499289
1385575752533220557,0.290690705969,0.227202021408,-0.000538544826328,1.0,0.0,0.0441220663759
1385575753033296799,0.355425092854,-0.0933143069573,0.00411122982447,1.0,0.0,0.0436467424862
1385575753533348240,0.117837635987,-0.324767864745,0.00788549851492,1.0,0.0,0.0492272623208
1385575754033217741,-0.219437381369,-0.298256345637,-0.00645444917954,1.0,0.0,0.0461994190369
1385575754533258652,-0.368082682318,-0.0090693207558,0.00194090705297,1.0,0.0,0.0451799731789
1385575755033399641,-0.193962536108,0.298995987874,0.001467738787,1.0,0.0,0.0449575855676
1385575755533304009,0.140979908754,0.349355343527,0.00125098736865,1.0,0.0,0.0401813667672
1385575756033365344,0.346994350142,0.0906930535727,0.00270427923774,1.0,0.0,0.0370123130311
1385575756533282140,0.261741312973,-0.218889032588,0.0048618252532,1.0,0.0,0.0398255659661
1385575757033362938,-0.0358453461584,-0.321892293103,0.00230751613503,1.0,0.0,0.0430460355616
1385575757533449384,-0.316357682744,-0.147851368206,-0.0127803787017,1.0,0.0,0.04472064311
1385575758033681833,-0.308173125671,0.172849408331,-0.00588051231846,1.0,0.0,0.0491220157698
1385575758533278054,-0.0213477731597,0.349953468839,-0.00407736096011,1.0,0.0,0.0490702746079
1385575759033408405,0.295072832397,0.213839747819,-0.000520813491863,1.0,0.0,0.0451019521702
1385575759533258741,0.352034154038,-0.108547474619,0.00362426422033,1.0,0.0,0.044424503912
1385575760033232341,0.114873722714,-0.327589890149,0.00856966535052,1.0,0.0,0.0474592850568
1385575760533315308,-0.224965209962,-0.268584286046,-0.000990681445021,1.0,0.0,0.0449463051262
1385575761033376123,-0.369637787168,0.0234795610246,-0.000393339682963,1.0,0.0,0.0473275451035
1385575761533280295,-0.194928931009,0.291625006758,0.0029686858047,1.0,0.0,0.0487731500714
1385575762033362003,0.136215211435,0.313203743958,0.00228179920527,1.0,0.0,0.0454450724138
1385575762533226219,0.335496076045,0.0732104814989,0.00216087939369,1.0,0.0,0.0438094108854
1385575763033209479,0.249129073059,-0.229160277834,-0.00813338575157,1.0,0.0,0.0457467580018
1385575763533564607,-0.0482856085996,-0.314613566685,-0.00420522714343,1.0,0.0,0.0451895355608
1385575764033525699,-0.322847149143,-0.139439149413,-0.0139644710588,1.0,0.0,0.0424760483041
1385575764533291459,-0.322859867384,0.173095400175,0.00637571392164,1.0,0.0,0.0452345075784
1385575765033329342,-0.0355548278892,0.356776276989,0.0138265092073,1.0,0.0,0.0436432096185
1385575765533434297,0.284947526314,0.221416809162,0.00976322603571,1.0,0.0,0.0380742681216
1385575766033261745,0.341066878925,-0.0991472683385,0.00481435689529,1.0,0.0,0.0412237076814
1385575766533388099,0.124557540389,-0.333986995741,-0.00757788988625,1.0,0.0,0.0420390316684
1385575767033325711,-0.209178209026,-0.264531411604,-0.00671821433003,1.0,0.0,0.0383177246958
1385575767533404071,-0.369067863458,0.0342786722015,-0.00552241038124,1.0,0.0,0.0378356419386
1385575768033262725,-0.205683588829,0.323012836464,0.000356794089371,1.0,0.0,0.0385794515793
1385575768533348502,0.127827053182,0.320257166957,0.0126416405278,1.0,0.0,0.0340535806983
1385575769033311002,0.321646388057,0.0406918839273,0.00477473928974,1.0,0.0,0.034507847927
1385575769533419542,0.243117168884,-0.275375159133,-0.0238796407708,1.0,0.0,0.0412290879917
1385575770033266296,-0.0336199774637,-0.371759590931,-0.039221908718,1.0,0.0,0.0433038860658
1385575770533346062,-0.331220627044,-0.137317547332,-0.0427786310688,1.0,0.0,0.040498717458
1385575771033328818,-0.335100974539,0.230949320244,-0.0458397928169,1.0,0.0,0.0401065081569
1385575771533384955,-0.0692467013203,0.404988874309,-0.0506615334516,1.0,0.0,0.0359905271105
1385575772033299399,0.236340461365,0.256488040716,-0.0340556847449,1.0,0.0,0.0307224602214
1385575772533321600,0.338774583505,-0.0960100176115,-0.0515668505402,1.0,0.0,0.0357723480258
1385575773033372593,0.178080765378,-0.356684213665,-0.0815623645201,1.0,0.0,0.0414638498005
1385575773533307618,-0.141120393326,-0.316287938637,-0.0900406129874,1.0,0.0,0.0381696174995
1385575774033266142,-0.373028795405,-0.000196831515715,-0.0926842143389,1.0,0.0,0.0363129429899
1385575774533310133,-0.276400468048,0.34350513293,-0.0904426801716,1.0,0.0,0.0368148237289
1385575775033231767,0.0705442998398,0.409277604576,-0.0722177460499,1.0,0.0,0.0343708345416
1385575775533202664,0.378149583919,0.122993001975,-0.0667950891164,1.0,0.0,0.0324634931601
1385575776033278445,0.352766192599,-0.242835917457,-0.0792284102903,1.0,0.0,0.0377629425875
1385575776533342407,0.0686547532275,-0.397382583242,-0.0942013302788,1.0,0.0,0.0385594153026
1385575777033339088,-0.295647287981,-0.196486070822,-0.103055248279,1.0,0.0,0.0341986514533
1385575777533342431,-0.37348677567,0.16335805805,-0.113404527063,1.0,0.0,0.0368391432989
1385575778033262426,-0.158746608705,0.384297562566,-0.110509288479,1.0,0.0,0.0412526367819
