%time,field.linear.x,field.linear.y,field.linear.z,field.angular.x,field.angular.y,field.angular.z
1385575623043180591,0.0,0.0,0.0,0.0,0.0,0.0
1385575623043217906,-0.0281994178134,-0.650504454209,-0.116114323726,0.00562070620011,0.00241070857796,-1.77112953226
1385575623053126983,-0.0282110777075,-0.650466080778,-0.116137275561,0.00541557403546,0.00248268467496,-1.77122513962
1385575623063206000,-0.0281866431824,-0.650486718004,-0.116140619666,0.0054221848981,0.00257215789395,-1.77105751083
1385575623073265865,-0.0282120123666,-0.650470044813,-0.116143527108,0.00543954965733,0.00258430832951,-1.77125434769
1385575623083208167,-0.0281887255257,-0.650518237631,-0.116113128913,0.00561940288344,0.00241537279524,-1.77107832611
1385575623093146335,-0.0281893868073,-0.650514716446,-0.116108524606,0.00560849199994,0.00237956588396,-1.77110898194
1385575623103128849,-0.0281944312178,-0.65051542342,-0.1161073428,0.00562407647219,0.00240627142317,-1.77109205838
1385575623113164071,-0.0281952461827,-0.650508051269,-0.116108034099,0.00558230995252,0.00242393755198,-1.77111307163
1385575623123133406,-0.0281912717092,-0.650509813524,-0.116108900472,0.00562329232037,0.00243709235607,-1.77109401507
1385575623133152871,-0.0281896284504,-0.650509316411,-0.116105702554,0.00562300481064,0.00235822310946,-1.77115091679
1385575623143218207,-0.0281898258848,-0.650511517688,-0.116116425858,0.00564390368648,0.00240862059046,-1.77111173584
1385575623153219453,-0.0281919465125,-0.650504772193,-0.11611689302,0.00560963260375,0.00242204876162,-1.77111418004
1385575623163263896,-0.0281808722921,-0.650491603711,-0.116145663153,0.00543599949174,0.00256787507027,-1.77101199019
1385575623173229738,-0.0281862582336,-0.65050008864,-0.1161440043,0.00545747107054,0.00253610249283,-1.77102207426
1385575623183154233,-0.0281913916304,-0.650508226448,-0.116117100255,0.00561307545514,0.0024331996067,-1.77110773232
1385575623193097896,-0.0282112115538,-0.650488057482,-0.116111077085,0.00557780302788,0.00239683981988,-1.77128549745
1385575623203148958,-0.0281978237758,-0.650503171002,-0.116115360311,0.00564263305192,0.00240615683337,-1.77110550315
1385575623213127732,-0.0281936585358,-0.650498037231,-0.116138205948,0.00540115817425,0.00254141522919,-1.77106164765
1385575623223141308,-0.0282090596101,-0.650494354834,-0.116110665526,0.00559301307723,0.00239390017888,-1.77126876211
1385575623233139884,-0.0281827963508,-0.650503092457,-0.116104289441,0.00561307219266,0.00240665624162,-1.7711216317
1385575623243163732,-0.0282235833965,-0.650483799668,-0.116111840295,0.00559217212447,0.00240894734673,-1.77128720285
1385575623253149440,-0.0282045007617,-0.65051153857,-0.116108838864,0.00560466736029,0.00240410246006,-1.77109887025
1385575623263118890,-0.0281922691215,-0.650514470472,-0.116116379291,0.00561414110234,0.00242080651047,-1.77111999097
1385575623273146464,-0.0281859007209,-0.650511811643,-0.116116876661,0.00563396454845,0.00241111374293,-1.77110571549
1385575623283128204,-0.0281873470449,-0.650496324204,-0.11613577515,0.00548108899263,0.00248817743949,-1.77104179046
1385575623293132345,-0.0281876974663,-0.65049684261,-0.116132812856,0.00548506314271,0.00251604074648,-1.77103853011
1385575623303133339,-0.0282270524273,-0.650493482918,-0.116124275744,0.00556369637747,0.00237283027771,-1.77130297602
1385575623313440261,-0.0281746168042,-0.65049447167,-0.116136064761,0.00541512785512,0.00252593929909,-1.77100638913
1385575623323167989,-0.028192614054,-0.65051667614,-0.116113235401,0.00560467417909,0.00243463017628,-1.77108766121
1385575623333179944,-0.0282023383733,-0.650497879712,-0.116107820047,0.00561340884953,0.00231734336432,-1.77125707382
1385575623343195033,-0.0282243663193,-0.650485638059,-0.11611015363,0.00561857531101,0.00237126715762,-1.77129495516
1385575623353144055,-0.0281951999095,-0.650516963864,-0.116108888576,0.00561799185027,0.00243564776705,-1.77109794973
1385575623363125999,-0.0281833625972,-0.650508625684,-0.116118994727,0.00559137819642,0.00237281606372,-1.77112317284
1385575623373262652,-0.0282154775319,-0.650479329839,-0.1161389335,0.00544763341808,0.00258124836269,-1.77116863124
1385575623383149074,-0.0281918583774,-0.650512053646,-0.116115428901,0.00557696896961,0.00238406235794,-1.77112093027
1385575623393094346,-0.0282229119188,-0.650487753272,-0.116112383962,0.00561711022687,0.00244693727677,-1.7712799199
1385575623403133243,-0.0282175031162,-0.650473621091,-0.116146622368,0.00540016451755,0.00256735602529,-1.77124283651
1385575623413167132,-0.0282170159123,-0.650486246887,-0.116118095569,0.00558810859543,0.0024413243891,-1.7712638722
1385575623423192455,-0.0282143508603,-0.650473524918,-0.116137636245,0.00546326363443,0.0025186031763,-1.77124165267
1385575623433092882,-0.0281910383444,-0.650505808735,-0.116111902581,0.00560586031561,0.00242382796157,-1.77112601346
1385575623443144137,-0.0281871101289,-0.65049938015,-0.116133564751,0.00545066198532,0.00245253154235,-1.77105769388
1385575623453162840,-0.0282241635745,-0.6504882664,-0.116109922047,0.00558176335696,0.00235575221458,-1.77126463113
1385575623463141149,-0.02819577211,-0.650512738387,-0.116110133302,0.00560419328272,0.00240674933956,-1.77110901853
1385575623473144468,-0.0281845425585,-0.65051309581,-0.116111676207,0.00560231304525,0.00241891569979,-1.7711167838
1385575623483193784,-0.0282226343745,-0.650482446507,-0.116117893701,0.00558313100277,0.00244131399553,-1.77129525305
1385575623493127168,-0.02821757079,-0.650491140631,-0.116107034353,0.00562511788039,0.00234923577044,-1.77129978286
1385575623503093953,-0.0281904813014,-0.650470667123,-0.116107176291,0.00536918257561,0.00286419257251,-1.77098990883
1385575623513126410,-0.0281933783355,-0.650514688612,-0.116119061826,0.00561555689284,0.00241667650338,-1.77110076976
1385575623523086609,-0.0281875321353,-0.650497433357,-0.116127283918,0.00547578566679,0.00253085594501,-1.77108846033
1385575623533178611,-0.0281974705361,-0.650506559729,-0.116113384773,0.0055876274036,0.00241113232974,-1.77112953788
1385575623543111179,-0.0282218864193,-0.650494969965,-0.116115180886,0.00560878466304,0.00237255985175,-1.77125730018
1385575623553119652,-0.0281897544896,-0.650498390737,-0.116127342794,0.00543440110308,0.00250848975701,-1.77106165412
1385575623563144095,-0.0282109493764,-0.650491510124,-0.116103777114,0.00557533575749,0.00234920926176,-1.77126425969
1385575623573272688,-0.0282128603062,-0.650487947309,-0.116114446006,0.0056025774496,0.00238420755769,-1.77130073905
1385575623583088862,-0.0281978714744,-0.650509391377,-0.116122426992,0.00562549379282,0.0023959002872,-1.77110022722
1385575623593104577,-0.0281889431756,-0.650504229113,-0.116114611707,0.00561120359073,0.002387967864,-1.7711178467
1385575623603135344,-0.0281809597404,-0.650496629658,-0.116138330238,0.00545938042234,0.00250827059454,-1.77100521531
1385575623613071735,-0.0282004828163,-0.650677772431,-0.116091130919,0.00558949804529,0.00205572892107,-1.77058325723
1385575623623190474,-0.0281953536424,-0.650468347622,-0.116145342052,0.0055536373471,0.00259977202929,-1.77106675764
1385575623633115764,-0.0282040648964,-0.650492070591,-0.116134340334,0.00574534701139,0.00241213469334,-1.77185706732
1385575623643160510,-0.0281629379267,-0.650554062726,-0.116153541831,0.00574977852739,0.0027302039815,-1.77111991601
1385575623653194178,-0.0281685304042,-0.65074350909,-0.11609449591,0.00589480210997,0.00229654987669,-1.77013316733
1385575623663168744,-0.0281961118639,-0.650469312358,-0.11611928611,0.00598495681759,0.00232846752478,-1.7715478926
1385575623673125658,-0.028184438864,-0.650491170007,-0.116118365484,0.00595330844003,0.0025820255317,-1.77200036296
1385575623683116022,-0.0282184255333,-0.65064731253,-0.11610226673,0.0059384769705,0.00212730145421,-1.77001615795
1385575623693084102,-0.0281684820182,-0.650730735726,-0.116125633349,0.00554803788469,0.00237398858529,-1.7697252252
1385575623703154341,-0.0281582911995,-0.650527846733,-0.116126057275,0.00596924968704,0.00229979907889,-1.77105258092
1385575623713106584,-0.0280788517375,-0.650465666994,-0.116118098469,0.00595067470049,0.00261069470211,-1.77220890585
1385575623723097091,-0.0281824360689,-0.650713532162,-0.116069562915,0.00613973630036,0.00211868955643,-1.77092766362
1385575623733144163,-0.0281704773625,-0.650692183608,-0.116226518453,0.00643968610268,0.00295185672305,-1.77038519141
1385575623743155428,-0.0281110707018,-0.65056019225,-0.116131337492,0.0062033132483,0.00256509746342,-1.77124183251
1385575623753145809,-0.0281576410328,-0.650512736732,-0.116149931087,0.0063115185887,0.00233506439382,-1.77152970468
1385575623763161796,-0.028161167733,-0.650656457258,-0.116101876044,0.00618263352037,0.00212502043933,-1.77006376055
1385575623773172654,-0.028003707519,-0.650459243699,-0.116139497548,0.00592688588457,0.002416745657,-1.77057302673
1385575623783202366,-0.0281662053038,-0.650524908713,-0.11610272973,0.00594124965411,0.00253007593389,-1.77162671577
1385575623793139331,-0.0281107459755,-0.650560249845,-0.116141197815,0.00597514522252,0.00237089312248,-1.77110147107
1385575623803149260,-0.0281694479033,-0.650578108544,-0.116259647261,0.00626596815722,0.00363930650688,-1.77063146725
1385575623813153488,-0.0281090306137,-0.650544214395,-0.116140630246,0.00621583628349,0.00245860834669,-1.77126015418
1385575623823210120,-0.0280584714045,-0.650531514246,-0.116160517277,0.00667993377039,0.00230224476894,-1.77162027704
1385575623833182118,-0.028130921685,-0.650560372055,-0.116114261425,0.00624502946699,0.00234148247754,-1.77081494226
1385575623843138805,-0.0281490159673,-0.650708983032,-0.11610862789,0.00623647445607,0.0019453678655,-1.77049048794
1385575623853147781,-0.0281360697094,-0.65052534704,-0.116154319411,0.00607427647024,0.00238883635128,-1.77168183025
1385575623863135719,-0.0281281342976,-0.650550019067,-0.116149979811,0.00604478932901,0.00241235159175,-1.77129602563
1385575623873136652,-0.0281544539639,-0.650700437562,-0.116114184472,0.00608494057255,0.00202289831699,-1.77028741584
1385575623883133525,-0.0281148885398,-0.650564594665,-0.116142205781,0.00619197442722,0.00242120968427,-1.77104526036
1385575623893142934,-0.0281354600461,-0.650530622461,-0.116153641535,0.00619246420316,0.00242675009112,-1.77160546584
1385575623903141052,-0.0282041910642,-0.650715154376,-0.11606605581,0.00616062529606,0.00268198552918,-1.77047552085
1385575623913139279,-0.028128953907,-0.650550380131,-0.116153221723,0.00625226421787,0.00246617639858,-1.77084684395
1385575623923145258,-0.0281060019811,-0.650538002355,-0.116151354224,0.00621716551825,0.00241289431343,-1.77122199185
1385575623933151254,-0.0281136862808,-0.650555237068,-0.116164537587,0.00616649891712,0.00245180022737,-1.7712127085
1385575623943135962,-0.0281274231136,-0.65057469538,-0.116125827409,0.00624878684725,0.00232816650243,-1.77107430605
1385575623953135159,-0.0281721654399,-0.650570220119,-0.11610343216,0.00615855457571,0.00321753599205,-1.77076352337
1385575623963147885,-0.0281613146926,-0.650704251493,-0.11611044957,0.00624384611688,0.00196101207016,-1.77076019987
1385575623973169221,-0.0281466595243,-0.650522373423,-0.116149818959,0.00621754467118,0.00245400939491,-1.77137623688
1385575623983141679,-0.0281066365725,-0.650535322456,-0.116174496092,0.00638520876606,0.0024745315472,-1.7710518646
1385575623993135777,-0.0281142898334,-0.650558041657,-0.116145290533,0.00620951606848,0.00241034331944,-1.77107842563
1385575624003140874,-0.0281459525487,-0.650708054438,-0.116116727646,0.0061814185606,0.00196026464987,-1.77070987639
1385575624013149961,-0.0281248081774,-0.650554397924,-0.116152640206,0.00621275399855,0.00240551269858,-1.77102788901
1385575624023135641,-0.0281101999522,-0.650534905085,-0.116161831777,0.00622259672971,0.0024512867554,-1.77123585245
1385575624033223252,-0.0281213629505,-0.65056831027,-0.11613344354,0.00637249921026,0.00234169742572,-1.77106804679
1385575624043146946,-0.0281154092417,-0.650552050309,-0.116142546096,0.0061703353384,0.00244380922975,-1.77107028227
1385575624053142942,-0.0281747935539,-0.650681460561,-0.116098952213,0.0061489050735,0.00200022105261,-1.77094352736
1385575624063125344,-0.028143766419,-0.65069755093,-0.11612073106,0.00617540245395,0.00200708275661,-1.77063344159
1385575624073145499,-0.0282246945109,-0.650724654771,-0.116071146949,0.00605281578304,0.00270338691898,-1.77031157292
1385575624083133312,-0.0279882243106,-0.650444487299,-0.116126903697,0.00603364559139,0.00234746001485,-1.77069856862
1385575624093130188,-0.0281139159131,-0.650530917457,-0.116142535651,0.00629381989638,0.00254519441531,-1.77135161219
1385575624103148481,-0.0281564732457,-0.650706809576,-0.116107184403,0.00617170927923,0.00205521204196,-1.77051135702
1385575624113131698,-0.0281056314914,-0.65055581579,-0.116154774719,0.0062510304566,0.0023939828236,-1.77093947134
1385575624123131304,-0.0281364888306,-0.650521461013,-0.116157374762,0.00626770763438,0.00242835527483,-1.77153350131
1385575624133135539,-0.0281167834459,-0.650567244484,-0.116108715312,0.00640174900831,0.00247986381619,-1.77139397735
1385575624143147356,-0.0281898818247,-0.650749211772,-0.116199699801,0.00621581588346,0.00301813458654,-1.77038423198
1385575624153140780,-0.0281259741229,-0.650528793893,-0.116128959101,0.00614214692188,0.002682529677,-1.77092392986
1385575624163178478,-0.028123267034,-0.650569271177,-0.11613935339,0.00632961297346,0.00232159840009,-1.77138150261
1385575624173114597,-0.0279794012049,-0.650425628916,-0.116143396033,0.00613452862497,0.00266907298893,-1.77049809643
1385575624183123299,-0.0281317264175,-0.650719418885,-0.116111513192,0.0065229597406,0.002178165958,-1.77052185387
1385575624193119533,-0.0281219935067,-0.650547216155,-0.11619801225,0.00637218169851,0.00232118318714,-1.77108295419
1385575624203138295,-0.0281513847733,-0.650688767098,-0.116165878044,0.00622347666555,0.00203693518543,-1.77059476204
1385575624213164225,-0.028105895916,-0.650591140317,-0.11615303326,0.00597859239362,0.00234043986283,-1.77115742036
1385575624223113411,-0.028144092386,-0.650595166663,-0.116123939689,0.00552868998372,0.00215957566964,-1.77143416095
1385575624233182912,-0.0281626846056,-0.65051255707,-0.11615270834,0.00540029641226,0.0024228700965,-1.77078054043
1385575624243164950,-0.0281904824211,-0.650671773324,-0.116153669078,0.00551299312872,0.00227183821142,-1.77075500799
1385575624253113762,-0.0281373239866,-0.650586277876,-0.116224387608,0.00589596275521,0.00250506072662,-1.77168784813
1385575624263146760,-0.028120964814,-0.650551683991,-0.116225926212,0.00638517126238,0.00203437040852,-1.77073798818
1385575624273134434,-0.0281070748721,-0.650568624984,-0.11620705986,0.00584528093437,0.00221032313657,-1.77116580321
1385575624283116934,-0.0281518770599,-0.650569829208,-0.116195408215,0.00579796195386,0.0025605044409,-1.77142092843
1385575624293134380,-0.0282062298469,-0.650662449589,-0.116179923282,0.00535669646076,0.00204618327103,-1.76991115088
1385575624303121822,-0.0281830436486,-0.650518642725,-0.116217607657,0.00498232349672,0.00257434633436,-1.77130702826
1385575624313173877,-0.0282301245173,-0.65052642177,-0.116195075284,0.00537519465118,0.00224027444241,-1.77139354504
1385575624323102011,-0.0281790249504,-0.650508284281,-0.11614684459,0.00542120223445,0.00272770986443,-1.77070819949
1385575624333115849,-0.0282252195275,-0.650724744045,-0.116184501707,0.00568386514693,0.00196568455338,-1.77073928483
1385575624343165268,-0.0281480965312,-0.650585551106,-0.116300471792,0.00634070585581,0.00260324575219,-1.77033283607
1385575624353166823,-0.0281720449192,-0.650675019199,-0.116185879329,0.00659421862835,0.00172365378797,-1.7706458309
1385575624363160217,-0.028208469719,-0.650677479955,-0.116183459069,0.00608935901056,0.00217960364712,-1.77095408107
1385575624373177963,-0.028199005589,-0.650687498126,-0.116190009224,0.00575069720339,0.00245360518341,-1.77015593046
1385575624383123259,-0.0281931658186,-0.650502210684,-0.116220775432,0.00569631640642,0.00221630279046,-1.77095247781
1385575624393128056,-0.0282314015441,-0.650673972448,-0.116233412728,0.00564721415886,0.00191810413969,-1.77080084965
1385575624403151080,-0.0281805588067,-0.650710817813,-0.116242345077,0.00584041274596,0.00229304617311,-1.77020496606
1385575624413112535,-0.0281690467807,-0.65050934615,-0.116199963512,0.00628503891928,0.00227473379597,-1.77111123194
1385575624423126526,-0.0281300260428,-0.650499258757,-0.116208127614,0.00636285738211,0.00246602783967,-1.77074287222
1385575624433121455,-0.028200427595,-0.650604488595,-0.116221423748,0.0059044459692,0.00195670463274,-1.76998380189
1385575624443169276,-0.0281492939572,-0.650467754492,-0.116265915571,0.00534329512876,0.00146265523799,-1.77126093051
1385575624453112738,-0.0281824741215,-0.650472544287,-0.116249169328,0.00577094670823,0.00245732556879,-1.77062274986
1385575624463116786,-0.0282204522692,-0.650639941776,-0.1161995279,0.00560688622335,0.00211313060894,-1.7700822998
1385575624473167457,-0.0282255272342,-0.650529933483,-0.116188151018,0.0054124670778,0.00240890483142,-1.77134032776
1385575624483134352,-0.0281983725429,-0.6504778968,-0.116245388113,0.00556549764604,0.0026019633668,-1.77039293022
1385575624493118537,-0.0281730628669,-0.65063710907,-0.116216704306,0.00552871945081,0.00183653208718,-1.77051932203
1385575624503131124,-0.0282350712039,-0.650699909137,-0.116159805112,0.00604532783448,0.00199329323782,-1.7709478529
1385575624513081454,-0.0281846998024,-0.650703662419,-0.116206943482,0.0062506155416,0.00225271177361,-1.76985766092
1385575624523119401,-0.0281747103531,-0.650637745027,-0.116180670306,0.00653701634525,0.00193242009708,-1.77047340702
1385575624533171739,-0.0281601287633,-0.650501744565,-0.116217194038,0.00665458206835,0.00257076907287,-1.77116782794
1385575624543109235,-0.0281704778087,-0.650677650052,-0.116212720925,0.00645634739176,0.00228262283877,-1.76999118184
1385575624553123356,-0.0282087807279,-0.650652492621,-0.116140390122,0.0064767819449,0.00222461086899,-1.77074722927
1385575624563134009,-0.0281422090555,-0.650461008075,-0.116223494346,0.00645465520279,0.00259423931763,-1.77103552591
1385575624573177790,-0.0282210003054,-0.650600503743,-0.116186791326,0.00599427016566,0.00193667267288,-1.76984292589
1385575624583161198,-0.0281914772288,-0.650514312532,-0.116173037591,0.00571584433922,0.00221575323998,-1.77134119981
1385575624593140022,-0.028175154716,-0.650447565271,-0.11621075891,0.00574238596632,0.00261740329417,-1.77041964621
1385575624603124809,-0.0282087388085,-0.650672616441,-0.116199238058,0.00530339190819,0.00231086253786,-1.77018570934
1385575624613113225,-0.0282181501571,-0.65052611524,-0.116190210336,0.00585573337252,0.0021753648888,-1.77138475787
1385575624623127157,-0.0281980178665,-0.650680372906,-0.116240769804,0.00600142637353,0.0022471992795,-1.77010821701
1385575624633202005,-0.0281705982616,-0.650627710575,-0.116168216052,0.00629999744488,0.0019524629551,-1.7702358756
1385575624643154483,-0.0281901510015,-0.650501902379,-0.116194170465,0.00620288413163,0.00252387854603,-1.77119681835
1385575624653195797,-0.0281548823883,-0.650524307555,-0.116219750163,0.00605910451614,0.00260188615098,-1.77044914779
1385575624663325624,-0.028188003288,-0.650471536333,-0.116198379929,0.00575647981334,0.00211065988874,-1.77114641699
1385575624673182564,-0.0281802672969,-0.65048349971,-0.11624230817,0.00590603986888,0.00259456795785,-1.77081579366
1385575624683142385,-0.0282226468069,-0.650457730219,-0.116289134465,0.00602378000252,0.0019581794592,-1.77005697448
1385575624693147605,-0.0282044754777,-0.650633298329,-0.116148417989,0.00624022047961,0.00180415202594,-1.77084039287
1385575624703153124,-0.0282025487367,-0.650476598656,-0.116145482132,0.00642437799604,0.00244866921046,-1.77109749254
1385575624713146995,-0.0281731236137,-0.650409371888,-0.116195913096,0.00604218904089,0.00250167393047,-1.77037963558
1385575624723197051,-0.0281802065978,-0.650595109556,-0.116177678857,0.00565697342864,0.00171250529967,-1.77067132083
1385575624733130607,-0.0281726383223,-0.650523607427,-0.116269058326,0.00529411669232,0.00278221074981,-1.77075689322
1385575624743141830,-0.0281875235698,-0.650510050479,-0.116187653445,0.00493336686724,0.00285897373972,-1.77098704301
1385575624753119971,-0.0282468002153,-0.65048758968,-0.116141608076,0.00525248492043,0.00252577540585,-1.7712855025
1385575624763154868,-0.028211459943,-0.650546122693,-0.116297304622,0.00494544181513,0.00223396298199,-1.7705471627
1385575624773132562,-0.0282150902494,-0.650634330646,-0.116212093693,0.00551287962958,0.00196472340153,-1.77027550244
1385575624783197275,-0.0283298354934,-0.650469816558,-0.116413572997,0.00497901829886,0.00565791656406,-1.76955260083
1385575624793132260,-0.0283900057817,-0.65040116257,-0.116371148305,0.0038724692926,0.00407296452837,-1.76923647556
1385575624803206090,-0.0283231431813,-0.650409097089,-0.116323325663,0.00399971853105,0.00212524277289,-1.76994859057
1385575624813118621,-0.0282343179256,-0.650320036032,-0.116169772984,0.00420376611724,0.00209624152186,-1.77051788747
1385575624823156799,-0.0282842645246,-0.650363997175,-0.116003379076,0.00465638367976,0.00288541832466,-1.77024942452
1385575624833122061,-0.0283016967189,-0.650304243515,-0.116190867158,0.00527252045162,0.00361625395837,-1.76898679445
1385575624843192587,-0.028301879698,-0.650225117983,-0.116382535072,0.00489741374788,0.00209074298892,-1.76899492674
1385575624853145977,-0.0282565683564,-0.650364689964,-0.116316827695,0.00534154969582,0.00261957443971,-1.76922860073
1385575624863133582,-0.0282808717522,-0.650232560389,-0.116042866782,0.00578593704067,0.00239365951523,-1.76895776609
1385575624873184432,-0.0282365544776,-0.650313948835,-0.116121898314,0.0051673324509,0.0022327512536,-1.77020874904
1385575624883417850,-0.0282907225234,-0.650295719114,-0.116197541916,0.00524303161491,0.00183621621103,-1.76883464006
1385575624893174317,-0.0282282664358,-0.650202815272,-0.116272017126,0.00493957395699,0.00180045305683,-1.76929261933
1385575624903167652,-0.0282454439835,-0.650251056329,-0.116255587539,0.00487235981699,0.00256683936187,-1.76883219569
1385575624913140596,-0.0282731129825,-0.650308562701,-0.116157521534,0.00446903784902,0.00269244831828,-1.76965249761
1385575624923179287,-0.0282438211181,-0.650403133857,-0.116167364977,0.00423637333088,0.002261871165,-1.77040530759
1385575624933132093,-0.0282876271096,-0.650292921038,-0.116179695728,0.00525433939356,0.00176929115264,-1.76934801621
1385575624943139704,-0.0282470376686,-0.650262723023,-0.1162042603,0.00530978086682,0.00204828345173,-1.76905292017
1385575624953268828,-0.0282651428329,-0.650434638085,-0.11621016781,0.00475466810899,0.00267891392574,-1.7702964238
1385575624963089293,-0.0282745665258,-0.650168187789,-0.116071401731,0.00516084353319,0.00226254512322,-1.76909330897
1385575624973153097,-0.0282641857358,-0.650301138273,-0.116161663835,0.00509280983967,0.00175062331165,-1.77031062911
1385575624983176106,-0.0282239603813,-0.650335034517,-0.116254828641,0.00494977258799,0.00250177711231,-1.769681964
1385575624993072572,-0.0282558476748,-0.650204205488,-0.116222991396,0.00519121331208,0.00208554733965,-1.769050219
1385575625003146436,-0.0282219832181,-0.650430054679,-0.116141836355,0.0046679802213,0.00256356630704,-1.77067909555
1385575625013145429,-0.0282573713892,-0.650152727541,-0.116121578037,0.00453296490067,0.00216115405129,-1.76919617847
1385575625023090654,-0.028250710235,-0.650374841307,-0.116233737359,0.00410563886658,0.00232701579531,-1.77102688871
1385575625033251170,-0.0282873747304,-0.650202690787,-0.116264691586,0.00465952096831,0.00186655952931,-1.76947091445
1385575625043208516,-0.0282477576286,-0.650231633313,-0.116225194556,0.00489210463091,0.00209225482269,-1.77052594836
1385575625053100745,-0.0282226696761,-0.650274696548,-0.116145988869,0.00496881963687,0.00283829444033,-1.76993840533
1385575625063050066,-0.0281744947248,-0.650094856246,-0.116227908232,0.0051512291088,0.00284864360778,-1.77041858966
1385575625073320562,-0.0281481297627,-0.650442902447,-0.116212621029,0.00562045812653,0.00114114893954,-1.77126869118
1385575625083109811,-0.0281487799423,-0.650330001479,-0.116246952375,0.00570498554216,0.00219246465667,-1.76954333405
1385575625093144173,-0.0282111348038,-0.65033336594,-0.116104845009,0.0056917212161,0.00226934590269,-1.77195319813
1385575625103210352,-0.0281575496399,-0.650367688581,-0.116221520538,0.00513061798556,0.00329730272925,-1.77041141262
1385575625113127134,-0.0281613122327,-0.650279775862,-0.116287856545,0.00451839842795,0.00184934250655,-1.77064418509
1385575625123077709,-0.0281336992772,-0.650230754913,-0.11628080911,0.0041728247235,0.00190902065808,-1.77045093839
1385575625133081255,-0.0281902756375,-0.650298966442,-0.116106822738,0.00385178214708,0.00161419352506,-1.76898728283
1385575625143095769,-0.0281424989258,-0.650381069142,-0.116191934793,0.00380222592861,0.00227048839256,-1.77026767867
1385575625153117976,-0.0280820211776,-0.650353552207,-0.116245293633,0.00370681874861,0.00291963054645,-1.76910597157
1385575625163191277,-0.0280488368788,-0.650384730137,-0.116328685969,0.00444305189013,0.00138516989211,-1.77018320442
1385575625173124399,-0.028043880719,-0.650303621835,-0.116245182599,0.00525682659336,0.00141786070176,-1.76910828817
1385575625183090440,-0.0279962277184,-0.65044788447,-0.116137920047,0.00541406694266,0.00296089955114,-1.76952385194
1385575625193089076,-0.0279742563979,-0.650448594836,-0.116147500184,0.00527666479716,0.00261409120236,-1.76983140678
1385575625203126617,-0.0280263716605,-0.650144272967,-0.116298022147,0.00493612596751,0.00223220988377,-1.77006215881
1385575625213122886,-0.0280848031134,-0.65042502279,-0.116454436867,0.00409784685504,0.00314289005021,-1.77020795139
1385575625223111014,-0.0280458050931,-0.650399960212,-0.11631117538,0.00365055703257,0.00183733214889,-1.77109632148
1385575625233244910,-0.0280626920279,-0.650352121781,-0.116253781179,0.00351946394766,0.00200707971781,-1.77033932207
1385575625243092198,-0.0281007320776,-0.650369551087,-0.116219004902,0.00370388370617,0.00240822140272,-1.771792039
1385575625253144066,-0.0280417943618,-0.650340540968,-0.116269053041,0.00400542306915,0.00255108763193,-1.77065413963
1385575625263155966,-0.0279979544362,-0.650375320646,-0.116227546076,0.00429604092281,0.00242851375986,-1.77159838451
1385575625273166757,-0.0278983829255,-0.650413668601,-0.116292769674,0.00420461124425,0.002428618417,-1.77172957968
1385575625283183025,-0.0278340454016,-0.650513270109,-0.116269628989,0.00470164622325,0.00182745545208,-1.77137787361
1385575625293118023,-0.0277324112166,-0.65061313054,-0.116254439968,0.00468237773395,0.00126233303999,-1.77195785722
1385575625303153837,-0.0276887293099,-0.650621674567,-0.116250403263,0.00535923024766,0.0018208501388,-1.77149319016
1385575625313080858,-0.0276423459716,-0.650559980898,-0.116288984468,0.00524753647948,0.0024432201204,-1.77288194195
1385575625323169379,-0.0276795703737,-0.650759046359,-0.116212468469,0.00481943040859,0.001347670995,-1.77183195102
1385575625333271189,-0.0275609221092,-0.650737204253,-0.116302866616,0.00446597158219,0.00238361924806,-1.77394339977
1385575625343112817,-0.0275786873751,-0.650819812973,-0.11625941049,0.00468287227642,0.00205505726825,-1.77317782357
1385575625353137957,-0.0275757247771,-0.650775076398,-0.116266525457,0.00493162169128,0.00177918072277,-1.77395618601
1385575625363076939,-0.0275058665191,-0.650793239293,-0.116379378374,0.00474193500595,0.00157934229754,-1.774403013
1385575625373118768,-0.0275114930675,-0.650807683975,-0.116432330306,0.00489517294278,0.00150493934192,-1.77483788463
1385575625383119589,-0.0275365706406,-0.650983272845,-0.116323568656,0.00517231774939,0.00155688635318,-1.77386765512
1385575625393067573,-0.0275034687114,-0.651034453338,-0.116263623044,0.00478389164313,0.0020081148936,-1.77437384444
1385575625403123671,-0.0275609423004,-0.651082511961,-0.116231029886,0.00491816869258,0.00175664907181,-1.77374148703
1385575625413131432,-0.0274691298555,-0.650870648844,-0.116295475483,0.00524693545435,0.00210796050594,-1.7745909075
1385575625423313909,-0.0274817570636,-0.65105546165,-0.116299412896,0.0045138672261,0.00230078018885,-1.7747076489
1385575625433173276,-0.0275165037498,-0.65100780003,-0.11636169772,0.00433384818523,0.00116338674398,-1.77455677824
1385575625443211911,-0.0274790345818,-0.651033493939,-0.116568098984,0.00346450039847,0.000628389931288,-1.77363528596
1385575625453293208,-0.0274765954118,-0.651132912146,-0.11663681714,0.00291835862219,0.000558036327496,-1.77365881995
1385575625463183450,-0.0274232242348,-0.651124536679,-0.116445596654,0.00259267150069,0.000807055968817,-1.77269417809
1385575625473307989,-0.027440032258,-0.651032918769,-0.116432111281,0.00346427128965,0.00159014729984,-1.77286646873
1385575625483227723,-0.0273783214182,-0.651133166231,-0.116466527373,0.0030176899236,0.00102811958709,-1.77239644455
1385575625493314099,-0.027329972744,-0.651158985488,-0.116359200223,0.00299563729126,0.00102222521625,-1.77212901162
1385575625503260102,-0.0270880624443,-0.651128879882,-0.116259935693,0.0040028428102,0.00122092751736,-1.77174161872
1385575625513172733,-0.027105055967,-0.651217307463,-0.116271096638,0.00417140070478,0.000501295465124,-1.77164195565
1385575625523143003,-0.0270336496149,-0.651125509643,-0.116360927787,0.00303594630635,-0.000299313609462,-1.77128687424
1385575625533258524,-0.0269488342342,-0.651161964689,-0.116498298834,0.00280386408388,-0.000384574370057,-1.77141009062
1385575625543221819,-0.026867519914,-0.65104316246,-0.116467464081,0.00293777631608,-0.000300364821277,-1.77078915701
1385575625553170796,-0.0267706305119,-0.651044303864,-0.116361698797,0.00308754656364,-0.000169677447867,-1.77128130372
1385575625563183714,-0.0265881343082,-0.650962833601,-0.116295812108,0.00409906042542,0.00170411913757,-1.77061160194
1385575625573297408,-0.0266000782167,-0.651013502178,-0.116230219505,0.00436270709956,0.00226408809875,-1.77068247031
1385575625583168130,-0.0265175806916,-0.650888086287,-0.116374552793,0.00301056742166,0.00104429151432,-1.77096992513
1385575625593174320,-0.0263711397727,-0.650952374711,-0.116472403256,0.00206997086451,0.000965226155013,-1.77120166641
1385575625603253968,-0.0262524807907,-0.650954839152,-0.116383775409,0.00216850772612,0.000887545407569,-1.7706453974
1385575625613137823,-0.0262335889713,-0.651054302439,-0.116349436059,0.0017009898352,0.000105682158029,-1.77092482378
1385575625623251219,-0.0261106972936,-0.650756993044,-0.11624484568,0.00166827169956,0.00340895606618,-1.76986688225
1385575625633265939,-0.0260595647826,-0.650727499295,-0.116429823568,0.00166406061338,0.0021867203934,-1.77030446504
1385575625643140769,-0.0259812448193,-0.650609189355,-0.11641943801,0.00206805368229,0.00175342300752,-1.76975782827
1385575625653361994,-0.0259923799211,-0.65065337617,-0.116420157351,0.00253260367802,0.000922506627703,-1.76994573948
1385575625663309978,-0.0258792974842,-0.65055725971,-0.116359553897,0.00193615161133,0.00178987979376,-1.76925102568
1385575625673251922,-0.0259287657469,-0.650423212859,-0.11659775032,0.00328351681336,0.00153462245634,-1.76827097496
1385575625683255391,-0.0258348750893,-0.650305078336,-0.116799108816,0.00321773070718,0.000750034809796,-1.76743525237
1385575625693191224,-0.0258000763099,-0.65021871449,-0.11680541038,0.00306178222486,0.002807902112,-1.76658927746
1385575625703103932,-0.0257258675767,-0.649788277352,-0.116581437125,0.00272323615299,0.00351282816371,-1.76575765094
1385575625713209982,-0.0258062274158,-0.649653978834,-0.116242419997,0.00166992445667,0.000642204107875,-1.76613181619
1385575625723212022,-0.0257904923683,-0.649260285302,-0.116294520306,0.00140366984774,0.000453584666581,-1.76692667979
1385575625733191877,-0.025700663792,-0.649084948228,-0.116357976121,0.00162291215759,0.00232686362918,-1.76722768954
1385575625743124196,-0.0256861460638,-0.648958751265,-0.116527275458,0.00244535269698,0.00157755948421,-1.76720067404
1385575625753223861,-0.0255382773429,-0.648763272198,-0.116585350635,0.00328501619432,0.00172327701659,-1.76685131962
1385575625763267515,-0.0256488952849,-0.648857084769,-0.116582521145,0.00322323788577,-0.00102553322554,-1.76698527146
1385575625773988772,-0.0255178461722,-0.648607822143,-0.116933465449,0.00217274820922,-0.0018547125835,-1.76709285007
1385575625783229085,-0.0255490867242,-0.648490815632,-0.116882954252,0.00267940289438,-0.00213679543081,-1.76801613085
1385575625793342120,-0.0255282443255,-0.648168733666,-0.117114868971,0.00253816988298,-0.00152968521045,-1.76900728278
1385575625803212496,-0.0254715929224,-0.647908845757,-0.117102308754,0.00253105718514,-0.0025132893264,-1.76923442987
1385575625813326881,-0.0256020689066,-0.647568919328,-0.117099872651,0.0033564077356,-0.00313156356645,-1.76859518838
1385575625823564290,-0.0255169072148,-0.647308827035,-0.117258246382,0.00282617033855,-0.0035145203292,-1.76824774383
1385575625833208682,-0.0256426053848,-0.6471014264,-0.117338445608,0.00260898454181,-0.0046129984185,-1.76765703971
1385575625843668470,-0.0256197113902,-0.646943153847,-0.117481871746,0.00283128417419,-0.00503205581765,-1.76687227282
1385575625853245581,-0.0256158335975,-0.646610057694,-0.117375997275,0.00248659776328,-0.00459138046233,-1.76710492656
1385575625863226002,-0.0256108738161,-0.646166051965,-0.117642185181,0.00309661363865,-0.00380994133069,-1.76708102769
1385575625873220657,-0.0254900528588,-0.646003579486,-0.117770276484,0.00329854125201,-0.0049175614161,-1.76593312521
1385575625883487314,-0.0255706215674,-0.645725547232,-0.11779963938,0.00487429636657,-0.0052434712795,-1.7653099775
1385575625894032352,-0.0252230195393,-0.645459036488,-0.117970089516,0.00612259768674,-0.00699936979074,-1.76489797698
1385575625903213049,-0.0251697153572,-0.645134019002,-0.118123677332,0.00748989440575,-0.00828497212739,-1.76379560294
1385575625913415885,-0.0248590346796,-0.64481012784,-0.118443326469,0.008476765842,-0.00926207489727,-1.76309646871
1385575625923322659,-0.0245144559204,-0.644479790674,-0.118803657804,0.00930682553316,-0.0101133780537,-1.76183686806
1385575625933263443,-0.0243337696114,-0.644058488589,-0.119180216606,0.010359054463,-0.0102733026451,-1.76118449563
1385575625943215619,-0.0239715709994,-0.643732010078,-0.119546863533,0.0109997708465,-0.0124724452869,-1.75950401528
1385575625953993267,-0.0237045448296,-0.643313513022,-0.119936388279,0.0118876492134,-0.0143093798978,-1.75790150651
1385575625963323551,-0.0231616257222,-0.643003733031,-0.12045111094,0.0132545382216,-0.0152542919411,-1.75643043633
1385575625973133278,-0.0227648322525,-0.642375451828,-0.121015869375,0.0165872670442,-0.0161145844709,-1.75505393301
1385575625983390904,-0.0223535420248,-0.641982397268,-0.121507424183,0.0187962226929,-0.0185915725906,-1.75204684092
1385575625993322229,-0.0217375684105,-0.641646896069,-0.122542050921,0.0201426071606,-0.0202026336374,-1.75027666264
1385575626003179139,-0.0214080735876,-0.641106733774,-0.123408344123,0.0212188796643,-0.020729028805,-1.74833215706
1385575626013263595,-0.0207089168156,-0.640761050577,-0.124083156775,0.0220810367581,-0.0221286488503,-1.74706399946
1385575626023170224,-0.0200637730675,-0.640108514821,-0.125165543725,0.0246342822752,-0.02362681811,-1.7444147069
1385575626033239350,-0.0194772219185,-0.63966463031,-0.126690302319,0.0256572807184,-0.0232939511024,-1.74243706147
1385575626045986498,-0.0190062524139,-0.639359837628,-0.12802322429,0.0272742765799,-0.0256059900729,-1.74017485436
1385575626053282294,-0.0183492005904,-0.63880697707,-0.129330586596,0.0298732692438,-0.0263476572431,-1.73830290343
1385575626063181520,-0.0175067335007,-0.63827966803,-0.130615365604,0.0311296421967,-0.0279094378044,-1.73658836485
1385575626073454837,-0.0167914549109,-0.637811215133,-0.13280669076,0.0337199167358,-0.028256797569,-1.73459287453
1385575626083276447,-0.0161397998808,-0.637336698005,-0.13490176165,0.0359799385221,-0.0296553757471,-1.73322689771
1385575626095823242,-0.0155453999972,-0.636974873213,-0.136790710031,0.0379771433599,-0.027150569856,-1.7316161831
1385575626104534294,-0.0145820698675,-0.636373247025,-0.138892984594,0.0412175077876,-0.0282660511661,-1.73070119271
1385575626113241497,-0.0139553748722,-0.635861563167,-0.141491382882,0.045154245884,-0.0287677669276,-1.7299078735
1385575626123198903,-0.0132318249348,-0.635416910114,-0.144033936619,0.0474864014522,-0.0306542212501,-1.72726528737
1385575626134046497,-0.0123977796619,-0.635114438733,-0.146829513544,0.0505142434687,-0.0309024214361,-1.72485951335
1385575626143245664,-0.0116029635895,-0.634806284387,-0.149452975637,0.0535113002138,-0.0299121497751,-1.72235948864
1385575626153257590,-0.0104232814518,-0.634284180089,-0.152226286125,0.0562404802237,-0.0316507018831,-1.71983051084
1385575626163190801,-0.00962956680064,-0.633934428645,-0.155442937501,0.0581138272137,-0.0321422291501,-1.71836151605
1385575626173134854,-0.00847699115151,-0.633589750247,-0.158569614237,0.0604013735109,-0.0332483332969,-1.71570872576
1385575626185659014,-0.00740648923079,-0.633450182732,-0.161983070741,0.062494912799,-0.0320293067711,-1.71453777756
1385575626193239700,-0.00650093468587,-0.633227173309,-0.164943754962,0.0643521020234,-0.0346450313839,-1.71222778767
1385575626203134351,-0.00520918953367,-0.63302821726,-0.168239085193,0.065945255047,-0.0360884852119,-1.71011853798
1385575626213263931,-0.00430421074708,-0.633007625204,-0.171685186763,0.065621523117,-0.0366201553761,-1.70841415174
1385575626223183705,-0.00315446820382,-0.632909437491,-0.175249762734,0.0656734506107,-0.0369258290515,-1.70626256991
1385575626233434164,-0.00205007728386,-0.632788062952,-0.178591816191,0.0638023514835,-0.0382884612554,-1.70505020093
1385575626243429345,-0.00100772992569,-0.63288466069,-0.182502209507,0.0633785785507,-0.0360652308729,-1.70401135742
1385575626253307054,0.000286996566188,-0.632727258088,-0.186118122403,0.0608091500512,-0.0352935854257,-1.70316214878
1385575626263253541,0.00151676455621,-0.632794965454,-0.189806808674,0.057527959447,-0.0344180639675,-1.7013906185
1385575626273190443,0.00252016871454,-0.632975842305,-0.193494120237,0.0542650220855,-0.0293940024129,-1.70049471058
1385575626283174770,0.00385825947352,-0.632897098038,-0.1972090733,0.0499363548103,-0.0272644927867,-1.69948303388
1385575626296516959,0.00492003467749,-0.633335712154,-0.201258731783,0.046313214017,-0.0231425724822,-1.69865387774
1385575626303187792,0.00622528925931,-0.633358324128,-0.205301560369,0.043697697764,-0.0188578718893,-1.69744204362
1385575626313208565,0.00769077894226,-0.633434737776,-0.209042912194,0.039371346544,-0.0163159853204,-1.69533279851
1385575626323206475,0.00872213316727,-0.633781510493,-0.212986682837,0.0360410813237,-0.0117958866013,-1.69518027256
1385575626333222271,0.00998600494898,-0.634166324881,-0.217173765936,0.0323362730015,-0.00697155237032,-1.69519839406
1385575626343196078,0.0112260922562,-0.634547535867,-0.221318110984,0.0291088397069,-0.00121014967128,-1.69456925167
1385575626353298011,0.0124949338634,-0.63469909523,-0.225389733304,0.0294461553011,0.00200980049356,-1.69377606974
1385575626363188361,0.0140846897943,-0.635004771671,-0.22946673563,0.0284184885577,0.0072402165784,-1.69249857611
1385575626373394208,0.0153362722174,-0.635060227934,-0.233735953576,0.0279997079853,0.0117550049288,-1.69149910201
1385575626383175398,0.0166502759141,-0.635547552497,-0.237951801307,0.0270049528786,0.0164830621214,-1.69030388941
1385575626393347777,0.0180136923745,-0.635794963809,-0.242042749713,0.0256745505623,0.0204472693361,-1.68935808185
1385575626403295463,0.0195465386211,-0.635715317289,-0.246288954019,0.0243820192847,0.0249467823237,-1.68928045513
1385575626413274872,0.020965021159,-0.635835755978,-0.250798807488,0.0224651587084,0.0301075971333,-1.68880770808
1385575626423328550,0.0224611305203,-0.635982731674,-0.25515797393,0.0216971910385,0.0359841301073,-1.68806651427
1385575626433236569,0.0238186742121,-0.635967192857,-0.259691344149,0.0210152491409,0.0424822162843,-1.68702660108
1385575626443318378,0.0253305115957,-0.635863424117,-0.264042413438,0.0197592977601,0.0477696025677,-1.68630122133
1385575626453248015,0.0266227804802,-0.635708273901,-0.268409836946,0.0186862956521,0.0544279565692,-1.68576113623
1385575626463200439,0.0283744014795,-0.635725753427,-0.273015146892,0.0181915472273,0.0588605805767,-1.68537451662
1385575626473441366,0.0297323700105,-0.635404375012,-0.277620388356,0.0179630291636,0.0631029069765,-1.68484269762
1385575626483254730,0.0310754953691,-0.635220844185,-0.282289269998,0.0181144323087,0.0697707780104,-1.68401351517
1385575626493300824,0.0327734994274,-0.634731959384,-0.286888615996,0.0176662074411,0.0749020959284,-1.68353133574
1385575626503317189,0.0340744646316,-0.634452564036,-0.29155340764,0.0174163607997,0.0778550902987,-1.68204526027
1385575626513356642,0.0356718876189,-0.633936305178,-0.296320895513,0.0171408216396,0.0812147192582,-1.68173276499
1385575626523408626,0.0370412435916,-0.63367729222,-0.301012933683,0.0152092636485,0.0852971640433,-1.68063586708
1385575626533326096,0.0385828347491,-0.632947460319,-0.305654774662,0.0149452122758,0.0880453310036,-1.67948298321
1385575626543241755,0.0399933211519,-0.632244148227,-0.310562168545,0.015112993049,0.0905425003287,-1.67928426079
1385575626553255858,0.041624406906,-0.631461424394,-0.315425239132,0.0145123667487,0.0946515651796,-1.6790016203
1385575626563176988,0.043158394604,-0.630530300718,-0.319908288749,0.0152095689006,0.0939599792831,-1.67821623338
1385575626573446263,0.0445600413287,-0.62969277459,-0.324608109142,0.0140552585342,0.0966293743016,-1.67727225057
1385575626583194096,0.0462102642473,-0.628707270927,-0.329462690309,0.0132759759894,0.0981162948323,-1.67692030193
1385575626593207895,0.0474611346819,-0.627750020711,-0.334188582867,0.0123615834638,0.0993462531998,-1.67645442586
1385575626603163207,0.0491531205516,-0.626607454758,-0.338927058474,0.0116647092836,0.100835062425,-1.67621659439
1385575626613150269,0.0507418261504,-0.62522795591,-0.34372423692,0.0123053840243,0.101932071714,-1.67481269044
1385575626623279264,0.0523933016995,-0.624014053249,-0.348621841556,0.0119944180557,0.101811787904,-1.67506557326
1385575626633136861,0.0538663108494,-0.622487562891,-0.353355114641,0.0123836288806,0.102753055481,-1.67384949027
1385575626643251827,0.0554481572821,-0.62083519242,-0.358363534528,0.0129548336785,0.104481814744,-1.67290897729
1385575626653178301,0.0568323818737,-0.619181386869,-0.362949399291,0.0128523250271,0.104976847845,-1.67231363195
1385575626663286660,0.0585212521144,-0.617374469576,-0.368065001664,0.0126097606797,0.106691406874,-1.67183662041
1385575626673194785,0.0600476140261,-0.615481987522,-0.373141728585,0.01339896161,0.109539423653,-1.67128614254
1385575626683151423,0.0614413606136,-0.613589212096,-0.377810523254,0.0129546215303,0.111044283618,-1.67016311777
1385575626693266457,0.06320708626,-0.611513909224,-0.382764325962,0.0136566262417,0.110731433811,-1.66939831466
1385575626703294041,0.0647398026539,-0.609405803714,-0.387706092879,0.0142245772661,0.110676522151,-1.66886127621
1385575626713666784,0.0660992006266,-0.607115105757,-0.392809708568,0.0127602384381,0.113227073193,-1.66776746401
1385575626723217536,0.0679679282409,-0.604757410896,-0.39817820158,0.0134632774355,0.113404253252,-1.6678822281
1385575626733143843,0.0695243087489,-0.602175834237,-0.403370821634,0.0138995989166,0.115151633397,-1.66649400456
1385575626743212079,0.0710311993341,-0.599447521507,-0.408509407058,0.0136186659371,0.114036423298,-1.66537789747
1385575626753137073,0.0726947107771,-0.596762224672,-0.413362431748,0.0158713668304,0.117251473956,-1.66566322389
1385575626763205843,0.0743372080217,-0.594206582016,-0.417897777187,0.0164853028466,0.116412137374,-1.66413158282
1385575626773165265,0.0759389290943,-0.591528531031,-0.422769069806,0.0175005120296,0.117262893362,-1.66397277148
1385575626783157958,0.0774852045242,-0.588798443834,-0.427169282504,0.0180720714739,0.117035234024,-1.66315436245
1385575626794526529,0.079380176283,-0.585658755661,-0.43138497743,0.0178665978835,0.115865020173,-1.66360937102
1385575626803285867,0.0808029050563,-0.582659351375,-0.435570247087,0.0184300118037,0.117452963028,-1.66172919883
1385575626813220846,0.0823885330988,-0.579632224163,-0.439431578336,0.0178246550631,0.115905610595,-1.66124677961
1385575626823276860,0.0840278359846,-0.576360637113,-0.443506321577,0.0166471881426,0.115307337894,-1.6609821385
1385575626833257513,0.0856976541955,-0.573204019394,-0.447161391401,0.0161797938551,0.114281571191,-1.65942558963
1385575626843262407,0.0873221889557,-0.570012020924,-0.450737951935,0.0160213077918,0.114038236681,-1.65919676254
1385575626853233340,0.0890515743368,-0.566440596968,-0.454017665596,0.0168044722966,0.112201109687,-1.65784431657
1385575626863194587,0.0906370368495,-0.563031146396,-0.457364740558,0.0167676080083,0.110411291238,-1.65735540686
1385575626873386717,0.0922670345461,-0.559546888309,-0.46044185664,0.0167928362687,0.109075434046,-1.65719448072
1385575626883229848,0.0938509632785,-0.556089959508,-0.463404435167,0.0162719274075,0.108600165164,-1.65586093054
1385575626893277783,0.09552545854,-0.552349155122,-0.466058538115,0.016510592442,0.10680820062,-1.65620639999
1385575626903270254,0.0971130178448,-0.548692656456,-0.468641412345,0.0164661552642,0.10441248127,-1.65540473929
1385575626913356747,0.0989380389555,-0.54491571131,-0.47124368278,0.0155350458513,0.10466847395,-1.65514757289
1385575626923257257,0.100228037845,-0.541077508282,-0.473459022461,0.0153261665295,0.102715218526,-1.65405696619
1385575626933138837,0.102252985096,-0.537254355842,-0.475451437479,0.0160436594286,0.0995340522376,-1.65349274369
1385575626943192170,0.103730838523,-0.533276101985,-0.477586923645,0.0153352952267,0.0983335366861,-1.65327288693
1385575626953178452,0.105441294867,-0.529162047985,-0.479402953459,0.0153537199202,0.0966247618787,-1.65257638214
1385575626963192203,0.107093676137,-0.5252911301,-0.481239922053,0.0148098603662,0.0957705587103,-1.65207188438
1385575626973585357,0.108578867295,-0.521261661119,-0.482760012754,0.0148070991029,0.0943397034236,-1.65092798889
1385575626983198373,0.110408458905,-0.517092220934,-0.484022861392,0.0139193591315,0.0941961207478,-1.65132408097
1385575626993200896,0.112037232994,-0.512782298829,-0.485333305139,0.0143690490138,0.09239871288,-1.65035744129
1385575627003124832,0.113773775436,-0.508550920322,-0.486343459321,0.0134451761595,0.0876579644274,-1.64975457849
1385575627013306804,0.115458639891,-0.504222882132,-0.487413680915,0.0138509222736,0.0863000975388,-1.64933797935
1385575627023297556,0.117342469265,-0.499895227743,-0.488436131735,0.0139728591638,0.0848027063332,-1.64906699079
1385575627033267112,0.118966562058,-0.495384642189,-0.489162428091,0.0140599090801,0.0827893156193,-1.64789663987
1385575627043172699,0.120607996041,-0.490996445708,-0.489817012121,0.0144590058623,0.0821538918678,-1.64655506656
1385575627053176480,0.122415545662,-0.486465277599,-0.490207563116,0.0150529794844,0.0796433970559,-1.64662234372
1385575627063147891,0.123987587658,-0.482080852337,-0.490498395892,0.0157923808637,0.0789180243979,-1.64621102306
1385575627073172634,0.125764842736,-0.477483317572,-0.490797891271,0.0151698328613,0.0777002565913,-1.64534625492
1385575627083180089,0.127482226039,-0.472882236925,-0.490858209708,0.015717304242,0.0759471912514,-1.6452926008
1385575627093141550,0.129231457366,-0.468197963843,-0.490935765686,0.0161752224484,0.07524512681,-1.64482380674
1385575627103159735,0.130921366358,-0.463658126096,-0.49088846293,0.0162427853833,0.0741306129102,-1.64490372536
1385575627113283948,0.132701206292,-0.45851681838,-0.490686847261,0.0178577032227,0.0735845921774,-1.64472820265
1385575627123170653,0.134596159789,-0.453996805725,-0.49032380391,0.017472072588,0.0714546037763,-1.64312442965
1385575627133147775,0.136271033415,-0.449226776068,-0.489900629258,0.0180968646431,0.0708244844137,-1.64260770494
1385575627143173643,0.138108600416,-0.444434360402,-0.489420710858,0.0187079989626,0.0707420939334,-1.64130715954
1385575627153211962,0.139856262755,-0.439547987095,-0.488838459738,0.0194595378198,0.069543756855,-1.64110530004
1385575627163205132,0.141674580501,-0.434698315924,-0.488175550731,0.019170941745,0.0695874496905,-1.64005102849
1385575627173169521,0.143500626918,-0.4297581721,-0.487532167825,0.0192704891542,0.0700817295367,-1.64034989604
1385575627183209653,0.145338536744,-0.424705610066,-0.486622364468,0.0194581273546,0.0681773172767,-1.63983994943
1385575627193113273,0.147092827493,-0.419615567817,-0.485672117549,0.0200274027497,0.0692883753776,-1.63909559559
1385575627203166713,0.14895994868,-0.414525810156,-0.484739002993,0.0203339016429,0.0683780109806,-1.63851318801
1385575627213209127,0.150797583179,-0.409527577199,-0.483630295343,0.0205722282574,0.0690900187138,-1.63794976159
1385575627223206314,0.152543160649,-0.40462056743,-0.482452635836,0.021114554907,0.0697532448018,-1.63776067746
1385575627233201799,0.154535647357,-0.399231688032,-0.481287038728,0.0214903804381,0.0688928890579,-1.63774603629
1385575627243253293,0.15635456855,-0.394131691368,-0.480021129911,0.0215974926692,0.0678251533122,-1.63672911648
1385575627253147402,0.158116070588,-0.388885298737,-0.478750912843,0.0225185590975,0.0671212864501,-1.63698960229
1385575627263213797,0.160151721739,-0.383760035465,-0.477416494632,0.0221372903634,0.0666244818182,-1.63612642296
1385575627273816447,0.162025135608,-0.378497211613,-0.476090042445,0.0224567135304,0.0658621130729,-1.63627014341
1385575627283192397,0.163892724157,-0.373279964792,-0.474691642881,0.0223451307279,0.0646801712952,-1.63578895039
1385575627293504256,0.165719759583,-0.367984401578,-0.47320034275,0.0226721390224,0.0627698994939,-1.63516608438
1385575627303235645,0.167702469927,-0.362660147018,-0.471740825607,0.0242855871609,0.0619293273138,-1.6351213415
1385575627313185383,0.169631324961,-0.357389901766,-0.470176403453,0.0241113851352,0.0603201375289,-1.63451739429
1385575627323151445,0.171412950162,-0.352146310613,-0.468431330335,0.0238597054353,0.0611097597194,-1.63466853861
1385575627333182174,0.173647619502,-0.346799625281,-0.467139355436,0.0242558652711,0.0565400611863,-1.63437435523
1385575627345751773,0.175596979715,-0.341464341775,-0.4655765128,0.0242541997695,0.0537791987345,-1.63369493672
1385575627353175828,0.177436865187,-0.336101501178,-0.463955994445,0.0258099213205,0.0506890821822,-1.63297605814
1385575627363187824,0.179375565542,-0.330766329647,-0.462451547702,0.0260709382748,0.0489687563942,-1.63271747244
1385575627373168759,0.181545063492,-0.325424231865,-0.460973146164,0.0264657419844,0.0457128744609,-1.63335337985
1385575627383139821,0.183266238054,-0.320023356376,-0.459408275889,0.0275246403002,0.0416450118488,-1.63259423326
1385575627393451551,0.185430269258,-0.314680413492,-0.457793303338,0.0277340368548,0.041175001891,-1.63192621088
1385575627403212883,0.187141374916,-0.309525396962,-0.45645586119,0.0283852300559,0.0346601687954,-1.63159800134
1385575627413175481,0.189378247822,-0.30409518088,-0.454945771789,0.0281441452111,0.0318934692711,-1.63098613803
1385575627423147434,0.191377857552,-0.298562540977,-0.453264457064,0.0286546530239,0.0294996024225,-1.6303323432
1385575627433348375,0.19338950038,-0.293223300851,-0.451712329258,0.0292154506111,0.026552762427,-1.63001327296
1385575627443206569,0.195420330084,-0.287787793286,-0.450259487481,0.0295973301622,0.0250140493366,-1.62904677142
1385575627453199922,0.197468871142,-0.282521474272,-0.448805330781,0.030077853639,0.0227950234234,-1.62958995358
1385575627463130979,0.199598193471,-0.277102968729,-0.447241731668,0.030354634403,0.0200064159562,-1.62839413661
1385575627473185035,0.201721132886,-0.271778045123,-0.44584819608,0.0311858127459,0.0169547333878,-1.62836674064
1385575627483126802,0.204034892209,-0.26649856218,-0.444120993451,0.0324425277888,0.0182673146555,-1.62844309877
1385575627493264978,0.206102164726,-0.261210629844,-0.442834694856,0.0332967052483,0.0165747910801,-1.62793557749
1385575627503146379,0.208319712281,-0.255938196046,-0.441487086436,0.0327348225269,0.0158904372385,-1.62818422288
1385575627513152990,0.210469272402,-0.250578803227,-0.440051100973,0.0330791848174,0.0136492415832,-1.62785128425
1385575627523124975,0.212568262587,-0.245443052204,-0.438684960584,0.0330106393065,0.0131756113334,-1.62721569785
1385575627533208454,0.214760738293,-0.240286753366,-0.437301611123,0.0335969118012,0.00966024865565,-1.6272208142
1385575627543124636,0.216847917254,-0.234954428118,-0.435946907505,0.0336408452931,0.00770833854109,-1.62580333466
1385575627553191580,0.21926724704,-0.229723039643,-0.434696834816,0.0328475382937,0.00752429793126,-1.62647882645
1385575627563106118,0.221307791446,-0.224711687217,-0.433351769506,0.0328763601322,0.00769702209556,-1.6255001228
1385575627573169592,0.223551168484,-0.219625398843,-0.432066866054,0.0329278448084,0.00447652087934,-1.62506485899
1385575627583305819,0.225707542526,-0.214540522802,-0.430931365195,0.0332421950153,0.00399585521243,-1.62466888028
1385575627593620628,0.228169079939,-0.209586812236,-0.429629601731,0.0322787566899,0.00283398866659,-1.62396077941
1385575627603169939,0.230377834599,-0.204606258723,-0.428465706478,0.0324601498529,0.000876532049802,-1.62393576082
1385575627613170376,0.232487468692,-0.199598601909,-0.427323200396,0.0326929808409,0.000572865170582,-1.62331911245
1385575627623135330,0.234911442977,-0.194608918812,-0.426181495234,0.0323885307676,-0.000815805850122,-1.62238781456
1385575627633209483,0.237407413214,-0.189743485475,-0.425381954768,0.0322094912534,-0.00131882452493,-1.6222111211
1385575627643233388,0.239566897565,-0.184798827308,-0.424301643571,0.0314155536156,-0.00131921672819,-1.62148475604
1385575627653183097,0.241667489364,-0.180001488284,-0.423377179437,0.0307421109585,-0.00123992850118,-1.62161016488
1385575627663376144,0.244236775392,-0.175134607888,-0.422551048373,0.0300030075364,-0.00199927412786,-1.62071915095
1385575627673250674,0.246530782149,-0.170305641157,-0.421548883542,0.0282647283788,-0.00306526182643,-1.61939686191
1385575627683178156,0.248770511801,-0.165666203883,-0.420702144758,0.0263280327121,-0.00333631693411,-1.61995325159
1385575627693161723,0.251146284643,-0.161052725735,-0.419962881431,0.025214341966,-0.00380875305427,-1.61885823042
1385575627703166838,0.253340738063,-0.156301882064,-0.419026772101,0.0239210388593,-0.00436037498647,-1.61790185655
1385575627713093360,0.255887442969,-0.151633813374,-0.418430170041,0.0231690616714,-0.00357777575914,-1.61766820529
1385575627723114765,0.257990697587,-0.1471354815,-0.417669766187,0.0228048859038,-0.00527109246188,-1.61649718479
1385575627733205192,0.26051026524,-0.142586663836,-0.41714785432,0.021721955464,-0.00444221511013,-1.61644182749
1385575627743122156,0.262611621243,-0.138091438089,-0.416613293808,0.020379186013,-0.00745634266421,-1.61641694805
1385575627753145255,0.265145062687,-0.133665269764,-0.415922432716,0.0198515571959,-0.00509515496373,-1.61549030021
1385575627763172556,0.267244540024,-0.129209126678,-0.415342379562,0.0178873156275,-0.00597318217406,-1.61510118504
1385575627773120797,0.269532825835,-0.124890472418,-0.414812506709,0.0170039263411,-0.00641724893206,-1.61488111554
1385575627783123609,0.271895543124,-0.120492644272,-0.414391857762,0.0164564105283,-0.00687105984756,-1.61361536336
1385575627793172958,0.274236044033,-0.116085045449,-0.413946725827,0.0159225482329,-0.00767261615244,-1.61333012634
1385575627803117235,0.276171727936,-0.1119970984,-0.413752648272,0.0145899518,-0.0103555648977,-1.61289460892
1385575627813089201,0.278730704106,-0.107738748193,-0.413493882346,0.014459509172,-0.0093500077858,-1.61369546681
1385575627823171694,0.280923794041,-0.103559236224,-0.412993065044,0.0138090004564,-0.0120241383643,-1.6131448304
1385575627833112347,0.283158431325,-0.0994841817605,-0.412664682454,0.0136334044811,-0.0135830655233,-1.61167847
1385575627843307126,0.285476195508,-0.0953076414046,-0.412469647345,0.0132650598623,-0.0146766733938,-1.61061050738
1385575627853149035,0.287821282646,-0.0913180514208,-0.412303670058,0.0128151430981,-0.01716663403,-1.61023825903
1385575627863129081,0.289940051608,-0.0871184846765,-0.41224561291,0.0130145914486,-0.0192190889607,-1.60940738215
1385575627873153474,0.292299745354,-0.0833090946153,-0.412131282415,0.0123331531838,-0.0186653089828,-1.61034863981
1385575627883196534,0.294695848864,-0.079373792308,-0.411882732761,0.012590509025,-0.022361758423,-1.60862877172
1385575627893122510,0.297001930457,-0.0755449647571,-0.411926653214,0.0130286527285,-0.0238879707642,-1.60872449622
1385575627903126210,0.299328270047,-0.0717092728673,-0.411686588156,0.0134339323694,-0.0236670645737,-1.60880345541
1385575627913123504,0.301586769054,-0.0679046914594,-0.411809730314,0.0140680380466,-0.0258055327613,-1.60753368084
1385575627923116353,0.303739468357,-0.0643467539632,-0.411831618724,0.0138462428127,-0.0270383726336,-1.60697765953
1385575627933114058,0.306061148901,-0.0607054085991,-0.412079191059,0.0131016621256,-0.0311458851938,-1.60649990764
1385575627943129785,0.308251412103,-0.057112258222,-0.41224196602,0.0135327197594,-0.0326203077349,-1.60665600821
1385575627953135147,0.310501231816,-0.0535342091061,-0.412391335456,0.0130949974568,-0.0320221536245,-1.60629238115
1385575627963112937,0.312764703048,-0.0500661010257,-0.412615884364,0.0136220622631,-0.0337611245878,-1.605348265
1385575627973115956,0.314832414755,-0.0466792885834,-0.412861602303,0.0136633801163,-0.035331374817,-1.60527524541
1385575627983112804,0.317503351418,-0.0433175813204,-0.413214137171,0.0143439539877,-0.0351459568523,-1.60496274447
1385575627993117163,0.319515070517,-0.0400415271089,-0.413533616921,0.0157276416744,-0.037321550053,-1.60462428343
1385575628003129885,0.321708084568,-0.0367509810175,-0.413758016116,0.0153694754877,-0.0381868720608,-1.60385102938
1385575628013120258,0.323982792036,-0.0335890967536,-0.414145453807,0.0156276362046,-0.0392195186199,-1.60385796697
1385575628023172130,0.326116153722,-0.0304643013737,-0.414534393565,0.0170017474567,-0.0416909623947,-1.60370880814
1385575628033172424,0.328465025867,-0.0275467182452,-0.41498373376,0.0171922784842,-0.0430927217848,-1.60313736212
1385575628043316199,0.330615026289,-0.0246558285745,-0.415484584615,0.0174761668446,-0.0447255699703,-1.60303807793
1385575628053146611,0.332789740359,-0.0217609147751,-0.415982954646,0.0175487583275,-0.0462204488611,-1.60269444786
1385575628063149728,0.334938601783,-0.0188791576374,-0.416389217172,0.017809990242,-0.0477699344071,-1.60195977562
1385575628074061566,0.337149237461,-0.0161451433536,-0.41711920527,0.0191055791961,-0.0476324852821,-1.60206608256
1385575628083172492,0.339298045754,-0.013561077028,-0.417439807024,0.0189006701384,-0.0511127980671,-1.60159014924
1385575628093132625,0.341529112989,-0.0109907400841,-0.418077089932,0.0192613249157,-0.0523091158308,-1.60142402594
1385575628103128473,0.343668138523,-0.00849011874675,-0.418660036794,0.0191786834523,-0.0546010968527,-1.60141588258
1385575628113165889,0.345824681918,-0.00612899218288,-0.419278313949,0.0198152093921,-0.0562580975988,-1.6008249668
1385575628123118517,0.347906349622,-0.00367661054901,-0.419916926779,0.0195181261781,-0.0574685093125,-1.60030869789
1385575628133111982,0.349963656486,-0.0013926386819,-0.420591481101,0.0189960009307,-0.0588975663964,-1.59986357598
1385575628143119445,0.352197510489,0.000720980610008,-0.421368181537,0.0175450453999,-0.0596044982329,-1.59944066678
1385575628153175117,0.35416665136,0.00293021102324,-0.422079557054,0.016885314864,-0.0618045331282,-1.5990568408
1385575628163161291,0.356442024768,0.00495693403579,-0.422754220984,0.0147683794732,-0.062359670225,-1.5987749826
1385575628173223549,0.358427169982,0.0069326908298,-0.423526621141,0.0134698091447,-0.0625399052525,-1.59858238146
1385575628183159607,0.360564807236,0.00880313727945,-0.424206652238,0.0125041732506,-0.0643705781382,-1.5979357956
