%time,field.header.seq,field.header.stamp,field.header.frame_id,field.child_frame_id,field.transform.translation.x,field.transform.translation.y,field.transform.translation.z,field.transform.rotation.x,field.transform.rotation.y,field.transform.rotation.z,field.transform.rotation.w
1385575619315802637,1268473,1385575619315802637,/world,vicon/Archie/Archie,-0.0282176045698,0.650490509693,0.116106428842,0.00268015626258,0.00142959353313,0.774321094833,0.632785599647
1385575619325931811,1268474,1385575619325931811,/world,vicon/Archie/Archie,-0.0281803417251,0.650490319372,0.116126597644,0.00268099757776,0.00129935382263,0.774251808007,0.632870651658
1385575619335892879,1268475,1385575619335892879,/world,vicon/Archie/Archie,-0.0282148313259,0.650495021609,0.116102163744,0.00267991229129,0.00141605294603,0.774321122244,0.632785597585
1385575619345873975,1268476,1385575619345873975,/world,vicon/Archie/Archie,-0.028184431379,0.650482287667,0.116128725312,0.00268611318896,0.00131330382152,0.774239306377,0.632885895316
1385575619355847101,1268477,1385575619355847101,/world,vicon/Archie/Archie,-0.0282100833267,0.650488342092,0.116118689571,0.00271016105177,0.00140036803084,0.774319403664,0.632787606631
1385575619365740638,1268478,1385575619365740638,/world,vicon/Archie/Archie,-0.0282168675064,0.650494875509,0.116097950631,0.00269026991605,0.00140041244058,0.774320022823,0.632786933768
1385575619375902726,1268479,1385575619375902726,/world,vicon/Archie/Archie,-0.0282078516021,0.650474711454,0.116137465864,0.00271062793654,0.00127190367431,0.77429615702,0.632816320888
1385575619385879945,1268480,1385575619385879945,/world,vicon/Archie/Archie,-0.0282120781096,0.650484650918,0.116112754857,0.00269801954289,0.00139416790217,0.774314495063,0.632793678636
1385575619395846158,1268481,1385575619395846158,/world,vicon/Archie/Archie,-0.0282094257995,0.650470121895,0.116137606578,0.00271569085044,0.00128667112219,0.774301554266,0.632809665352
1385575619406004693,1268482,1385575619406004693,/world,vicon/Archie/Archie,-0.028191218241,0.650509672374,0.116109407554,0.0026791655542,0.00144642592588,0.774269136017,0.63284914074
1385575619415801484,1268483,1385575619415801484,/world,vicon/Archie/Archie,-0.0282106572399,0.650469779449,0.116141962411,0.00271938800456,0.00128732505526,0.77429669311,0.632815596175
1385575619425943691,1268484,1385575619425943691,/world,vicon/Archie/Archie,-0.0281905824068,0.650497525376,0.1161403885,0.00272428254646,0.0013011336586,0.774237217438,0.632888312792
1385575619435904520,1268485,1385575619435904520,/world,vicon/Archie/Archie,-0.0282086869343,0.650470228567,0.116138978993,0.00270729752083,0.00130058563296,0.774293037313,0.632820094012
1385575619445785151,1268486,1385575619445785151,/world,vicon/Archie/Archie,-0.0282225951921,0.650472580339,0.116127979261,0.00270732412836,0.00131007514785,0.77429770816,0.632814359222
1385575619455965744,1268487,1385575619455965744,/world,vicon/Archie/Archie,-0.0281894559913,0.650515221792,0.116115709159,0.00271049579543,0.00141291495118,0.774265117162,0.632853999932
1385575619465770099,1268488,1385575619465770099,/world,vicon/Archie/Archie,-0.0282066618663,0.650484276618,0.116109609182,0.00270922136919,0.00141554931981,0.774319071059,0.632787983872
1385575619475909085,1268489,1385575619475909085,/world,vicon/Archie/Archie,-0.0282079970893,0.650489428168,0.116106584381,0.00268671022431,0.00140786278806,0.77431396345,0.632794346939
1385575619485940223,1268490,1385575619485940223,/world,vicon/Archie/Archie,-0.0281925012349,0.650510103192,0.1161184515,0.00272801271622,0.0013989178657,0.774259678136,0.632860610078
1385575619495782832,1268491,1385575619495782832,/world,vicon/Archie/Archie,-0.0281828522592,0.650510341144,0.116113669347,0.00273763236305,0.00139974376508,0.774269793097,0.632848191579
1385575619506007560,1268492,1385575619506007560,/world,vicon/Archie/Archie,-0.0282120199157,0.65066045944,0.116081388901,0.00253231066682,0.00152922045059,0.774142360814,0.63300462406
1385575619515872807,1268493,1385575619515872807,/world,vicon/Archie/Archie,-0.0282127421454,0.650487187884,0.116111944262,0.00270706261294,0.00139227988219,0.774319015061,0.632788113261
1385575619525987810,1268494,1385575619525987810,/world,vicon/Archie/Archie,-0.0281792740022,0.650506897414,0.116113142509,0.0026905693229,0.00142777133366,0.77425590938,0.632865316711
1385575619536023438,1268495,1385575619536023438,/world,vicon/Archie/Archie,-0.0282117248884,0.650468330531,0.116139209611,0.00271310488652,0.00128582455954,0.774300426398,0.632811058213
1385575619545912394,1268496,1385575619545912394,/world,vicon/Archie/Archie,-0.0281959536466,0.650509293927,0.116105692814,0.00269360791967,0.0014096601693,0.774270084186,0.632848002342
1385575619555895764,1268497,1385575619555895764,/world,vicon/Archie/Archie,-0.0281916765203,0.650509954048,0.116114586524,0.00271825399137,0.00139236814972,0.774270197162,0.63284779702
1385575619565928969,1268498,1385575619565928969,/world,vicon/Archie/Archie,-0.0281893254148,0.650506303075,0.116110121105,0.00270035618034,0.00141630817444,0.774263370505,0.632856172635
1385575619576063875,1268499,1385575619576063875,/world,vicon/Archie/Archie,-0.0281810426877,0.650496088448,0.116134743322,0.0027205417249,0.00128233851581,0.774261914696,0.632858152915
1385575619586028580,1268500,1385575619586028580,/world,vicon/Archie/Archie,-0.0282399381242,0.650646618947,0.116088965949,0.00254346702384,0.00155139428983,0.774177266374,0.632961834695
1385575619595969259,1268501,1385575619595969259,/world,vicon/Archie/Archie,-0.0281899007291,0.650507838503,0.116111228651,0.00269916460319,0.00143056851657,0.774263295565,0.632856237327
1385575619605887974,1268502,1385575619605887974,/world,vicon/Archie/Archie,-0.0281998700212,0.650512036395,0.116103353357,0.0026984260139,0.00141214810447,0.774260881928,0.632859234784
1385575619615779355,1268503,1385575619615779355,/world,vicon/Archie/Archie,-0.0281856746761,0.650503959758,0.116113802439,0.00271599859588,0.00142039461237,0.774271786436,0.632845799986
1385575619626021086,1268504,1385575619626021086,/world,vicon/Archie/Archie,-0.028216608791,0.650486036098,0.116113252091,0.00269647283824,0.00140072830666,0.774327467289,0.632777797016
1385575619635929158,1268505,1385575619635929158,/world,vicon/Archie/Archie,-0.0281825912246,0.650512963285,0.116115022323,0.00270761537627,0.00141339124366,0.774247537748,0.63287551812
1385575619645873254,1268506,1385575619645873254,/world,vicon/Archie/Archie,-0.0281967831343,0.650465538961,0.116138227961,0.00269833075164,0.00129230504779,0.774304501633,0.632806121738
1385575619655932332,1268507,1385575619655932332,/world,vicon/Archie/Archie,-0.0282132611754,0.650476185354,0.116116919522,0.00272090155199,0.00140043214471,0.774310300618,0.632798699304
1385575619665773974,1268508,1385575619665773974,/world,vicon/Archie/Archie,-0.0282166312192,0.650490991146,0.116102414543,0.00267390912358,0.00142778694857,0.774315784429,0.632792128284
1385575619676102350,1268509,1385575619676102350,/world,vicon/Archie/Archie,-0.0281930923618,0.650508267218,0.116110786969,0.00270856405672,0.00139994445125,0.77426197355,0.63285788306
1385575619685978906,1268510,1385575619685978906,/world,vicon/Archie/Archie,-0.028197648849,0.650495713053,0.116134758975,0.00269145169265,0.00129454853304,0.774244351876,0.632879738829
1385575619695800836,1268511,1385575619695800836,/world,vicon/Archie/Archie,-0.028181902466,0.650507255939,0.11610786758,0.00269297918656,0.00140789763026,0.774263322753,0.632856281257
1385575619705922876,1268512,1385575619705922876,/world,vicon/Archie/Archie,-0.0281913779295,0.650518885488,0.116110561835,0.00272068757218,0.0013984247703,0.774258072596,0.632862606959
1385575619716671494,1268513,1385575619716671494,/world,vicon/Archie/Archie,-0.0282152991121,0.650484217309,0.116113206853,0.00269962075674,0.00140310806407,0.774323276236,0.63278290686
1385575619726519531,1268514,1385575619726519531,/world,vicon/Archie/Archie,-0.0281844925986,0.650493823968,0.116134298388,0.00271279086418,0.00130062690574,0.774245149317,0.632878659693
1385575619735808987,1268515,1385575619735808987,/world,vicon/Archie/Archie,-0.0282175425935,0.650476632444,0.116133386209,0.00270718786496,0.0012924931378,0.774295003792,0.63281770495
1385575619745898872,1268516,1385575619745898872,/world,vicon/Archie/Archie,-0.0281826650687,0.65048895286,0.116129922134,0.00270124586829,0.00129789372146,0.774250261512,0.632872460525
1385575619755978846,1268517,1385575619755978846,/world,vicon/Archie/Archie,-0.0282143902605,0.650469928511,0.116140912181,0.00270330907732,0.00132724829347,0.774297056051,0.632815138506
1385575619765895315,1268518,1385575619765895315,/world,vicon/Archie/Archie,-0.0281928188097,0.650466580888,0.116140858208,0.0026926567795,0.00126950288032,0.774289440279,0.632824620755
1385575619776370505,1268519,1385575619776370505,/world,vicon/Archie/Archie,-0.028188739671,0.650494612386,0.116142798036,0.00272223321245,0.00129139411206,0.774253048033,0.632868974875
1385575619785897527,1268520,1385575619785897527,/world,vicon/Archie/Archie,-0.0281863408341,0.650509861029,0.116110155695,0.00269998982413,0.00141911779388,0.774252098472,0.632869958341
1385575619795868163,1268521,1385575619795868163,/world,vicon/Archie/Archie,-0.0282186760314,0.650491455387,0.116105260776,0.00268509409249,0.00140433005929,0.774321248218,0.632785447593
1385575619806258362,1268522,1385575619806258362,/world,vicon/Archie/Archie,-0.0281922427815,0.650507500663,0.116111478981,0.00270945659678,0.00141321410703,0.774264968645,0.632854185417
1385575619815904246,1268523,1385575619815904246,/world,vicon/Archie/Archie,-0.028219287706,0.650472152933,0.116139848359,0.0027257111461,0.00130396721454,0.774310488975,0.632798654259
1385575619825986332,1268524,1385575619825986332,/world,vicon/Archie/Archie,-0.0281858276135,0.650514157741,0.11611732375,0.00271936544348,0.00141303374433,0.774256502327,0.632864501289
1385575619835953035,1268525,1385575619835953035,/world,vicon/Archie/Archie,-0.0281919478267,0.650519368488,0.116105232154,0.00269815438613,0.00138084819836,0.774262281515,0.632857592705
1385575619845939908,1268526,1385575619845939908,/world,vicon/Archie/Archie,-0.0281912276623,0.650500158871,0.116137922072,0.0027220640086,0.00128753701291,0.774241233017,0.632883437698
1385575619855892577,1268527,1385575619855892577,/world,vicon/Archie/Archie,-0.0281911818374,0.650498230414,0.116138608004,0.00271082485685,0.00132475662084,0.774247978553,0.632875156848
1385575619865778713,1268528,1385575619865778713,/world,vicon/Archie/Archie,-0.028187734972,0.650505340617,0.116114282506,0.00272141879764,0.00143383727,0.774266085396,0.63285272141
1385575619875923404,1268529,1385575619875923404,/world,vicon/Archie/Archie,-0.0281893889919,0.650512013171,0.116111039756,0.00271609587712,0.00138892764639,0.774272502707,0.632844993072
1385575619886010962,1268530,1385575619886010962,/world,vicon/Archie/Archie,-0.0282113161461,0.65048124981,0.116115206547,0.00268603348027,0.00140784413392,0.774325047825,0.632780786299
1385575619896317916,1268531,1385575619896317916,/world,vicon/Archie/Archie,-0.0281822240667,0.650502454313,0.116140515713,0.00271198359577,0.00128865864286,0.774250935601,0.6328716088
1385575619906187520,1268532,1385575619906187520,/world,vicon/Archie/Archie,-0.0282120040304,0.650481403377,0.11610968786,0.00270966803634,0.00142271370352,0.774319413863,0.632787546416
1385575619916290190,1268533,1385575619916290190,/world,vicon/Archie/Archie,-0.0281795401796,0.650497611387,0.116134109165,0.00270991240903,0.00132537941674,0.774247679256,0.632875525606
1385575619925973842,1268534,1385575619925973842,/world,vicon/Archie/Archie,-0.0282090966627,0.650472353393,0.116139629572,0.00268839704233,0.00129780919846,0.774298103658,0.632813981265
1385575619935928957,1268535,1385575619935928957,/world,vicon/Archie/Archie,-0.0282140761563,0.650491912212,0.116106804921,0.00268965286345,0.00143636536194,0.774324734451,0.632781090298
1385575619945885971,1268536,1385575619945885971,/world,vicon/Archie/Archie,-0.028182417234,0.650498325423,0.116133688288,0.00269822897865,0.00131574593005,0.774239657546,0.632885409103
1385575619955945007,1268537,1385575619955945007,/world,vicon/Archie/Archie,-0.0281893094561,0.650505641143,0.116120654208,0.00271500812411,0.00132205636541,0.774246270589,0.632877234049
1385575619965934018,1268538,1385575619965934018,/world,vicon/Archie/Archie,-0.0281782696119,0.650502419649,0.116131812963,0.00271208617859,0.00127574829781,0.774242070665,0.632882479666
1385575619975895475,1268539,1385575619975895475,/world,vicon/Archie/Archie,-0.0281859829336,0.650499371571,0.116136944013,0.00266507231822,0.00132081046294,0.774238617409,0.632886811493
1385575619985979622,1268540,1385575619985979622,/world,vicon/Archie/Archie,-0.0282114713543,0.65048732339,0.116115101939,0.00270079225553,0.00143548804928,0.774324880632,0.632780865964
1385575619996057977,1268541,1385575619996057977,/world,vicon/Archie/Archie,-0.0281872956306,0.65049104051,0.11613151432,0.0027004675298,0.00128567321066,0.774253294248,0.632868778551
1385575620005897878,1268542,1385575620005897878,/world,vicon/Archie/Archie,-0.0281952600264,0.650518893157,0.116099614103,0.00267575619932,0.00141560168197,0.774268910112,0.632849501252
1385575620015924859,1268543,1385575620015924859,/world,vicon/Archie/Archie,-0.0282187168017,0.650481995312,0.116114482129,0.00269978218583,0.00140937590439,0.774326860323,0.632778506445
1385575620026041020,1268544,1385575620026041020,/world,vicon/Archie/Archie,-0.0282133746282,0.650484736291,0.116111167403,0.0026997277659,0.00142059250909,0.774317802791,0.632789565076
1385575620036095546,1268545,1385575620036095546,/world,vicon/Archie/Archie,-0.0282138314936,0.650474313161,0.11613972529,0.00271977265516,0.00132711336873,0.774313791799,0.63279459024
1385575620045851488,1268546,1385575620045851488,/world,vicon/Archie/Archie,-0.0282084790778,0.650469851658,0.116145019505,0.00270859528075,0.0012744480967,0.774298360604,0.632813628219
1385575620056172004,1268547,1385575620056172004,/world,vicon/Archie/Archie,-0.0281765468613,0.650507346151,0.116108302373,0.00271254284637,0.00141182395461,0.774252554088,0.632869363575
1385575620065878550,1268548,1385575620065878550,/world,vicon/Archie/Archie,-0.028212756661,0.650477193387,0.116136490543,0.00272487278726,0.00126146276964,0.774285091441,0.632829819898
1385575620076027130,1268549,1385575620076027130,/world,vicon/Archie/Archie,-0.0282004643421,0.650517056085,0.11611896565,0.00271024989916,0.00139227302707,0.774269872621,0.632848228624
1385575620085857447,1268550,1385575620085857447,/world,vicon/Archie/Archie,-0.0282052482679,0.650489704624,0.116110702251,0.0026940321064,0.00141072592976,0.774315590999,0.632792317889
1385575620095966043,1268551,1385575620095966043,/world,vicon/Archie/Archie,-0.0281792649103,0.650499254717,0.116139224432,0.00269501025354,0.00131846858045,0.774244184398,0.632879879193
1385575620105986888,1268552,1385575620105986888,/world,vicon/Archie/Archie,-0.0282036077946,0.650516701281,0.116119353691,0.00268839599296,0.00143448818375,0.774272750824,0.63284470615
1385575620115804873,1268553,1385575620115804873,/world,vicon/Archie/Archie,-0.0282169761185,0.65049693936,0.116114424489,0.00271132078984,0.00142360470016,0.774316312806,0.632791331966
1385575620127291703,1268554,1385575620127291703,/world,vicon/Archie/Archie,-0.0281982746187,0.650486926501,0.116146157222,0.00273170774413,0.0013131604111,0.774237610734,0.632887774813
1385575620135955640,1268555,1385575620135955640,/world,vicon/Archie/Archie,-0.0282138828253,0.650470246944,0.116138037006,0.0027087978092,0.00133333358338,0.774299632731,0.632811949467
1385575620145878982,1268556,1385575620145878982,/world,vicon/Archie/Archie,-0.0281907995878,0.650493590243,0.116137095563,0.00271649790014,0.00133486499795,0.774257089522,0.632863964924
1385575620155979328,1268557,1385575620155979328,/world,vicon/Archie/Archie,-0.0281857930435,0.650493302026,0.11613048582,0.00270906267026,0.00127367898874,0.774227733651,0.632900035683
1385575620165818238,1268558,1385575620165818238,/world,vicon/Archie/Archie,-0.0282213565405,0.650491258006,0.11611701126,0.00272201454937,0.00140523415703,0.774321332599,0.63278518459
1385575620176033619,1268559,1385575620176033619,/world,vicon/Archie/Archie,-0.0281950042561,0.650504662292,0.116113802827,0.00271570076887,0.00142447077905,0.774265704326,0.632853233347
1385575620186229239,1268560,1385575620186229239,/world,vicon/Archie/Archie,-0.0281920831317,0.65052465525,0.11610247064,0.00269346587583,0.00138952667249,0.774258205364,0.632862580568
1385575620195877898,1268561,1385575620195877898,/world,vicon/Archie/Archie,-0.028199088997,0.650512515463,0.116115404797,0.00271829322213,0.00140231651006,0.774266873378,0.632851841412
1385575620205986781,1268562,1385575620205986781,/world,vicon/Archie/Archie,-0.0282087112007,0.650480407565,0.116135443226,0.00272222686176,0.00128611723765,0.774296075209,0.632816342472
1385575620215909639,1268563,1385575620215909639,/world,vicon/Archie/Archie,-0.0281948013611,0.650510265575,0.116111555454,0.00271286261295,0.00141629051108,0.77426421528,0.632855085651
1385575620225942917,1268564,1385575620225942917,/world,vicon/Archie/Archie,-0.0282032430084,0.650513307199,0.116113140307,0.00269284377279,0.00143134249907,0.77426402257,0.632855373055
1385575620237874629,1268565,1385575620237874629,/world,vicon/Archie/Archie,-0.0281873607311,0.65049473384,0.116134681259,0.00269628705064,0.00128957235282,0.7742456683,0.632878117932
1385575620246009756,1268566,1385575620246009756,/world,vicon/Archie/Archie,-0.0281988093461,0.650493082512,0.116137081679,0.00272427401761,0.00128113113881,0.774242119484,0.632882356723
1385575620255919044,1268567,1385575620255919044,/world,vicon/Archie/Archie,-0.0281927714855,0.650510783174,0.116103449495,0.00271825040857,0.00140125148316,0.774262006339,0.632857798521
1385575620265931082,1268568,1385575620265931082,/world,vicon/Archie/Archie,-0.0281954312824,0.650513279718,0.116109046269,0.00269992731639,0.00141277188246,0.774273738763,0.632843497185
1385575620275925438,1268569,1385575620275925438,/world,vicon/Archie/Archie,-0.0281954793323,0.650513819332,0.116116674363,0.00271805536816,0.00138461946473,0.77425900268,0.632861510737
1385575620286013003,1268570,1385575620286013003,/world,vicon/Archie/Archie,-0.0282176050292,0.650469716681,0.116137936207,0.00271827732554,0.00128655458452,0.774290534767,0.632823137626
1385575620296053207,1268571,1385575620296053207,/world,vicon/Archie/Archie,-0.0282097427567,0.650475698806,0.116136554144,0.00271464884105,0.00131041145371,0.774308083676,0.632801631681
1385575620305954692,1268572,1385575620305954692,/world,vicon/Archie/Archie,-0.0281972235159,0.65050429079,0.116111996866,0.00272882946786,0.00139791899253,0.774265627612,0.632853329936
1385575620315961109,1268573,1385575620315961109,/world,vicon/Archie/Archie,-0.0282141439101,0.650474228717,0.116130764028,0.00271888325592,0.00126924654559,0.77428596663,0.632828759276
1385575620325974400,1268574,1385575620325974400,/world,vicon/Archie/Archie,-0.0281903203944,0.650509564025,0.11611449104,0.00271751110416,0.00140056538385,0.774276445235,0.632840137716
1385575620335927189,1268575,1385575620335927189,/world,vicon/Archie/Archie,-0.0282241390486,0.650488766319,0.1161167109,0.0027249904989,0.00139284982615,0.774320015211,0.632786811209
1385575620345875802,1268576,1385575620345875802,/world,vicon/Archie/Archie,-0.0281907228323,0.6504926375,0.116134485582,0.00270347022771,0.00132002383263,0.774240671964,0.632884136839
1385575620355916235,1268577,1385575620355916235,/world,vicon/Archie/Archie,-0.0281881050461,0.650499579093,0.116133712846,0.00270517201771,0.00128312270964,0.774245805425,0.632877925371
1385575620366198194,1268578,1385575620366198194,/world,vicon/Archie/Archie,-0.0282238551108,0.650490361283,0.116118656614,0.00272342947104,0.00137253727122,0.774319524064,0.632787463314
1385575620375986921,1268579,1385575620375986921,/world,vicon/Archie/Archie,-0.0281992017636,0.650503964264,0.116117656211,0.00272304986266,0.00143791124062,0.77425381091,0.632867722121
1385575620385948992,1268580,1385575620385948992,/world,vicon/Archie/Archie,-0.0281914706658,0.650494744346,0.116134192514,0.00271486467543,0.00130758584592,0.774238947713,0.632886223245
1385575620395861074,1268581,1385575620395861074,/world,vicon/Archie/Archie,-0.0281860334556,0.65050908569,0.116098328784,0.0027045261877,0.00140733670105,0.774277258384,0.632839183435
1385575620405917923,1268582,1385575620405917923,/world,vicon/Archie/Archie,-0.0281986539397,0.650518172242,0.116105517092,0.00270280285454,0.00138845622103,0.774264797484,0.632854478077
1385575620415800291,1268583,1385575620415800291,/world,vicon/Archie/Archie,-0.0282108906969,0.650501813271,0.116111474219,0.00271274363543,0.00142079085457,0.774314107078,0.632794031226
1385575620425937946,1268584,1385575620425937946,/world,vicon/Archie/Archie,-0.0281949866864,0.650510610019,0.116111383173,0.00271194828953,0.0013903481432,0.774274482252,0.6328425858
1385575620435978064,1268585,1385575620435978064,/world,vicon/Archie/Archie,-0.0282106673082,0.650476979796,0.116135991331,0.00271476594535,0.00130394699523,0.774296788521,0.632815465246
1385575620445838701,1268586,1385575620445838701,/world,vicon/Archie/Archie,-0.0282261593699,0.650476366287,0.11613709786,0.00271023491931,0.00131876231515,0.774299547049,0.632812078687
1385575620455952960,1268587,1385575620455952960,/world,vicon/Archie/Archie,-0.0282285241919,0.650495403236,0.116108140128,0.00272501061857,0.00139060281937,0.774322172526,0.632784176221
1385575620465891465,1268588,1385575620465891465,/world,vicon/Archie/Archie,-0.0282115985632,0.650472491171,0.116137780098,0.00272647516335,0.00128353643694,0.774301491658,0.632809701951
1385575620475984746,1268589,1385575620475984746,/world,vicon/Archie/Archie,-0.0281871745603,0.650495648369,0.116133466133,0.00271726594872,0.00128451082662,0.774244214307,0.632879817272
1385575620485936670,1268590,1385575620485936670,/world,vicon/Archie/Archie,-0.0282235533233,0.650492356446,0.116099219223,0.00271143714407,0.00139918661584,0.774318906675,0.632788211924
1385575620496933142,1268591,1385575620496933142,/world,vicon/Archie/Archie,-0.0281857342478,0.650499679502,0.116135453874,0.0027120417818,0.00128783044803,0.774244064261,0.632880016494
1385575620506233827,1268592,1385575620506233827,/world,vicon/Archie/Archie,-0.0281750998763,0.650512676145,0.116116028753,0.00272519875844,0.00139908023238,0.774265067838,0.63285402787
1385575620517367816,1268593,1385575620517367816,/world,vicon/Archie/Archie,-0.0281856412638,0.650503111404,0.116130721716,0.00269270057547,0.00128535598707,0.774237447283,0.632888199012
1385575620525941090,1268594,1385575620525941090,/world,vicon/Archie/Archie,-0.0282252381207,0.650487348861,0.11610989178,0.00271285213091,0.00139604007145,0.774312566325,0.632795971176
1385575620535926562,1268595,1385575620535926562,/world,vicon/Archie/Archie,-0.028231142236,0.650491458186,0.116117161218,0.00272343851062,0.0013811679522,0.774317664565,0.632789719892
1385575620545833856,1268596,1385575620545833856,/world,vicon/Archie/Archie,-0.0282189351653,0.650483448177,0.11610650921,0.00268122507036,0.00140704661679,0.774307789708,0.632801926395
1385575620555906680,1268597,1385575620555906680,/world,vicon/Archie/Archie,-0.0281824876078,0.650494808123,0.116136232686,0.0027117652802,0.00128636638177,0.774246842665,0.632876621636
1385575620565797228,1268598,1385575620565797228,/world,vicon/Archie/Archie,-0.0281870087063,0.650498240156,0.116124760107,0.00267153480757,0.0013172204088,0.77423806156,0.632887471723
1385575620575980595,1268599,1385575620575980595,/world,vicon/Archie/Archie,-0.0282188295963,0.650479566234,0.1161368444,0.00271448428972,0.00131263673669,0.774300780898,0.632810563487
1385575620585930712,1268600,1385575620585930712,/world,vicon/Archie/Archie,-0.0282217448602,0.650485769292,0.11610083253,0.00269858379158,0.00136726781446,0.77432309322,0.632783213692
1385575620595892341,1268601,1385575620595892341,/world,vicon/Archie/Archie,-0.0281790385005,0.650512800108,0.116111277636,0.00268999492446,0.00142712682266,0.774255814067,0.632865437214
1385575620606045414,1268602,1385575620606045414,/world,vicon/Archie/Archie,-0.0282170730319,0.650469601943,0.116139408423,0.00270766002895,0.00127371592565,0.774297345377,0.632814875906
1385575620615888267,1268603,1385575620615888267,/world,vicon/Archie/Archie,-0.0282007716729,0.650515140946,0.116115407744,0.00271405220407,0.00140823500298,0.774263362202,0.632856142221
1385575620625852298,1268604,1385575620625852298,/world,vicon/Archie/Archie,-0.028224378419,0.650490069563,0.116103220437,0.00270072740777,0.00141371526164,0.774313627053,0.63279468585
1385575620636009408,1268605,1385575620636009408,/world,vicon/Archie/Archie,-0.0282157312429,0.650491953898,0.116104974283,0.00271371376364,0.00138626730849,0.774311040311,0.632797856249
1385575620645883370,1268606,1385575620645883370,/world,vicon/Archie/Archie,-0.0281805442976,0.650506954778,0.116110427679,0.00271606971578,0.00140379461078,0.774256272178,0.632864817571
1385575620655873229,1268607,1385575620655873229,/world,vicon/Archie/Archie,-0.0282002240385,0.650507155,0.116115247794,0.00272409797465,0.00138426959655,0.774275261741,0.632841593247
1385575620665893856,1268608,1385575620665893856,/world,vicon/Archie/Archie,-0.0281822784169,0.650503839911,0.11613312498,0.00271397024493,0.00134460185293,0.774243590834,0.632880469334
1385575620675922112,1268609,1385575620675922112,/world,vicon/Archie/Archie,-0.0282199629903,0.650489554474,0.116105458386,0.00270692704525,0.00139993481113,0.774320367585,0.632786441915
1385575620686008628,1268610,1385575620686008628,/world,vicon/Archie/Archie,-0.0282020032712,0.650467468616,0.116134839502,0.00269606424313,0.00129168907176,0.774295908898,0.632816646621
1385575620695879337,1268611,1385575620695879337,/world,vicon/Archie/Archie,-0.0281858029787,0.650493026584,0.116145017258,0.00271386944838,0.00128695958942,0.774239453951,0.632885650487
1385575620705985563,1268612,1385575620705985563,/world,vicon/Archie/Archie,-0.0281887220299,0.650515585206,0.116102205648,0.00272275930563,0.00140494142463,0.774259567853,0.632860754281
1385575620715871822,1268613,1385575620715871822,/world,vicon/Archie/Archie,-0.0281918386659,0.650521807807,0.116103733717,0.00270421879426,0.00139922153806,0.774253773087,0.632867935861
1385575620725930481,1268614,1385575620725930481,/world,vicon/Archie/Archie,-0.0282198426597,0.650488544202,0.11610733715,0.00270737782447,0.00140662897158,0.774318434356,0.632788790765
1385575620736436606,1268615,1385575620736436606,/world,vicon/Archie/Archie,-0.028182081791,0.650496967339,0.116119168282,0.00269539209094,0.00131664591006,0.774235827543,0.632890104721
1385575620745856376,1268616,1385575620745856376,/world,vicon/Archie/Archie,-0.0282168682107,0.650489545001,0.116115692976,0.00271689117772,0.00142105307378,0.774314491116,0.632793542918
1385575620755950052,1268617,1385575620755950052,/world,vicon/Archie/Archie,-0.0282205162235,0.650481223929,0.11609871359,0.00270101631632,0.00143337467879,0.774317653485,0.63278971345
1385575620765881038,1268618,1385575620765881038,/world,vicon/Archie/Archie,-0.0282181169124,0.650469833765,0.1160764677,0.0028044690653,0.00131194508076,0.774292164538,0.63282071528
1385575620775937337,1268619,1385575620775937337,/world,vicon/Archie/Archie,-0.0281874739362,0.650499002109,0.11613255481,0.00270112691414,0.00131990721143,0.774249006639,0.632873950702
1385575620785886126,1268620,1385575620785886126,/world,vicon/Archie/Archie,-0.028213229951,0.650489507064,0.116104067439,0.00270606086975,0.0014155149502,0.774314931935,0.632793062331
1385575620795974737,1268621,1385575620795974737,/world,vicon/Archie/Archie,-0.0281863424634,0.650499755843,0.116107363661,0.00271123932868,0.00142028073812,0.774246692029,0.632876521816
1385575620805945096,1268622,1385575620805945096,/world,vicon/Archie/Archie,-0.0281901367607,0.650508683669,0.116110897782,0.00270252721851,0.0014175162686,0.774255466951,0.632865830087
1385575620816110475,1268623,1385575620816110475,/world,vicon/Archie/Archie,-0.0282122896084,0.650474698993,0.116135999285,0.00268487286879,0.00129879789413,0.774294392048,0.632818535621
1385575620825938537,1268624,1385575620825938537,/world,vicon/Archie/Archie,-0.0282176206799,0.650485680244,0.116109652005,0.00270377086118,0.00140138850324,0.774323127016,0.63278307555
1385575620835971309,1268625,1385575620835971309,/world,vicon/Archie/Archie,-0.0281893734238,0.650516766532,0.116105983385,0.00271524497291,0.00137943248909,0.774264446594,0.632854873847
1385575620845798835,1268626,1385575620845798835,/world,vicon/Archie/Archie,-0.0281914812158,0.650517819247,0.116102187619,0.00269149540369,0.0014442645003,0.774263969885,0.632855413891
1385575620855892984,1268627,1385575620855892984,/world,vicon/Archie/Archie,-0.0281937821832,0.650513720514,0.116112910163,0.00272181609911,0.00139899841922,0.774266715384,0.632852026914
1385575620865778580,1268628,1385575620865778580,/world,vicon/Archie/Archie,-0.0281908259256,0.650512569641,0.116102981935,0.00269120775024,0.00143398842893,0.774272936353,0.632844468341
1385575620875946989,1268629,1385575620875946989,/world,vicon/Archie/Archie,-0.0282128315269,0.650487334587,0.116104958326,0.00270131297516,0.00141081204782,0.7743143003,0.632793866017
1385575620885947533,1268630,1385575620885947533,/world,vicon/Archie/Archie,-0.028217270352,0.650482915654,0.116106282921,0.00269168767242,0.00141343019039,0.774324995209,0.632780814206
1385575620895953577,1268631,1385575620895953577,/world,vicon/Archie/Archie,-0.0281915685214,0.650503407145,0.116109728443,0.00269996883059,0.00142216684203,0.774262972356,0.632856648261
1385575620905922178,1268632,1385575620905922178,/world,vicon/Archie/Archie,-0.0281828894667,0.650503321056,0.116109579577,0.00271369104675,0.00141105897889,0.774265743926,0.632853223564
1385575620915888752,1268633,1385575620915888752,/world,vicon/Archie/Archie,-0.0282088250692,0.650474000566,0.116132275688,0.00268885227894,0.00131210281106,0.774306000229,0.632804287651
1385575620925951001,1268634,1385575620925951001,/world,vicon/Archie/Archie,-0.0282087558119,0.650474245476,0.116137643722,0.0027306690163,0.00126378795605,0.774296412493,0.632815938395
1385575620935956812,1268635,1385575620935956812,/world,vicon/Archie/Archie,-0.0281968899378,0.650502653453,0.116110546415,0.00268979470478,0.00140669445888,0.774260908641,0.632859250992
1385575620945843827,1268636,1385575620945843827,/world,vicon/Archie/Archie,-0.0281969236307,0.650504129344,0.116099396999,0.00269117155426,0.0013998557668,0.774264023452,0.63285544952
1385575620955930844,1268637,1385575620955930844,/world,vicon/Archie/Archie,-0.0281886080274,0.650511862202,0.11610089997,0.00269597851486,0.00143077829004,0.774270676673,0.632847219966
1385575620966126709,1268638,1385575620966126709,/world,vicon/Archie/Archie,-0.0282091037763,0.650471117318,0.116132807523,0.00270025444382,0.00130415039747,0.774303754912,0.632807002922
1385575620975943931,1268639,1385575620975943931,/world,vicon/Archie/Archie,-0.0281887316191,0.650507218964,0.116104758795,0.00268534681966,0.00142477017935,0.774266647273,0.632852208547
1385575620986074452,1268640,1385575620986074452,/world,vicon/Archie/Archie,-0.0281847364565,0.650493075825,0.116130215507,0.00268491599421,0.0013164747788,0.77424074065,0.63288413919
1385575620996007497,1268641,1385575620996007497,/world,vicon/Archie/Archie,-0.0282079205256,0.650471022195,0.116140153182,0.00270218295337,0.00129892047668,0.774298534528,0.632813393064
1385575621005917516,1268642,1385575621005917516,/world,vicon/Archie/Archie,-0.0282147838578,0.650488446162,0.116095952322,0.00268280504244,0.00143086212234,0.774320653114,0.632786126074
1385575621015831709,1268643,1385575621015831709,/world,vicon/Archie/Archie,-0.0282098119278,0.650490312623,0.116106574787,0.00270136570471,0.00140492438017,0.77431611436,0.632791659122
1385575621026438125,1268644,1385575621026438125,/world,vicon/Archie/Archie,-0.028185657008,0.650490216641,0.116131003058,0.0027029642906,0.00130282705075,0.774243427791,0.632880803271
1385575621036195076,1268645,1385575621036195076,/world,vicon/Archie/Archie,-0.0282189167885,0.650485599702,0.116106150742,0.00269241774519,0.00142153813524,0.774315154535,0.632792834641
1385575621045878421,1268646,1385575621045878421,/world,vicon/Archie/Archie,-0.0281955162053,0.650491905688,0.116134092616,0.00268070641159,0.00131840446497,0.774244868965,0.632879102597
1385575621056043091,1268647,1385575621056043091,/world,vicon/Archie/Archie,-0.0282146394435,0.650487377508,0.116106893061,0.00268780860119,0.00141290514738,0.774314523121,0.632793646198
1385575621065871706,1268648,1385575621065871706,/world,vicon/Archie/Archie,-0.0281898658854,0.650507360025,0.116108815654,0.00267698342376,0.00142683355027,0.774268850433,0.632849543852
1385575621075889654,1268649,1385575621075889654,/world,vicon/Archie/Archie,-0.0281961138338,0.650515165853,0.116106612593,0.00270231582138,0.00141842378561,0.774266660901,0.632852133899
1385575621085988455,1268650,1385575621085988455,/world,vicon/Archie/Archie,-0.0281766168373,0.650494393132,0.116130689616,0.00269113978694,0.00129160277176,0.774239616019,0.632885539822
1385575621095828864,1268651,1385575621095828864,/world,vicon/Archie/Archie,-0.0281888718937,0.650483283013,0.11608030399,0.00281942564566,0.00131462244902,0.77424932249,0.632873059333
1385575621106062275,1268652,1385575621106062275,/world,vicon/Archie/Archie,-0.0281981542451,0.650517015164,0.11610152466,0.00269943335121,0.00139147413986,0.774271036447,0.632846852705
1385575621115855860,1268653,1385575621115855860,/world,vicon/Archie/Archie,-0.0281804194518,0.650493508706,0.11613107739,0.00268358273887,0.00131418709172,0.774246056138,0.632877646825
1385575621125959917,1268654,1385575621125959917,/world,vicon/Archie/Archie,-0.028199733394,0.650517202671,0.116102351483,0.00271373745939,0.00138440718161,0.774263987441,0.632855431199
1385575621136009545,1268655,1385575621136009545,/world,vicon/Archie/Archie,-0.0282130737588,0.650465654802,0.11614314498,0.00270363550898,0.00130756328431,0.774305928787,0.632804321476
1385575621145860153,1268656,1385575621145860153,/world,vicon/Archie/Archie,-0.028198447671,0.65051235129,0.116112679095,0.0027175335125,0.00141737401506,0.774265896863,0.632853005853
1385575621155943282,1268657,1385575621155943282,/world,vicon/Archie/Archie,-0.0282181905139,0.650484134411,0.116103511336,0.00268886382925,0.00143006569519,0.774315577029,0.632792313555
1385575621165959102,1268658,1385575621165959102,/world,vicon/Archie/Archie,-0.0281859468289,0.65049707559,0.116140890799,0.00273475927069,0.00128060146466,0.774237091389,0.632888463688
1385575621175928439,1268659,1385575621175928439,/world,vicon/Archie/Archie,-0.0282063703738,0.65046880938,0.116137708015,0.0026996620511,0.00130682213796,0.774304714837,0.632805825369
1385575621186048255,1268660,1385575621186048255,/world,vicon/Archie/Archie,-0.0281867102189,0.650498663866,0.116129969745,0.00268360848211,0.00132857981948,0.774255323117,0.632866279514
1385575621195848045,1268661,1385575621195848045,/world,vicon/Archie/Archie,-0.02819091875,0.650510185977,0.116107495734,0.00271818557977,0.00140284809433,0.774270937387,0.632846868525
1385575621205953432,1268662,1385575621205953432,/world,vicon/Archie/Archie,-0.0281845752141,0.650491805629,0.116129660269,0.00270269151585,0.00130110951569,0.77425065346,0.632871968245
1385575621216147588,1268663,1385575621216147588,/world,vicon/Archie/Archie,-0.0281807392999,0.650483575363,0.11613255396,0.00269565919899,0.00130176112495,0.774243922393,0.632880231542
1385575621225918632,1268664,1385575621225918632,/world,vicon/Archie/Archie,-0.0282174758311,0.65046347622,0.116085845482,0.00283667597661,0.00127613983063,0.774298022355,0.632813477507
1385575621236233516,1268665,1385575621236233516,/world,vicon/Archie/Archie,-0.0281928442877,0.650506281259,0.116112833353,0.00271828484437,0.00142658810949,0.774272328538,0.632845112989
1385575621245910659,1268666,1385575621245910659,/world,vicon/Archie/Archie,-0.0282078439948,0.650460141287,0.116134413158,0.00268756614711,0.00131966597819,0.774315601483,0.632792529009
1385575621255958865,1268667,1385575621255958865,/world,vicon/Archie/Archie,-0.0282186507508,0.650484813092,0.11611214163,0.00271104851504,0.00140257517383,0.774325435978,0.632780216344
1385575621265792635,1268668,1385575621265792635,/world,vicon/Archie/Archie,-0.0282234493691,0.650489616669,0.116108357426,0.00271234811716,0.00138980078424,0.774322586319,0.632783726038
1385575621275989083,1268669,1385575621275989083,/world,vicon/Archie/Archie,-0.0282124172364,0.650477413185,0.116133173647,0.00272223968976,0.00127761549911,0.774301076802,0.632810239782
1385575621285929243,1268670,1385575621285929243,/world,vicon/Archie/Archie,-0.0282274902939,0.650480761972,0.116109960827,0.00270669182073,0.00139651419008,0.774332878268,0.632771141251
1385575621295820049,1268671,1385575621295820049,/world,vicon/Archie/Archie,-0.028222222173,0.650483640022,0.116113053187,0.00270923632696,0.00141157161094,0.774313773644,0.632794474889
1385575621305908691,1268672,1385575621305908691,/world,vicon/Archie/Archie,-0.0282252732535,0.650483881477,0.116117865581,0.00271539800546,0.00139125795241,0.774324432811,0.632781450239
1385575621315815709,1268673,1385575621315815709,/world,vicon/Archie/Archie,-0.0282198587808,0.650490149823,0.116116374664,0.00271204650079,0.00141273903166,0.77432605464,0.632779432408
1385575621326072319,1268674,1385575621326072319,/world,vicon/Archie/Archie,-0.0281785662232,0.650496375819,0.116123289227,0.00268635788326,0.00131182402014,0.77424664573,0.632876918661
1385575621335862713,1268675,1385575621335862713,/world,vicon/Archie/Archie,-0.0281918370322,0.650488524709,0.116135626884,0.00268872834424,0.00130931382587,0.774242118315,0.632882452485
1385575621345806689,1268676,1385575621345806689,/world,vicon/Archie/Archie,-0.028193285138,0.650512289186,0.116113575755,0.00270723198727,0.00141286611484,0.77425520522,0.632866140581
1385575621356101803,1268677,1385575621356101803,/world,vicon/Archie/Archie,-0.0282086196221,0.650470967681,0.116132935726,0.0026937658531,0.00129644936569,0.774304537122,0.632806089286
1385575621365783735,1268678,1385575621365783735,/world,vicon/Archie/Archie,-0.0282167305206,0.650486872678,0.116104828005,0.00271141347506,0.00139315937351,0.774316885005,0.632790699158
1385575621375962236,1268679,1385575621375962236,/world,vicon/Archie/Archie,-0.0281890463811,0.65049197882,0.116138822263,0.00270915046973,0.00130341429803,0.774245740229,0.632877946647
1385575621385883054,1268680,1385575621385883054,/world,vicon/Archie/Archie,-0.0281963218168,0.650516357695,0.116108395102,0.00271316665028,0.00141090502472,0.774262026969,0.632857773648
1385575621395886756,1268681,1385575621395886756,/world,vicon/Archie/Archie,-0.0282147788471,0.650474342752,0.116144060466,0.0027020170982,0.00126474688404,0.774298027851,0.632814082953
1385575621405953883,1268682,1385575621405953883,/world,vicon/Archie/Archie,-0.0281955290047,0.650491598635,0.116145690318,0.0027140352438,0.00127399699855,0.774251584233,0.632870836156
1385575621415864197,1268683,1385575621415864197,/world,vicon/Archie/Archie,-0.0281940296136,0.650495886038,0.116133749312,0.00269171679281,0.00132359689798,0.774247205201,0.632876186936
1385575621425961084,1268684,1385575621425961084,/world,vicon/Archie/Archie,-0.0281848753478,0.650490726497,0.116137305187,0.00272261183704,0.00128891015942,0.77424350056,0.632880658526
1385575621436005137,1268685,1385575621436005137,/world,vicon/Archie/Archie,-0.0282182103083,0.650654886357,0.116101871997,0.00252630779696,0.00146028020978,0.774121602505,0.633030196662
1385575621445851373,1268686,1385575621445851373,/world,vicon/Archie/Archie,-0.0281894530304,0.650504771804,0.116115533345,0.00269655882634,0.00139247622337,0.774268904125,0.632849471586
1385575621455929837,1268687,1385575621455929837,/world,vicon/Archie/Archie,-0.0281862001928,0.650504407641,0.116111584112,0.00271063930681,0.00141629487959,0.774266297847,0.63285254725
1385575621466154424,1268688,1385575621466154424,/world,vicon/Archie/Archie,-0.0281819228019,0.650500640071,0.116134356404,0.00271708627811,0.00128383234539,0.774243622043,0.632880543976
1385575621475893475,1268689,1385575621475893475,/world,vicon/Archie/Archie,-0.028194505722,0.65050684466,0.116104384989,0.0027080292206,0.00141997020954,0.774274672024,0.632842304626
1385575621485855759,1268690,1385575621485855759,/world,vicon/Archie/Archie,-0.0282124749615,0.650480294645,0.11611154182,0.00270581889575,0.00140249984614,0.77432527745,0.632780432884
1385575621495874688,1268691,1385575621495874688,/world,vicon/Archie/Archie,-0.0281814669048,0.650493858,0.116144068863,0.00271596346237,0.00130350246841,0.774245558244,0.632878139899
1385575621505883904,1268692,1385575621505883904,/world,vicon/Archie/Archie,-0.0281982867527,0.650499702672,0.116138850564,0.00271769991204,0.00126731566321,0.774244329627,0.632879708996
1385575621515857895,1268693,1385575621515857895,/world,vicon/Archie/Archie,-0.0282226345027,0.650481287986,0.116127362887,0.00271960159054,0.00129962301384,0.774296637993,0.632815637559
1385575621526050417,1268694,1385575621526050417,/world,vicon/Archie/Archie,-0.0282017527667,0.650507395139,0.116107680469,0.00269281915143,0.00141975656527,0.774250255757,0.632872241828
1385575621535895408,1268695,1385575621535895408,/world,vicon/Archie/Archie,-0.0281922726441,0.650508401381,0.116111686442,0.00271051956601,0.00141643836578,0.774258973845,0.63286150792
1385575621545814473,1268696,1385575621545814473,/world,vicon/Archie/Archie,-0.0282182549449,0.650487586424,0.116108838074,0.00269306715235,0.00141176903443,0.774321635479,0.632784923277
1385575621555979983,1268697,1385575621555979983,/world,vicon/Archie/Archie,-0.0282289992321,0.650490725771,0.11611196999,0.00266393518589,0.00139501682798,0.774315979852,0.632792004313
1385575621565931539,1268698,1385575621565931539,/world,vicon/Archie/Archie,-0.0282128203661,0.650478021119,0.116137458792,0.00272343879179,0.00127907802374,0.774300599907,0.632810815192
1385575621576070343,1268699,1385575621576070343,/world,vicon/Archie/Archie,-0.0281864190127,0.650517411764,0.116105649752,0.0027238697999,0.00139567352335,0.774258426971,0.632862165794
1385575621585976368,1268700,1385575621585976368,/world,vicon/Archie/Archie,-0.0281842309295,0.650508786927,0.116112174729,0.00271099692754,0.00139994752941,0.774262793815,0.632856869091
1385575621595784469,1268701,1385575621595784469,/world,vicon/Archie/Archie,-0.0282214982246,0.650492071484,0.116111255761,0.00271068508816,0.00137783947809,0.774320704421,0.632786062149
1385575621605911808,1268702,1385575621605911808,/world,vicon/Archie/Archie,-0.0282250615841,0.650483953434,0.116117645898,0.00272444569123,0.00138915817232,0.774332707364,0.63277129039
1385575621615877914,1268703,1385575621615877914,/world,vicon/Archie/Archie,-0.0281962980975,0.650508795728,0.116106378381,0.00270081973044,0.00140198792047,0.774262927655,0.632856744344
1385575621625881621,1268704,1385575621625881621,/world,vicon/Archie/Archie,-0.0281924872564,0.650506236203,0.116107580034,0.00271473992942,0.00139581117923,0.77426238229,0.63285736566
1385575621635944659,1268705,1385575621635944659,/world,vicon/Archie/Archie,-0.0282013992162,0.650503763572,0.116111723208,0.00271785190896,0.00138168590863,0.774260609716,0.632859551929
1385575621645935425,1268706,1385575621645935425,/world,vicon/Archie/Archie,-0.0282110890898,0.650468246245,0.116140302362,0.00272607303803,0.00126500365809,0.774311778994,0.632797153283
1385575621655934279,1268707,1385575621655934279,/world,vicon/Archie/Archie,-0.0281953017974,0.650512840827,0.116101705958,0.00272113317877,0.00140663791566,0.77426036201,0.632859785911
1385575621666065648,1268708,1385575621666065648,/world,vicon/Archie/Archie,-0.0281857333445,0.65049593504,0.11613109327,0.00269004836571,0.0013161980137,0.774254136705,0.632867729512
1385575621675893965,1268709,1385575621675893965,/world,vicon/Archie/Archie,-0.0282212789584,0.650494493775,0.116103015701,0.00270259449293,0.00140284049711,0.774311028886,0.632797881291
1385575621685993188,1268710,1385575621685993188,/world,vicon/Archie/Archie,-0.0281902957239,0.650509629218,0.116110977586,0.00270165270217,0.00140924961501,0.774272011325,0.632845611162
1385575621695832442,1268711,1385575621695832442,/world,vicon/Archie/Archie,-0.0282235243249,0.650489529111,0.116118897574,0.00271567747855,0.00140417805943,0.774317191306,0.632790281711
1385575621705978986,1268712,1385575621705978986,/world,vicon/Archie/Archie,-0.0282024042759,0.650514967311,0.1161068677,0.00270820304596,0.00140507301066,0.774261881561,0.632857985781
1385575621716167053,1268713,1385575621716167053,/world,vicon/Archie/Archie,-0.0281855377676,0.650499960595,0.116136013075,0.0027009224113,0.00129673322151,0.774252357583,0.632869899963
1385575621725972953,1268714,1385575621725972953,/world,vicon/Archie/Archie,-0.0282239755107,0.650483565506,0.116110452211,0.00271706665147,0.00140069503769,0.774332354314,0.632771728718
1385575621735980371,1268715,1385575621735980371,/world,vicon/Archie/Archie,-0.0281812229937,0.65050058692,0.116137398641,0.00271846723695,0.00130047387539,0.774239578673,0.632885450552
1385575621745894628,1268716,1385575621745894628,/world,vicon/Archie/Archie,-0.0282009248347,0.65051094393,0.116104143982,0.00270320765202,0.00141906756551,0.774268850947,0.632849449213
1385575621755966774,1268717,1385575621755966774,/world,vicon/Archie/Archie,-0.0282101028402,0.65048330171,0.116110938526,0.00271462241171,0.00141346577519,0.774315962165,0.632791769602
1385575621766043644,1268718,1385575621766043644,/world,vicon/Archie/Archie,-0.0282173372013,0.650490104414,0.116119126666,0.00271321698811,0.00141318212231,0.774321312519,0.632785229243
1385575621775994743,1268719,1385575621775994743,/world,vicon/Archie/Archie,-0.028181827085,0.650499620438,0.116138325413,0.00271838223381,0.00130728367139,0.774253100153,0.632868895041
1385575621785952458,1268720,1385575621785952458,/world,vicon/Archie/Archie,-0.0281936827491,0.650514136569,0.116109228559,0.00270167106933,0.00141156812116,0.774266639221,0.632852178505
1385575621795819570,1268721,1385575621795819570,/world,vicon/Archie/Archie,-0.028224867475,0.650498053061,0.116098428175,0.00270607353242,0.0013978561968,0.774325026664,0.632780748953
1385575621805930954,1268722,1385575621805930954,/world,vicon/Archie/Archie,-0.0282233230067,0.650492633737,0.116108396988,0.00271318317614,0.00140702902393,0.774319688283,0.632787230627
1385575621815857840,1268723,1385575621815857840,/world,vicon/Archie/Archie,-0.0282165907088,0.650485846307,0.116108497602,0.00271796346367,0.00140239525729,0.774311292324,0.632797494102
1385575621825908346,1268724,1385575621825908346,/world,vicon/Archie/Archie,-0.0282277761313,0.650482812645,0.116114167355,0.0027212304762,0.0014061271061,0.774320701926,0.632785957714
1385575621836096458,1268725,1385575621836096458,/world,vicon/Archie/Archie,-0.0282100216096,0.650462490539,0.116139340935,0.0026904213175,0.00129886163296,0.774296378455,0.632816081419
1385575621845851083,1268726,1385575621845851083,/world,vicon/Archie/Archie,-0.0282182467734,0.650492789208,0.116104642906,0.00270077999703,0.00141613331148,0.77429963946,0.632811795628
1385575621855906815,1268727,1385575621855906815,/world,vicon/Archie/Archie,-0.0281849982605,0.650500139336,0.116128213633,0.00271409043202,0.00128014655422,0.774238279592,0.632887100005
1385575621865784264,1268728,1385575621865784264,/world,vicon/Archie/Archie,-0.0281859532422,0.650514373394,0.116101818414,0.00269299016609,0.00140338262154,0.774262075777,0.63285781684
1385575621876041332,1268729,1385575621876041332,/world,vicon/Archie/Archie,-0.0281834149839,0.650495690372,0.116120694961,0.00267857693244,0.00131345732608,0.774252601034,0.632869662606
1385575621885842691,1268730,1385575621885842691,/world,vicon/Archie/Archie,-0.0281929969728,0.650512593239,0.116110225234,0.00271347366901,0.00139935692382,0.774259936065,0.632860356055
1385575621895917133,1268731,1385575621895917133,/world,vicon/Archie/Archie,-0.0281929067131,0.65049453556,0.116128842106,0.00270370718663,0.00132568153056,0.774249671645,0.632873114055
1385575621905941757,1268732,1385575621905941757,/world,vicon/Archie/Archie,-0.0281875982105,0.650511491592,0.116111951018,0.00271188116945,0.00140213352998,0.774260609282,0.6328595331
1385575621916124942,1268733,1385575621916124942,/world,vicon/Archie/Archie,-0.0282087820433,0.650467825325,0.116138399665,0.00271177945517,0.0012969284345,0.774294566724,0.632818210998
1385575621925948389,1268734,1385575621925948389,/world,vicon/Archie/Archie,-0.0281888549055,0.65051669653,0.116110472422,0.00272243632373,0.00141872299332,0.77425937484,0.632860961064
1385575621935893937,1268735,1385575621935893937,/world,vicon/Archie/Archie,-0.028203215693,0.650508256937,0.116113375704,0.00272367146618,0.00138839501785,0.774269706282,0.632848383033
1385575621945880191,1268736,1385575621945880191,/world,vicon/Archie/Archie,-0.0281842019401,0.650513210726,0.116099910644,0.00270034851145,0.00139361561698,0.774263190027,0.63285644385
1385575621955961493,1268737,1385575621955961493,/world,vicon/Archie/Archie,-0.0282214819816,0.650475214136,0.116140654543,0.00267453792424,0.00129353763697,0.774300549622,0.632811055895
1385575621965873975,1268738,1385575621965873975,/world,vicon/Archie/Archie,-0.0281973053544,0.650507230229,0.116113906151,0.00272344662856,0.00137047432057,0.774258944266,0.632861589815
1385575621975911791,1268739,1385575621975911791,/world,vicon/Archie/Archie,-0.0281891083407,0.650510480518,0.116116468996,0.00271976514221,0.0013992228931,0.774257054936,0.632863854185
1385575621985992086,1268740,1385575621985992086,/world,vicon/Archie/Archie,-0.0282131236156,0.650470895168,0.116140069351,0.00270137233701,0.00128664532771,0.774298740837,0.632813169166
1385575621995994773,1268741,1385575621995994773,/world,vicon/Archie/Archie,-0.0282154033474,0.650475686011,0.116131515803,0.00271029363253,0.0012975117035,0.774302086457,0.632809015169
1385575622006004687,1268742,1385575622006004687,/world,vicon/Archie/Archie,-0.0281934241131,0.650518221661,0.116101392809,0.00269982912967,0.00139531319812,0.774263784306,0.632855715259
1385575622015794442,1268743,1385575622015794442,/world,vicon/Archie/Archie,-0.0281994589358,0.650511249282,0.11610789936,0.00272257155876,0.00141125274854,0.774254776431,0.632866602961
1385575622025957652,1268744,1385575622025957652,/world,vicon/Archie/Archie,-0.0281993669739,0.650515067165,0.116100373815,0.00270722306906,0.00141010718812,0.774258884819,0.632861645085
1385575622035948700,1268745,1385575622035948700,/world,vicon/Archie/Archie,-0.0282177493415,0.650487746578,0.116107431328,0.00266894796012,0.0014010595367,0.774321102858,0.632785701022
1385575622046008797,1268746,1385575622046008797,/world,vicon/Archie/Archie,-0.0281967298832,0.650511971591,0.116106550964,0.00270650680629,0.00139167639451,0.774264104885,0.632855302533
1385575622055987338,1268747,1385575622055987338,/world,vicon/Archie/Archie,-0.0282241334077,0.650493873881,0.116111734546,0.00271876963032,0.0013882664066,0.774313012513,0.632795416909
1385575622065794804,1268748,1385575622065794804,/world,vicon/Archie/Archie,-0.0282230796325,0.65048135696,0.116114630612,0.00269530166421,0.00140226083791,0.774307164662,0.632802642035
1385575622075935866,1268749,1385575622075935866,/world,vicon/Archie/Archie,-0.0282163990696,0.650489071139,0.116115127359,0.00271597438716,0.00140257248949,0.774310883019,0.632798003087
1385575622086004971,1268750,1385575622086004971,/world,vicon/Archie/Archie,-0.0281983747231,0.650510989287,0.116119364889,0.00270585212295,0.00141349357147,0.774265062843,0.632854084969
1385575622095809352,1268751,1385575622095809352,/world,vicon/Archie/Archie,-0.0282022358614,0.650520592075,0.116100276854,0.00271019148313,0.00138571438958,0.774263233461,0.632856365985
1385575622105979087,1268752,1385575622105979087,/world,vicon/Archie/Archie,-0.0282003138466,0.650506448927,0.116103812342,0.00269324500223,0.00142000398326,0.774267541357,0.632851091823
1385575622115826171,1268753,1385575622115826171,/world,vicon/Archie/Archie,-0.0281981977447,0.650511401672,0.116113036313,0.0026989711492,0.00140805777955,0.774263581323,0.632855939029
1385575622125946185,1268754,1385575622125946185,/world,vicon/Archie/Archie,-0.0282257163349,0.650460645057,0.116093622663,0.00281922995232,0.00127269760104,0.774296389868,0.632815559875
1385575622136009289,1268755,1385575622136009289,/world,vicon/Archie/Archie,-0.0281869830185,0.650512266073,0.1161052694,0.00271782058165,0.00139028185918,0.774263659603,0.63285580189
1385575622145976098,1268756,1385575622145976098,/world,vicon/Archie/Archie,-0.0281909734149,0.650492525515,0.116129404678,0.00268873396639,0.00128280316127,0.774246091433,0.632877646174
1385575622155916003,1268757,1385575622155916003,/world,vicon/Archie/Archie,-0.0282041623257,0.650511279434,0.116110264268,0.00272320060566,0.00138372184542,0.774258429799,0.632862191458
1385575622165808869,1268758,1385575622165808869,/world,vicon/Archie/Archie,-0.028226331874,0.650493150594,0.11611734915,0.00271005726364,0.00138598978616,0.774311298966,0.632797556029
1385575622176116564,1268759,1385575622176116564,/world,vicon/Archie/Archie,-0.0281982881527,0.650513826809,0.116117057088,0.00271258373076,0.00138508316649,0.774267491636,0.632851147451
1385575622185899298,1268760,1385575622185899298,/world,vicon/Archie/Archie,-0.0281972106641,0.650507304507,0.116109763011,0.00269943592639,0.00142820506869,0.774274289472,0.632842790856
1385575622196026194,1268761,1385575622196026194,/world,vicon/Archie/Archie,-0.028211702036,0.650479342302,0.116142233079,0.00271151072995,0.0012819542441,0.774294731654,0.632818040858
1385575622205937561,1268762,1385575622205937561,/world,vicon/Archie/Archie,-0.0281967897425,0.650513554184,0.116107591119,0.00272578898991,0.00140550590917,0.77426186161,0.632857933729
1385575622215800108,1268763,1385575622215800108,/world,vicon/Archie/Archie,-0.0281961359196,0.650509904909,0.116104395468,0.00270371085114,0.00139980169673,0.77426943699,0.632848772967
1385575622225974247,1268764,1385575622225974247,/world,vicon/Archie/Archie,-0.028193012747,0.650507773798,0.116107250433,0.00270827137177,0.00137607697935,0.77427222222,0.632845397847
1385575622236059081,1268765,1385575622236059081,/world,vicon/Archie/Archie,-0.0281909932921,0.650500642231,0.116129587112,0.00271286770361,0.00127133163018,0.774240120359,0.632884871118
1385575622245799006,1268766,1385575622245799006,/world,vicon/Archie/Archie,-0.0281989322508,0.650507943001,0.116115551739,0.00270006480421,0.00141211141808,0.774273324965,0.632844004348
1385575622255874856,1268767,1385575622255874856,/world,vicon/Archie/Archie,-0.0282046902584,0.65050641927,0.116108520565,0.00269169464259,0.0014066115927,0.774268097615,0.632850447767
1385575622265812399,1268768,1385575622265812399,/world,vicon/Archie/Archie,-0.028225046151,0.65048535968,0.116113937241,0.0027228925798,0.00136470289856,0.774325150165,0.632780598047
1385575622276335708,1268769,1385575622276335708,/world,vicon/Archie/Archie,-0.028193077374,0.650495805029,0.116132640564,0.0027353549245,0.00128587486287,0.774244501644,0.63287938506
1385575622285962379,1268770,1385575622285962379,/world,vicon/Archie/Archie,-0.0281967768909,0.650494215607,0.116134889429,0.00272005131244,0.00127386236023,0.774236316384,0.632889488763
1385575622295832993,1268771,1385575622295832993,/world,vicon/Archie/Archie,-0.0281962676415,0.650505542107,0.116107896618,0.002688369833,0.00141148759971,0.774247245806,0.632875961569
1385575622306217565,1268772,1385575622306217565,/world,vicon/Archie/Archie,-0.0281949613703,0.65051410179,0.116116335257,0.00271220538999,0.00140522247737,0.774267998027,0.632850485125
1385575622316063206,1268773,1385575622316063206,/world,vicon/Archie/Archie,-0.0281886241932,0.650492835609,0.116142492399,0.00271176879657,0.00129577871254,0.774248774749,0.632874238745
1385575622325983964,1268774,1385575622325983964,/world,vicon/Archie/Archie,-0.0281946705452,0.650520503904,0.116108466854,0.00272013688023,0.00138735263805,0.7742556168,0.632865638159
1385575622336057344,1268775,1385575622336057344,/world,vicon/Archie/Archie,-0.0282270016258,0.650474818731,0.116123688969,0.00268963728401,0.00131745233313,0.774305160706,0.632805300448
1385575622345881082,1268776,1385575622345881082,/world,vicon/Archie/Archie,-0.0281937206231,0.65050641296,0.116108044033,0.00269507731634,0.0014002441311,0.774273999956,0.632843226136
1385575622355977967,1268777,1385575622355977967,/world,vicon/Archie/Archie,-0.0282033385119,0.650492124958,0.116136768859,0.00270584398828,0.00128212236495,0.774249875725,0.632872944998
1385575622366065258,1268778,1385575622366065258,/world,vicon/Archie/Archie,-0.028197624271,0.650508046409,0.116111350201,0.00270100586997,0.00144027521929,0.774273007246,0.632844325585
1385575622375987358,1268779,1385575622375987358,/world,vicon/Archie/Archie,-0.0282095813127,0.650468406203,0.116134702319,0.00269731936548,0.00128667415699,0.774294430428,0.632818460498
1385575622385980773,1268780,1385575622385980773,/world,vicon/Archie/Archie,-0.0282039840866,0.650503153629,0.11611466513,0.00272380660594,0.00140674604162,0.774269715596,0.63284833053
1385575622396277001,1268781,1385575622396277001,/world,vicon/Archie/Archie,-0.0282170730683,0.650472192039,0.116153666324,0.00270845865682,0.00130235100494,0.774297459182,0.632814674955
1385575622406618912,1268782,1385575622406618912,/world,vicon/Archie/Archie,-0.0282276264182,0.650490019078,0.116117645626,0.00270669423079,0.00139803094353,0.774319692335,0.632787273401
1385575622416097870,1268783,1385575622416097870,/world,vicon/Archie/Archie,-0.0281947953177,0.650507110278,0.116121325835,0.00270734629828,0.00141490323524,0.774269403219,0.63284876516
1385575622425910238,1268784,1385575622425910238,/world,vicon/Archie/Archie,-0.0282131910072,0.650482177932,0.116119310318,0.00270189756805,0.00139355442072,0.774326492705,0.632778982309
1385575622436063056,1268785,1385575622436063056,/world,vicon/Archie/Archie,-0.0281929489316,0.650491620859,0.11614176454,0.00270682675596,0.00126545891679,0.77423551882,0.632890538008
1385575622445905792,1268786,1385575622445905792,/world,vicon/Archie/Archie,-0.0282153544707,0.650473568566,0.116134457991,0.0026688029074,0.00130615600324,0.774304696089,0.632805980583
1385575622455954927,1268787,1385575622455954927,/world,vicon/Archie/Archie,-0.0281993543558,0.650510740331,0.116113203231,0.00270032828384,0.00139001887988,0.774260169441,0.632860147341
1385575622465831399,1268788,1385575622465831399,/world,vicon/Archie/Archie,-0.0281975907843,0.650512654062,0.116102703065,0.00268880106318,0.00141645644217,0.774272308567,0.632845286138
1385575622475939024,1268789,1385575622475939024,/world,vicon/Archie/Archie,-0.0281980203832,0.650511341486,0.116119641835,0.00271773052763,0.00138748203356,0.774260738036,0.632859382778
1385575622485950443,1268790,1385575622485950443,/world,vicon/Archie/Archie,-0.0281977418166,0.650514299898,0.116115731807,0.00270112985388,0.00138896671876,0.774261358745,0.632858691196
1385575622495946988,1268791,1385575622495946988,/world,vicon/Archie/Archie,-0.0281913023186,0.65048691619,0.116140804285,0.00267215305325,0.00131820855776,0.774251822772,0.632870632008
1385575622505944409,1268792,1385575622505944409,/world,vicon/Archie/Archie,-0.0282234457949,0.650490362207,0.116117299945,0.00269567096854,0.00141428614229,0.774315462079,0.632792460715
1385575622516056385,1268793,1385575622516056385,/world,vicon/Archie/Archie,-0.0282076169948,0.650473844686,0.116125715715,0.00268692563648,0.00129069604453,0.77429605811,0.632816504944
1385575622526004634,1268794,1385575622526004634,/world,vicon/Archie/Archie,-0.028211531597,0.650488762032,0.116104215986,0.00270159310804,0.0013883660301,0.774316480888,0.632791246194
