%time,field.linear.x,field.linear.y,field.linear.z,field.angular.x,field.angular.y,field.angular.z
1385570176201925445,-0.0,0.0,0.0,1.0,0.0,0.0
1385570176391816395,-0.0,0.0,6.31533289566e-08,1.0,0.0,0.153491786214
1385570176591852585,-0.0124697952447,0.0205698607431,-0.0110610155193,1.0,0.0,0.0898353801824
1385570176791713635,-0.0129781074119,0.0213777577778,-0.00733430207638,1.0,0.0,0.0537833674895
1385570176992008311,-0.0108060433485,0.0177482398499,-0.00236354223271,1.0,0.0,0.0295627374852
1385570177191770626,-0.00705077193137,0.0115238617456,0.00446334096011,1.0,0.0,0.0152792159462
1385570177391794042,-0.0033092325594,0.00537655006445,0.012480375981,1.0,0.0,0.00685124341657
1385570177591802620,-0.000626946231704,0.000990288164084,0.0213973412929,1.0,0.0,0.00195022498499
1385570177791917195,0.000599819794726,-0.00116041315691,0.0309641360451,1.0,0.0,-0.000929378102387
1385570177991826581,0.000824680607022,-0.00141033524039,0.0410360697181,1.0,0.0,-0.00260602869401
1385570178191817390,0.000166161448483,-0.000406393695319,0.0514425611318,1.0,0.0,-0.00367591578391
1385570178391965189,-0.000731778571775,0.00110762137714,0.0620824719361,1.0,0.0,-0.00424455371411
1385570178591712470,-0.0010893424256,0.00248711174575,0.0729634709419,1.0,0.0,-0.00527757948493
1385570178791725910,-0.0009149965376,0.00304113987614,0.0839179649,1.0,0.0,-0.00739936567613
1385570178991725696,-0.000485997980632,0.00346921342824,0.0949816032323,1.0,0.0,-0.00979923494448
1385570179191705707,-0.00207451328169,0.00527353341884,0.105104902508,1.0,0.0,-0.0121182236507
1385570179391874160,-0.00869742605622,0.00929441639365,0.110784692767,1.0,0.0,-0.0127211915977
1385570179591795576,-0.0135681089225,0.0125300194672,0.109915246838,1.0,0.0,-0.0116931158011
1385570179791756393,-0.0194948812151,0.0167391001451,0.104674674154,1.0,0.0,-0.0115052413454
1385570179991789289,-0.0321965260233,0.0217856477716,0.0941016642251,1.0,0.0,-0.0113502537232
1385570180191767023,-0.0450701006279,0.0242362852123,0.0852773735913,1.0,0.0,-0.0107823411286
1385570180391785965,-0.0549558879347,0.0261684085767,0.0843032302889,1.0,0.0,-0.0101558976049
1385570180591844858,-0.0606149394609,0.0263950213698,0.0912006229774,1.0,0.0,-0.0095141554048
1385570180791759026,-0.0623264959089,0.0252762269527,0.103746513881,1.0,0.0,-0.00881893527644
1385570180991908794,-0.0615782265421,0.0243363987005,0.118082902527,1.0,0.0,-0.00810464777105
1385570181191770641,-0.0586556539257,0.0214852657551,0.132532886723,1.0,0.0,-0.00728318363042
1385570181391826710,-0.0538110360623,0.0188101518715,0.145908249905,1.0,0.0,-0.00619189060031
1385570181591795219,-0.0485151977238,0.0177854084829,0.151916964395,1.0,0.0,-0.00538573420716
1385570181791840870,-0.0448202322441,0.0176437544766,0.154483586498,1.0,0.0,-0.00470851527939
1385570181991787233,-0.0433509011893,0.0155028467152,0.15400646226,1.0,0.0,-0.00406975167183
1385570182192021706,-0.0426635841644,0.0148662316177,0.150935357849,1.0,0.0,-0.00329669622259
1385570182391800336,-0.0436115901224,0.0141595408543,0.145553412497,1.0,0.0,-0.00271226273174
1385570182591838775,-0.0450598280098,0.01361384316,0.138282248412,1.0,0.0,-0.00231186704459
1385570182791768370,-0.0481549993151,0.0126446568068,0.129645455753,1.0,0.0,-0.00183755382301
1385570182991882735,-0.0502733992889,0.0120673994289,0.121663093894,1.0,0.0,-0.00151316788564
1385570183191712396,-0.0524056605501,0.0117403582324,0.11393117024,1.0,0.0,-0.00120745828199
1385570183391708044,-0.0536899207416,0.0116718905155,0.106996615026,1.0,0.0,-0.00105535206052
1385570183591791995,-0.0541231706019,0.0121588479335,0.100611269636,1.0,0.0,-0.000957939915851
1385570183791793410,-0.0543368427345,0.0122661879026,0.0941043196179,1.0,0.0,-0.000881738710168
1385570183991795363,-0.0537234999802,0.0139063245692,0.0877320953853,1.0,0.0,-0.00107925964762
1385570184191751909,-0.0535180489408,0.0147508668436,0.0815213953884,1.0,0.0,-0.00112638552893
1385570184391831580,-0.0531860608416,0.0155234474481,0.0757004462208,1.0,0.0,-0.0010334369727
1385570184591759742,-0.0525056773207,0.0172503614101,0.0701791218778,1.0,0.0,-0.00109171231145
1385570184791724843,-0.0515826240396,0.0187067907727,0.0653885006709,1.0,0.0,-0.00122896777363
1385570184991755639,-0.0504589556297,0.0204558804512,0.060748008732,1.0,0.0,-0.00138505163734
1385570185191845470,-0.0493551595533,0.0214346858225,0.0563658447799,1.0,0.0,-0.00134402257649
1385570185391831029,-0.0482621787101,0.0217905437904,0.0524090349201,1.0,0.0,-0.0011373693053
1385570185591715866,-0.0472221657066,0.0217494433006,0.0490269071877,1.0,0.0,-0.000812504284462
1385570185791883123,-0.0463722297114,0.0210263707079,0.0462101389139,1.0,0.0,-0.0002975060833
1385570185991840743,-0.0453798092895,0.0208081315626,0.0434886619286,1.0,0.0,4.20585808157e-05
1385570186191764756,-0.0446910914645,0.0203130375176,0.0409217669638,1.0,0.0,0.000436422137359
1385570186391777270,-0.0437604899131,0.0198887110353,0.039038562887,1.0,0.0,0.000849333912111
1385570186591822142,-0.0427572434691,0.0195406543385,0.0368937910348,1.0,0.0,0.00134095397601
1385570186791795211,-0.0412777308351,0.0196056076031,0.0352435505641,1.0,0.0,0.00173781634841
1385570186991732227,-0.0399719062,0.0194139502737,0.0334999585786,1.0,0.0,0.00231856679828
1385570187191744095,-0.0385362590977,0.0194505817089,0.0315561273524,1.0,0.0,0.00286821639261
1385570187391709012,-0.0370695159033,0.0193590672409,0.0301257970339,1.0,0.0,0.00345395252745
1385570187591726399,-0.0357701462687,0.0192547106394,0.0287868474888,1.0,0.0,0.00404578820148
1385570187791717133,-0.0347275395038,0.0189563913652,0.0272313053274,1.0,0.0,0.00467662986257
1385570187991848455,-0.0334680527488,0.0188813145148,0.0263489707617,1.0,0.0,0.00532780197956
1385570188191766595,-0.0327506334113,0.0180597665527,0.0252290288492,1.0,0.0,0.00624822779605
1385570188391797885,-0.0320735890924,0.0171064783215,0.0240634437234,1.0,0.0,0.00723084987633
1385570188591768625,-0.0317089390561,0.01578664412,0.0223172305607,1.0,0.0,0.00822304534674
1385570188791771252,-0.0309200232721,0.0143829140696,0.0214816304319,1.0,0.0,0.00920216759284
1385570188991722221,-0.0298604941657,0.0132121357314,0.0205925551508,1.0,0.0,0.00994795858666
1385570189191767375,-0.0283255839505,0.0123193570438,0.0199504168304,1.0,0.0,0.0105034096975
1385570189391900266,-0.0259962783744,0.0119578997094,0.0192460832042,1.0,0.0,0.0107780125295
1385570189591746557,-0.0238776476449,0.0112732847116,0.0182624381685,1.0,0.0,0.0111394118264
1385570189791886069,-0.0217546563318,0.011079215385,0.017484193054,1.0,0.0,0.0114156709954
1385570189991772298,-0.01998522505,0.0116162720198,0.0171726099789,1.0,0.0,0.0114948699697
1385570190191744665,-0.0184288242928,0.0132716136144,0.0162292974243,1.0,0.0,0.0111881832488
1385570190391853239,-0.0168101195347,0.0152655917612,0.0153529079496,1.0,0.0,0.0107488149098
1385570190591772401,-0.0152426234591,0.0173278198877,0.0144769988737,1.0,0.0,0.0102312968971
1385570190791856115,-0.0142528087063,0.018871787506,0.013577914342,1.0,0.0,0.00971425739392
1385570190991817813,-0.0136112526559,0.0201847801964,0.0128222542465,1.0,0.0,0.00909012750918
1385570191191845888,-0.0135268127617,0.0209665647851,0.0119384962792,1.0,0.0,0.00841795172165
1385570191391740271,-0.0139573948825,0.0211853567825,0.0111082663634,1.0,0.0,0.00768103518124
1385570191591713479,-0.014554116448,0.0208752744171,0.0104336419159,1.0,0.0,0.00689253499663
1385570191791823349,-0.0153479419923,0.0204548557087,0.00997726252022,1.0,0.0,0.00605929560698
1385570191991847741,-0.0163761610093,0.019691290048,0.00913845237,1.0,0.0,0.00536627347038
1385570192191723747,-0.0173368162767,0.019027802985,0.0085543453257,1.0,0.0,0.00455599058308
1385570192391759112,-0.0182781131476,0.0181081878266,0.00802606366323,1.0,0.0,0.00367594537968
1385570192591731957,-0.0188080047615,0.0172634894212,0.00759377435356,1.0,0.0,0.002751230996
1385570192791723795,-0.0196292843277,0.0155813384466,0.00703948308933,1.0,0.0,0.0022023495838
1385570192991731228,-0.0195375782178,0.0142103875319,0.00685898469657,1.0,0.0,0.00141219495123
1385570193191738528,-0.0194649966389,0.0122455733257,0.00644353995886,1.0,0.0,0.000767694974042
1385570193391786220,-0.0195338893883,0.0100548499818,0.00613883341751,1.0,0.0,0.000389529805077
1385570193591943423,-0.0194421271545,0.00806133517452,0.00576496202293,1.0,0.0,4.91348644402e-05
1385570193791787420,-0.0192561845174,0.00627980924975,0.00542569179839,1.0,0.0,-0.000212879727647
1385570193991784546,-0.0188422914946,0.00479562209178,0.00488379186802,1.0,0.0,-0.000453594249695
1385570194191766564,-0.0184511637861,0.00364846664863,0.00429375123949,1.0,0.0,-0.000590178053156
1385570194391760687,-0.0182028880452,0.00291908698385,0.00397263390579,1.0,0.0,-0.000685189608451
1385570194591732810,-0.0180709075351,0.0028135635944,0.00392617817534,1.0,0.0,-0.000695617340421
1385570194791716264,-0.017874313272,0.00316091660775,0.00387189584559,1.0,0.0,-0.000611975595366
1385570194991737601,-0.0176678861124,0.00393552235005,0.00401347041575,1.0,0.0,-0.000518213768685
1385570195191720510,-0.0172117255862,0.0053066613348,0.00432269233199,1.0,0.0,-0.00067269417507
1385570195391726085,-0.0169156321416,0.00712022909054,0.00469471486558,1.0,0.0,-0.00084029214245
1385570195591746011,-0.0169556231902,0.0091305796866,0.00492982684845,1.0,0.0,-0.00114114422907
1385570195791816172,-0.0174400333878,0.0107989552875,0.00502776110867,1.0,0.0,-0.00168366371331
1385570195991730523,-0.0183335078023,0.0116483289775,0.00524471043473,1.0,0.0,-0.00215496266202
1385570196191758160,-0.0189800440417,0.0122926186862,0.00524541943761,1.0,0.0,-0.00270567166914
1385570196391740515,-0.0193897082785,0.0127901115463,0.00488789463955,1.0,0.0,-0.00329235279256
1385570196591758320,-0.0196337720447,0.0131800359516,0.00479482970582,1.0,0.0,-0.00373742741431
1385570196791708331,-0.0194894362053,0.0131435643507,0.0045065018705,1.0,0.0,-0.00410657419017
1385570196991865884,-0.0187433228585,0.0129412349593,0.00430843531193,1.0,0.0,-0.0045252793037
1385570197191858524,-0.0173178793365,0.0122331357613,0.00419590205126,1.0,0.0,-0.00475462681671
1385570197391726299,-0.0151589981499,0.0114913724116,0.00397799834458,1.0,0.0,-0.00492917213428
1385570197591724992,-0.0126825905158,0.0110834474867,0.00430231906643,1.0,0.0,-0.00503985311881
1385570197791727168,-0.0104776842216,0.0110052970179,0.00463577338099,1.0,0.0,-0.00518138049691
1385570197991724164,-0.00884359885069,0.0108358293476,0.00479470715133,1.0,0.0,-0.0052677733024
1385570198191799851,-0.00789182497166,0.0106612230557,0.00484009187599,1.0,0.0,-0.00544288486693
1385570198391776428,-0.00774579547563,0.0106156526548,0.00459357545012,1.0,0.0,-0.0057206518492
1385570198591723921,-0.00842845926452,0.0107235185794,0.00432658989145,1.0,0.0,-0.00600062932701
1385570198791799364,-0.00971486856283,0.0108600453489,0.00393151891599,1.0,0.0,-0.00634140728811
1385570198991771437,-0.011313281822,0.0111373641329,0.00362644741299,1.0,0.0,-0.00662942873538
1385570199191744016,-0.012802096493,0.0113597783882,0.0033010460554,1.0,0.0,-0.00685520481469
1385570199391728839,-0.0139269220953,0.0113903234686,0.00297894983761,1.0,0.0,-0.00696785434309
1385570199591737734,-0.0144618997044,0.0115556349945,0.00243722343633,1.0,0.0,-0.00715226045465
1385570199791776252,-0.014569113296,0.0117172612253,0.00183135736173,1.0,0.0,-0.00724772383689
1385570199991798305,-0.0140392412595,0.0121019707698,0.00160629821625,1.0,0.0,-0.00723520779062
1385570200191914503,-0.013188000127,0.0121144603205,0.0013789709959,1.0,0.0,-0.00712251972268
1385570200391830417,-0.0119813221548,0.0119421993505,0.000999411650596,1.0,0.0,-0.00709478404819
1385570200591707241,-0.0105886595075,0.011901872872,0.000838657866379,1.0,0.0,-0.00718550322678
1385570200791782516,-0.00926637909948,0.0115669354198,0.000427428913847,1.0,0.0,-0.00726672169869
1385570200991946420,-0.00846914706292,0.011273241893,5.06965735439e-05,1.0,0.0,-0.00730306305175
1385570201191805445,-0.00834288907485,0.0110623861321,-8.35306975512e-05,1.0,0.0,-0.00725145315832
1385570201391729562,-0.00885175843335,0.0108172258513,-0.000245356764532,1.0,0.0,-0.00705582542467
1385570201591731934,-0.00968098144209,0.0106383621606,-0.000163412030015,1.0,0.0,-0.00692785599095
1385570201791727635,-0.0108120061991,0.0104141756068,-0.000138846284998,1.0,0.0,-0.00677048154318
1385570201991728193,-0.0117344013035,0.0105711456713,-0.000165628707355,1.0,0.0,-0.00657449951188
1385570202191750124,-0.0122104233562,0.0111074828315,-0.000188151359899,1.0,0.0,-0.00642743920984
1385570202391722504,-0.0124058253941,0.0116624115977,-0.000208247126873,1.0,0.0,-0.00631073047787
1385570202591766486,-0.0123325719724,0.0122076071442,-9.582820029e-05,1.0,0.0,-0.00623190258964
1385570202791822371,-0.0119410665664,0.012501936166,0.000179430589553,1.0,0.0,-0.00617280293365
1385570202991855718,-0.0111643121464,0.0128310992529,0.000518010101923,1.0,0.0,-0.00609817223848
1385570203191870610,-0.0101378677041,0.0132564273117,0.000729640570322,1.0,0.0,-0.00597607283426
1385570203391854293,-0.00931157838086,0.0133125935814,0.000717132196643,1.0,0.0,-0.0056300068411
1385570203591718133,-0.00877868931304,0.0130302963437,0.000788206629642,1.0,0.0,-0.00519791593758
1385570203791822469,-0.00870702855103,0.0123095394244,0.000947515835986,1.0,0.0,-0.00475425468274
1385570203991736518,-0.00916498636108,0.0111833486829,0.000912660263894,1.0,0.0,-0.00433000455031
1385570204191742134,-0.0101669989106,0.00999939831204,0.000793178544541,1.0,0.0,-0.00390458477493
1385570204391831246,-0.0116894932951,0.00924327159416,0.000584921184625,1.0,0.0,-0.00347210634137
1385570204591807458,-0.0135379536677,0.00903521556611,0.000325974658786,1.0,0.0,-0.00303990646457
1385570204791695195,-0.0152066870261,0.00954862112517,-0.000211237697174,1.0,0.0,-0.00263980973837
1385570204991713965,-0.0164583764309,0.010603356555,-0.000796848432217,1.0,0.0,-0.00228657761298
1385570205191983001,-0.0172398720347,0.0122088170447,-0.00104102993713,1.0,0.0,-0.00195501671491
1385570205391740318,-0.0172687412763,0.0142003023426,-0.0013498750523,1.0,0.0,-0.00178802534911
1385570205591737146,-0.0169268156041,0.0159044009671,-0.00152506537515,1.0,0.0,-0.00165766754003
1385570205791730092,-0.0166376071545,0.0171131113989,-0.00167968390768,1.0,0.0,-0.00137593113459
1385570205991770800,-0.0166538392667,0.0178582529936,-0.00152108297084,1.0,0.0,-0.000938824468842
1385570206191743978,-0.0165926379576,0.018405203848,-0.00128967950691,1.0,0.0,-0.000592018960044
1385570206391846151,-0.0162159081262,0.0187346528908,-0.00135719554213,1.0,0.0,-0.000374289825825
1385570206591825567,-0.0157056931698,0.0191029860439,-0.00153131102161,1.0,0.0,-0.000224392324363
1385570206791849733,-0.0150377278872,0.0195073708564,-0.00166929348819,1.0,0.0,-0.000148144364326
1385570206991922096,-0.0144711196892,0.0197903514775,-0.00184827732264,1.0,0.0,-0.000125552047384
1385570207191856896,-0.0139640326495,0.0198980846584,-0.00196437579637,1.0,0.0,-0.000100907478239
1385570207391764737,-0.0136005648987,0.0198219082324,-0.00181299209669,1.0,0.0,2.15171140393e-05
1385570207591782273,-0.0136855753147,0.0195548891532,-0.00162635585823,1.0,0.0,0.00030000286385
1385570207791784234,-0.014175678138,0.0193559817381,-0.00124910514118,1.0,0.0,0.000680909750462
1385570207991738116,-0.0150855246619,0.0194535924792,-0.000893390269739,1.0,0.0,0.00107247934984
1385570208191746928,-0.0163966861603,0.0196634596981,-0.000737403949274,1.0,0.0,0.00149526121078
1385570208391720106,-0.0179839674758,0.0201074100006,-0.000443535157014,1.0,0.0,0.00189786390031
1385570208591843393,-0.0197512948412,0.0203124928665,4.6468590519e-05,1.0,0.0,0.00233293093065
1385570208791740635,-0.0211775530229,0.0204055898511,0.000706241670312,1.0,0.0,0.00272791574529
1385570208991788976,-0.0222010878976,0.0201684849693,0.00116453565716,1.0,0.0,0.00305564693105
1385570209191774987,-0.0225448922924,0.0195834886505,0.00149906428602,1.0,0.0,0.00335138511338
1385570209391733478,-0.0222986316084,0.0188563712968,0.00197487383828,1.0,0.0,0.00361670271218
1385570209591722292,-0.0215520543631,0.0178147794845,0.00242299971675,1.0,0.0,0.00389905536767
1385570209791708785,-0.0200956378382,0.016434605375,0.00269372719132,1.0,0.0,0.0041328617583
1385570209991911792,-0.0180388413989,0.0149694868485,0.00319955120669,1.0,0.0,0.00425936213663
1385570210191725668,-0.0158919020223,0.0132748751744,0.0034299315366,1.0,0.0,0.00443825206276
1385570210391730176,-0.0138036311781,0.0113872133592,0.00348001841747,1.0,0.0,0.0046476431537
1385570210591732386,-0.0122513636168,0.00972193456848,0.00344281126469,1.0,0.0,0.0047830564369
1385570210791711548,-0.0117608818414,0.00842767539446,0.00309072769283,1.0,0.0,0.00486526750337
1385570210991720451,-0.0122549349495,0.00731870661248,0.00268304170738,1.0,0.0,0.00487798110212
1385570211191767366,-0.0134738280303,0.0063774768914,0.00199142015062,1.0,0.0,0.0049777695123
1385570211391776849,-0.0149339240883,0.00565500558717,0.00131537837155,1.0,0.0,0.00511679360011
1385570211591986688,-0.0162381517347,0.00534746007329,0.000552193465776,1.0,0.0,0.00521742314244
1385570211791766008,-0.0173236475704,0.00526787998641,-2.91577295743e-05,1.0,0.0,0.00544636867617
1385570211991821742,-0.0180775601516,0.00548867826305,-0.000310796478108,1.0,0.0,0.00561811307533
1385570212192047881,-0.0185076327035,0.00578213180127,-0.000699785745818,1.0,0.0,0.00568802309201
1385570212391783065,-0.0186801756677,0.00614985320636,-0.000840653045779,1.0,0.0,0.00575724412536
1385570212591756170,-0.0182117652497,0.0067189088824,-0.000850694763098,1.0,0.0,0.00571839084073
1385570212791748143,-0.0173097473211,0.00743360988326,-0.00103599778591,1.0,0.0,0.0058127395109
1385570212991739415,-0.0158201872239,0.00855792428377,-0.0014985897913,1.0,0.0,0.00592871243603
1385570213191728298,-0.014354090926,0.00974146862625,-0.00154383194317,1.0,0.0,0.00612346588966
1385570213391773118,-0.0133199254727,0.0108514253785,-0.00158105174888,1.0,0.0,0.00643366187669
1385570213591775523,-0.0128139657476,0.0117879845822,-0.00167402778934,1.0,0.0,0.00685085731343
1385570213791750163,-0.0128868186093,0.0126826834597,-0.00154237332431,1.0,0.0,0.00725923263867
1385570213991739178,-0.0135211288417,0.012815540916,-0.00172072848323,1.0,0.0,0.0077683915369
1385570214191716659,-0.0146089080277,0.0122211440734,-0.00201670620189,1.0,0.0,0.00840489990116
1385570214391854035,-0.0160219205382,0.0111678194122,-0.00210868194448,1.0,0.0,0.0091434322705
1385570214591816020,-0.0174523531157,0.00982220506381,-0.00191348951421,1.0,0.0,0.00972919660716
1385570214791824360,-0.0186571510194,0.00813708302577,-0.00185755101224,1.0,0.0,0.010169239223
1385570214991720489,-0.0196192272084,0.00602029680127,-0.00201655388872,1.0,0.0,0.0104303622285
1385570215191725581,-0.0202266879309,0.00392827673258,-0.00222644272921,1.0,0.0,0.0105554113995
1385570215391731385,-0.0206186893341,0.00188306206342,-0.00203693517109,1.0,0.0,0.0106413637144
1385570215591821857,-0.0204977409324,-5.52165416429e-05,-0.0018858946936,1.0,0.0,0.01069822318
1385570215791807590,-0.0197650409989,-0.00171513011844,-0.00143713296573,1.0,0.0,0.0108052533325
1385570215991976566,-0.0185832447446,-0.00281052580022,-0.000932782157162,1.0,0.0,0.0108859043964
1385570216191823148,-0.0171434506723,-0.00304995099149,-0.000225850855979,1.0,0.0,0.0109753714273
1385570216391870531,-0.0160919802124,-0.0026591544255,0.000560780890251,1.0,0.0,0.0112093558909
1385570216591815575,-0.0153015311434,-0.00168952302059,0.00134424668541,1.0,0.0,0.0113501581726
1385570216791738122,-0.0151951922247,-0.00101087294019,0.0017494305679,1.0,0.0,0.0114899735114
1385570216991913241,-0.0154484281683,-0.00072169639656,0.00211665778131,1.0,0.0,0.0116328636664
1385570217191775646,-0.0160077347728,-0.000342983944555,0.00237055175685,1.0,0.0,0.0116353430212
1385570217391750584,-0.0171697391565,-4.20101144997e-06,0.00245088802239,1.0,0.0,0.0114748787733
1385570217591766349,-0.0185009118151,0.000383008882795,0.00276772244459,1.0,0.0,0.011180168331
1385570217791755236,-0.0200201159126,0.000505228490677,0.00300580724413,1.0,0.0,0.0107904410797
1385570217991838980,-0.0211772611961,0.000392135377885,0.00317866575889,1.0,0.0,0.010291522994
1385570218191792778,-0.0218677288482,1.39059141925e-05,0.00285917247307,1.0,0.0,0.00977130465985
1385570218391765346,-0.0221143832552,-0.00058627307552,0.00263722474815,1.0,0.0,0.00910276354141
1385570218591793553,-0.0220050045981,-0.00143040894212,0.00239943899544,1.0,0.0,0.00855018170179
1385570218791839454,-0.0216046809924,-0.00227490764285,0.00184251645833,1.0,0.0,0.00800784508126
1385570218991847027,-0.0212603057167,-0.00341915909788,0.00136878637574,1.0,0.0,0.00754277837838
1385570219191720492,-0.0209588118014,-0.0045006956264,0.000889684057157,1.0,0.0,0.00684661526139
1385570219391952182,-0.0204357937882,-0.0057234191951,0.000549742227499,1.0,0.0,0.00621839820425
1385570219591869397,-0.0200571485167,-0.0067606292168,7.47116701969e-06,1.0,0.0,0.00559220132674
1385570219791756691,-0.0201020733746,-0.00760024014869,-0.000452572692992,1.0,0.0,0.00500575069774
1385570219991811351,-0.0205143826389,-0.00799555564618,-0.000689571361074,1.0,0.0,0.0043001604305
1385570220191811262,-0.0208688568309,-0.00849549812696,-0.000622014542093,1.0,0.0,0.0037106354864
1385570220391796691,-0.0206764829493,-0.00856727678703,-0.00106945304268,1.0,0.0,0.00307674161352
1385570220591824944,-0.0201612812089,-0.00885236012048,-0.00147727925725,1.0,0.0,0.00246122039539
1385570220791858095,-0.019536339556,-0.00932376677345,-0.0019705685379,1.0,0.0,0.00196240277376
1385570220991885352,-0.0190942897011,-0.0100203542706,-0.0025400695687,1.0,0.0,0.00158385398381
1385570221191898707,-0.0188039359329,-0.010565789576,-0.00264424672229,1.0,0.0,0.00129492996787
1385570221391759520,-0.0186651081929,-0.0108580742887,-0.00238591689051,1.0,0.0,0.00122198068718
1385570221591779803,-0.01864467292,-0.0107002626575,-0.00212860078519,1.0,0.0,0.00144685476486
1385570221791878466,-0.0188837002263,-0.0100435534077,-0.00160271289019,1.0,0.0,0.00176456433917
1385570221991757112,-0.0192909124495,-0.00882964643461,-0.0010485569835,1.0,0.0,0.00205395134797
1385570222191817676,-0.019681238973,-0.00716821063441,-0.0007666068658,1.0,0.0,0.00214193005436
1385570222391833913,-0.0198268837781,-0.00546721589364,-0.000471704061191,1.0,0.0,0.00223061163444
1385570222591764039,-0.0196292859282,-0.00376367347137,-4.74276464019e-06,1.0,0.0,0.0024050632485
1385570222791941216,-0.0191668428734,-0.00249726151814,0.000397618316571,1.0,0.0,0.00267830203954
1385570222991744475,-0.0184737949445,-0.00158345783094,0.00109360252877,1.0,0.0,0.00273285578964
1385570223191825500,-0.0174787784942,-0.00126772864006,0.00120346895467,1.0,0.0,0.00279937446647
1385570223391888274,-0.0163868544135,-0.00170472808201,0.00108777464276,1.0,0.0,0.0031446622927
1385570223591763737,-0.0156560749305,-0.00250331013873,0.000927262378687,1.0,0.0,0.0034506953526
1385570223791726004,-0.0152807960815,-0.00370128025594,0.000728875239916,1.0,0.0,0.00370308111977
1385570223991782281,-0.0152056825223,-0.00499841829756,0.000441777132837,1.0,0.0,0.00394953549464
1385570224191777408,-0.0152536409809,-0.00643300373472,0.000167581842422,1.0,0.0,0.00430377774876
1385570224391808408,-0.0155089298608,-0.00758654246572,-1.04387098252e-05,1.0,0.0,0.0045521080692
1385570224591866891,-0.0160374310035,-0.00784292759866,-0.000110224868724,1.0,0.0,0.00454987527187
1385570224791825739,-0.0166890348008,-0.00766608013291,-0.000335191771561,1.0,0.0,0.00452388996795
1385570224991742640,-0.0173703898043,-0.00701939549108,-0.000386763605443,1.0,0.0,0.00441671332163
1385570225191741665,-0.0180237326613,-0.00624220076095,-0.000326623874633,1.0,0.0,0.00443754304556
1385570225391860885,-0.0186545732103,-0.00503743174634,-0.000260205107112,1.0,0.0,0.00443602245469
1385570225591812197,-0.0191165632647,-0.0035949328223,-9.40346208811e-05,1.0,0.0,0.00440623315797
1385570225791838565,-0.0193976530275,-0.00219464156219,5.8166835359e-05,1.0,0.0,0.00448676652186
1385570225991841259,-0.0193332874031,-0.000830688604786,0.000194629770791,1.0,0.0,0.00443549262407
1385570226191745449,-0.0187999677738,0.000439931553871,0.000378076656413,1.0,0.0,0.0044982613055
1385570226391791776,-0.0179418448093,0.0019415399982,0.000619852275333,1.0,0.0,0.0045343951075
1385570226591748786,-0.0168984857633,0.00344311112909,0.00107412068708,1.0,0.0,0.00444793237801
1385570226791761563,-0.0156393978505,0.00453240142559,0.00153814950844,1.0,0.0,0.00449338506975
1385570226991741065,-0.0142327215743,0.00540558696374,0.00184921359286,1.0,0.0,0.00451224246164
1385570227191764535,-0.0127722221277,0.00570899507896,0.00193474933919,1.0,0.0,0.00451111507539
1385570227391807674,-0.0114429559775,0.00512219401945,0.00208107715236,1.0,0.0,0.00484669865861
1385570227591781186,-0.0106611726081,0.00400950020285,0.00204803980648,1.0,0.0,0.00521867918699
1385570227791777057,-0.0102894646354,0.00212757824534,0.0015074328619,1.0,0.0,0.00566882008987
1385570227991784146,-0.0100703194378,-0.000343183608354,0.000688255072664,1.0,0.0,0.00618677131865
1385570228191854187,-0.00985032288997,-0.00294437841636,-0.000317832220816,1.0,0.0,0.00653266285491
1385570228391845713,-0.00964944292202,-0.00531019809194,-0.0011445494513,1.0,0.0,0.00691370693733
1385570228591733081,-0.00945666226491,-0.00693481657823,-0.00197078375939,1.0,0.0,0.00723135229137
1385570228791716796,-0.0091765102872,-0.0074690987162,-0.00213241508777,1.0,0.0,0.00755757283223
1385570228991822777,-0.00891027041815,-0.00687474276467,-0.00186558784643,1.0,0.0,0.00780746600022
1385570229191890561,-0.008388689657,-0.00527002114994,-0.00140694149884,1.0,0.0,0.00788469210378
1385570229391804933,-0.0078660354433,-0.00330842017722,-0.00101754920608,1.0,0.0,0.00804989449373
1385570229591747471,-0.00748949317906,-0.000596886240523,-0.000709744518646,1.0,0.0,0.00805440956657
1385570229791728650,-0.00740233306058,0.00223602160824,-0.000616724469663,1.0,0.0,0.00810772884049
1385570229991736138,-0.00739649838197,0.0049656942287,-0.000580078396389,1.0,0.0,0.00798191725779
1385570230191737278,-0.00747142260748,0.00680036724908,-0.000793546652852,1.0,0.0,0.00797563414231
1385570230391884482,-0.00784282780829,0.00773246640851,-0.000863418447742,1.0,0.0,0.00791787614355
1385570230591911167,-0.0085567642777,0.00790846500388,-0.000805999651453,1.0,0.0,0.00793306935525
1385570230791929529,-0.00977108945529,0.00746476088154,-0.000759122284575,1.0,0.0,0.00805953400848
1385570230991752578,-0.0110176015307,0.00659927377946,-0.000707201568065,1.0,0.0,0.00817379630733
1385570231191805540,-0.012514112297,0.00561279128898,-0.000599012947863,1.0,0.0,0.00835707283487
1385570231391891681,-0.0139690018046,0.00470982243858,-0.000202282591187,1.0,0.0,0.00859307313897
1385570231591778676,-0.0152432977885,0.00413148555276,0.000428245655197,1.0,0.0,0.00875187140895
1385570231791872774,-0.0161372830341,0.00411684025119,0.0013031047148,1.0,0.0,0.00893513842274
1385570231991893355,-0.0168681420486,0.00464472821794,0.00229754350866,1.0,0.0,0.00915156690131
1385570232191805953,-0.0174079136444,0.00545893864948,0.00298649595156,1.0,0.0,0.00951904201522
1385570232391822635,-0.017686823597,0.00670450268737,0.00374750206314,1.0,0.0,0.00997502279704
1385570232591868250,-0.017844700185,0.00828785003016,0.00462680497632,1.0,0.0,0.0103278902262
1385570232791837622,-0.017804096728,0.00988747094827,0.00535623236088,1.0,0.0,0.0107006664576
1385570232991749748,-0.0174997159969,0.0115691214023,0.00571333284969,1.0,0.0,0.0110313082418
1385570233191821511,-0.0168178601287,0.0130064490304,0.005681433506,1.0,0.0,0.0113574637274
1385570233391760879,-0.0159394738597,0.0141401218614,0.00522082759923,1.0,0.0,0.0118304104483
1385570233591862254,-0.0149116474277,0.0148854147273,0.00481036848336,1.0,0.0,0.0123571930855
1385570233791793484,-0.0137646908803,0.0151693859325,0.00448267236267,1.0,0.0,0.0129465423638
1385570233991757387,-0.0124563902298,0.0148834471477,0.00384936621956,1.0,0.0,0.0134243630896
1385570234191759216,-0.0112840636854,0.0139652007326,0.00307319116117,1.0,0.0,0.0139210168261
1385570234391786134,-0.0106471822899,0.0122599431668,0.00216749484602,1.0,0.0,0.0145757330737
1385570234591848064,-0.0105586742103,0.00996964748945,0.00119493476774,1.0,0.0,0.0152365292933
1385570234791774561,-0.0106341620913,0.00766361750335,0.000148717369312,1.0,0.0,0.0157523712312
1385570234991762723,-0.0109434025866,0.00568047425625,-0.000739419518972,1.0,0.0,0.0160978268114
1385570235191829720,-0.0113364138401,0.00437558805915,-0.0015999881678,1.0,0.0,0.0163475688534
1385570235391825804,-0.0119908447712,0.0039902219437,-0.00234464602143,1.0,0.0,0.0167144952974
1385570235591749927,-0.0128463396348,0.00471217828284,-0.00282287531904,1.0,0.0,0.0171208750832
1385570235791803062,-0.0136418592107,0.00629813605667,-0.00290090948327,1.0,0.0,0.017474181759
1385570235991829911,-0.0139571512403,0.00811304592816,-0.00289589689774,1.0,0.0,0.0179102038156
1385570236191749318,-0.0135020024284,0.00990215973654,-0.00306791508899,1.0,0.0,0.0185016179666
1385570236391835686,-0.0123044180699,0.0114217228883,-0.00318921283032,1.0,0.0,0.0190340041844
1385570236592090423,-0.0106061475324,0.0123552831103,-0.0033523599837,1.0,0.0,0.0195375815136
1385570236791726715,-0.00865624205514,0.0126164866042,-0.00326378490525,1.0,0.0,0.020026527249
1385570236991820127,-0.00675934075742,0.0124974349703,-0.00317371744425,1.0,0.0,0.0205871591387
1385570237191783763,-0.00510030080951,0.0121782201493,-0.00317520369756,1.0,0.0,0.0211145394951
1385570237391768303,-0.0040202322825,0.0114938687786,-0.00324739595118,1.0,0.0,0.0216827799097
1385570237591900959,-0.00351551043478,0.0105298445077,-0.00300277108682,1.0,0.0,0.0224734151083
1385570237791744353,-0.00340548261583,0.00972558489075,-0.00262792056891,1.0,0.0,0.0232286487466
1385570237991889011,-0.00381634220254,0.00914333858653,-0.00215437448315,1.0,0.0,0.0241210319133
1385570238191870555,-0.00451268012515,0.0091176136737,-0.00141532251746,1.0,0.0,0.0250414858097
1385570238391954887,-0.00522458472433,0.00965239281731,-0.000709930340978,1.0,0.0,0.025870481151
1385570238591797893,-0.00588411037494,0.0106806686944,0.000188061135258,1.0,0.0,0.0267057525467
1385570238791764358,-0.00619307208965,0.0120317446709,0.000925313237046,1.0,0.0,0.0273250594216
1385570238991840045,-0.00598386081154,0.0132089210491,0.00146486673056,1.0,0.0,0.0277403642521
1385570239191868166,-0.00535736913627,0.0134279997548,0.00194623137158,1.0,0.0,0.0280962342456
1385570239391846872,-0.00451897863779,0.0125039601702,0.00235393439514,1.0,0.0,0.0282483529538
1385570239591774254,-0.00370858961776,0.010525371515,0.00248134712148,1.0,0.0,0.0281439122779
1385570239791810277,-0.00352304944545,0.00749454918491,0.0024539141038,1.0,0.0,0.0280574338367
1385570239991735855,-0.00406424647116,0.00374443793402,0.00228500201024,1.0,0.0,0.0278532171074
1385570240191914934,-0.00540140574073,-0.000211332699613,0.00172915657391,1.0,0.0,0.0276608694449
1385570240391868049,-0.00728671810479,-0.00353330532313,0.00123308331228,1.0,0.0,0.0273023888428
1385570240591844419,-0.0096712161026,-0.00589886299815,0.000615312864375,1.0,0.0,0.0267596362865
1385570240791716144,-0.0124902128532,-0.00702570915684,4.27429595284e-05,1.0,0.0,0.0260352102095
1385570240991821094,-0.0155383323594,-0.00704310249507,-0.000382027031447,1.0,0.0,0.0251621401553
1385570241191877919,-0.0186083648984,-0.00603387755893,-0.000545059461301,1.0,0.0,0.0241739696764
1385570241391872278,-0.0215541972039,-0.00455465981168,-0.000563937568689,1.0,0.0,0.0231416863559
1385570241591839271,-0.0240752787818,-0.00267137130062,-0.000666658833143,1.0,0.0,0.0220673625302
1385570241791759229,-0.0260794073963,-0.000162841500655,-0.000588798471038,1.0,0.0,0.0209236066741
1385570241991800886,-0.0275011959428,0.00253855260792,-0.0003844140005,1.0,0.0,0.019738210144
1385570242191773762,-0.0283335301724,0.00488674122355,-0.000323665007711,1.0,0.0,0.0186827319832
1385570242391733893,-0.028701489134,0.0064565904101,-0.000175497178189,1.0,0.0,0.0177788618612
1385570242591860248,-0.0288527070758,0.00711822133536,-6.59742019456e-05,1.0,0.0,0.0169438010063
1385570242791849639,-0.0287322775845,0.00697025359335,0.000508448597959,1.0,0.0,0.0161518945646
1385570242991818178,-0.0284216292364,0.00598629002625,0.000913753260578,1.0,0.0,0.0154204195493
1385570243191754112,-0.0280172235559,0.00421702950686,0.00108665525265,1.0,0.0,0.0147303089896
1385570243391751704,-0.0277712969961,0.0017787165755,0.00120247592752,1.0,0.0,0.0141518918047
1385570243591794297,-0.0278371951161,-0.000473637997051,0.00121269759326,1.0,0.0,0.0136972137221
1385570243791811137,-0.0284241629627,-0.00191263725207,0.0015364523311,1.0,0.0,0.0132159808406
1385570243991725777,-0.0295730248194,-0.00274335548925,0.00213981714265,1.0,0.0,0.0126827633174
1385570244191780151,-0.0307677885677,-0.00335857162691,0.00266337049599,1.0,0.0,0.0119973164679
1385570244391742429,-0.0317212546266,-0.00421999280343,0.00287759309561,1.0,0.0,0.0111178992696
1385570244591844102,-0.0326672897068,-0.00590446707645,0.00237479977183,1.0,0.0,0.0102732692076
1385570244791874789,-0.0341670712519,-0.00829599594022,0.00163428756722,1.0,0.0,0.00941982848731
1385570244991773173,-0.0360666608253,-0.0107548095423,0.00128044404295,1.0,0.0,0.00845433863172
1385570245191779390,-0.0383001772913,-0.0129989179635,0.00111684566375,1.0,0.0,0.00737707359289
1385570245391860209,-0.0402124558734,-0.0144297801888,0.00100902538477,1.0,0.0,0.00612433223426
1385570245591747125,-0.0414222626501,-0.0151819999493,0.00108919745607,1.0,0.0,0.00486059817644
1385570245791766672,-0.0417387228262,-0.0152317865936,0.00118106759814,1.0,0.0,0.00366117696731
1385570245991752437,-0.041177031079,-0.0143506088773,0.00152599074327,1.0,0.0,0.00243613915951
1385570246191827205,-0.0397510347326,-0.0126129078856,0.00183213066461,1.0,0.0,0.0010284133662
1385570246391931896,-0.0378251514526,-0.0109319690018,0.00184517873005,1.0,0.0,-0.000378144099819
1385570246591731579,-0.0352984091997,-0.00950367862746,0.00210203147223,1.0,0.0,-0.00159524965733
1385570246791787133,-0.0324816654569,-0.0080558887473,0.0020671481886,1.0,0.0,-0.00278695666121
1385570246991757725,-0.0295326531326,-0.00678161650423,0.00199686730566,1.0,0.0,-0.0039710507315
1385570247191873015,-0.027115673896,-0.00597946953145,0.00102590718048,1.0,0.0,-0.00507185286639
1385570247391769878,-0.0254971377146,-0.00547979451976,0.000524056448945,1.0,0.0,-0.00602406375834
1385570247591836696,-0.0247964414974,-0.00529937103244,2.41895842948e-05,1.0,0.0,-0.00688731349375
1385570247791733917,-0.0246603970911,-0.00523327954108,-0.000246741194682,1.0,0.0,-0.00770412371066
1385570247991923830,-0.0247431694554,-0.00539070830295,-0.000621892401,1.0,0.0,-0.00844690614787
1385570248191859424,-0.0245177700543,-0.00612435106442,-0.000889893676881,1.0,0.0,-0.00885359928919
1385570248391877477,-0.0242072627757,-0.00670814290883,-0.00125771463721,1.0,0.0,-0.00902785948687
1385570248591745679,-0.0234909728726,-0.00713998621438,-0.000984254042581,1.0,0.0,-0.00907417990516
1385570248791792661,-0.0221622302603,-0.00747502086615,-0.000524733472312,1.0,0.0,-0.00885510965515
1385570248991761324,-0.0201743343331,-0.00764615445269,-0.000116603499885,1.0,0.0,-0.00838541845708
1385570249191836390,-0.0180796039469,-0.00727701364462,-9.79623051393e-05,1.0,0.0,-0.00792497925109
1385570249391782035,-0.0159234026951,-0.0064170046989,3.55756920117e-05,1.0,0.0,-0.0072827589016
1385570249591855669,-0.013966531833,-0.00529924658766,0.000174765825341,1.0,0.0,-0.00645003937375
1385570249791840992,-0.0123521949017,-0.00452488633046,0.000258344188146,1.0,0.0,-0.00529361493119
1385570249991746938,-0.0112477508281,-0.0044082415267,0.000499042457117,1.0,0.0,-0.00383122441755
1385570250191834945,-0.0106626707587,-0.0051677601689,0.000782246573188,1.0,0.0,-0.00201030053621
1385570250391906532,-0.0105780808546,-0.00638368175335,0.00105404936151,1.0,0.0,5.82570213326e-05
1385570250591855556,-0.0108499673104,-0.0080216210875,0.000958644867902,1.0,0.0,0.00240191728221
1385570250791888194,-0.0115492274506,-0.00988686631099,0.000495501089039,1.0,0.0,0.00478822281721
1385570250991759383,-0.0129467327417,-0.0117216323132,-0.000268338741657,1.0,0.0,0.00708897065244
1385570251191767950,-0.014928986767,-0.0135733759769,-0.000916864035222,1.0,0.0,0.00937377342925
1385570251391720607,-0.0174289116082,-0.0150946396864,-0.00148344445323,1.0,0.0,0.011604814593
1385570251591781366,-0.019824179921,-0.0156537493907,-0.00172662437359,1.0,0.0,0.0136234510141
1385570251791851659,-0.0216204592854,-0.0149679721789,-0.00211964141158,1.0,0.0,0.015482460296
1385570251991791332,-0.0224452880652,-0.0130156070327,-0.00245762119554,1.0,0.0,0.0172264097994
1385570252191807455,-0.0224603482367,-0.00975198399186,-0.00262487777309,1.0,0.0,0.018772329666
1385570252391973203,-0.0216420083052,-0.00584767101949,-0.00262866043181,1.0,0.0,0.0201439443655
1385570252591804766,-0.0200097588347,-0.00204131617567,-0.00234633907853,1.0,0.0,0.0213641072337
1385570252791682656,-0.0177607586443,0.000988694495587,-0.00234014208015,1.0,0.0,0.0225564982932
1385570252991741311,-0.0149712717919,0.00300080673525,-0.00244886428628,1.0,0.0,0.0236953145313
1385570253191759380,-0.0119043834092,0.00403389922778,-0.00261464215851,1.0,0.0,0.0247828433379
1385570253391735159,-0.00881994005953,0.00387205827494,-0.00311133018005,1.0,0.0,0.0259522647398
1385570253592290213,-0.00612609061159,0.00251135178278,-0.00401069026605,1.0,0.0,0.0271582744423
1385570253791854878,-0.00421134100352,-4.59946959484e-05,-0.00474163412521,1.0,0.0,0.0284193813387
1385570253991725471,-0.00311312068473,-0.00296608034049,-0.00527989641876,1.0,0.0,0.0296143626008
1385570254191875664,-0.00280538578884,-0.0058917998388,-0.00549113679305,1.0,0.0,0.0308936116523
1385570254391830227,-0.00291423858304,-0.00821702856854,-0.00537186712747,1.0,0.0,0.0322640403182
1385570254592072652,-0.00322460947259,-0.00929807620728,-0.00497456299025,1.0,0.0,0.0335876531542
1385570254791860534,-0.00360021184263,-0.00918251480662,-0.00431573527068,1.0,0.0,0.0349907934428
1385570254991895347,-0.00407495579549,-0.00800150299903,-0.00381288993791,1.0,0.0,0.0363552192735
1385570255191964213,-0.00445865280642,-0.00623375174057,-0.00359278917594,1.0,0.0,0.0376811702452
1385570255391876984,-0.00457807585559,-0.00444243400868,-0.00350874325621,1.0,0.0,0.0390531499311
1385570255591744822,-0.00427829603524,-0.00287610034091,-0.00329218694906,1.0,0.0,0.0404277714922
1385570255791897438,-0.00342697799382,-0.00191605768432,-0.00305245763377,1.0,0.0,0.0419899592478
1385570255991757362,-0.00214160627081,-0.00183978170884,-0.00295010635728,1.0,0.0,0.0435409033737
1385570256191896671,-0.000648118261212,-0.00291219967262,-0.00278872926337,1.0,0.0,0.0448912775613
1385570256391747105,0.00117260584786,-0.00490879000456,-0.00248684642893,1.0,0.0,0.046171348976
1385570256592137747,0.00297914377778,-0.00707345300118,-0.00203829230271,1.0,0.0,0.0473043462119
1385570256791746873,0.00443595269635,-0.0088830701572,-0.00134286211967,1.0,0.0,0.0482749388518
1385570256991689709,0.00538222986496,-0.00980921218102,-0.0005446293571,1.0,0.0,0.0491461923905
1385570257191828130,0.00579046807169,-0.00950728095328,0.000270690278731,1.0,0.0,0.049731827295
1385570257391808349,0.00571848677639,-0.00802263225315,0.00111846048043,1.0,0.0,0.0500806065599
1385570257591835998,0.00530129901496,-0.00560063661455,0.00170620874751,1.0,0.0,0.0502919521943
1385570257791891714,0.00479521246646,-0.00280070755066,0.00228007835419,1.0,0.0,0.0506471264242
1385570257991865684,0.00410203948969,0.000102188113215,0.00275566373929,1.0,0.0,0.0509020634137
1385570258191912768,0.00334735425582,0.00275834504857,0.00312213387207,1.0,0.0,0.0510759048716
1385570258391814925,0.0024833307468,0.00525834217818,0.00335763309309,1.0,0.0,0.0511657627839
1385570258591839028,0.00122572835984,0.00729521682495,0.00321941290654,1.0,0.0,0.0512271515756
1385570258791818198,-0.000512147110625,0.00868480525425,0.00289113873705,1.0,0.0,0.0513857006372
1385570258991969785,-0.00258525972596,0.00927042001982,0.00252012658206,1.0,0.0,0.0515842401472
1385570259191791438,-0.00458341919626,0.00927352682423,0.0023900355226,1.0,0.0,0.0518063939183
1385570259391781703,-0.00619362504225,0.0089338058072,0.00248843879509,1.0,0.0,0.0519635144674
1385570259591753124,-0.00733796990406,0.00874697090487,0.00238477932794,1.0,0.0,0.051951976941
1385570259791789878,-0.00804493021453,0.00880057891278,0.00217713250884,1.0,0.0,0.0518915000099
1385570259991808264,-0.00828426067383,0.00921238999354,0.00196998236228,1.0,0.0,0.0518894270363
1385570260191860000,-0.0081641246363,0.0104577883268,0.00188661001057,1.0,0.0,0.051942926299
1385570260391943499,-0.0078997494877,0.0123433777058,0.00202025257977,1.0,0.0,0.052111827752
1385570260591814115,-0.00757905968426,0.0146346183487,0.00226821739661,1.0,0.0,0.05236186974
1385570260791740586,-0.00694149176574,0.0167393505678,0.00225494666885,1.0,0.0,0.0528160940098
1385570260991841806,-0.00609357276193,0.0183060898489,0.00214119361216,1.0,0.0,0.0533406605364
1385570261191741409,-0.005304043442,0.0190512169793,0.00191375322175,1.0,0.0,0.0539783912522
1385570261392159821,-0.00467223657723,0.019051687396,0.00150042532188,1.0,0.0,0.0546289156802
1385570261591817907,-0.00420164124333,0.0183851767005,0.00112957957678,1.0,0.0,0.0553582145567
1385570261791849984,-0.00386374146125,0.017265728921,0.000675311711059,1.0,0.0,0.0561483104549
1385570261991781012,-0.00348562065808,0.0161844035805,0.000278991105123,1.0,0.0,0.0568453344706
1385570262191738974,-0.00292788112136,0.0150630665841,-0.000181342998018,1.0,0.0,0.057492118475
1385570262392217404,-0.00212668653999,0.0139097626245,-0.000652654686078,1.0,0.0,0.0580823843701
1385570262591748844,-0.000942166341063,0.0131613228725,-0.00103902215642,1.0,0.0,0.0586180043091
1385570262791827940,0.000387945237819,0.0124305518394,-0.00129643665075,1.0,0.0,0.0590242496636
1385570262991902489,0.00172016229292,0.0116150694121,-0.00146305722699,1.0,0.0,0.0591951661309
1385570263191755229,0.00285317004157,0.0104042460948,-0.00162332769044,1.0,0.0,0.0591543478068
1385570263391859835,0.00373899634641,0.00887678332946,-0.00191013104613,1.0,0.0,0.0589259880057
1385570263591837271,0.00405156655247,0.00703365281481,-0.00238473927998,1.0,0.0,0.0582522168586
1385570263791887341,0.0034793658501,0.00548240681983,-0.00275735456116,1.0,0.0,0.0573215951645
1385570263991725632,0.00201075202908,0.00431785815093,-0.00313633418879,1.0,0.0,0.0563590642902
1385570264191804843,0.000146123184135,0.00339679335962,-0.0036893021548,1.0,0.0,0.0551377753271
1385570264391783812,-0.00198178238028,0.00295496422969,-0.00431966016524,1.0,0.0,0.0539032699883
1385570264591818193,-0.0041194358624,0.00328773511307,-0.00483492308083,1.0,0.0,0.0526833886896
1385570264791768147,-0.00579791369537,0.00457577993077,-0.00527130140495,1.0,0.0,0.0514411143038
1385570264991851097,-0.0071014572407,0.00667896317135,-0.00569865968187,1.0,0.0,0.0503297789085
1385570265191827019,-0.00772808708849,0.00936187792256,-0.00602985384695,1.0,0.0,0.0491447837126
1385570265391769951,-0.00788103897432,0.0124861956542,-0.00619922425269,1.0,0.0,0.0481989282632
1385570265591773630,-0.00762049652328,0.0157286941854,-0.00616650579159,1.0,0.0,0.0473096508864
1385570265792341652,-0.00702081638741,0.0188142173739,-0.0058403992796,1.0,0.0,0.0465953158087
1385570265991785644,-0.00602065001546,0.0214005027679,-0.00522755390843,1.0,0.0,0.0460921076065
1385570266191818715,-0.00440579784174,0.0234109662324,-0.0047558722216,1.0,0.0,0.0454239912448
1385570266391911739,-0.00253853929313,0.0246659228063,-0.00410549916614,1.0,0.0,0.04497061681
1385570266591853635,-0.000516012099308,0.0253558571567,-0.00340536921269,1.0,0.0,0.0445954243309
1385570266791896438,0.00114225921302,0.025200691851,-0.00245254725095,1.0,0.0,0.0442066386189
1385570266991781297,0.00220560296897,0.0243499721943,-0.0012506620183,1.0,0.0,0.0436437077309
1385570267191717153,0.00226418472901,0.0226651041425,0.000166845109509,1.0,0.0,0.0432008562487
1385570267391721303,0.00145588513356,0.0202633711034,0.00157137939007,1.0,0.0,0.0429081446406
1385570267591736349,0.000206934395073,0.01700799668,0.00293625872437,1.0,0.0,0.042563806036
1385570267791709273,-0.00115374420644,0.0135554903407,0.0043545128059,1.0,0.0,0.042105537457
1385570267991865987,-0.00265272833926,0.0103284565296,0.00567187563235,1.0,0.0,0.0416313002864
1385570268191794064,-0.00410007451823,0.00764076462966,0.00652699977843,1.0,0.0,0.0412908322516
1385570268391722810,-0.00556046418224,0.00570160471399,0.00680289437526,1.0,0.0,0.0411236632506
1385570268591813919,-0.00710494677482,0.00473101798635,0.00681683350472,1.0,0.0,0.0410628718074
1385570268791843033,-0.0084938563335,0.00473962302425,0.00639775818637,1.0,0.0,0.0409801849067
1385570268991739624,-0.0094541923152,0.00548168078724,0.00595433723627,1.0,0.0,0.0406797163474
1385570269191718663,-0.0101165275727,0.00677310260248,0.00526972469843,1.0,0.0,0.0403099740977
1385570269391735157,-0.010569936094,0.00852673872152,0.00469010958014,1.0,0.0,0.0399689275788
1385570269591731498,-0.010871226725,0.0106190970284,0.00425374416409,1.0,0.0,0.0395781024901
1385570269791733052,-0.0112703185984,0.0126569862148,0.00389237086363,1.0,0.0,0.0391089362163
1385570269991795570,-0.0115281582151,0.0141932755965,0.00354539542827,1.0,0.0,0.0386965425056
1385570270191744616,-0.0114614288218,0.0149759424146,0.00314664229922,1.0,0.0,0.038195555162
1385570270391759492,-0.011056502058,0.015253876733,0.00286842035439,1.0,0.0,0.0377199644921
1385570270591740106,-0.0104955811019,0.0151260607852,0.00240282175584,1.0,0.0,0.0371822884084
1385570270791840218,-0.0103187556535,0.0146128635976,0.00163988467414,1.0,0.0,0.0367914798111
1385570270991723261,-0.0105284534785,0.0138023430322,0.000841541577646,1.0,0.0,0.0364722860599
1385570271191861665,-0.0109350066021,0.0129055885319,0.00022125747882,1.0,0.0,0.0364734447195
1385570271391799193,-0.0111966079505,0.0123816270076,-0.000243529147667,1.0,0.0,0.0366308576302
1385570271591748423,-0.0111973289258,0.0124309743935,-0.00057016056486,1.0,0.0,0.0368511952666
1385570271791757646,-0.0110912397955,0.0125310965891,-0.000893158383892,1.0,0.0,0.0371303516776
1385570271991853241,-0.0107803240258,0.0130198386275,-0.00125507338493,1.0,0.0,0.0373624527936
1385570272191796075,-0.0105050768334,0.0136879688456,-0.00151696050848,1.0,0.0,0.0376856071073
1385570272391742630,-0.0102378634414,0.0145933177495,-0.00154307559539,1.0,0.0,0.0378187423283
1385570272591860114,-0.0101821872344,0.0156596406671,-0.0015055554739,1.0,0.0,0.0379584064916
1385570272791892477,-0.0105154793037,0.0165570251199,-0.00150678694301,1.0,0.0,0.0381131866162
1385570272991795905,-0.0109288554771,0.0174051989674,-0.00143577796648,1.0,0.0,0.0380808608819
1385570273191796573,-0.011639018885,0.0180530293248,-0.00115751895684,1.0,0.0,0.0380248941394
1385570273391739001,-0.012306689413,0.0184325406171,-0.00071657991246,1.0,0.0,0.0378999731015
1385570273591799711,-0.0126976334487,0.0186393430371,-0.000216614820455,1.0,0.0,0.0377465464522
1385570273791735501,-0.0127781149502,0.018677584808,0.000346467715319,1.0,0.0,0.0376525793756
1385570273991807988,-0.0126688254391,0.0182418782104,0.00066407403461,1.0,0.0,0.0377285059558
1385570274191832701,-0.0121973850792,0.0175123140584,0.000867688000346,1.0,0.0,0.0379046272417
1385570274391874000,-0.0116153918128,0.0167544753291,0.000849884238904,1.0,0.0,0.0381240213912
1385570274591779185,-0.0108042196089,0.0163628961661,0.000925771418663,1.0,0.0,0.0381453781719
1385570274791725174,-0.0102703436365,0.016097845002,0.000996839843735,1.0,0.0,0.0382431682171
1385570274991818001,-0.00992196388318,0.0158417050655,0.00112669018198,1.0,0.0,0.0383752100493
1385570275191847893,-0.00982377615623,0.0154906969423,0.000944157985651,1.0,0.0,0.0384804137337
1385570275391734674,-0.00990069504976,0.0152885855888,0.000571838160714,1.0,0.0,0.0384787524864
1385570275591739793,-0.00990010480593,0.0154108826308,0.00017029186894,1.0,0.0,0.0382713771367
1385570275791833438,-0.0100584370678,0.0158464212239,-0.000270848061915,1.0,0.0,0.0381516511759
1385570275991758281,-0.00989324996097,0.0167739486257,-0.000547906433551,1.0,0.0,0.0379220866234
1385570276191749616,-0.00961252909466,0.0180181859484,-0.000924174794768,1.0,0.0,0.0377408494899
1385570276391782986,-0.00893170559354,0.0193318972213,-0.00127664856836,1.0,0.0,0.037523720161
1385570276591863904,-0.00821598787974,0.0202267859888,-0.00191788069549,1.0,0.0,0.0373708147378
1385570276791741734,-0.00783137847255,0.0206128646215,-0.0025161630002,1.0,0.0,0.0373692620973
1385570276991832569,-0.00796124059392,0.0205893011345,-0.00292875549572,1.0,0.0,0.0374209524065
1385570277191749941,-0.00863419869852,0.0205725207987,-0.00316920529511,1.0,0.0,0.037531693519
1385570277391746975,-0.00978683262094,0.020875913785,-0.00315007240035,1.0,0.0,0.0377093346742
1385570277591862103,-0.0111990947606,0.0215651025936,-0.00288816315929,1.0,0.0,0.037856510472
1385570277791751419,-0.012947456,0.0226908928384,-0.00226457518738,1.0,0.0,0.0381285212043
1385570277991846106,-0.0149479616395,0.0236497909094,-0.00151181093635,1.0,0.0,0.0386713774339
1385570278191741065,-0.0165617695029,0.0244278033939,-0.000479300591347,1.0,0.0,0.0393243076941
1385570278391736324,-0.0175350060861,0.0247549424821,3.29406370572e-05,1.0,0.0,0.0400779596235
1385570278592027175,-0.0180681768099,0.0246122498775,0.000572789909689,1.0,0.0,0.0409433641657
1385570278791809361,-0.0179356620014,0.0242476384931,0.00116696506979,1.0,0.0,0.0417312123745
1385570278991864463,-0.0173430253493,0.0241182010634,0.00182343093354,1.0,0.0,0.042447287424
1385570279191841199,-0.016159180261,0.0238919716026,0.00251026951551,1.0,0.0,0.0431447113103
1385570279391835652,-0.0138529978791,0.0238291601699,0.00307252014199,1.0,0.0,0.0437631812705
1385570279591821651,-0.0107695799239,0.023372656496,0.0031874612819,1.0,0.0,0.0443257631563
1385570279791696957,-0.00752035778928,0.0229778183462,0.00373284717691,1.0,0.0,0.0446854374444
1385570279991721500,-0.00534586884112,0.0221802546668,0.00423556394162,1.0,0.0,0.0450674129507
1385570280191752413,-0.00419915228434,0.0209315409703,0.00437305600886,1.0,0.0,0.0453628083769
1385570280391852398,-0.00466191441817,0.0195190449192,0.00477089352191,1.0,0.0,0.045678528346
1385570280591740882,-0.00659620444538,0.0183918068674,0.00492827880558,1.0,0.0,0.0458583319491
1385570280791745887,-0.009697533403,0.0177337473391,0.00508891613654,1.0,0.0,0.0460478921437
1385570280991857607,-0.0135017054916,0.0173909541453,0.00485712772409,1.0,0.0,0.046451935281
1385570281191915920,-0.0168784639132,0.017650535411,0.00444346008389,1.0,0.0,0.0469979113318
1385570281391878120,-0.0193899337726,0.018322162724,0.00370918168807,1.0,0.0,0.047540297585
1385570281591775551,-0.0207734726584,0.0197646615479,0.00345474718847,1.0,0.0,0.0479400500673
1385570281791799133,-0.0209289680108,0.0217645935213,0.00321969209597,1.0,0.0,0.0482673475639
1385570281991899698,-0.0199834899924,0.0238737667566,0.00250113139846,1.0,0.0,0.0486898853809
1385570282191808345,-0.0178776517009,0.026167776385,0.00164571751931,1.0,0.0,0.0491525526607
1385570282391846261,-0.0152022314295,0.0283232370915,0.00102496982707,1.0,0.0,0.0496624060215
1385570282591861014,-0.0125729655386,0.0299995873654,0.000472822618588,1.0,0.0,0.0503796111149
1385570282791966722,-0.00996537427347,0.0309126538393,-9.08254966251e-05,1.0,0.0,0.051068956595
1385570282991775756,-0.0082638456757,0.0306949538729,-0.000315657409959,1.0,0.0,0.0518663004948
1385570283191870328,-0.00699017158736,0.0297385974443,-0.000594962998024,1.0,0.0,0.0525228905667
1385570283391741529,-0.00644184045293,0.0281896777433,-0.000973901670755,1.0,0.0,0.0530755604113
1385570283591832668,-0.00663626635058,0.0265936519494,-0.00113910959491,1.0,0.0,0.0535942607574
1385570283792007664,-0.00714821670947,0.0254282468589,-0.00103934990638,1.0,0.0,0.0539838872387
1385570283991869347,-0.00769716527335,0.0245830724911,-0.000897765408683,1.0,0.0,0.0543873951933
1385570284192009594,-0.00810343787342,0.0241180004592,-0.000739506180648,1.0,0.0,0.0547581275173
1385570284391725555,-0.00838108407837,0.0238803627122,-0.000301162079085,1.0,0.0,0.0549768243615
1385570284591943976,-0.00877527665625,0.0234395204784,3.8007220981e-05,1.0,0.0,0.0550894133475
1385570284791795067,-0.00956697755765,0.0226769614178,0.000187549905923,1.0,0.0,0.0553553655584
1385570284991910096,-0.0107200426675,0.0217839080891,1.99228260168e-05,1.0,0.0,0.0557390711893
1385570285191847123,-0.0115482214427,0.0213017377363,-0.000111664347469,1.0,0.0,0.0558444113167
1385570285391868388,-0.0122030028499,0.0211999328164,-0.000175802965733,1.0,0.0,0.0558266077858
1385570285591828792,-0.0127219208743,0.021154139371,-0.000610474335845,1.0,0.0,0.0557881202839
1385570285791748265,-0.0135060618314,0.0212652431785,-0.000955206808961,1.0,0.0,0.0557660763246
1385570285991791013,-0.0147845264149,0.021272950279,-0.00140896322265,1.0,0.0,0.0556269774369
1385570286191891245,-0.0169433817646,0.0211021985056,-0.00155766453299,1.0,0.0,0.0555274950827
1385570286391764873,-0.0194427992484,0.020854855737,-0.00146180352836,1.0,0.0,0.0554654919096
1385570286591803590,-0.0218122556859,0.020636145415,-0.0014646651516,1.0,0.0,0.0554082680829
1385570286791791523,-0.024209664709,0.0203928782814,-0.0015827333488,1.0,0.0,0.0556191138164
1385570286991784243,-0.0255294280125,0.0211096856203,-0.00159782218223,1.0,0.0,0.0555825958312
1385570287191964696,-0.0266247805694,0.0224887577906,-0.00129388409444,1.0,0.0,0.05570822022
1385570287391800651,-0.0270613803796,0.0242852675136,-0.00111084035726,1.0,0.0,0.0558574083077
1385570287591904931,-0.026881156275,0.0265436052857,-0.000784376290531,1.0,0.0,0.055903242936
1385570287791818953,-0.025986659138,0.0289060500297,-0.000321508650875,1.0,0.0,0.055859316815
1385570287991798410,-0.0246688541656,0.0311695997332,0.000153416320166,1.0,0.0,0.05588617751
1385570288191712206,-0.0227519498582,0.0329276675805,0.000742452697692,1.0,0.0,0.0559085814818
1385570288391791956,-0.020550131333,0.0339479620087,0.00131160610845,1.0,0.0,0.0558641515433
1385570288591784042,-0.0190094707373,0.0337134888206,0.00181130901494,1.0,0.0,0.0560719207881
1385570288791746200,-0.0176990776148,0.0325972310774,0.00198406689601,1.0,0.0,0.0562892878936
1385570288991978292,-0.0168676686988,0.0303507328824,0.00200052025001,1.0,0.0,0.0563742873286
1385570289191878186,-0.0165966750834,0.0275118505301,0.00189211138269,1.0,0.0,0.0562758592424
1385570289391800405,-0.0171234421435,0.02433989404,0.00207974620699,1.0,0.0,0.0562959138839
1385570289591742708,-0.0180352618424,0.0211035464954,0.00203005906295,1.0,0.0,0.0564918886108
1385570289791733314,-0.0185913547048,0.0181792846679,0.00174617837479,1.0,0.0,0.0565060414816
1385570289991807342,-0.0191359591888,0.0153968759537,0.00117726905768,1.0,0.0,0.0563858548137
1385570290191913688,-0.019743648111,0.0131971373391,0.000660427660006,1.0,0.0,0.0561336359355
1385570290391760060,-0.0208186754963,0.0116877689649,0.000582201537549,1.0,0.0,0.0557917554651
1385570290591941210,-0.0222772530886,0.0110154050523,0.000341842422171,1.0,0.0,0.0553645503785
1385570290791884772,-0.0237266834402,0.0114195460204,2.28720743662e-05,1.0,0.0,0.0549421808992
1385570290992036510,-0.0247929850831,0.0125770465087,-0.000370613423176,1.0,0.0,0.054521777715
1385570291191851908,-0.0251525865851,0.0144166650008,-0.00056540870368,1.0,0.0,0.054044004875
1385570291391840856,-0.0248818148689,0.01648440458,-0.000421976379013,1.0,0.0,0.0535125933582
1385570291592117177,-0.0242098056695,0.0181481830126,-5.97291358326e-05,1.0,0.0,0.0531305081516
1385570291792548963,-0.0230430707409,0.0192012076547,2.22095585064e-05,1.0,0.0,0.052750015809
1385570291991743893,-0.0216550542212,0.0194605885759,0.000263967553053,1.0,0.0,0.0522552213738
1385570292191778160,-0.0202569667499,0.0194183685917,0.000530855143237,1.0,0.0,0.0516477411999
1385570292391804637,-0.0193254423264,0.018646457463,0.00098822758822,1.0,0.0,0.0510863555201
1385570292591898516,-0.0191334564461,0.0171202403322,0.000979120728319,1.0,0.0,0.0506535684953
1385570292791870955,-0.019413156557,0.0150912563173,0.00106471051785,1.0,0.0,0.0502242676656
1385570292991807326,-0.0201811914383,0.0127333729127,0.000995260289094,1.0,0.0,0.0499039871516
1385570293191757183,-0.0212127007181,0.0102538591085,0.000724175759912,1.0,0.0,0.0497338568234
1385570293391815544,-0.022092231312,0.00877533404948,0.000846281590108,1.0,0.0,0.049377516086
1385570293591801928,-0.0228813234716,0.00805850656839,0.000689148875051,1.0,0.0,0.0491820361888
1385570293791878942,-0.0229930573654,0.00879666248082,9.33039672367e-05,1.0,0.0,0.0488840216675
1385570293991752440,-0.0226322974308,0.0106251799139,-0.000393813618945,1.0,0.0,0.0486027104649
1385570294191733137,-0.0219023177681,0.0130437629997,-0.000757647772005,1.0,0.0,0.0483243694211
1385570294391747765,-0.0209169845506,0.0153638911343,-0.000936162106838,1.0,0.0,0.0478480622187
1385570294591730572,-0.0200928670353,0.0168886129761,-0.00109091259021,1.0,0.0,0.0473286432704
1385570294791781110,-0.0193442136493,0.0177182083996,-0.000742165945163,1.0,0.0,0.0465936712835
1385570294991963303,-0.0182941845154,0.0180088654901,-0.000766137446376,1.0,0.0,0.0458084701163
1385570295191843866,-0.016502779564,0.0181857348986,-0.000822750508231,1.0,0.0,0.0448490026962
1385570295391918882,-0.0144677192707,0.0181190194494,-0.000885648381333,1.0,0.0,0.043866592465
1385570295591768373,-0.0122792882105,0.017854585791,-0.00089636622285,1.0,0.0,0.0428221288788
1385570295791760712,-0.0103112347099,0.0170735321609,-0.000795112550856,1.0,0.0,0.0418462851976
1385570295991802786,-0.00871855847436,0.0156630128727,-0.00081705128601,1.0,0.0,0.0409812397888
1385570296191837670,-0.00791801077929,0.0133148504175,-0.000876406426362,1.0,0.0,0.0402756642696
1385570296391762633,-0.00773643067889,0.0103615494266,-0.00117862283034,1.0,0.0,0.0395724227007
1385570296591849992,-0.00812073597053,0.00708365393736,-0.00171215223539,1.0,0.0,0.0388145648518
1385570296791765096,-0.00883664594294,0.00419710224891,-0.00215225713885,1.0,0.0,0.0379080930646
1385570296991886717,-0.00974778382623,0.00187274513109,-0.0026041964503,1.0,0.0,0.0370220188815
1385570297191793861,-0.0107401491268,0.000239853888251,-0.00278015221833,1.0,0.0,0.0361911734949
1385570297391800378,-0.0115417234555,-0.000326906132111,-0.00288993703083,1.0,0.0,0.0352411580905
1385570297591811798,-0.012194623634,0.000398340624268,-0.00276460716727,1.0,0.0,0.0343100802596
1385570297791842401,-0.0127513166386,0.00203112377009,-0.00266796361733,1.0,0.0,0.033465134696
1385570297991845162,-0.0130335208199,0.00459365634591,-0.00255014857086,1.0,0.0,0.0327571547664
1385570298191744882,-0.0127813651971,0.00776300259783,-0.00256264173918,1.0,0.0,0.0319055818871
1385570298391895150,-0.0120660097725,0.0110703750822,-0.00243477936192,1.0,0.0,0.0310391837318
1385570298591759946,-0.0111861041516,0.0137374943764,-0.00240707514141,1.0,0.0,0.0301516360801
1385570298791781675,-0.0101664429859,0.0154277446883,-0.00224973077205,1.0,0.0,0.0293718318208
1385570298991910147,-0.00912726430928,0.0163484032232,-0.0021008389829,1.0,0.0,0.0287155040273
1385570299191864790,-0.00836011521443,0.0168892690115,-0.00186126471762,1.0,0.0,0.0280421817238
1385570299391860179,-0.00798446426566,0.0173160043945,-0.00157880337246,1.0,0.0,0.02749088792
1385570299591919323,-0.00809510796069,0.0178102436731,-0.00142488365634,1.0,0.0,0.0270769365092
1385570299791841701,-0.00852575798882,0.0182982494296,-0.00114646179295,1.0,0.0,0.0267625835225
1385570299991811184,-0.00908588940684,0.0186265679554,-0.000975101441272,1.0,0.0,0.0265788911887
1385570300191756496,-0.00951050720437,0.0190347494278,-0.000713351853221,1.0,0.0,0.0266066138191
1385570300391875544,-0.00966808834952,0.019385419995,-0.000637619458229,1.0,0.0,0.0267584832875
1385570300591844263,-0.00964058149866,0.0193694008346,-0.000441432177708,1.0,0.0,0.0268866222423
1385570300791872881,-0.0092455841938,0.0189990223564,-0.000220943549149,1.0,0.0,0.0269346142981
1385570300991878896,-0.00870119083565,0.0185008446069,5.03614734813e-06,1.0,0.0,0.0269988249788
1385570301191739920,-0.00802936434398,0.0181260510884,0.000337295843492,1.0,0.0,0.0270565178319
