%time,field.linear.x,field.linear.y,field.linear.z,field.angular.x,field.angular.y,field.angular.z
1385570176201930337,0.0,0.0,0.0,0.0,0.0,0.0
1385570176201952596,0.0566317078817,-0.0359838298127,-0.113717578035,-0.0172156271691,0.00976033020087,-1.59133085991
1385570176211879100,0.0567175704288,-0.03603531423,-0.113627391161,-0.0174242035582,0.00851585427568,-1.5909511229
1385570176221764326,0.0567000661912,-0.0360406086129,-0.113630951541,-0.0172718193903,0.00851383525763,-1.59100400504
1385570176231701876,0.0566984149337,-0.0360352280404,-0.113603622441,-0.0172972773453,0.00848405078057,-1.59092859517
1385570176241636813,0.0566176152217,-0.035982535625,-0.113708938228,-0.0171961246588,0.00979829816072,-1.59128066512
1385570176251638182,0.0566785279217,-0.0360434496685,-0.113620525417,-0.0171679668836,0.00856968819293,-1.59106464064
1385570176261666066,0.0566119092571,-0.0359945433895,-0.113692708819,-0.0170319381645,0.00969653424106,-1.59132979959
1385570176271723285,0.0566164983391,-0.0359777863711,-0.113712826504,-0.0172265823155,0.00986309271858,-1.59128024632
1385570176281702638,0.0566828414611,-0.0360445614596,-0.113602115735,-0.0171851687184,0.00852276233737,-1.59105986253
1385570176292036934,0.0566875967531,-0.0360310379743,-0.113628415001,-0.0172924827697,0.00864907139094,-1.5910138433
1385570176301671597,0.0566213359382,-0.0359793233588,-0.113721918964,-0.0172529629702,0.00980350783416,-1.59131350531
1385570176311684957,0.0567039971424,-0.0360423288827,-0.113610952291,-0.0172850854014,0.00852064254652,-1.59098473332
1385570176321821287,0.0567106483118,-0.0360519757515,-0.113609491993,-0.0173098093032,0.00850441841939,-1.59095280666
1385570176331719841,0.056679552452,-0.0360451545253,-0.113596437033,-0.0171325884447,0.00855493342002,-1.59101852167
1385570176341646958,0.0566859886649,-0.0360376690247,-0.11363599319,-0.0173311650044,0.00862832286024,-1.59101532239
1385570176351729963,0.0565358700336,-0.0360520601824,-0.113780022451,-0.0177780662474,0.00838263783169,-1.59109553933
1385570176361721994,0.0565946640907,-0.0360804746717,-0.113713438691,-0.0178174812514,0.00740647012768,-1.59084066426
1385570176371726257,0.0565888461052,-0.0360747937516,-0.113734006125,-0.0179678653067,0.00755500503253,-1.59082605765
1385570176381686630,0.0566919989306,-0.0360521018122,-0.113605562603,-0.0171745955688,0.00842595770892,-1.59102245851
1385570176391883635,0.0566276331809,-0.0359766525163,-0.113720331143,-0.0172200117858,0.00980201891597,-1.59128017197
1385570176401729304,0.0565785886752,-0.0360796493381,-0.113725086061,-0.0178631954474,0.00728925394482,-1.59086156383
1385570176411879858,0.0565288779598,-0.0360475320535,-0.113795228353,-0.0177917046648,0.0084214832219,-1.59110370482
1385570176421726687,0.0565629016909,-0.036097721272,-0.113694082503,-0.0177736424078,0.00727448861721,-1.59082233126
1385570176431728806,0.0565905000515,-0.0360868008478,-0.113732438138,-0.0180027200893,0.00742558202528,-1.59079072897
1385570176441679127,0.056652229537,-0.0360023545331,-0.113699447886,-0.0172239994107,0.00939110661506,-1.591267134
1385570176451719605,0.0566996588836,-0.0360330213334,-0.113628113755,-0.0173250125801,0.00861043300865,-1.59106687479
1385570176461745918,0.0566901052438,-0.0360441381229,-0.113625580897,-0.0173095931819,0.00853713065314,-1.59096453404
1385570176471686418,0.0567243234792,-0.0360309706364,-0.113634868368,-0.0173907348984,0.00852233365776,-1.59093108176
1385570176481724980,0.0566368976248,-0.0359831739002,-0.113718287249,-0.0172340784494,0.00975919174255,-1.59130470493
1385570176491721185,0.0567036710958,-0.0360390198216,-0.113616212121,-0.0172751420775,0.00853738282906,-1.59096633217
1385570176501892731,0.0567156284588,-0.0360370685673,-0.113647154855,-0.0174408147586,0.0085778615892,-1.59098189798
1385570176511761504,0.0566221586751,-0.0359772525918,-0.113708797557,-0.0171868895703,0.00978985623178,-1.59133508226
1385570176521698171,0.0566927112812,-0.0360387010937,-0.113626746719,-0.0173022540146,0.00860254833519,-1.59102871995
1385570176531683641,0.0566428370425,-0.0359794239982,-0.113728404739,-0.0171950830115,0.00970544245777,-1.59134885588
1385570176541637635,0.0566453363952,-0.0359960701612,-0.11370574915,-0.0172330680722,0.00955855838476,-1.59130899662
1385570176551690175,0.0566282760992,-0.0359991012462,-0.113684774679,-0.0170416347054,0.0094971113831,-1.59127291567
1385570176561669198,0.0567182573965,-0.0360457065088,-0.113616661656,-0.0173122762298,0.00843597046946,-1.59101255185
1385570176571675985,0.0566424252302,-0.0359793603664,-0.113716047161,-0.0171596904892,0.00978219233311,-1.59131732812
1385570176581721293,0.0566320012301,-0.0359918170782,-0.113708576076,-0.0172236211995,0.00962396586522,-1.59126228662
1385570176591843008,0.0566235119811,-0.0360098628369,-0.113682132001,-0.0171021597927,0.00952059085229,-1.59128493067
1385570176601746091,0.0566091747375,-0.0359976871735,-0.113698206659,-0.0170704469299,0.00973264223806,-1.59132643149
1385570176611803815,0.0566725438971,-0.0360497667321,-0.113619321052,-0.0172414363922,0.00861282422648,-1.59104801049
1385570176621873066,0.0567174753621,-0.0360447981771,-0.113634934142,-0.0174749267549,0.00859530687044,-1.59093638197
1385570176631729857,0.0566943800813,-0.0360510681838,-0.11359464448,-0.0171025492413,0.00841801487198,-1.5909789849
1385570176641720589,0.0566369765295,-0.035982067128,-0.113710495629,-0.0171775692677,0.0097163591105,-1.59134958335
1385570176651805980,0.0566206908946,-0.0359804625382,-0.113711326808,-0.0171847892719,0.00980657736386,-1.59129929993
1385570176661701145,0.0566076208139,-0.0359931228063,-0.113704108912,-0.0170657573541,0.00970893589707,-1.59133241868
1385570176671772429,0.0566065340718,-0.035988626274,-0.113702457884,-0.0170772925427,0.00973528204347,-1.59133697898
1385570176681779376,0.0566311157775,-0.0359807457695,-0.113723311349,-0.0172206659187,0.0098095209896,-1.59132188727
1385570176691666776,0.0566070805777,-0.0359954556223,-0.113703428132,-0.0171367675195,0.00971669995318,-1.59130936007
1385570176701718524,0.0567100544357,-0.0360265192669,-0.113648561119,-0.0174140838833,0.00872099417042,-1.59100547602
1385570176711722602,0.0566991309152,-0.0360386935766,-0.113614617312,-0.0173608689219,0.00852237507455,-1.59097529039
1385570176721748135,0.0566334452434,-0.0359809726974,-0.113731550591,-0.0173350437985,0.00988543051359,-1.59127659037
1385570176731688067,0.0566738170318,-0.03604060446,-0.113613189451,-0.0171612926186,0.00857322749366,-1.59104070618
1385570176741732078,0.0566202612954,-0.036004105753,-0.113674911245,-0.0170288452979,0.00953120231923,-1.59125931922
1385570176751716604,0.0566496154713,-0.035990117712,-0.113716489315,-0.0172960734589,0.0096353378468,-1.59123371082
1385570176761697898,0.056712752883,-0.0360433837877,-0.113601017604,-0.0174911965596,0.00865815261156,-1.59090952745
1385570176771710565,0.0567248332817,-0.0360192644642,-0.113582392349,-0.0173928520626,0.0084897886799,-1.59139878404
1385570176781751320,0.0565918839475,-0.0359906652522,-0.113750684164,-0.0169382575558,0.00990464264239,-1.59089197892
1385570176791856045,0.0566617821327,-0.0360134564373,-0.113634382061,-0.0173617449539,0.00846602693636,-1.59053646995
1385570176801751323,0.056727950078,-0.0360353921507,-0.113681145018,-0.0176375309075,0.00913975361399,-1.59162871472
1385570176811704717,0.056703799556,-0.0360777086932,-0.113568973449,-0.0170501815378,0.00842276998088,-1.59131629688
1385570176821955255,0.0566744794411,-0.0360499618277,-0.113653337927,-0.0170522011078,0.00864904813519,-1.59047866293
1385570176831767641,0.0566670919006,-0.0360578576677,-0.113678088795,-0.0171864417908,0.00877202312949,-1.59121078438
1385570176841791361,0.056731782109,-0.0360563340135,-0.113667776511,-0.0173471688219,0.00886326616693,-1.59144954416
1385570176851758104,0.0566358595167,-0.0360111345967,-0.113694538374,-0.0171990614551,0.00975288029965,-1.59117752671
1385570176861719601,0.0567520173148,-0.0360421554139,-0.113624020184,-0.0175754761005,0.00868197062414,-1.59048919635
1385570176871779939,0.0567281282596,-0.0360330193807,-0.113581055426,-0.0176031105771,0.00907535937834,-1.59139763278
1385570176881846844,0.0567050519061,-0.0360516141093,-0.113577452536,-0.0176053327929,0.0091440165328,-1.59154936759
1385570176891714157,0.056758598866,-0.0360529886878,-0.113614435981,-0.0174197319624,0.00859180160215,-1.59113213956
1385570176901724932,0.0566847418535,-0.0360294980261,-0.113706638841,-0.0173641087222,0.0098686427728,-1.59107045494
1385570176911753766,0.0567027122389,-0.0360804150168,-0.113579261527,-0.0174306237193,0.00908889338363,-1.59073334866
1385570176921682909,0.0566873190291,-0.0360235724701,-0.11372870145,-0.0173847519762,0.0099142583683,-1.59114327957
1385570176931765449,0.0567525922536,-0.0360728079955,-0.113588990228,-0.0174530045997,0.00894312774651,-1.59076686868
1385570176941724572,0.056707394246,-0.0360664487983,-0.113562507102,-0.017192019789,0.0081269525254,-1.59063630642
1385570176951733813,0.0566544994026,-0.0360236393923,-0.113787989892,-0.0170814392212,0.0100061089495,-1.59123800175
1385570176961722107,0.0567364352365,-0.0361047725171,-0.113556216171,-0.0169783483572,0.00838530760984,-1.59085787372
1385570176971779976,0.0567120543652,-0.036023577267,-0.113711818045,-0.017309016733,0.00992260199699,-1.59118089795
1385570176981735644,0.0567253068329,-0.036035335025,-0.113711749416,-0.0174173700922,0.00958081755604,-1.59113367887
1385570176992083710,0.0567743963786,-0.0360779682516,-0.11363070008,-0.0174840531112,0.00869887358717,-1.59069529679
1385570177001771076,0.0567714590898,-0.0360660719224,-0.113652807383,-0.0174822480412,0.00866675145254,-1.59076963946
1385570177011755262,0.0567028952481,-0.0360381916751,-0.113693914876,-0.0174546766637,0.0095664056632,-1.59124627466
1385570177021785631,0.0567543719318,-0.0361345895688,-0.113590359088,-0.0174600422106,0.00834658274832,-1.59055080667
1385570177031752755,0.0567131869866,-0.0360344158993,-0.113708460475,-0.0172605204836,0.00973298059272,-1.59095014292
1385570177041697401,0.0566955982832,-0.0360332346884,-0.113733463372,-0.0173573857679,0.00998177243251,-1.59130501534
1385570177051776538,0.0567751676777,-0.036082302213,-0.113608966147,-0.0174069911527,0.00849369949735,-1.5908578476
1385570177061748773,0.056707411782,-0.0360903908116,-0.113572377485,-0.0174218878089,0.0091685766592,-1.59050124554
1385570177071804426,0.0567621839237,-0.0360643943786,-0.11360516045,-0.0173252607637,0.00864183038528,-1.59073376222
1385570177081836074,0.0567943524153,-0.0360647566273,-0.113621315053,-0.0175516257539,0.00851678625866,-1.59116317806
1385570177091689548,0.0567749580502,-0.0360598818618,-0.113641964105,-0.0175602579548,0.00879707209223,-1.59071397392
1385570177101865990,0.0567380647963,-0.0361813224737,-0.113609326726,-0.0173937706383,0.00812018447225,-1.59056158401
1385570177111724518,0.0566755239134,-0.0360470238846,-0.113670492916,-0.0173600313404,0.0102274216683,-1.59110353538
1385570177121797765,0.0567842226319,-0.0360810466533,-0.113656386881,-0.0174189439273,0.00859736827874,-1.59100872
1385570177132116065,0.0567056987167,-0.0360162190765,-0.113726625876,-0.0173611446911,0.00983605145263,-1.59096598626
1385570177141679034,0.056708788474,-0.0360312649678,-0.113690004505,-0.0174562261422,0.00942990879731,-1.59096078851
1385570177151784727,0.0566894409724,-0.0360257693187,-0.11372613784,-0.0173895285438,0.00991007214127,-1.5913235251
1385570177161922659,0.0567238999872,-0.0360278217635,-0.113714905006,-0.0174121999891,0.00956701150521,-1.59102908266
1385570177171748372,0.0567130965893,-0.036021178511,-0.113729395932,-0.0174171223147,0.00979274988857,-1.59094528987
1385570177181783360,0.0567062237491,-0.0360399028449,-0.113714978546,-0.0173915513882,0.0096140030963,-1.59118838204
1385570177191819346,0.0566974020803,-0.0360340698497,-0.113666695823,-0.0173435697509,0.00947231513756,-1.59101781863
1385570177201734508,0.0566845819325,-0.0360071630329,-0.113719553353,-0.0171042267111,0.00979115899649,-1.59104538298
1385570177211716610,0.0567487185098,-0.0360687244385,-0.113632600274,-0.0173963992933,0.00861283385708,-1.59097503545
1385570177221809036,0.0567164051658,-0.0360171244343,-0.113707843878,-0.0174242006498,0.00985895300929,-1.59100150543
1385570177231717531,0.056671616915,-0.036020417201,-0.113661407862,-0.0174266831188,0.010420778284,-1.59092968969
1385570177241730651,0.0567413999536,-0.0360306013045,-0.11361301408,-0.0172168346854,0.00835584351685,-1.59077200475
1385570177251699342,0.0567030608251,-0.0360306647501,-0.11371639047,-0.0174389603716,0.00983187303618,-1.59118263198
1385570177261642745,0.0567865722816,-0.0360729376309,-0.113613689895,-0.0174525427027,0.00868572709919,-1.59035217191
1385570177271824252,0.0568063737853,-0.0360484610829,-0.113591833014,-0.0176544877482,0.00850433998378,-1.59102358099
1385570177281774657,0.0567497105039,-0.0360956799254,-0.113586952675,-0.0171628267168,0.00832518554799,-1.59121732968
1385570177291821341,0.0566933716411,-0.0360263355813,-0.113690048354,-0.0174541318488,0.00998837578885,-1.59107539147
1385570177301696524,0.0567644143425,-0.0360758371174,-0.113577598821,-0.0174648111795,0.00844657836901,-1.59045661087
1385570177311655812,0.056760150702,-0.0360880490649,-0.113611692527,-0.0173493095739,0.00822629911225,-1.59084640831
1385570177321805797,0.0567406945607,-0.0360883071512,-0.113686729544,-0.0170371413906,0.00869319907405,-1.59123933574
1385570177331774710,0.05679059144,-0.0360663531099,-0.113666062613,-0.0171555564813,0.00855598672961,-1.59047927402
1385570177341656754,0.0567193449024,-0.0360395116047,-0.113775328724,-0.0170376288148,0.00972810750505,-1.59113442843
1385570177351693615,0.05679552792,-0.0360813293618,-0.113687041496,-0.0172254729223,0.00848656486713,-1.59090619231
1385570177361747800,0.0566888100035,-0.0360442557501,-0.11376787133,-0.0173142229953,0.00992462825567,-1.59099025854
1385570177371715187,0.0567615403124,-0.0360805364534,-0.11364097481,-0.0177015734399,0.00833204904906,-1.59094352942
1385570177381877406,0.0566892147677,-0.0360130152287,-0.11371771158,-0.0177315768639,0.00978095222503,-1.59129496309
1385570177391775190,0.0566901770672,-0.0360177911206,-0.11367501106,-0.0172487262352,0.00989868121762,-1.5908623425
1385570177401755332,0.0567860965807,-0.0361059749423,-0.113648890557,-0.0167859175338,0.0086152200732,-1.5908857966
1385570177411724438,0.0568943333147,-0.0360340120463,-0.113815561175,-0.0161946019505,0.00839029357174,-1.59096274943
1385570177421775765,0.0567529642699,-0.0361329293942,-0.11369006201,-0.0164684503425,0.00842936189426,-1.59039542937
1385570177431767232,0.0566986313641,-0.036036022384,-0.113740517852,-0.0165435935134,0.00938270364078,-1.59115407158
1385570177441736173,0.0566792122337,-0.0359880193836,-0.113746659872,-0.016895782103,0.00953432384869,-1.59119170325
1385570177451703798,0.0567234965179,-0.0361175463806,-0.113659865899,-0.0174697181297,0.00875066261816,-1.59062156029
1385570177461712134,0.056701716777,-0.0360687160255,-0.113743051092,-0.0170098197324,0.00853891048652,-1.59126395389
1385570177471719256,0.056674455495,-0.0360444601156,-0.113661672028,-0.0165905065862,0.00800159849213,-1.59089159215
1385570177481702247,0.0567304396574,-0.0361038518668,-0.113631233519,-0.0165822457961,0.00858497438479,-1.59089223377
1385570177491773760,0.0567097627352,-0.0360037036812,-0.113720567921,-0.0166219130809,0.00955300569398,-1.59094555587
1385570177501699699,0.0567191171552,-0.0360900761885,-0.11372001317,-0.016806581447,0.00856236463668,-1.59081530897
1385570177511705144,0.0566960857292,-0.0360906395276,-0.113791618522,-0.0168843644413,0.00889426977302,-1.59120702602
1385570177521675901,0.0567379160752,-0.0360015276296,-0.113713213547,-0.0173695855794,0.00829789951676,-1.59089278053
1385570177531695592,0.0565734320033,-0.0360152198617,-0.113748489362,-0.016772000331,0.0100209021859,-1.59111560652
1385570177541705787,0.0566116657537,-0.0359654343743,-0.113695517036,-0.0165714527183,0.00929504697082,-1.59131149972
1385570177551716481,0.0567111725531,-0.0359987539957,-0.113753737198,-0.0163676929571,0.00792101289873,-1.59108038235
1385570177561781031,0.0566718273347,-0.0360550467479,-0.11374183525,-0.016505737472,0.00882986588545,-1.59090415418
1385570177571735038,0.0566710567414,-0.0360154847955,-0.113603605316,-0.0169020590686,0.00915327650397,-1.59096646418
1385570177581819348,0.056704111431,-0.035990856494,-0.113610026331,-0.0169914889267,0.00830373882785,-1.59097639234
1385570177591824370,0.0566808093998,-0.0360389292579,-0.113682755798,-0.0174538588101,0.00857828031981,-1.59110057117
1385570177601733029,0.0566699916368,-0.0359689221231,-0.113720502409,-0.0174256757251,0.0084614221587,-1.59149562709
1385570177611812852,0.0566356028389,-0.0359712887299,-0.113680751791,-0.0165394502238,0.00812296927037,-1.59087410317
1385570177621744620,0.0566135830477,-0.0360189941345,-0.113787407299,-0.0164145758277,0.0102048723027,-1.59123194086
1385570177631654880,0.0567022614439,-0.0359808464225,-0.113712170081,-0.0169167704179,0.00899886536598,-1.5911251545
1385570177641756250,0.0566109765861,-0.0359660668832,-0.113774286736,-0.0170865920683,0.00980317846452,-1.5910367703
1385570177651725333,0.0565616899208,-0.0359425442735,-0.113733552779,-0.0171789922911,0.00933620683301,-1.59130870104
1385570177661768453,0.0566103525501,-0.0358683091664,-0.113748844498,-0.0171963678001,0.00973074605519,-1.59143007552
1385570177671672934,0.056623922177,-0.0359926269896,-0.11367234429,-0.0168926609549,0.00878298282028,-1.59102507988
1385570177681779550,0.0566187964486,-0.0359219106298,-0.113645577356,-0.0164582648793,0.00825335901219,-1.59099566969
1385570177691807489,0.0566853353348,-0.0358975277238,-0.11367734417,-0.0166599050518,0.00836354836412,-1.59124960236
1385570177701774183,0.0566233126169,-0.0359868380652,-0.113653066276,-0.0170659573654,0.0086756223376,-1.59102352539
1385570177711749696,0.0566179024443,-0.0359236539878,-0.11366361883,-0.0175050296033,0.00866173919117,-1.59130575536
1385570177721797529,0.056575911577,-0.0358774840675,-0.113608086905,-0.017618690472,0.00932166992278,-1.5911168938
1385570177731718425,0.0565977592497,-0.0359428077656,-0.113643807812,-0.0173782837233,0.00875301546128,-1.591135136
1385570177741703251,0.0566083398825,-0.0358923726241,-0.113626372263,-0.0169344044074,0.00850026289563,-1.59147464842
1385570177751692125,0.0565560196431,-0.0358737897088,-0.113684089804,-0.0163398651051,0.00848600681235,-1.59108253698
1385570177761751845,0.0566475775955,-0.0359293751677,-0.113664399014,-0.0168487925509,0.0087084712562,-1.59124738535
1385570177771703819,0.0566365184626,-0.0358405821862,-0.113689692497,-0.0173643160995,0.00854523107706,-1.59158075555
1385570177781700368,0.0565794001762,-0.0358660527481,-0.113660733762,-0.0175918337333,0.00879918273979,-1.59124862832
1385570177791935312,0.0564961405024,-0.0358199594444,-0.113555121523,-0.0171757925532,0.00925404786062,-1.59109654068
1385570177801765866,0.0566104046788,-0.0358199239486,-0.113652460454,-0.017337579264,0.0085471704348,-1.59160587611
1385570177811746107,0.0565848253613,-0.0358634616706,-0.113681406312,-0.0172077396082,0.00875815914026,-1.5912280615
1385570177821754412,0.0565811889444,-0.0358393659599,-0.11366092816,-0.0171960927581,0.00842717371793,-1.59150385858
1385570177831760092,0.0565857497277,-0.0358169987645,-0.113648955574,-0.0171779667173,0.00854001843782,-1.59164565188
1385570177841682471,0.0565879912269,-0.0358700401592,-0.113665486784,-0.0173469699875,0.00876020927476,-1.59113882325
1385570177851792944,0.0565627033784,-0.0358339600507,-0.113624538164,-0.0171652523804,0.00829800612174,-1.59169135939
1385570177861711517,0.056532586396,-0.0357878296648,-0.113600511459,-0.0173164215256,0.00831690817228,-1.59135375301
1385570177871654283,0.0565415633101,-0.0358788857075,-0.113661217768,-0.017533654849,0.00877414231438,-1.59116354458
1385570177881663177,0.0565567013002,-0.035781404408,-0.113686942438,-0.0172618032481,0.00854510038587,-1.59165124762
1385570177891787763,0.0565231105944,-0.0358438833676,-0.113632658654,-0.0167396239095,0.00867155723497,-1.5913672407
1385570177901711647,0.056557472086,-0.0358288690123,-0.113599304326,-0.0166467142064,0.00842480872542,-1.59146598642
1385570177911832645,0.0565355932928,-0.0357821274845,-0.113685695616,-0.0170958348553,0.00837918844656,-1.59168420335
1385570177921722557,0.0564881369749,-0.0358591512412,-0.113656112435,-0.0173456740912,0.00842447720741,-1.59121553568
1385570177931761477,0.0563858866145,-0.0357277464147,-0.113647032771,-0.0175764725065,0.00939620880022,-1.59189501534
1385570177941655048,0.0564604622391,-0.0358068375343,-0.113586583017,-0.0173208776045,0.00861453389725,-1.59167713584
1385570177951750795,0.0564912957517,-0.0358453300815,-0.113630706456,-0.0170770448303,0.00872846204488,-1.5914177449
1385570177961716916,0.0565033353869,-0.0358093315105,-0.1136575294,-0.0170890420178,0.00824813738238,-1.59192505404
1385570177971673605,0.0564661243129,-0.0358304672027,-0.113672582534,-0.0172016849054,0.00866473076255,-1.59139004145
1385570177981709080,0.0563668290195,-0.0357663835228,-0.113696689404,-0.0171214400249,0.0096845741758,-1.59226133466
1385570177991847803,0.0564675432236,-0.0357788734678,-0.113575658238,-0.0174184931029,0.00835058792381,-1.59204898154
1385570178001698473,0.0564514622191,-0.0358395885928,-0.113611280057,-0.0174391469013,0.00878115642174,-1.59131095192
1385570178011738773,0.0564423615573,-0.0357628251604,-0.113684980455,-0.0169192935203,0.00834536314015,-1.59188412277
1385570178021684098,0.0563786324637,-0.0357865683749,-0.113658335717,-0.0171084123212,0.00795225595144,-1.59161848008
1385570178031730082,0.0564216420036,-0.0358137704474,-0.1136071978,-0.0170774374769,0.00846634972731,-1.59181666498
1385570178041730294,0.0564190777484,-0.0357762238494,-0.113534456205,-0.0168480393881,0.00823995629078,-1.59217813669
1385570178051753908,0.0563479047007,-0.035746434748,-0.113621001565,-0.0167635945729,0.00834535632384,-1.59133026204
1385570178061742836,0.0563300418225,-0.0358096342877,-0.1136079924,-0.0171736983952,0.00825818158019,-1.59196356412
1385570178071748290,0.0563272461359,-0.0357574022234,-0.113602857636,-0.0173268020157,0.00802990805162,-1.59139726889
1385570178081690837,0.0563173876123,-0.0357422913402,-0.113635832762,-0.017287570096,0.00818709902184,-1.59127845428
1385570178091740450,0.056374379936,-0.0357358033237,-0.113670483993,-0.017291366319,0.0083704909993,-1.59162791274
1385570178101674543,0.0562669358039,-0.0356960210615,-0.113665940129,-0.0166377449474,0.0081422722428,-1.59114714537
1385570178111679688,0.0563439281537,-0.0357472997075,-0.113632741872,-0.0168855301863,0.00830891976664,-1.59140477847
1385570178121649863,0.0562998511894,-0.035657429908,-0.11380645219,-0.0162885847672,0.00933721908347,-1.5914736199
1385570178131677561,0.056297370768,-0.0357451344212,-0.113679129477,-0.0174346741763,0.00833303953826,-1.59104281359
1385570178141720328,0.0562817892569,-0.0357263681611,-0.113638368865,-0.0172704927685,0.00883241980708,-1.59117372252
1385570178151650304,0.0563165444845,-0.0357442310944,-0.113633016497,-0.0178588821313,0.00848106439217,-1.59131959202
1385570178161735543,0.0563070739433,-0.0357287171898,-0.113662160999,-0.0171889064275,0.00827691138877,-1.59116671637
1385570178171732150,0.0562618381188,-0.0357113689043,-0.113711768816,-0.0160324915851,0.00803186650444,-1.59125956058
1385570178181727947,0.0562719244329,-0.0356635300022,-0.113665896905,-0.0161244103119,0.00852922907111,-1.5909794019
1385570178191836000,0.0563076224297,-0.0356252458213,-0.113719268695,-0.0164816251371,0.00815401184238,-1.59147758699
1385570178201809839,0.0562947653103,-0.0356335330816,-0.113627970011,-0.0173993599385,0.00826447304519,-1.59110156346
1385570178211704214,0.0562938897291,-0.035580153175,-0.113613514839,-0.0178860168947,0.00801688816428,-1.59124288768
1385570178221702761,0.0561719858923,-0.0356536362947,-0.113560360924,-0.0180581663392,0.00959614675935,-1.59085629682
1385570178231767902,0.0562274848853,-0.0356019583812,-0.113664953676,-0.0176734072674,0.0089236059144,-1.59087470379
1385570178241711139,0.0562393132487,-0.0355969567685,-0.113690765764,-0.0166740888336,0.00844454097157,-1.59174783707
1385570178251694861,0.0561424513438,-0.0356200194289,-0.113678132254,-0.0156039278207,0.0086033231781,-1.59173909306
1385570178261736189,0.0561314979596,-0.0355358175958,-0.113616811902,-0.0159640560635,0.0087624402771,-1.59260352155
1385570178271714846,0.0560489988115,-0.0355367710686,-0.113641192784,-0.0168404282186,0.0084598335549,-1.59210112607
1385570178281745573,0.0560822465867,-0.035415414559,-0.113739331311,-0.0174999389403,0.00804028073631,-1.59284472491
1385570178291697350,0.0559848921198,-0.0354001314151,-0.113769265017,-0.0173790286038,0.0107446378955,-1.59308455781
1385570178301749912,0.0560715865777,-0.0353133242942,-0.11356284435,-0.0169369340502,0.00943799185832,-1.59355974777
1385570178311808764,0.0560559727412,-0.0353367756681,-0.113563429714,-0.0167064078279,0.00895937205849,-1.59456789306
1385570178321734987,0.0560803863348,-0.0352761634379,-0.113735309509,-0.0167665571408,0.00831952743707,-1.59483810558
1385570178331712895,0.0560326199955,-0.0351858183064,-0.113986858232,-0.0161686397261,0.00997425647249,-1.59576666648
1385570178341695308,0.056090984001,-0.0351003355368,-0.11360572814,-0.0175474909587,0.0097358411718,-1.59495507389
1385570178351752403,0.0561501054974,-0.0350870455088,-0.113464648737,-0.0173035737483,0.00832301486171,-1.596345311
1385570178361694779,0.0562114774335,-0.0349363645375,-0.113664726247,-0.0177150721182,0.00746021387414,-1.59634056724
1385570178371648514,0.0562218514642,-0.0348756038206,-0.113793386206,-0.0172781597831,0.00783731147989,-1.59760822077
1385570178381731023,0.056201277743,-0.0347506879772,-0.113822275686,-0.0169494716651,0.00941549591044,-1.59779547208
1385570178391964835,0.0563151000438,-0.0347358969561,-0.113569214974,-0.0170789187866,0.00838559478317,-1.59864826233
1385570178401752282,0.0562681377903,-0.0346478302528,-0.113680967658,-0.016996306048,0.00917399602591,-1.59919915747
1385570178411771760,0.0563700962269,-0.0345329982279,-0.11377638516,-0.0169874176279,0.00876691230794,-1.5994990892
1385570178421751151,0.0563828743915,-0.0344589679721,-0.113793536032,-0.0174794638172,0.008721438852,-1.60082741801
1385570178431768118,0.0563344286832,-0.0343386548959,-0.113805006199,-0.0174548255759,0.00905500881436,-1.60136945768
1385570178441764054,0.0562437226024,-0.0344017782443,-0.113752415442,-0.0169453332274,0.00943092119189,-1.60238901934
1385570178451690369,0.0561526634655,-0.0343391407998,-0.113758370769,-0.0163855218961,0.00919474822695,-1.60269116132
1385570178461744108,0.0561289069775,-0.0343473363454,-0.113706652062,-0.0170225719919,0.00929813956082,-1.60331557481
1385570178471670763,0.0560740511807,-0.0341779510192,-0.113794284958,-0.0175718942927,0.00920766558056,-1.60405992134
1385570178481700845,0.0560268919657,-0.0341235536782,-0.113838352784,-0.0179033705662,0.00886424019062,-1.60505224591
1385570178491734786,0.0559552063737,-0.0340892811757,-0.113794253802,-0.0172509993858,0.00863376596316,-1.60489956583
1385570178501676456,0.0558239901182,-0.0339520714992,-0.113843122906,-0.0168936832496,0.00993113373171,-1.60646386938
1385570178511724168,0.0557742680221,-0.0339050933214,-0.113867484451,-0.0175325330617,0.00877612735492,-1.60650432465
1385570178521692242,0.05566286916,-0.0338134068026,-0.113810115773,-0.0181928567493,0.00879965735123,-1.60789413857
1385570178531672388,0.0554792841115,-0.0337142760963,-0.113680998444,-0.0184806114706,0.00872372505947,-1.60857278627
1385570178541702341,0.0554071207012,-0.0336467983569,-0.113730701487,-0.0190372359159,0.00890061225875,-1.60973858273
1385570178551713825,0.0552599449469,-0.0335618339841,-0.113924122383,-0.0175530996484,0.00830384116306,-1.60983744102
1385570178561795310,0.0551970325176,-0.0334975871495,-0.113812994252,-0.016501985269,0.00905352252793,-1.61098764731
1385570178571716489,0.0550878462638,-0.0334409075457,-0.113748322005,-0.0154153422093,0.00870485213429,-1.61108743588
1385570178581744449,0.0549645480637,-0.0333566400553,-0.113722329033,-0.016330385585,0.00968906521571,-1.61233259475
1385570178591732072,0.0548108612491,-0.0333009856336,-0.113800590011,-0.0168500174823,0.00771729489857,-1.61410294927
1385570178601725208,0.0546473252586,-0.0332302432796,-0.11352455782,-0.0179099362138,0.0088400180498,-1.61504386868
1385570178611843987,0.0545114961253,-0.0331694776631,-0.113412967865,-0.0190149523551,0.00903405825418,-1.61623071252
1385570178621812534,0.0544121630358,-0.0332100167554,-0.113742316684,-0.0187042756401,0.00828009528149,-1.61689809791
1385570178631853367,0.0544093337973,-0.0331729603418,-0.113983676586,-0.0174625573002,0.00751836837001,-1.61755536303
1385570178641769941,0.0544015634438,-0.0331739112186,-0.113690356692,-0.0158055113289,0.00877370145841,-1.61834412822
1385570178651715527,0.0544798326074,-0.0331126883819,-0.113529984381,-0.0145309913352,0.00952557120624,-1.61955153329
1385570178661688737,0.054307567404,-0.0330155655624,-0.113701637507,-0.0151223581258,0.0100813548602,-1.62041410536
1385570178671763278,0.0542518460482,-0.0330520842734,-0.113998367863,-0.0172885288819,0.00939801661911,-1.62189969006
1385570178681668874,0.0543836577801,-0.0330742258211,-0.113843173651,-0.0182628108193,0.00886281145971,-1.62201372753
1385570178691749211,0.0543278776712,-0.0330270122073,-0.113629071625,-0.0177123969539,0.00962080878454,-1.62280224741
1385570178701709045,0.0543877120326,-0.0330698911707,-0.113588149248,-0.0168667953184,0.00860596947137,-1.62354023191
1385570178711677888,0.0542547838088,-0.0329526874787,-0.113602919144,-0.0168337175999,0.0085866730158,-1.62344671602
1385570178721723026,0.0543652168955,-0.0328888008345,-0.113783855774,-0.0172193049526,0.00904108680432,-1.62348829969
1385570178731689605,0.054371503335,-0.032858108393,-0.113801082105,-0.0173054432862,0.00924494948021,-1.62320276388
1385570178741737313,0.0544380415994,-0.0327370962332,-0.113743938413,-0.0172587987099,0.0100944186437,-1.62387655212
1385570178751688860,0.0544240429764,-0.0327366679851,-0.113804842536,-0.0173002679255,0.00764545256841,-1.62384023853
1385570178761758260,0.0544822974002,-0.0325503881579,-0.113728770122,-0.0171200358244,0.00806645934387,-1.62440685199
1385570178771692349,0.0545440620836,-0.0324735690632,-0.113505244288,-0.0164055680112,0.00999331771651,-1.62482171816
1385570178781681035,0.0545536468836,-0.0322780479817,-0.113531705166,-0.0159540504526,0.0106586480302,-1.62542664888
1385570178791736900,0.054496546902,-0.0322798994351,-0.113984014319,-0.0161597545614,0.00863820726794,-1.62560775281
1385570178801839272,0.0544443106791,-0.0321310987246,-0.113957246376,-0.0158160237304,0.00623776825595,-1.62692998531
1385570178811785261,0.0544182169209,-0.0321366242076,-0.113867454612,-0.0155465209024,0.00624104085528,-1.62629641662
1385570178821768526,0.0542940320156,-0.0318837658028,-0.114044397224,-0.0162319700016,0.00813751755854,-1.62752226805
1385570178831738350,0.0544305608538,-0.0318144526772,-0.114359537505,-0.0157639155048,0.00817981992426,-1.62782800197
1385570178841729205,0.0544781887658,-0.0315686190637,-0.114490234009,-0.0138846464575,0.007962760756,-1.62845903366
1385570178851697618,0.0543859718622,-0.0313766073693,-0.114280595173,-0.0113114670204,0.00918420068346,-1.62960263211
1385570178861730817,0.0544136986709,-0.031260894856,-0.114565688097,-0.0082475983005,0.00775791621966,-1.62983382673
1385570178871696555,0.0545309158252,-0.0311249628362,-0.115053107826,-0.00640192472664,0.00575776171947,-1.63075073223
1385570178881714952,0.0544817985208,-0.0308508256133,-0.115116407695,-0.00746070923423,0.00570044581901,-1.63173439845
1385570178891716800,0.0544840199039,-0.0307398590217,-0.115281285078,-0.00749931845888,0.00557015020956,-1.63191324684
1385570178901711816,0.0545220433072,-0.0304412818137,-0.115663339384,-0.00808800148332,0.00468517184936,-1.63301766532
1385570178911820683,0.0544714311635,-0.030126146814,-0.115943454539,-0.00790499066152,0.00218166607053,-1.63322723549
1385570178921698960,0.0543982608882,-0.0298983196605,-0.116174194739,-0.00554813043404,0.000162022576589,-1.63376530248
1385570178931778734,0.054522401914,-0.0295287050086,-0.116546762409,-0.00325742640623,-0.00289222347181,-1.63363628392
1385570178941739300,0.0545458156316,-0.029182132579,-0.117019934684,-0.00220470175623,-0.00488518745546,-1.63432464435
1385570178951694052,0.0546597760631,-0.0288687451555,-0.117458757725,-0.00236407693448,-0.00645416093309,-1.63492192927
1385570178961738063,0.0546479075104,-0.0284748988425,-0.117905615863,-0.00323278699083,-0.00890287935925,-1.6347032558
1385570178971738858,0.0546253425581,-0.0280674778458,-0.118295675523,-0.004366180764,-0.0113634286031,-1.6351511591
1385570178981785648,0.0547245862973,-0.0276800336453,-0.119024904624,-0.00417900533171,-0.0120735239432,-1.63455109665
1385570178991775539,0.0547975065455,-0.0271736115645,-0.119814631437,-0.00508780447762,-0.0132378963738,-1.63448985705
1385570179001731345,0.0547502072182,-0.0267954598224,-0.120404354815,-0.00565373775674,-0.016847371149,-1.63409182827
1385570179011721417,0.0550000696834,-0.0263182265611,-0.12116958212,-0.0046386892837,-0.0187884326008,-1.633526626
1385570179021920420,0.0550407871694,-0.0258336324286,-0.122052777863,-0.00429585816581,-0.0198469530374,-1.63434590972
1385570179031893939,0.0552078281497,-0.0255203386816,-0.122918098273,-0.00415143267593,-0.024955286186,-1.63300792397
1385570179041713490,0.0553252211424,-0.0250637124137,-0.123935845013,-0.00313860624109,-0.0274857445864,-1.63311086995
1385570179051705417,0.0555511425201,-0.0244623257443,-0.125001912198,-0.00174326214411,-0.0307035174942,-1.63240345597
1385570179061693853,0.0556454142052,-0.0240090505019,-0.126314916617,-0.000128213992289,-0.0322675480096,-1.63230901279
1385570179071669717,0.0560581321783,-0.0235789151552,-0.127729877861,0.000786494313326,-0.0369365073035,-1.6319953602
1385570179081672102,0.0561603542342,-0.0230523691279,-0.129120761925,0.00139090619143,-0.0394641401369,-1.63143609088
1385570179091659133,0.0563675041497,-0.0226973861887,-0.130539355576,0.00214197530599,-0.0406833710444,-1.63137714803
1385570179101758584,0.0567242598704,-0.0220697544542,-0.132042829015,0.00428332305095,-0.0440972236494,-1.63060302076
1385570179111694326,0.056912718581,-0.0217085141844,-0.134305307107,0.00674414187887,-0.0470285618759,-1.63023597693
1385570179121738458,0.0572267504281,-0.0212100814805,-0.13601220306,0.00799933585348,-0.0508677564002,-1.6299857244
1385570179131750628,0.0573896081354,-0.0208814502299,-0.13794119398,0.00922848616698,-0.05278654349,-1.62970070081
1385570179141717286,0.0575373678243,-0.0205080474698,-0.140163452109,0.0101944009916,-0.0564942741697,-1.62941955037
1385570179151707915,0.0578576960906,-0.020181046739,-0.142495819724,0.0109453003824,-0.0593540055784,-1.62875237558
1385570179161694650,0.0578802024723,-0.0199169865914,-0.144880528935,0.0121640655742,-0.0612130116696,-1.627991747
1385570179171740050,0.0580708567006,-0.0197295378034,-0.147271809834,0.0116992351846,-0.0654557522688,-1.62736321415
1385570179181713430,0.0583321169593,-0.0196517988704,-0.15007114643,0.0118134204158,-0.0676124595954,-1.62747762624
1385570179191716192,0.0587400387765,-0.0195328405936,-0.152722670949,0.0128938137431,-0.0692562333412,-1.6264068499
1385570179201701330,0.0589388129294,-0.0194982780451,-0.155289490976,0.0144697382055,-0.0706575888389,-1.62550992538
1385570179211745599,0.0593437661143,-0.0196902977329,-0.158438383531,0.0167230399715,-0.0734655886731,-1.6245559802
1385570179221721708,0.0597166610882,-0.0200073965407,-0.161608989563,0.0182015331969,-0.0757411466056,-1.6230173683
1385570179231759328,0.0602342544463,-0.0201059885891,-0.164698728898,0.0201653944085,-0.0774017866694,-1.62170740398
1385570179241691873,0.0605740156765,-0.0207176958549,-0.167903916254,0.0212525975379,-0.0783109187924,-1.62096346233
1385570179251761565,0.060994686506,-0.021269507987,-0.17122602382,0.0214931132497,-0.0773165464278,-1.62043389373
1385570179261677935,0.0614994108303,-0.0219039189339,-0.174896622731,0.0219779899297,-0.0786458663347,-1.62071975171
1385570179271710383,0.0618585330642,-0.0226204375295,-0.178263293231,0.0229323606825,-0.0788005548968,-1.62051668665
1385570179281735337,0.0622329249596,-0.0233899091331,-0.181788386967,0.0228211871439,-0.0784577279918,-1.62047242877
1385570179291725100,0.0626941636199,-0.0244981605037,-0.185508869849,0.0226308654177,-0.0771386842126,-1.61980213286
1385570179301726030,0.0631094585734,-0.0255449726316,-0.189291494296,0.0232361029503,-0.0770869114713,-1.6182387525
1385570179311742869,0.0636397161818,-0.0267191986147,-0.193058007051,0.0218035014194,-0.0765365825572,-1.61778623408
1385570179321729813,0.0640085261825,-0.0278908888589,-0.196865691155,0.0211741080582,-0.0742440776879,-1.61715595367
1385570179331682634,0.0645006428263,-0.0291752633522,-0.200720977148,0.0194619074302,-0.072948611309,-1.61570468616
1385570179341696552,0.0649998879587,-0.030665899751,-0.204731693607,0.0179378433023,-0.0711584099899,-1.61496199267
1385570179351725737,0.0655700528656,-0.0320602026544,-0.208660904694,0.0159575690448,-0.0675908632688,-1.61477813679
1385570179361644718,0.0660407400615,-0.0335105905733,-0.212631468974,0.0153928251394,-0.0651734357968,-1.61330181846
1385570179371663561,0.0666424365334,-0.0350829958863,-0.216643729666,0.0147967781723,-0.0628669903363,-1.61292289465
1385570179381670161,0.0672869575099,-0.0368024262633,-0.220908652591,0.0143199201669,-0.0600820498421,-1.61235847917
1385570179391757258,0.0679142370648,-0.0384750312135,-0.224892125591,0.0140879247892,-0.0580702949898,-1.61219094877
1385570179401764260,0.0685578122879,-0.0402174866351,-0.229006044184,0.0159361624608,-0.0549816320727,-1.61227568742
1385570179411700283,0.0692197004702,-0.0420083354459,-0.233373255358,0.0176359807559,-0.0526038365572,-1.61232200322
1385570179422223339,0.069805359937,-0.0439746889996,-0.237507802089,0.0177557706192,-0.0497037444991,-1.61268898702
1385570179431774396,0.0705429947315,-0.0458587385923,-0.241757580639,0.0180358956735,-0.0476384207268,-1.61280149013
1385570179441684996,0.0709396531415,-0.0480145055399,-0.246038344842,0.017364761601,-0.0444858239424,-1.61380326822
1385570179451684373,0.0717206179553,-0.0497528011192,-0.250368895701,0.0174081166021,-0.0410844391734,-1.61348235117
1385570179461843492,0.0723244991637,-0.0519556861726,-0.254827449023,0.0160485429783,-0.0374777775135,-1.61394826523
1385570179471670254,0.0728761446943,-0.0541099046534,-0.259180876688,0.0142729956291,-0.0342015906329,-1.61439375298
1385570179481701342,0.0735132036694,-0.0560693583757,-0.26347554304,0.012912143607,-0.0294227512931,-1.61482926663
1385570179491652012,0.0743106572763,-0.0582088372891,-0.267888191961,0.0124740999873,-0.0270966577926,-1.61469130622
1385570179501835904,0.0750984128884,-0.0605041878843,-0.272569519691,0.0115310887526,-0.0248430639359,-1.61565831785
1385570179511854118,0.0757991660461,-0.0626666262689,-0.277125391199,0.0118528525753,-0.0208770496757,-1.61544160812
1385570179521676070,0.0766436145556,-0.0648311080109,-0.281708883599,0.0124732650262,-0.0189115741436,-1.61610457024
1385570179531677739,0.0774706054693,-0.0671650557411,-0.286292302751,0.0119446830971,-0.0161979268033,-1.61641222456
1385570179541743068,0.0781328383336,-0.0694372436421,-0.291168727468,0.0120981801081,-0.0143925420111,-1.616041611
1385570179551730381,0.0791737329544,-0.0716694339902,-0.295887820529,0.0128611049284,-0.0118166927902,-1.61633422309
1385570179561690246,0.0798812315011,-0.0739871008972,-0.300668519878,0.0128563203078,-0.00950132610181,-1.61606502702
1385570179571650892,0.0806757981148,-0.076270285941,-0.305587698262,0.0124603022126,-0.00802268558443,-1.6164252236
1385570179581684901,0.0816631590219,-0.0785687765338,-0.310666861003,0.0124868231637,-0.00569524552019,-1.61702216453
1385570179591802156,0.0823341408191,-0.0809187027097,-0.315591385995,0.012280971357,-0.00551199685072,-1.61678477213
1385570179601718402,0.0831093957368,-0.0832606644122,-0.320616086521,0.0124811323073,-0.00437585530381,-1.61657732295
1385570179611786752,0.0839135610656,-0.0854917739714,-0.325672523407,0.0125026145879,-0.00364655540089,-1.61634147777
1385570179621752346,0.084852742227,-0.0878588474281,-0.33085280715,0.0130865292544,-0.00142679077769,-1.61621959422
1385570179631716960,0.0855411067778,-0.0902638606915,-0.336115090812,0.0131935345084,-0.000473355979626,-1.61717274727
1385570179641702087,0.0865648283312,-0.0925838126355,-0.341212444226,0.013264684859,0.000413978944148,-1.61779125302
1385570179651831623,0.0872351844385,-0.0948806683762,-0.346433362012,0.0138216314487,0.00227286469965,-1.61682139309
1385570179661751164,0.0882192292732,-0.0971848597061,-0.351887748336,0.0138363262864,0.00351747984585,-1.61809520119
1385570179671671891,0.0892746418143,-0.0993995692393,-0.357188399703,0.0138001432813,0.00302375771027,-1.61745583198
1385570179681768406,0.0900329439929,-0.101742821608,-0.362495234555,0.0139156643597,0.00363179142927,-1.61720866537
1385570179691741775,0.0910965006992,-0.104046426646,-0.367932749293,0.0146848868382,0.00331607445265,-1.61720746107
1385570179701662244,0.0920557666809,-0.106292832885,-0.373466392669,0.0145979925604,0.00390578722154,-1.61690589061
1385570179711746274,0.0931038750769,-0.108588515214,-0.378889561039,0.0153265049543,0.00404009708037,-1.61685763068
1385570179721733873,0.0939758624143,-0.110856738028,-0.384329677866,0.0166399711504,0.00471850809798,-1.61636267097
1385570179731699751,0.0948663427817,-0.113181626192,-0.390126846395,0.0178426345982,0.00600132872136,-1.61648786105
1385570179741748612,0.096269028587,-0.115431325031,-0.395825273983,0.017839866684,0.00333584664521,-1.61738056169
1385570179751696493,0.0971261981539,-0.117817926154,-0.401424313294,0.0168174653387,0.00316770183846,-1.61735351198
1385570179761709750,0.0981295328687,-0.119958454034,-0.407406682247,0.0165788309499,0.00176730244268,-1.61690147454
1385570179771718988,0.099340699191,-0.12218834196,-0.41340120353,0.0148916114134,0.000320278721542,-1.61742072692
1385570179782010338,0.100253196691,-0.124430041946,-0.419240127146,0.0135185242699,3.15245719856e-05,-1.61637622239
1385570179791825423,0.101251408303,-0.12677554623,-0.424973764094,0.0127972631573,-0.00073493907483,-1.61657653727
1385570179801764125,0.102203528702,-0.129103915527,-0.430525386622,0.0118648755644,-0.00183644149342,-1.61627614167
1385570179812588247,0.103215403697,-0.131326293132,-0.435995217072,0.00947744477203,-0.00428283890782,-1.61532254168
1385570179821775457,0.104316006118,-0.133551019092,-0.441378442422,0.00874183220582,-0.00401613095079,-1.61559153574
1385570179831765037,0.105295748264,-0.135823278159,-0.446443804438,0.007052757409,-0.00396608442693,-1.61572072293
1385570179841785425,0.106251553068,-0.138090084625,-0.451477947525,0.00597894582056,-0.00437179577857,-1.61592109568
1385570179851788978,0.107410352438,-0.14037522274,-0.456384529645,0.00524603809901,-0.00472813698929,-1.61574944689
1385570179861781867,0.108279878053,-0.142554133262,-0.460966179823,0.00388316597609,-0.00666588986827,-1.61486142798
1385570179871679978,0.109245192188,-0.144871630262,-0.465657367846,0.00318928612624,-0.00666341225082,-1.61460739958
1385570179881845849,0.110202214382,-0.146971903338,-0.469900424332,0.00167992643953,-0.00676863486114,-1.61418914788
1385570179891680215,0.111094959871,-0.149312804935,-0.474267494135,-0.00059853317658,-0.00830835734384,-1.61421869757
1385570179901744929,0.112329324977,-0.151464324056,-0.478363968368,-0.000496287935251,-0.00830929423045,-1.61339763167
1385570179911749881,0.113248462266,-0.153785545441,-0.482181223192,-0.00212761689213,-0.00805266250708,-1.6137929633
1385570179921676629,0.114246793268,-0.156005429863,-0.485954912546,-0.00224719150847,-0.0092589470805,-1.61307857119
1385570179931729472,0.115080872498,-0.158323460376,-0.489355368638,-0.00429029421889,-0.00885536748835,-1.61289919123
1385570179941733786,0.115946896551,-0.160557913568,-0.492823028411,-0.00421987996713,-0.00991938645123,-1.61279773516
1385570179951745146,0.116890644854,-0.162885864461,-0.496165696686,-0.00484703202253,-0.00992750355395,-1.61270180091
1385570179961731505,0.118050725937,-0.165038311541,-0.499157410896,-0.00529434504183,-0.0102562198434,-1.61306541784
1385570179971731147,0.118973937793,-0.167337936375,-0.502035964011,-0.0057457133543,-0.0106582953326,-1.61195093901
1385570179981643599,0.119995032326,-0.169559469098,-0.504802494684,-0.00540353851459,-0.0106638184467,-1.61255935206
1385570179991805231,0.120966125044,-0.171926399001,-0.507361303357,-0.00551673197596,-0.0105766024978,-1.61161391171
1385570180001735863,0.121862538838,-0.174207703699,-0.509755428178,-0.00519091094111,-0.010802906841,-1.61132622022
1385570180011840736,0.122501081627,-0.176566839251,-0.511947279796,-0.00442786512355,-0.0113473603024,-1.61175650404
1385570180021754865,0.123478831724,-0.178815604801,-0.51407719817,-0.00493741506576,-0.0110147579537,-1.6111277505
1385570180031759071,0.124308931766,-0.181054026141,-0.515969198409,-0.00447028353535,-0.0109779584,-1.61113739558
1385570180041696089,0.12525426621,-0.1834545276,-0.517859008862,-0.00449719191182,-0.0102416432694,-1.61100274516
1385570180051842776,0.126152923863,-0.185801023525,-0.519450082117,-0.00428112575176,-0.0106723215757,-1.61112939905
1385570180061792887,0.126960797319,-0.188097000287,-0.520912839987,-0.00381549836146,-0.0100928250679,-1.61060724661
1385570180071760215,0.127787168549,-0.190316508611,-0.522326813189,-0.00341455357229,-0.0104004376198,-1.61045663986
1385570180081682341,0.128462215034,-0.192748510249,-0.523506527346,-0.00386123697304,-0.00943130154435,-1.61053257017
1385570180091749507,0.129202796922,-0.195125256393,-0.524419039273,-0.00339267345644,-0.0104109743262,-1.60996377535
1385570180101788991,0.130073067756,-0.197406403466,-0.525481185207,-0.00365243555352,-0.00996425292629,-1.6099898013
1385570180111749211,0.130828040348,-0.199774849713,-0.526343762926,-0.00374267685024,-0.00967788085044,-1.60950167744
1385570180121713693,0.131774974903,-0.202124256378,-0.527015002702,-0.00377148918329,-0.00993656092004,-1.61006628836
1385570180131785595,0.132378584502,-0.204501632971,-0.527676014939,-0.00363981469618,-0.00847536889408,-1.60982199286
1385570180141687147,0.133268611748,-0.206835214408,-0.528272963194,-0.00349346152081,-0.00839858615037,-1.60991240503
1385570180151725926,0.13391390113,-0.209233876131,-0.528527737219,-0.00318607207978,-0.00831405519921,-1.60995752008
1385570180161729391,0.134782332391,-0.211621076536,-0.528728638392,-0.00320620085397,-0.00823468364791,-1.60941235953
1385570180171688959,0.135518912085,-0.214006829768,-0.528951948174,-0.00221824270009,-0.00872209672996,-1.60953678588
1385570180181716195,0.136311124491,-0.216278768503,-0.528913114927,-0.00252935102086,-0.00880523593745,-1.60880940804
1385570180191785984,0.136996709421,-0.218709469641,-0.528901943827,-0.00153444313261,-0.00977862101088,-1.60867269789
1385570180201827549,0.137776964499,-0.221265711935,-0.528626822361,-0.00183495141096,-0.00752773757911,-1.60896635398
1385570180211775999,0.138670156551,-0.223509416858,-0.528497807226,-0.00145193450974,-0.00775536570973,-1.60874880446
1385570180221736523,0.139324198667,-0.225980734016,-0.527998146024,-0.000862377609717,-0.00731717132858,-1.60862571493
1385570180231678543,0.140016528419,-0.22844584275,-0.527585856521,-0.000943188007735,-0.00671765751228,-1.60835962801
1385570180241747601,0.140770340431,-0.230804522266,-0.527011532312,-0.000305819717434,-0.00739267041912,-1.60846467859
1385570180251675976,0.141473449709,-0.233190362115,-0.526295166033,-0.0012003261487,-0.00649712272741,-1.60840326357
1385570180261642993,0.142107622327,-0.235575400082,-0.525530017177,-8.43620389213e-05,-0.00675360931422,-1.60788602344
1385570180271726398,0.142800685881,-0.238017840999,-0.524766405175,-0.00075545922319,-0.0053851522083,-1.60765834971
1385570180281678894,0.143534966959,-0.240523612172,-0.524125530476,-0.000489523839538,-0.00802285949062,-1.607234207
1385570180291730983,0.144017778529,-0.242947064402,-0.522947704934,-0.000226463011664,-0.00715452611159,-1.60727524688
1385570180301686845,0.14495928972,-0.24516608249,-0.521786968615,-7.69041374717e-05,-0.00352222423497,-1.6073619238
1385570180311730504,0.145733287817,-0.247586344326,-0.520727278926,0.000675940642374,-0.00412912117388,-1.60722333601
1385570180321697763,0.146251333473,-0.250145308539,-0.519539662233,0.000310410860612,-0.00266955253359,-1.60747316994
1385570180331836528,0.147081967181,-0.252454102802,-0.518180997268,0.0010703771065,-0.00314342077001,-1.60675082859
1385570180341712848,0.147687918956,-0.254851104983,-0.516807394112,0.00131715575458,-0.00188875258894,-1.60659477679
1385570180351639472,0.14846749232,-0.257224173943,-0.515410817572,0.000950048821516,-0.00145340478697,-1.60695556901
1385570180361636732,0.149102708467,-0.259724810216,-0.513913694594,0.000905533301494,-0.00102990458195,-1.60689145794
1385570180371649933,0.149747882548,-0.262075102863,-0.512357345673,0.000917294407711,-0.000217498131005,-1.60632817068
1385570180381668488,0.150491214388,-0.264483087425,-0.510809449836,0.000952207945384,7.03370566718e-05,-1.60605361038
1385570180391804112,0.151157626566,-0.266874193522,-0.509228042987,0.000664676152198,0.00237901806201,-1.60599749838
1385570180401688487,0.151902277462,-0.26925892655,-0.507475807679,0.000377166686229,0.0016307791905,-1.6063835655
1385570180411688607,0.152391854747,-0.27172028681,-0.505705942865,0.00114526300394,0.00159731899698,-1.60599975238
1385570180421979886,0.15299131666,-0.274153404322,-0.503984695316,0.000524998903226,0.00335891785022,-1.60581594903
1385570180431723124,0.153734005667,-0.276490978032,-0.502234393988,0.000997298105723,0.00236199154665,-1.60569832816
1385570180441673915,0.15436702392,-0.278838023467,-0.500389540342,0.000427113163772,0.00378271783566,-1.60524023841
1385570180451691194,0.1551034337,-0.281229685196,-0.498489587611,2.61449005794e-05,0.00268570610896,-1.60533466829
1385570180461640398,0.155695269368,-0.28377123156,-0.496600686182,-0.00016008526321,0.00432869810656,-1.60478077162
1385570180471682724,0.156394409524,-0.286008262213,-0.494784429194,-0.000244195736948,0.00519885050025,-1.60516939039
1385570180481686324,0.157172755281,-0.288413930049,-0.492980149395,0.000321785984399,0.00555073468531,-1.60509210317
1385570180491689439,0.157533257871,-0.290802044812,-0.490887301261,-0.000153985978245,0.00494886693234,-1.60423987163
1385570180501778979,0.158301709208,-0.293101915717,-0.488842163359,0.000216742138481,0.00544940015726,-1.60411470642
1385570180511684995,0.158788254378,-0.295326449654,-0.48701257636,0.000290706826253,0.00615343429687,-1.60357170537
1385570180521722454,0.159430126796,-0.297791296469,-0.484912040175,0.000333901940171,0.00653748007997,-1.60348959068
1385570180531642048,0.160103640634,-0.300037986366,-0.482943150818,0.000551184220975,0.007941068265,-1.60342755251
1385570180541734148,0.160747361414,-0.302400605657,-0.480911036001,0.00149564326163,0.00887586567623,-1.60350401498
1385570180551645895,0.161594612241,-0.304790598828,-0.478891408271,0.00121708999825,0.0108120802985,-1.60411102551
1385570180561766132,0.162134981798,-0.306968504796,-0.476876929027,0.00119179291678,0.0110409638318,-1.60323934405
1385570180571898075,0.162655989991,-0.309287670666,-0.474766302072,0.00111023559783,0.014427882362,-1.60314096734
1385570180581694670,0.163516243104,-0.31162569398,-0.472719181,0.000416318413779,0.0145406483269,-1.60272772663
1385570180591900833,0.164156867014,-0.31406619029,-0.470837166499,0.000129558627894,0.0140680851194,-1.602825216
1385570180601727130,0.164749782971,-0.315906777714,-0.468732173582,0.000790108233429,0.0152713488397,-1.60313372572
1385570180611736480,0.165347376172,-0.31831123899,-0.466919785223,0.00179632311503,0.0155410964045,-1.60195260057
1385570180621739521,0.165894507859,-0.320617680316,-0.464862482229,0.000869531082655,0.0174706511581,-1.60260222616
1385570180631727685,0.166633244095,-0.32277349552,-0.462971294465,0.00115424443418,0.0173175304661,-1.60212704046
1385570180641695376,0.167160144729,-0.324899257645,-0.461022292386,0.00107178848841,0.0172167614573,-1.6020407346
1385570180651670063,0.167826631405,-0.327077247559,-0.459073732278,0.00144673203095,0.0174129806884,-1.60177311123
1385570180661714203,0.168413937328,-0.329235877421,-0.457242116402,0.00130564644979,0.0181589287614,-1.60123493288
1385570180671681402,0.169102437302,-0.33139943439,-0.455371615683,0.000996153867357,0.0171905403026,-1.60151802934
1385570180681682800,0.169748849622,-0.333450043263,-0.45350964752,0.0005708298135,0.0179858916659,-1.60187389622
1385570180691722244,0.170401711462,-0.335510597371,-0.45186207669,0.000323928439817,0.0181693435496,-1.60160207616
1385570180701723586,0.171002864792,-0.33780007306,-0.449898373137,0.00050631287249,0.0174322306622,-1.60145025861
1385570180711734334,0.171599571477,-0.339718437274,-0.448114029034,0.000909526690471,0.0163423470793,-1.6003529874
1385570180721728420,0.172146802469,-0.341877158566,-0.446523349155,0.00274333600513,0.0150611279177,-1.59998720288
1385570180731735953,0.1727427344,-0.343971684872,-0.444889684047,0.0023282635627,0.0144270089886,-1.59975236388
1385570180741691126,0.173619054494,-0.345899866608,-0.44329144427,0.00235313628029,0.0165036272381,-1.60027272479
1385570180751730378,0.174086844014,-0.348034108264,-0.441734309613,0.00329170146596,0.0150885609698,-1.59979697006
1385570180761730505,0.174668558442,-0.35001797738,-0.439994509244,0.00354670254417,0.0158032744413,-1.59943310068
1385570180771650761,0.175438563966,-0.351954829981,-0.438525210868,0.00362437310172,0.0149399414693,-1.59983361773
1385570180781676422,0.175980296814,-0.353797334106,-0.436947272819,0.00379577885288,0.014396079705,-1.5999647269
1385570180791775500,0.176746547958,-0.355753529792,-0.435706858553,0.00268232261914,0.0143724288934,-1.59977786751
1385570180801745723,0.177211629359,-0.357678146646,-0.434291848761,0.00280333004472,0.0141596258396,-1.59996378169
1385570180811654662,0.178006383967,-0.35962230359,-0.432830364886,0.00247912315377,0.0138757775413,-1.59900334875
1385570180821802228,0.178512407105,-0.361503316242,-0.431640531196,0.00317172975235,0.0113449038371,-1.59865481572
1385570180831765454,0.17908426597,-0.363480972686,-0.430376583834,0.00239073418488,0.0132521582752,-1.59839948124
1385570180841681616,0.179647307453,-0.365224222357,-0.429036172701,0.00199243299218,0.0120079099417,-1.59781038179
1385570180851685787,0.1802694802,-0.367065075359,-0.427882693567,0.00145947298123,0.0112641436107,-1.59798491974
1385570180861683990,0.180831438846,-0.36909163291,-0.426585159246,-0.000942598119547,0.0142126115735,-1.59788193968
1385570180871699603,0.181297691243,-0.370994336783,-0.425532949114,-0.000436825874174,0.0138952519158,-1.59749097058
1385570180881689495,0.182022107433,-0.372812745961,-0.424450904329,-0.00143610337364,0.0135099688983,-1.59707713606
1385570180891696737,0.18259596654,-0.374447081926,-0.423262827831,-0.00267016801484,0.012975383819,-1.59705716972
1385570180901703299,0.18308296925,-0.376307580251,-0.422522820064,-0.0037906667204,0.01077642802,-1.59735181236
1385570180911711981,0.183662726969,-0.378024212256,-0.421455563656,-0.0034418316849,0.0111450561574,-1.59659427499
1385570180921679494,0.184325246319,-0.37972125352,-0.420625947932,-0.00397902343989,0.011677403604,-1.59684096322
1385570180931695967,0.184701114155,-0.381623161438,-0.419582610855,-0.00458805886954,0.0127405379463,-1.59650692506
1385570180941702166,0.185388055809,-0.383268186955,-0.418842466417,-0.00349507892162,0.0120088651272,-1.59601394678
1385570180951738609,0.186020385994,-0.385065481842,-0.418032822023,-0.00413507222055,0.0122939403535,-1.59628005151
1385570180961708357,0.186464972453,-0.386750258287,-0.417131173329,-0.00283437451682,0.0116717247323,-1.59546966336
1385570180971661182,0.187195254786,-0.388503768892,-0.41603436766,-0.0044910751859,0.0149092874108,-1.59619056084
1385570180981693526,0.187776758731,-0.390316183694,-0.415509630526,-0.00420686118172,0.0147078617162,-1.59643784818
1385570180992029582,0.188331117112,-0.391843798441,-0.414703208069,-0.00466472099134,0.0144565423184,-1.59575541225
1385570181001724365,0.18888479583,-0.393489079661,-0.414096681522,-0.00467116136665,0.0146851262772,-1.5959276496
1385570181011673960,0.189418109096,-0.395111302588,-0.413587925478,-0.00496420731159,0.0157278784522,-1.59572100101
1385570181021800777,0.189935318085,-0.396805620981,-0.412862815843,-0.00535500643941,0.0152636881729,-1.59497997034
1385570181031708516,0.190445822251,-0.398393243649,-0.412456530532,-0.00408050873395,0.0149364167839,-1.59483918172
1385570181041779964,0.191008115341,-0.400089181933,-0.412031489817,-0.00443981406716,0.0160504404991,-1.59484490279
1385570181051671889,0.191510823408,-0.40159206419,-0.411530302349,-0.00395471528779,0.0156602426307,-1.59449652177
1385570181061651171,0.191891564131,-0.403140691482,-0.411187903794,-0.00370680051099,0.0149939708233,-1.59404791598
1385570181071700754,0.192417738146,-0.404764433922,-0.410953897597,-0.00287513346699,0.0158567791491,-1.59414367725
1385570181081715789,0.192900237268,-0.406256241705,-0.41062425685,-0.0019110029321,0.0152560521122,-1.59363898191
1385570181091693453,0.193204385712,-0.408017335016,-0.410389639083,-0.00436697246017,0.0148027573483,-1.5931146579
1385570181101716136,0.193666320419,-0.409382557067,-0.409996031157,-0.00429241982134,0.0154894385771,-1.59263775862
1385570181111684402,0.194209240982,-0.410865661423,-0.409821262376,-0.00423857059656,0.0158135689248,-1.59185882984
1385570181121858929,0.194661355003,-0.412390400885,-0.409560005844,-0.0050732154202,0.0157596987714,-1.59181701424
1385570181131740956,0.195080541222,-0.413926600782,-0.409166163377,-0.00509512328472,0.0184220113885,-1.59230959603
1385570181141717445,0.195475200787,-0.41535949758,-0.408980826751,-0.00478964302196,0.0183919386362,-1.59172590441
1385570181151935978,0.196272922028,-0.416625924372,-0.4088947804,-0.00460342806433,0.0197880200957,-1.59243197345
1385570181161776397,0.196553245708,-0.418184265025,-0.408775379511,-0.00299671526017,0.0184974865568,-1.59062535138
1385570181171714437,0.196972665194,-0.419555075959,-0.408643413435,-0.00344556275521,0.0176752559907,-1.59011475209
1385570181181708457,0.197300417527,-0.421019045497,-0.408475219763,-0.00577009729771,0.0188719879319,-1.59012642683
1385570181191841729,0.197577748183,-0.422402928743,-0.408310956666,-0.00652920691599,0.018948623534,-1.58962363769
1385570181202030606,0.198070351556,-0.423709470589,-0.408303870279,-0.00753646292693,0.0194977070886,-1.58973726563
1385570181211775539,0.198397694387,-0.425076633682,-0.408311913865,-0.00747821407999,0.0204730195312,-1.58987180488
1385570181221747682,0.198742425476,-0.426217278065,-0.408435112037,-0.00767871079299,0.0202383461292,-1.58953069243
1385570181231705238,0.199112896453,-0.427470259367,-0.40842948214,-0.0083348652,0.0207940314484,-1.58944406233
1385570181241719825,0.199477111543,-0.428762727942,-0.408426927765,-0.00767354168215,0.0223221985364,-1.58908845023
1385570181251726218,0.200015428146,-0.429930316661,-0.408578440641,-0.00846814343605,0.0228737087105,-1.58911139232
1385570181261744246,0.200151322917,-0.431183892405,-0.408649687482,-0.00978030815516,0.0223560511795,-1.58882876429
1385570181271816710,0.200321124265,-0.432345182645,-0.408823289557,-0.0089027446603,0.0231213886145,-1.58798042629
1385570181281777438,0.200964818489,-0.433581160326,-0.409168302854,-0.00871888554846,0.022537944095,-1.58805090438
1385570181291706927,0.201058009013,-0.434852854945,-0.40926469845,-0.00717979717199,0.0238128057855,-1.58810263559
1385570181301754470,0.201516881641,-0.435882694528,-0.409682391018,-0.0065002876381,0.0231385551438,-1.58783870635
1385570181311882444,0.201844186581,-0.437331421472,-0.409866203671,-0.00551372878362,0.0257321334123,-1.58927852762
