%time,field.header.seq,field.header.stamp,field.header.frame_id,field.child_frame_id,field.transform.translation.x,field.transform.translation.y,field.transform.translation.z,field.transform.rotation.x,field.transform.rotation.y,field.transform.rotation.z,field.transform.rotation.w
1385570173048368112,736449,1385570173048368112,/world,vicon/Archie/Archie,0.0565968989058,0.0360885011573,0.113708031422,-0.00363724989663,-0.00894373791408,0.714102270897,0.699974804307
1385570173058415622,736450,1385570173058415622,/world,vicon/Archie/Archie,0.0566919458906,0.0360240414969,0.113643265307,-0.00299877725812,-0.00919511892799,0.714167779229,0.699907736943
1385570173068283851,736451,1385570173068283851,/world,vicon/Archie/Archie,0.0566268081474,0.0360000488212,0.11367561854,-0.00258942041322,-0.00944092386871,0.714247070116,0.699825182949
1385570173078419604,736452,1385570173078419604,/world,vicon/Archie/Archie,0.0566461600179,0.0359715631785,0.11373382883,-0.00253072221815,-0.00966144805697,0.714248558383,0.699820869019
1385570173088148732,736453,1385570173088148732,/world,vicon/Archie/Archie,0.0566960234235,0.0360443029155,0.113601707783,-0.00301306844241,-0.00908798367483,0.714164883919,0.699912029149
1385570173098316876,736454,1385570173098316876,/world,vicon/Archie/Archie,0.0566311470679,0.0359987181159,0.113685010867,-0.00258286519972,-0.00943283890635,0.714257814955,0.699814349762
1385570173108375446,736455,1385570173108375446,/world,vicon/Archie/Archie,0.0566218177373,0.0359760637621,0.113716871011,-0.00251137069898,-0.00959509380518,0.714259698453,0.699810481744
1385570173118303680,736456,1385570173118303680,/world,vicon/Archie/Archie,0.0567186843229,0.0360448223057,0.113648679049,-0.00304017685769,-0.00923921249834,0.714145737374,0.699929467923
1385570173128264283,736457,1385570173128264283,/world,vicon/Archie/Archie,0.0567172938869,0.0360236555081,0.113654928833,-0.00298161387953,-0.00928909178413,0.714151987273,0.699922682749
1385570173138115425,736458,1385570173138115425,/world,vicon/Archie/Archie,0.0566131390651,0.0359888878387,0.113697225504,-0.00252651652893,-0.00949250930329,0.714265551781,0.699805852019
1385570173148404283,736459,1385570173148404283,/world,vicon/Archie/Archie,0.056625855159,0.0359806808444,0.113719779501,-0.00252166583675,-0.0095736162154,0.714238985385,0.699831878975
1385570173159169593,736460,1385570173159169593,/world,vicon/Archie/Archie,0.0566866968872,0.0360372187936,0.113616566415,-0.00301442439022,-0.00914521190661,0.714145314085,0.699931245706
1385570173168232498,736461,1385570173168232498,/world,vicon/Archie/Archie,0.0566251090817,0.0359793233897,0.113723427839,-0.00252447357662,-0.0096167674403,0.714259812227,0.699810020973
1385570173178290735,736462,1385570173178290735,/world,vicon/Archie/Archie,0.0566273455976,0.0359826162181,0.11372203978,-0.00254139021892,-0.00957597796568,0.714267661828,0.699802507318
1385570173188241889,736463,1385570173188241889,/world,vicon/Archie/Archie,0.0566163727811,0.0360020062177,0.113689385224,-0.00259219454415,-0.00945655595435,0.714251162564,0.69982078481
1385570173198332907,736464,1385570173198332907,/world,vicon/Archie/Archie,0.0566796820373,0.0360397590836,0.113605953563,-0.00294852619622,-0.00910857515289,0.714171307718,0.699905481679
1385570173208459769,736465,1385570173208459769,/world,vicon/Archie/Archie,0.0567005731818,0.0360305981256,0.11362305243,-0.0030035412391,-0.00917679182954,0.714151660371,0.699924403933
1385570173218279192,736466,1385570173218279192,/world,vicon/Archie/Archie,0.0566251337692,0.0359765693779,0.113720580174,-0.00251446784136,-0.00959196874551,0.714253562006,0.699816776556
1385570173228239852,736467,1385570173228239852,/world,vicon/Archie/Archie,0.0566357008722,0.0359968663821,0.113712238183,-0.00262112274469,-0.00949690496005,0.714251353695,0.699819935595
1385570173238058728,736468,1385570173238058728,/world,vicon/Archie/Archie,0.0566238282595,0.0360024664707,0.113680330695,-0.00259840059596,-0.0094312152635,0.714248442977,0.699823879414
1385570173248202350,736469,1385570173248202350,/world,vicon/Archie/Archie,0.0566179748857,0.0359853272518,0.113701279819,-0.00254161325242,-0.00951398420385,0.714272055373,0.69979886769
1385570173258347332,736470,1385570173258347332,/world,vicon/Archie/Archie,0.0566378162708,0.035999886385,0.113707508778,-0.00261488506124,-0.00951068496868,0.714249741898,0.699821416825
1385570173268186475,736471,1385570173268186475,/world,vicon/Archie/Archie,0.0566869931876,0.0360355821705,0.113616849877,-0.00295938756865,-0.00913940332008,0.714181630936,0.699894500169
1385570173278242944,736472,1385570173278242944,/world,vicon/Archie/Archie,0.0566158772779,0.0359863482118,0.113701151428,-0.00248839409564,-0.00952041149157,0.714263033895,0.699808179483
1385570173288359909,736473,1385570173288359909,/world,vicon/Archie/Archie,0.0566391054975,0.0359919903626,0.113713055781,-0.00261892470615,-0.00949376220708,0.714240550496,0.699831012273
1385570173298366436,736474,1385570173298366436,/world,vicon/Archie/Archie,0.0567163043104,0.036034253633,0.113642504975,-0.00305945017617,-0.00923561957957,0.714149811703,0.699925274255
1385570173308515000,736475,1385570173308515000,/world,vicon/Archie/Archie,0.0566914275399,0.0360525731957,0.113614223691,-0.00302496507435,-0.00906766622279,0.7141604238,0.699916792264
1385570173318339454,736476,1385570173318339454,/world,vicon/Archie/Archie,0.0566431849655,0.035999500382,0.11369832976,-0.00261286377111,-0.00948570666637,0.714251844126,0.699819617812
1385570173328197956,736477,1385570173328197956,/world,vicon/Archie/Archie,0.056622747035,0.0359882715416,0.113706815831,-0.00250254685052,-0.00950580328933,0.714273492016,0.699797653302
1385570173338207228,736478,1385570173338207228,/world,vicon/Archie/Archie,0.0566445152683,0.0359741388043,0.113743753816,-0.00253765212121,-0.00968104859915,0.714259118988,0.69980979456
1385570173348317826,736479,1385570173348317826,/world,vicon/Archie/Archie,0.0567079028695,0.0360324779535,0.113632196539,-0.00298975632195,-0.00918363780391,0.714169017562,0.699906662711
1385570173358275884,736480,1385570173358275884,/world,vicon/Archie/Archie,0.0566053148448,0.0359918562285,0.113703975181,-0.0025179946621,-0.00952534043237,0.714282969835,0.69978765822
1385570173368300018,736481,1385570173368300018,/world,vicon/Archie/Archie,0.0566828409288,0.0360431255629,0.11361574597,-0.00297722980024,-0.00912143940251,0.714175798707,0.699900610078
1385570173378266355,736482,1385570173378266355,/world,vicon/Archie/Archie,0.056703327574,0.0360394410088,0.113616799,-0.00300225327855,-0.00916517184007,0.71413986456,0.69993659709
1385570173388204691,736483,1385570173388204691,/world,vicon/Archie/Archie,0.0566273453296,0.0360013405301,0.113687981722,-0.00260409271359,-0.00943650166585,0.714247127682,0.699825129397
1385570173398433295,736484,1385570173398433295,/world,vicon/Archie/Archie,0.0567210984028,0.0360295474927,0.113634125921,-0.00299678185277,-0.00914427185837,0.71416954082,0.699906614167
1385570173408390818,736485,1385570173408390818,/world,vicon/Archie/Archie,0.0567165571091,0.0360403052151,0.113612083587,-0.00304033280809,-0.00910943415693,0.714154399413,0.699922330252
1385570173418583034,736486,1385570173418583034,/world,vicon/Archie/Archie,0.0566379816503,0.035991630907,0.113701112771,-0.00260823190589,-0.00950383877128,0.714238217691,0.699833296267
1385570173428495538,736487,1385570173428495538,/world,vicon/Archie/Archie,0.056574323383,0.0360766727486,0.113727875252,-0.0035960273751,-0.00900050634887,0.714118225989,0.699958012157
1385570173438169496,736488,1385570173438169496,/world,vicon/Archie/Archie,0.0565608461034,0.0360875961604,0.113707562517,-0.00358441338512,-0.00893123200724,0.714125211123,0.699951832567
1385570173448705805,736489,1385570173448705805,/world,vicon/Archie/Archie,0.0564955008947,0.0360413462306,0.113789786262,-0.00313819075721,-0.00930083467107,0.714221639573,0.699850766805
1385570173458422667,736490,1385570173458422667,/world,vicon/Archie/Archie,0.0566376606613,0.0359843748215,0.113731506945,-0.00256920062121,-0.00954921948021,0.714272329377,0.699798007357
1385570173468224451,736491,1385570173468224451,/world,vicon/Archie/Archie,0.0566872852591,0.036046789374,0.113592477562,-0.00299404083331,-0.00906169527311,0.714162534011,0.699914849402
1385570173478447789,736492,1385570173478447789,/world,vicon/Archie/Archie,0.0566492632477,0.0359849386262,0.113721196164,-0.00262092122499,-0.00957428407753,0.714242459183,0.699827959828
1385570173488155250,736493,1385570173488155250,/world,vicon/Archie/Archie,0.0566527305384,0.0359664665972,0.11374103596,-0.00252507091449,-0.00966020187091,0.714253635371,0.699815724942
1385570173498317903,736494,1385570173498317903,/world,vicon/Archie/Archie,0.0566880886976,0.0360541028163,0.113605126956,-0.0030095334309,-0.00909325367742,0.714171872689,0.699904844751
1385570173508313148,736495,1385570173508313148,/world,vicon/Archie/Archie,0.0566850479554,0.0360406259001,0.11360847964,-0.00295227086634,-0.0091190381724,0.714180309651,0.699896144115
1385570173518163225,736496,1385570173518163225,/world,vicon/Archie/Archie,0.0566201023294,0.0360063514315,0.113682414448,-0.00260990793865,-0.00945363684415,0.714257325057,0.699814468794
1385570173528043189,736497,1385570173528043189,/world,vicon/Archie/Archie,0.0566294669283,0.0359974424024,0.113682343609,-0.00260014525263,-0.00943519198412,0.714245131292,0.699827199259
1385570173538450598,736498,1385570173538450598,/world,vicon/Archie/Archie,0.0566606616255,0.0359816725093,0.113718235035,-0.00262490370996,-0.00957742004075,0.71423352805,0.699837016966
1385570173548685162,736499,1385570173548685162,/world,vicon/Archie/Archie,0.0567120425047,0.0360327088013,0.113616543727,-0.00300040399333,-0.00916391271446,0.714145305031,0.699931070593
1385570173558273068,736500,1385570173558273068,/world,vicon/Archie/Archie,0.056687955713,0.0360400906336,0.113612958453,-0.00294562423919,-0.00911836137364,0.714169041409,0.699907678967
1385570173568245257,736501,1385570173568245257,/world,vicon/Archie/Archie,0.0566280274033,0.0359746119017,0.113718826345,-0.00251925624926,-0.00958643847785,0.714257139876,0.699813183415
1385570173578320480,736502,1385570173578320480,/world,vicon/Archie/Archie,0.0566222337688,0.0359790940929,0.113725562927,-0.00251268329208,-0.0096281796549,0.714265786617,0.699803808683
1385570173588154737,736503,1385570173588154737,/world,vicon/Archie/Archie,0.0566284849229,0.0359960725299,0.113682689552,-0.00257158821992,-0.00943214871542,0.714245713972,0.699826751116
1385570173598288602,736504,1385570173598288602,/world,vicon/Archie/Archie,0.0566253081308,0.0359790208595,0.113716816535,-0.00253003346839,-0.00959116182424,0.714255593774,0.699814657826
1385570173608321684,736505,1385570173608321684,/world,vicon/Archie/Archie,0.0566123602517,0.0359835681984,0.113702792723,-0.00250100287775,-0.00952453302131,0.714270008394,0.699800959819
1385570173618345450,736506,1385570173618345450,/world,vicon/Archie/Archie,0.0566923710921,0.0360488476748,0.113593161757,-0.00301350924422,-0.00907414657303,0.71416273428,0.699914400189
1385570173628266247,736507,1385570173628266247,/world,vicon/Archie/Archie,0.0566717786437,0.0360418604046,0.113613818201,-0.0029510049434,-0.00915355331898,0.714180862743,0.699895134519
1385570173638224287,736508,1385570173638224287,/world,vicon/Archie/Archie,0.0566252449699,0.0359806817943,0.113700023589,-0.00250034682199,-0.00949822193008,0.714271386693,0.699799912973
1385570173648398642,736509,1385570173648398642,/world,vicon/Archie/Archie,0.0566244744558,0.0359744359913,0.113712290996,-0.00250285315953,-0.00957412393351,0.714253701512,0.699816920168
1385570173658310657,736510,1385570173658310657,/world,vicon/Archie/Archie,0.0566719948354,0.0359799084337,0.113720339664,-0.00265857624408,-0.00954594974924,0.714242043596,0.699828629005
1385570173668220092,736511,1385570173668220092,/world,vicon/Archie/Archie,0.0566784195717,0.0360432356635,0.113612510079,-0.00295737185278,-0.00911778057793,0.714179942893,0.699896513206
1385570173678294085,736512,1385570173678294085,/world,vicon/Archie/Archie,0.056692337124,0.0360486970042,0.113610766412,-0.00303520641933,-0.00904657755912,0.714172209736,0.699904994837
1385570173688216009,736513,1385570173688216009,/world,vicon/Archie/Archie,0.0567079668405,0.0360239463622,0.113631047359,-0.00296794526576,-0.00918352024056,0.714162557579,0.699913348643
1385570173698495302,736514,1385570173698495302,/world,vicon/Archie/Archie,0.0567007571851,0.036035985962,0.113618541413,-0.00300482059315,-0.00916822773056,0.714159467084,0.699916545188
1385570173708390068,736515,1385570173708390068,/world,vicon/Archie/Archie,0.0566209139537,0.0359782872089,0.113724722277,-0.00251333587811,-0.00962796935907,0.71425626264,0.699813529898
1385570173718359076,736516,1385570173718359076,/world,vicon/Archie/Archie,0.056696337902,0.0360361134436,0.113608126956,-0.0029290254564,-0.00911114770307,0.714163598068,0.69991339678
1385570173728293129,736517,1385570173728293129,/world,vicon/Archie/Archie,0.0566307602979,0.0359766754431,0.113711347039,-0.0025425011855,-0.00955265682804,0.714266128468,0.699804387067
1385570173738293700,736518,1385570173738293700,/world,vicon/Archie/Archie,0.0566220486627,0.0359745952499,0.11372033714,-0.00251493728793,-0.00958818584414,0.714245543783,0.699825010248
1385570173748409201,736519,1385570173748409201,/world,vicon/Archie/Archie,0.056618303676,0.035984915933,0.113710509417,-0.00255747608872,-0.00949772312376,0.714266813232,0.6998043813
1385570173758408404,736520,1385570173758408404,/world,vicon/Archie/Archie,0.0566365679816,0.0359869860623,0.113696587711,-0.00261271537056,-0.0094944028165,0.714235669708,0.69983600804
1385570173768358644,736521,1385570173768358644,/world,vicon/Archie/Archie,0.0566889091103,0.0360347806646,0.113610188906,-0.00295934423314,-0.0091053709975,0.714162108656,0.699914864152
1385570173778397048,736522,1385570173778397048,/world,vicon/Archie/Archie,0.0566459482157,0.0359715999243,0.113735546593,-0.00254118597137,-0.0096459654536,0.714249872755,0.699819703205
1385570173788257906,736523,1385570173788257906,/world,vicon/Archie/Archie,0.0567064223453,0.0360173951301,0.113622770991,-0.00296881017086,-0.00919673854375,0.714156968654,0.699918874077
1385570173798305256,736524,1385570173798305256,/world,vicon/Archie/Archie,0.0566990393956,0.0360452356218,0.113604464571,-0.00299812635198,-0.00908650553222,0.714165988249,0.699910985686
1385570173808435836,736525,1385570173808435836,/world,vicon/Archie/Archie,0.0566998569293,0.0360257389507,0.11363100339,-0.00296540909401,-0.00922070472836,0.714166622379,0.699908722929
1385570173818354823,736526,1385570173818354823,/world,vicon/Archie/Archie,0.0566373548751,0.0359889618524,0.113694106567,-0.00259824270979,-0.00949170568805,0.714235455173,0.699836317457
1385570173828352844,736527,1385570173828352844,/world,vicon/Archie/Archie,0.0566288477345,0.0359821054856,0.113700858519,-0.002493856311,-0.00951650670508,0.714264460678,0.699806756893
1385570173838224605,736528,1385570173838224605,/world,vicon/Archie/Archie,0.0567010049443,0.0360456667803,0.113603361697,-0.00298343087716,-0.00908495748267,0.714154369411,0.699922923855
1385570173848374341,736529,1385570173848374341,/world,vicon/Archie/Archie,0.056689221896,0.0360370823431,0.113613358458,-0.00295878221066,-0.00913060438218,0.714183759411,0.699892445641
1385570173858316689,736530,1385570173858316689,/world,vicon/Archie/Archie,0.0566293170585,0.0359970544176,0.113676811474,-0.00259295343032,-0.00942158515268,0.71424904031,0.699823419686
1385570173868366542,736531,1385570173868366542,/world,vicon/Archie/Archie,0.0567031706481,0.0360278274021,0.113629628961,-0.00296882722734,-0.00918739846937,0.714166615582,0.699909153364
1385570173878349785,736532,1385570173878349785,/world,vicon/Archie/Archie,0.0566155965056,0.0359741443973,0.113719837397,-0.00253611059834,-0.00961194427783,0.71425144793,0.699818582062
1385570173888217743,736533,1385570173888217743,/world,vicon/Archie/Archie,0.0566308793168,0.0359727823088,0.113709186018,-0.00250770760366,-0.00957598242836,0.714253352921,0.699817233143
1385570173898507574,736534,1385570173898507574,/world,vicon/Archie/Archie,0.0566297072714,0.0359726381151,0.113714300931,-0.00252310957103,-0.00958617497475,0.714252475209,0.699817934055
1385570173908267868,736535,1385570173908267868,/world,vicon/Archie/Archie,0.056708776011,0.0360383840816,0.113621940906,-0.00301285945789,-0.00914548130165,0.714154093631,0.699922290973
1385570173918404239,736536,1385570173918404239,/world,vicon/Archie/Archie,0.0566849721023,0.0360338224417,0.113632201404,-0.00296779341928,-0.00919803160499,0.714156773617,0.699919060402
1385570173928246950,736537,1385570173928246950,/world,vicon/Archie/Archie,0.0567113047855,0.0360196022236,0.113649032911,-0.0029766212583,-0.0092734471017,0.714145154048,0.699929883527
1385570173938193198,736538,1385570173938193198,/world,vicon/Archie/Archie,0.0566862228065,0.0360352872832,0.113595138246,-0.0029352512597,-0.00910419479208,0.714179799746,0.699896929248
1385570173948246986,736539,1385570173948246986,/world,vicon/Archie/Archie,0.0566172026441,0.0359835600085,0.113697692831,-0.00251236263579,-0.0094956548181,0.714275632899,0.699795570735
1385570173958252148,736540,1385570173958252148,/world,vicon/Archie/Archie,0.0566157082826,0.0359839581415,0.113698152526,-0.00250464151077,-0.00949793032258,0.714282191098,0.699788873569
1385570173968528869,736541,1385570173968528869,/world,vicon/Archie/Archie,0.0566151136331,0.0359797521183,0.113699477013,-0.00251064553821,-0.00951407993946,0.714267437695,0.699803691324
1385570173978357253,736542,1385570173978357253,/world,vicon/Archie/Archie,0.0566212214534,0.0359872014464,0.113689855126,-0.00250748808453,-0.00947319063067,0.714264063689,0.699807701076
1385570173988255532,736543,1385570173988255532,/world,vicon/Archie/Archie,0.0566982771445,0.0360270091087,0.113623972936,-0.00296741353379,-0.00921362638462,0.714170136364,0.699905222063
1385570173998306234,736544,1385570173998306234,/world,vicon/Archie/Archie,0.0566123339547,0.0359841070848,0.113693785556,-0.00251418759841,-0.0095003321521,0.714267356682,0.699803948065
1385570174008492474,736545,1385570174008492474,/world,vicon/Archie/Archie,0.0566196919494,0.036003119824,0.113687203912,-0.00259820464984,-0.00943783899198,0.714241605966,0.699830768711
1385570174018311705,736546,1385570174018311705,/world,vicon/Archie/Archie,0.0566272871237,0.0359910133197,0.113697447184,-0.00263899801362,-0.00950641727726,0.714243499122,0.699827755725
1385570174028257851,736547,1385570174028257851,/world,vicon/Archie/Archie,0.0566328173879,0.0359712927232,0.113716450638,-0.00255172396167,-0.00954406019153,0.714252494581,0.699818386158
1385570174038496073,736548,1385570174038496073,/world,vicon/Archie/Archie,0.0566910833953,0.0360464576075,0.1136029026,-0.0030019698634,-0.00908036818699,0.714172039459,0.699904874355
1385570174048405427,736549,1385570174048405427,/world,vicon/Archie/Archie,0.0566294728626,0.0359942002233,0.113707485513,-0.00261853111762,-0.00953107676458,0.714243302164,0.699827698212
1385570174058297855,736550,1385570174058297855,/world,vicon/Archie/Archie,0.0566870764173,0.0360365857497,0.113610699963,-0.00295466220383,-0.00911675071398,0.714174159289,0.699902439653
1385570174068206642,736551,1385570174068206642,/world,vicon/Archie/Archie,0.0566770523556,0.0360335492674,0.113603002354,-0.00294278428754,-0.00910495643811,0.714179839531,0.699896847111
1385570174078195448,736552,1385570174078195448,/world,vicon/Archie/Archie,0.0566927863727,0.0360510154514,0.11358993608,-0.00300961705138,-0.00908426433515,0.71415961016,0.699917473394
1385570174088167818,736553,1385570174088167818,/world,vicon/Archie/Archie,0.0566324881593,0.0359933667404,0.113704048232,-0.00260218753431,-0.00950988902809,0.714236066247,0.6998354323
1385570174098400992,736554,1385570174098400992,/world,vicon/Archie/Archie,0.0566405584782,0.0359722043179,0.113743282193,-0.00255330499912,-0.00966767756076,0.714249183299,0.69982006316
1385570174108303175,736555,1385570174108303175,/world,vicon/Archie/Archie,0.0566496947129,0.0359636742066,0.113726537085,-0.00252911828705,-0.00963082913673,0.714256557219,0.69981313303
1385570174118424116,736556,1385570174118424116,/world,vicon/Archie/Archie,0.0567234871378,0.0360214620827,0.113637401321,-0.00298063837005,-0.00924301854083,0.714144477591,0.699930959116
1385570174129208198,736557,1385570174129208198,/world,vicon/Archie/Archie,0.0566386325066,0.0359882487628,0.113692918279,-0.00257874561414,-0.00950082001737,0.714237681016,0.699833994249
1385570174138294166,736558,1385570174138294166,/world,vicon/Archie/Archie,0.0566589768694,0.0359834483078,0.113715257505,-0.00263519335529,-0.00954092654024,0.714233902989,0.699837094114
1385570174148573482,736559,1385570174148573482,/world,vicon/Archie/Archie,0.0566562297725,0.0359855114113,0.113719292758,-0.00262193856354,-0.0095782705824,0.714234471658,0.69983605342
1385570174158464569,736560,1385570174158464569,/world,vicon/Archie/Archie,0.0566143902949,0.0359789325663,0.113695364991,-0.00252971152527,-0.00944520933513,0.714274243398,0.699797609169
1385570174168481786,736561,1385570174168481786,/world,vicon/Archie/Archie,0.0566911812072,0.0360440079862,0.113597906047,-0.00301392658578,-0.00907394721052,0.714165830241,0.699911241976
1385570174178269097,736562,1385570174178269097,/world,vicon/Archie/Archie,0.0566963475682,0.0360467468594,0.113593246878,-0.00297470951685,-0.00907876594692,0.714151342378,0.699926129882
1385570174188172222,736563,1385570174188172222,/world,vicon/Archie/Archie,0.0566087708571,0.0359901262807,0.113691900798,-0.00253875070675,-0.00950429199829,0.714257219619,0.699814152044
1385570174198513110,736564,1385570174198513110,/world,vicon/Archie/Archie,0.0566524243338,0.0359928171344,0.11368996662,-0.00261376822866,-0.00945528255542,0.714243294339,0.699828752153
1385570174208483693,736565,1385570174208483693,/world,vicon/Archie/Archie,0.0566978001342,0.0360383217013,0.113618447542,-0.00303582835324,-0.00914207439227,0.714137000099,0.699939676909
1385570174218488411,736566,1385570174218488411,/world,vicon/Archie/Archie,0.0567009367607,0.0360305314318,0.113626690326,-0.00294950777735,-0.00922336492792,0.714156036454,0.699919556477
1385570174228413227,736567,1385570174228413227,/world,vicon/Archie/Archie,0.056532162602,0.0360465361067,0.113786615703,-0.00321522740804,-0.00927993291987,0.714194440545,0.699878451056
1385570174238289544,736568,1385570174238289544,/world,vicon/Archie/Archie,0.0565823959682,0.0360889710812,0.113716879343,-0.0036198432784,-0.0089898066342,0.714090122187,0.699986698092
1385570174248286102,736569,1385570174248286102,/world,vicon/Archie/Archie,0.0565697927266,0.0360883605082,0.113692992279,-0.00355127815248,-0.00890833491617,0.714111541912,0.699966238972
1385570174258316867,736570,1385570174258316867,/world,vicon/Archie/Archie,0.0565398458226,0.0360434110691,0.113810577738,-0.00323180955477,-0.00937520733416,0.714176224208,0.699895693422
1385570174268360125,736571,1385570174268360125,/world,vicon/Archie/Archie,0.0565765944594,0.0360773123911,0.113704654951,-0.00358044648362,-0.00896542162555,0.714121456872,0.699955246035
1385570174278448406,736572,1385570174278448406,/world,vicon/Archie/Archie,0.056576787313,0.0360762087788,0.113705287373,-0.00360634756271,-0.0089515605713,0.714089864355,0.699987520922
1385570174288216576,736573,1385570174288216576,/world,vicon/Archie/Archie,0.0565307810979,0.0360494450032,0.113783952817,-0.00323307470377,-0.00927005527686,0.714187284289,0.699885802301
1385570174298598364,736574,1385570174298598364,/world,vicon/Archie/Archie,0.0565331255146,0.0360375851799,0.113813661595,-0.00324775159166,-0.00937065965689,0.714177065666,0.699894821901
1385570174308349453,736575,1385570174308349453,/world,vicon/Archie/Archie,0.0565335094724,0.0360218979469,0.113828204426,-0.0031914855995,-0.00937676798255,0.714190551448,0.699881237686
1385570174318268743,736576,1385570174318268743,/world,vicon/Archie/Archie,0.056501514031,0.0360317880576,0.113775163698,-0.00314637791736,-0.00928327794202,0.714210584738,0.699862244806
1385570174328277806,736577,1385570174328277806,/world,vicon/Archie/Archie,0.0565052662488,0.0360349082572,0.113774425201,-0.00312581857143,-0.00926277170164,0.714204744554,0.699868568501
1385570174338289174,736578,1385570174338289174,/world,vicon/Archie/Archie,0.0565192949781,0.036039259648,0.113776514485,-0.00326105437087,-0.00925014097704,0.714187282183,0.699885938125
1385570174348303414,736579,1385570174348303414,/world,vicon/Archie/Archie,0.0565559083597,0.0360911388301,0.113709843337,-0.00357756743463,-0.00893188432351,0.714127777606,0.699949240806
1385570174358366046,736580,1385570174358366046,/world,vicon/Archie/Archie,0.0565787257554,0.0360846815087,0.113720432186,-0.00363535272762,-0.00899738110924,0.714089203071,0.699987458031
1385570174368328638,736581,1385570174368328638,/world,vicon/Archie/Archie,0.0567043293101,0.0360406073096,0.113622902343,-0.00301246998927,-0.00916316190827,0.714145941465,0.699930379236
1385570174378250872,736582,1385570174378250872,/world,vicon/Archie/Archie,0.0566966653694,0.0360348614823,0.113627895472,-0.00296227491715,-0.00920660494489,0.714158178547,0.699917537548
1385570174388368082,736583,1385570174388368082,/world,vicon/Archie/Archie,0.0567119948351,0.0360302886468,0.113629367155,-0.0029649914674,-0.00918757737542,0.714168981241,0.699906753419
1385570174398348876,736584,1385570174398348876,/world,vicon/Archie/Archie,0.0567153590897,0.0360264899648,0.11364690248,-0.002977656511,-0.00926795997445,0.714143198401,0.699931947161
1385570174408453724,736585,1385570174408453724,/world,vicon/Archie/Archie,0.0566491134871,0.035993446131,0.113724902695,-0.00264349175068,-0.00958824829498,0.714237080627,0.699833173051
1385570174418307572,736586,1385570174418307572,/world,vicon/Archie/Archie,0.0566973999982,0.0360507129742,0.113600826777,-0.00301234565514,-0.00910482478222,0.714165384172,0.699911302945
1385570174428383770,736587,1385570174428383770,/world,vicon/Archie/Archie,0.0566189006209,0.0359875628152,0.113691788722,-0.00250150747349,-0.00948115709317,0.714256500695,0.699815333738
1385570174438230521,736588,1385570174438230521,/world,vicon/Archie/Archie,0.0566243060222,0.0360098797058,0.113683109523,-0.0025649528291,-0.00944920562885,0.714247974837,0.699824237914
1385570174448598340,736589,1385570174448598340,/world,vicon/Archie/Archie,0.0566304644486,0.0359892277364,0.113710939507,-0.00253791052615,-0.00955165798905,0.714266625614,0.699803909944
1385570174458671340,736590,1385570174458671340,/world,vicon/Archie/Archie,0.0567154393615,0.0360235001744,0.113638698044,-0.00297921066874,-0.00925062649208,0.714156411434,0.699918688292
1385570174468297035,736591,1385570174468297035,/world,vicon/Archie/Archie,0.0566297015885,0.0359823974118,0.113704624404,-0.00262243855331,-0.00952147031717,0.714235359097,0.699835920938
1385570174478387751,736592,1385570174478387751,/world,vicon/Archie/Archie,0.0566966874366,0.0360545112436,0.11360654765,-0.00300559992068,-0.00910063378466,0.714165164714,0.699911610378
1385570174488202738,736593,1385570174488202738,/world,vicon/Archie/Archie,0.0566756615542,0.0360411738438,0.113608430265,-0.00295071420618,-0.00911506435804,0.714165089146,0.699911733244
1385570174498415685,736594,1385570174498415685,/world,vicon/Archie/Archie,0.0566169194771,0.0360079525754,0.113687936686,-0.00260287477233,-0.00944404161566,0.71425139094,0.699820681076
1385570174508415039,736595,1385570174508415039,/world,vicon/Archie/Archie,0.0566861824701,0.0360520770661,0.113597388719,-0.00296939431492,-0.00909029217581,0.71416862146,0.699908372151
1385570174518247911,736596,1385570174518247911,/world,vicon/Archie/Archie,0.0567079445206,0.0360256795571,0.113628865551,-0.00298734538633,-0.00920788377863,0.714155021139,0.699920635805
1385570174528306657,736597,1385570174528306657,/world,vicon/Archie/Archie,0.0566430659436,0.0359893452868,0.11370314277,-0.00259879554969,-0.00953390963909,0.714234822996,0.699836386914
1385570174538273462,736598,1385570174538273462,/world,vicon/Archie/Archie,0.0566294713522,0.036006361388,0.113695858183,-0.00265944281575,-0.0094891987452,0.714232900281,0.699838729014
1385570174548346082,736599,1385570174548346082,/world,vicon/Archie/Archie,0.0566844797664,0.036037102393,0.113606966483,-0.00296585415016,-0.00911239140854,0.714173238521,0.699903388627
1385570174558216212,736600,1385570174558216212,/world,vicon/Archie/Archie,0.05661557589,0.0359874439264,0.113691185677,-0.0025050522927,-0.00948161811745,0.714270693449,0.699800828887
1385570174568298236,736601,1385570174568298236,/world,vicon/Archie/Archie,0.0566434967405,0.035972502755,0.11373489205,-0.00253998512773,-0.00964136359985,0.714252823706,0.699816759167
1385570174578202149,736602,1385570174578202149,/world,vicon/Archie/Archie,0.0566120745439,0.0359923991938,0.113699986792,-0.00250945972634,-0.00950235447848,0.714264866471,0.699806479247
1385570174588211932,736603,1385570174588211932,/world,vicon/Archie/Archie,0.0566963914246,0.0360262558771,0.11362244948,-0.00293778262935,-0.00918326759749,0.71416119261,0.699914871966
1385570174598432236,736604,1385570174598432236,/world,vicon/Archie/Archie,0.0566299269167,0.0359928994369,0.113696953253,-0.00258955721825,-0.00952277614003,0.714239242475,0.69983206231
1385570174608311435,736605,1385570174608311435,/world,vicon/Archie/Archie,0.0566253113,0.0360069914907,0.113685015947,-0.00257263536,-0.00943416666206,0.714245760647,0.69982667243
1385570174618428471,736606,1385570174618428471,/world,vicon/Archie/Archie,0.0567033556553,0.0360369510202,0.113617240762,-0.00300379483484,-0.0091473954249,0.714133874863,0.699942934208
1385570174628613462,736607,1385570174628613462,/world,vicon/Archie/Archie,0.0565846592676,0.0360854968667,0.11371674581,-0.00361042459553,-0.00895507020317,0.714115791893,0.699961004143
1385570174638210211,736608,1385570174638210211,/world,vicon/Archie/Archie,0.0565129197093,0.0360556566205,0.113761978056,-0.00319741191157,-0.00924293515292,0.714192367326,0.69988113788
1385570174648380347,736609,1385570174648380347,/world,vicon/Archie/Archie,0.0566932315967,0.0360278886017,0.113625012177,-0.00293968624887,-0.00918995064287,0.714155813739,0.699920264569
1385570174658238642,736610,1385570174658238642,/world,vicon/Archie/Archie,0.0566931684515,0.0360310225032,0.113627438631,-0.00295720207026,-0.00922866929766,0.714160192926,0.69991521305
1385570174668605407,736611,1385570174668605407,/world,vicon/Archie/Archie,0.0566292325067,0.0359951083275,0.113702410077,-0.00260600379945,-0.00951535153825,0.714243099538,0.69982816576
1385570174678482482,736612,1385570174678482482,/world,vicon/Archie/Archie,0.0566306694097,0.0359878761416,0.113721707832,-0.00253736859874,-0.00957376463421,0.714270768116,0.699799381685
1385570174688123913,736613,1385570174688123913,/world,vicon/Archie/Archie,0.0566115725784,0.0359924754407,0.113704203772,-0.00251383170657,-0.00952771099182,0.714264143715,0.69980685648
1385570174698463298,736614,1385570174698463298,/world,vicon/Archie/Archie,0.0567191594226,0.0360317400581,0.113633861378,-0.00304549770797,-0.00922418662175,0.714139181691,0.699936331747
1385570174708304138,736615,1385570174708304138,/world,vicon/Archie/Archie,0.0566107685253,0.0359894077853,0.113701112107,-0.00252857207477,-0.00952160145293,0.714268074977,0.699802874028
1385570174718294723,736616,1385570174718294723,/world,vicon/Archie/Archie,0.0566243067615,0.0359784977876,0.113718346942,-0.00253655572205,-0.00960892807014,0.714254334929,0.699815675319
1385570174728624847,736617,1385570174728624847,/world,vicon/Archie/Archie,0.0565812293313,0.0360816524118,0.11372270827,-0.00359742005516,-0.00902068733422,0.714116218899,0.699959792899
1385570174738213899,736618,1385570174738213899,/world,vicon/Archie/Archie,0.0565025509608,0.0360523302663,0.113750598968,-0.00324256388504,-0.00915834978712,0.714192202078,0.699882210733
1385570174748546270,736619,1385570174748546270,/world,vicon/Archie/Archie,0.0565999240026,0.0360888076665,0.113712791017,-0.00362256709187,-0.00894094712495,0.714091004246,0.699986409959
1385570174758357596,736620,1385570174758357596,/world,vicon/Archie/Archie,0.0567271438781,0.0360297455669,0.113622146891,-0.00302770027086,-0.00918908017933,0.71413829407,0.699937776362
1385570174768339242,736621,1385570174768339242,/world,vicon/Archie/Archie,0.0567064237538,0.0360335234822,0.113616086907,-0.00303096820626,-0.00917226682691,0.714146396158,0.699929716191
1385570174778353397,736622,1385570174778353397,/world,vicon/Archie/Archie,0.056707877572,0.0360233210037,0.113642789761,-0.00299744307048,-0.0092622044998,0.714156179669,0.699918693809
1385570174788171060,736623,1385570174788171060,/world,vicon/Archie/Archie,0.0566380784703,0.0359701339829,0.113736444222,-0.00255840231477,-0.00964590636881,0.714256666045,0.699812707857
1385570174798316986,736624,1385570174798316986,/world,vicon/Archie/Archie,0.0566472839336,0.0359862463262,0.113715078735,-0.00263827275102,-0.00956946623742,0.71424377047,0.699826622227
1385570174808029399,736625,1385570174808029399,/world,vicon/Archie/Archie,0.0566256962517,0.0359828116965,0.113691850059,-0.00254224200648,-0.00944620741855,0.714267592429,0.699804338781
1385570174818408688,736626,1385570174818408688,/world,vicon/Archie/Archie,0.0567165432421,0.0360227551221,0.113616404765,-0.0029689379085,-0.00916381604856,0.714169599876,0.699906416956
1385570174828345676,736627,1385570174828345676,/world,vicon/Archie/Archie,0.0566872177094,0.0360467808698,0.113599095034,-0.00302560330324,-0.00907468154522,0.714170441048,0.699906477333
1385570174838508252,736628,1385570174838508252,/world,vicon/Archie/Archie,0.0566930330996,0.0360243586073,0.113630323299,-0.00296838510565,-0.00921554074316,0.714164757158,0.699910681539
1385570174848609072,736629,1385570174848609072,/world,vicon/Archie/Archie,0.0566152189517,0.0359872954803,0.113694706888,-0.00252181221737,-0.00950308297637,0.714262704856,0.699808631219
1385570174858396306,736630,1385570174858396306,/world,vicon/Archie/Archie,0.0566522465641,0.0359911044314,0.113699087667,-0.00262003306371,-0.00948242520678,0.714242665312,0.699829003463
1385570174868411590,736631,1385570174868411590,/world,vicon/Archie/Archie,0.0566262344793,0.0359999761436,0.113681570123,-0.00258554109861,-0.00944512038961,0.714250098821,0.699822049532
1385570174878356645,736632,1385570174878356645,/world,vicon/Archie/Archie,0.0566396860109,0.0359690900166,0.113735327302,-0.0025405616284,-0.00964631854894,0.714251372674,0.699818169755
1385570174888198013,736633,1385570174888198013,/world,vicon/Archie/Archie,0.0566168322508,0.0359779934856,0.113718213527,-0.00253480951986,-0.00959301548165,0.714255516964,0.699814693531
1385570174898408842,736634,1385570174898408842,/world,vicon/Archie/Archie,0.056623041781,0.0360027635539,0.11368384123,-0.00260104557419,-0.00946240266326,0.714256703498,0.699815017705
1385570174908190610,736635,1385570174908190610,/world,vicon/Archie/Archie,0.0566288586762,0.0359965810055,0.113674385146,-0.00259247983132,-0.00941974281614,0.714239529975,0.699833152484
1385570174918521461,736636,1385570174918521461,/world,vicon/Archie/Archie,0.0567189224371,0.0360340168037,0.113630937482,-0.003054813636,-0.00921293742176,0.714136540749,0.699939133829
1385570174928372335,736637,1385570174928372335,/world,vicon/Archie/Archie,0.0566394077855,0.0359901385026,0.113696648893,-0.00259018233273,-0.0094913532356,0.714227384508,0.699844588739
1385570174938175937,736638,1385570174938175937,/world,vicon/Archie/Archie,0.056612307108,0.0359785664641,0.113697548084,-0.00250168619071,-0.00950960639369,0.714273204674,0.699797897994
1385570174948390195,736639,1385570174948390195,/world,vicon/Archie/Archie,0.056616755051,0.0359904816287,0.113696945834,-0.00250593923869,-0.00948617506501,0.714267032845,0.69980450023
1385570174958350301,736640,1385570174958350301,/world,vicon/Archie/Archie,0.0566865523107,0.0360425122414,0.113609453345,-0.00293000880687,-0.00913095268112,0.714164902056,0.699911804031
1385570174968323692,736641,1385570174968323692,/world,vicon/Archie/Archie,0.0566452795093,0.0359855575462,0.11369836158,-0.0026453592614,-0.00944750360135,0.714236861132,0.699835304162
1385570174978388056,736642,1385570174978388056,/world,vicon/Archie/Archie,0.0566900957808,0.0360401588219,0.11360774328,-0.00295318684161,-0.00914612528505,0.714169230279,0.699907092122
1385570174988211097,736643,1385570174988211097,/world,vicon/Archie/Archie,0.0566861726385,0.0360435406946,0.113606907476,-0.00296958566053,-0.00910837400551,0.714163444898,0.699913418256
1385570174998394307,736644,1385570174998394307,/world,vicon/Archie/Archie,0.0566277682619,0.0360072909025,0.113682403899,-0.00259049193574,-0.00942629463242,0.714249666454,0.699822726332
1385570175008332812,736645,1385570175008332812,/world,vicon/Archie/Archie,0.0567072525471,0.0360313897844,0.113622927715,-0.00297670820635,-0.0091691224102,0.714172821279,0.699903027389
1385570175018412020,736646,1385570175018412020,/world,vicon/Archie/Archie,0.0567315786692,0.0360293525109,0.113629933641,-0.00302783807159,-0.00920244652447,0.714142837456,0.699932964565
1385570175028354176,736647,1385570175028354176,/world,vicon/Archie/Archie,0.0566234984923,0.0360129126904,0.113679095156,-0.00259645069294,-0.00944998266058,0.714255768904,0.699816156471
1385570175038273465,736648,1385570175038273465,/world,vicon/Archie/Archie,0.0566903741682,0.0360373636123,0.113600571247,-0.00293359287137,-0.0091140089439,0.714164912901,0.699911998794
1385570175048299213,736649,1385570175048299213,/world,vicon/Archie/Archie,0.0566201781142,0.0359939959333,0.113688796452,-0.002524278781,-0.00953384713143,0.714271588782,0.699799136348
1385570175058430115,736650,1385570175058430115,/world,vicon/Archie/Archie,0.0566836886013,0.0360340440014,0.113601102831,-0.00294732324228,-0.00909946280418,0.714179141305,0.699897611931
1385570175068521872,736651,1385570175068521872,/world,vicon/Archie/Archie,0.0566397380528,0.0359876582494,0.113720009838,-0.00251105690136,-0.00956758187324,0.714266947483,0.699803460768
1385570175078465041,736652,1385570175078465041,/world,vicon/Archie/Archie,0.0566883685505,0.0360326947365,0.11362827156,-0.00299723061167,-0.00920616335759,0.714156778778,0.699918822786
1385570175088232224,736653,1385570175088232224,/world,vicon/Archie/Archie,0.0566832252303,0.0360388562023,0.113608457826,-0.00295102480709,-0.0091202448697,0.714179942641,0.699896508146
1385570175098401912,736654,1385570175098401912,/world,vicon/Archie/Archie,0.0566982207037,0.0360386862028,0.113630207135,-0.00306258613602,-0.0091447197453,0.714153234525,0.699922961678
1385570175108244675,736655,1385570175108244675,/world,vicon/Archie/Archie,0.0566337758881,0.0360013560665,0.113672153123,-0.00258275864879,-0.00939937437299,0.714247297205,0.699825535084
1385570175118344813,736656,1385570175118344813,/world,vicon/Archie/Archie,0.0567040954076,0.0360467813856,0.113615801604,-0.00302136904011,-0.00916083364378,0.714143298364,0.699933068127
1385570175128381045,736657,1385570175128381045,/world,vicon/Archie/Archie,0.0566234117997,0.0359741113471,0.113711213365,-0.00251369958945,-0.00958840655789,0.714252705833,0.699817701965
1385570175138238177,736658,1385570175138238177,/world,vicon/Archie/Archie,0.0566060363547,0.0360020615729,0.113755317026,-0.00227122231554,-0.00973514743423,0.714254180542,0.699814999862
1385570175148536852,736659,1385570175148536852,/world,vicon/Archie/Archie,0.0566997916359,0.0360458519655,0.11359150829,-0.00295884233754,-0.00907470738939,0.714155668582,0.699921835614
1385570175158376683,736660,1385570175158376683,/world,vicon/Archie/Archie,0.0566791928321,0.036036780848,0.113632612937,-0.00297351568793,-0.00923207563137,0.714161254237,0.699914016098
1385570175168276462,736661,1385570175168276462,/world,vicon/Archie/Archie,0.0566206586535,0.0359814679209,0.113717446995,-0.00249871468318,-0.00960281321614,0.714259739821,0.699810378941
1385570175178444435,736662,1385570175178444435,/world,vicon/Archie/Archie,0.0566407724321,0.0359965402001,0.113691564128,-0.00259989811431,-0.00949793724893,0.714231970957,0.699839782651
1385570175188394961,736663,1385570175188394961,/world,vicon/Archie/Archie,0.0566857497156,0.0360555141201,0.113609527511,-0.00299247800484,-0.0090980842177,0.714161844781,0.699915087277
1385570175198442259,736664,1385570175198442259,/world,vicon/Archie/Archie,0.0566894983148,0.0360355000471,0.1136333841,-0.00296413402583,-0.00923708721209,0.714153613711,0.699921785739
1385570175208418443,736665,1385570175208418443,/world,vicon/Archie/Archie,0.056637232798,0.0360001612678,0.1137017356,-0.00258763186085,-0.00954549558376,0.714238200778,0.699832823054
1385570175218353935,736666,1385570175218353935,/world,vicon/Archie/Archie,0.0567093358556,0.0360465363362,0.11361151257,-0.00299599108533,-0.00910902416135,0.71415427466,0.699922654085
1385570175228356634,736667,1385570175228356634,/world,vicon/Archie/Archie,0.0566335498868,0.0360041982035,0.113676879294,-0.00259216813812,-0.00943701119404,0.714242888499,0.699829493314
1385570175238348530,736668,1385570175238348530,/world,vicon/Archie/Archie,0.0566308561027,0.0360041521753,0.113678742932,-0.00259793828361,-0.00942566714078,0.714242081549,0.699830448366
1385570175248443245,736669,1385570175248443245,/world,vicon/Archie/Archie,0.0567074158697,0.0360407588331,0.113621920665,-0.00299071035638,-0.00916806411657,0.714167567445,0.699908342471
1385570175258350017,736670,1385570175258350017,/world,vicon/Archie/Archie,0.0566161098323,0.0360114803697,0.113667355414,-0.00265409753369,-0.00937698416756,0.714264259042,0.699808256731
1385570175268430339,736671,1385570175268430339,/world,vicon/Archie/Archie,0.0566289915569,0.035997285278,0.113704002849,-0.0025944421082,-0.00951260977886,0.714229702361,0.699841918858
1385570175278487741,736672,1385570175278487741,/world,vicon/Archie/Archie,0.0566903175621,0.0360304238332,0.113634983492,-0.00297233516679,-0.00922311719977,0.714161467223,0.699913921898
1385570175288163074,736673,1385570175288163074,/world,vicon/Archie/Archie,0.0567123151129,0.0360323585402,0.113626518902,-0.0029416243981,-0.00919880297044,0.714156311092,0.69991963267
1385570175298574028,736674,1385570175298574028,/world,vicon/Archie/Archie,0.0567036567003,0.0360407062781,0.113635794478,-0.00297613296761,-0.00919550159304,0.714176085521,0.699899352945
1385570175308410697,736675,1385570175308410697,/world,vicon/Archie/Archie,0.0566940332519,0.0360437014462,0.113593414155,-0.00298127908495,-0.00905957886248,0.714156751888,0.69992083105
1385570175318296914,736676,1385570175318296914,/world,vicon/Archie/Archie,0.0566753715839,0.0360408682302,0.113616235377,-0.00295169396727,-0.00914227685084,0.714181009315,0.699895129438
1385570175328543039,736677,1385570175328543039,/world,vicon/Archie/Archie,0.0566855317713,0.0360551908938,0.113597229853,-0.00300314053918,-0.00907987691796,0.714165158828,0.699911896526
1385570175338351506,736678,1385570175338351506,/world,vicon/Archie/Archie,0.0566989700944,0.0360392819856,0.113619560699,-0.00302568159337,-0.00916404811156,0.71415121585,0.699924929099
1385570175348359013,736679,1385570175348359013,/world,vicon/Archie/Archie,0.0566279476898,0.0359814394211,0.113709238358,-0.00251411012073,-0.00956523651691,0.71425627895,0.699814370731
1385570175358304722,736680,1385570175358304722,/world,vicon/Archie/Archie,0.0566983366102,0.0360268566697,0.113619017289,-0.0029594835911,-0.00920092567327,0.714163912591,0.699911773281
1385570175368254660,736681,1385570175368254660,/world,vicon/Archie/Archie,0.056677218246,0.0360396395626,0.113612453361,-0.00294981594699,-0.00913363908719,0.714175788989,0.699900576971
1385570175378331563,736682,1385570175378331563,/world,vicon/Archie/Archie,0.0566818819457,0.0360513418346,0.113617837122,-0.0029522036028,-0.00913424562894,0.714179453956,0.699896819251
1385570175388254647,736683,1385570175388254647,/world,vicon/Archie/Archie,0.0567124904671,0.0360302934924,0.113642499957,-0.0029933279002,-0.0092628658149,0.714156810535,0.699918058969
1385570175398579130,736684,1385570175398579130,/world,vicon/Archie/Archie,0.0567147409513,0.0360489400947,0.113629088283,-0.00305081965927,-0.00913656926533,0.714161418152,0.6999147694
1385570175408373678,736685,1385570175408373678,/world,vicon/Archie/Archie,0.0566985835734,0.0360385769356,0.113620351851,-0.00301563552294,-0.00918313822084,0.71414849285,0.699927500585
1385570175418218786,736686,1385570175418218786,/world,vicon/Archie/Archie,0.0566944243072,0.0360309833261,0.11362827366,-0.0029667504792,-0.00920501667284,0.714160598182,0.699915070607
1385570175428471229,736687,1385570175428471229,/world,vicon/Archie/Archie,0.0567285979558,0.0360438770133,0.11362627134,-0.00302514306933,-0.00922429126301,0.714125861198,0.699950009164
1385570175438335231,736688,1385570175438335231,/world,vicon/Archie/Archie,0.0566390941679,0.0359987088907,0.113707765444,-0.00261865029147,-0.00949997180794,0.714247316596,0.699824023553
1385570175448409909,736689,1385570175448409909,/world,vicon/Archie/Archie,0.0566204254921,0.0360053898309,0.113678692057,-0.00260194143276,-0.00941666786254,0.714247969752,0.699824545134
1385570175458518702,736690,1385570175458518702,/world,vicon/Archie/Archie,0.0566484564271,0.0359931523915,0.113718785109,-0.00263502663449,-0.00958684231989,0.71423250412,0.699837894906
1385570175468347428,736691,1385570175468347428,/world,vicon/Archie/Archie,0.0566880245022,0.0360453830219,0.113613084502,-0.00293507784494,-0.00912584534033,0.714170675742,0.699905958094
1385570175478484633,736692,1385570175478484633,/world,vicon/Archie/Archie,0.0566302183446,0.0359893430812,0.113722603124,-0.00253062193406,-0.00958607795518,0.714267801012,0.699802266001
1385570175488391228,736693,1385570175488391228,/world,vicon/Archie/Archie,0.0567120059765,0.0360352874793,0.113631173462,-0.0029805634787,-0.00911889830738,0.714166093386,0.699910532135
1385570175498424489,736694,1385570175498424489,/world,vicon/Archie/Archie,0.0567228325465,0.0360323322403,0.11363201491,-0.003044710867,-0.00920449839404,0.714144559015,0.699931107877
1385570175508330572,736695,1385570175508330572,/world,vicon/Archie/Archie,0.0566328979073,0.0359956782297,0.113710862811,-0.0026175515061,-0.00953042165451,0.714227873175,0.699843457258
1385570175518483244,736696,1385570175518483244,/world,vicon/Archie/Archie,0.0566454179035,0.0359986355698,0.113698756489,-0.0026166563461,-0.00948236421592,0.714251755578,0.699819739313
1385570175528482071,736697,1385570175528482071,/world,vicon/Archie/Archie,0.0566974351356,0.0360519018052,0.113616911437,-0.00301711200255,-0.0091313268801,0.714154790098,0.69992174683
1385570175538269870,736698,1385570175538269870,/world,vicon/Archie/Archie,0.0566239372039,0.0359876481787,0.11372541882,-0.0025362928372,-0.00956622776941,0.714266886778,0.699803450233
1385570175548420392,736699,1385570175548420392,/world,vicon/Archie/Archie,0.0566169883001,0.0360182866166,0.113733223482,-0.00241683871039,-0.00958074275312,0.714242774401,0.699828284277
1385570175558369352,736700,1385570175558369352,/world,vicon/Archie/Archie,0.0566375960843,0.0359839698073,0.113744241586,-0.00254786468408,-0.00966758946743,0.714240899446,0.699828538757
1385570175568337451,736701,1385570175568337451,/world,vicon/Archie/Archie,0.056645563305,0.0359900758537,0.113724873744,-0.00263449728758,-0.00958925315668,0.714232587728,0.699837778543
1385570175578533984,736702,1385570175578533984,/world,vicon/Archie/Archie,0.0567105208267,0.0360354564344,0.113625772694,-0.00296819063023,-0.00916320749388,0.714161021824,0.699915180847
1385570175588470566,736703,1385570175588470566,/world,vicon/Archie/Archie,0.0566997263127,0.0360389350272,0.113623850306,-0.0030013434708,-0.00917338362487,0.714148195021,0.69992799381
1385570175598424276,736704,1385570175598424276,/world,vicon/Archie/Archie,0.0566052478362,0.0360001185646,0.113704317582,-0.00250829367782,-0.00952161562833,0.714261802341,0.699809349048
1385570175608399925,736705,1385570175608399925,/world,vicon/Archie/Archie,0.0566234060304,0.0360008710327,0.1137056351,-0.00261125848499,-0.00954635113184,0.714242214442,0.699828627322
1385570175618330374,736706,1385570175618330374,/world,vicon/Archie/Archie,0.0566353539222,0.0359700869778,0.113710374313,-0.00250624271448,-0.0095797353445,0.714257365783,0.699813091363
1385570175628326804,736707,1385570175628326804,/world,vicon/Archie/Archie,0.0566184507246,0.0359805706133,0.113694089224,-0.00250233237894,-0.00949086280007,0.714268799479,0.699802646427
1385570175638262715,736708,1385570175638262715,/world,vicon/Archie/Archie,0.0567090864556,0.0360260168307,0.113644231278,-0.00298624633317,-0.00925707308589,0.714156337954,0.699918648052
1385570175648516270,736709,1385570175648516270,/world,vicon/Archie/Archie,0.0566976471989,0.0360391268062,0.113622088969,-0.00300811629194,-0.00916224693493,0.714137006422,0.699939526335
1385570175658340805,736710,1385570175658340805,/world,vicon/Archie/Archie,0.0566229092092,0.0360081719684,0.113678564175,-0.00260886251779,-0.00943659003481,0.714244301417,0.699827994938
1385570175668403958,736711,1385570175668403958,/world,vicon/Archie/Archie,0.056640819335,0.035973290183,0.113740659959,-0.00252373413373,-0.00965780171414,0.714261361481,0.699807877297
1385570175678289502,736712,1385570175678289502,/world,vicon/Archie/Archie,0.0566300960877,0.0359976908193,0.113707587493,-0.00258494353774,-0.00954222092711,0.714240103522,0.699830935732
1385570175688238305,736713,1385570175688238305,/world,vicon/Archie/Archie,0.0567060288826,0.0360265459097,0.113625134216,-0.00295635300559,-0.00920741814941,0.714151252051,0.699924619243
1385570175698325501,736714,1385570175698325501,/world,vicon/Archie/Archie,0.0566808081881,0.0360448878471,0.11361844158,-0.00298129202082,-0.00912813662628,0.714168744885,0.699907703093
1385570175708369538,736715,1385570175708369538,/world,vicon/Archie/Archie,0.0566848588692,0.0360518672377,0.113584475178,-0.00300689728748,-0.00905504192286,0.714164399672,0.699912976752
1385570175718221439,736716,1385570175718221439,/world,vicon/Archie/Archie,0.0566741735986,0.0360417187289,0.11361534191,-0.00295455862062,-0.00914385435176,0.714166500517,0.699909901381
1385570175728344791,736717,1385570175728344791,/world,vicon/Archie/Archie,0.0567033167407,0.0360299326783,0.113624824759,-0.00297398802763,-0.00918139476025,0.714180627288,0.699894912821
1385570175738280438,736718,1385570175738280438,/world,vicon/Archie/Archie,0.0566115655653,0.0359889700261,0.113695978187,-0.00251409083814,-0.00950793934083,0.714266321114,0.699804902068
1385570175748397569,736719,1385570175748397569,/world,vicon/Archie/Archie,0.0566297450487,0.0359822433521,0.113718421256,-0.0025263024327,-0.00958197728522,0.714267680072,0.699802461207
1385570175758269326,736720,1385570175758269326,/world,vicon/Archie/Archie,0.0566152793789,0.0359896463415,0.113695123094,-0.00250787349751,-0.0094971364797,0.714263825051,0.699807618702
1385570175768318234,736721,1385570175768318234,/world,vicon/Archie/Archie,0.0566912633852,0.0360525126658,0.113608809274,-0.00298731000696,-0.00911773343565,0.714169751799,0.699906785602
1385570175778239141,736722,1385570175778239141,/world,vicon/Archie/Archie,0.0566972149237,0.0360401568463,0.113627593518,-0.00296131993441,-0.00920174308814,0.714155539523,0.699920298232
1385570175788188261,736723,1385570175788188261,/world,vicon/Archie/Archie,0.056620259675,0.0359968068057,0.113691499209,-0.00249262526554,-0.00948563574733,0.714259702032,0.699812037326
1385570175798387633,736724,1385570175798387633,/world,vicon/Archie/Archie,0.0566957730873,0.0360526856566,0.113587410055,-0.00299984302538,-0.00905764119554,0.714147106251,0.699930618499
1385570175808244269,736725,1385570175808244269,/world,vicon/Archie/Archie,0.0566822542324,0.0360458778645,0.113609669421,-0.00293748840156,-0.00913688848895,0.714164993627,0.699911601782
1385570175818327390,736726,1385570175818327390,/world,vicon/Archie/Archie,0.0566517664909,0.0359738784172,0.113728755442,-0.00253524346872,-0.00962817375886,0.714244665224,0.699825284631
1385570175828410210,736727,1385570175828410210,/world,vicon/Archie/Archie,0.0566568654905,0.0359965024386,0.113715845724,-0.00261304391776,-0.00955797827329,0.714233502575,0.699837353141
1385570175838253990,736728,1385570175838253990,/world,vicon/Archie/Archie,0.0566379230716,0.0359905937134,0.113697355573,-0.00258871154864,-0.009510988398,0.714239313826,0.699832152918
1385570175848384800,736729,1385570175848384800,/world,vicon/Archie/Archie,0.0567013758974,0.0360368227613,0.113632734163,-0.00298286789772,-0.00918409401921,0.714161366134,0.699914493376
1385570175858169691,736730,1385570175858169691,/world,vicon/Archie/Archie,0.0566073896726,0.0359947380522,0.113706792002,-0.00251396768508,-0.00951877261058,0.714276592911,0.699794271022
1385570175868314305,736731,1385570175868314305,/world,vicon/Archie/Archie,0.0566923744242,0.036053237593,0.113600057045,-0.00295918654043,-0.00909082857567,0.714159948716,0.699917257753
1385570175878394714,736732,1385570175878394714,/world,vicon/Archie/Archie,0.0566309945933,0.0359894813161,0.113718477963,-0.0025274400376,-0.00956303246752,0.714267418989,0.699802982723
1385570175888246447,736733,1385570175888246447,/world,vicon/Archie/Archie,0.0567060899426,0.0360424723994,0.113617369824,-0.00299849168457,-0.00916280093956,0.714133246088,0.699943396968
1385570175898435397,736734,1385570175898435397,/world,vicon/Archie/Archie,0.0566242665583,0.0360066190768,0.113674771335,-0.00258261324075,-0.00942363569389,0.714234986801,0.699837773222
1385570175908387264,736735,1385570175908387264,/world,vicon/Archie/Archie,0.0566459058869,0.0359868310926,0.113714461443,-0.00256110120035,-0.00949733569802,0.714263358084,0.699807899837
1385570175918313854,736736,1385570175918313854,/world,vicon/Archie/Archie,0.056695829062,0.0360545571161,0.113603209333,-0.00301350429658,-0.00910224295229,0.714171294451,0.699905300842
1385570175928400718,736737,1385570175928400718,/world,vicon/Archie/Archie,0.0566238591492,0.0360051179572,0.113679078202,-0.00261473726845,-0.0094270163173,0.714244368458,0.699828033619
1385570175938255512,736738,1385570175938255512,/world,vicon/Archie/Archie,0.05662816693,0.0359890415215,0.113718530176,-0.00253421751207,-0.00956616778264,0.714260157312,0.699810327054
1385570175948395573,736739,1385570175948395573,/world,vicon/Archie/Archie,0.0567061225884,0.0360433039152,0.113619064087,-0.00303661536344,-0.00912766567168,0.714150689309,0.699925894396
1385570175958455780,736740,1385570175958455780,/world,vicon/Archie/Archie,0.0566393472785,0.0359700623208,0.113739080706,-0.00254464492817,-0.00963894830387,0.714256076997,0.699813455094
1385570175968284085,736741,1385570175968284085,/world,vicon/Archie/Archie,0.0566153984977,0.0359788208636,0.113729114367,-0.00251198656015,-0.00962399765791,0.714245360368,0.699824716472
1385570175978371240,736742,1385570175978371240,/world,vicon/Archie/Archie,0.0566245423791,0.0359980072235,0.113675191151,-0.00260538340786,-0.00940924857028,0.71425894032,0.699813435275
1385570175988322681,736743,1385570175988322681,/world,vicon/Archie/Archie,0.0566865556282,0.0360290694453,0.113635958534,-0.00296856317186,-0.00919971741647,0.714161256695,0.699914460679
1385570175998416069,736744,1385570175998416069,/world,vicon/Archie/Archie,0.0566379703236,0.0359809625859,0.113737296421,-0.00252902453935,-0.00965863279132,0.71425141934,0.699817994065
1385570176008285365,736745,1385570176008285365,/world,vicon/Archie/Archie,0.0567152836597,0.0360382260113,0.113629955846,-0.00298212784401,-0.00919400919335,0.714158017022,0.699917783623
1385570176018318831,736746,1385570176018318831,/world,vicon/Archie/Archie,0.0566940461788,0.0360528897406,0.113595565676,-0.00299596841726,-0.00904116093562,0.714154324984,0.699923482739
1385570176028388792,736747,1385570176028388792,/world,vicon/Archie/Archie,0.0566283254641,0.0359809290483,0.113747505043,-0.00255393565693,-0.00966805957849,0.714252812187,0.699816351852
1385570176038252650,736748,1385570176038252650,/world,vicon/Archie/Archie,0.0566958843292,0.0360258797395,0.113630864864,-0.00293978295345,-0.00920906267331,0.714145887903,0.699930140537
1385570176048275869,736749,1385570176048275869,/world,vicon/Archie/Archie,0.0566851760969,0.0360296125029,0.113631984236,-0.00297393421934,-0.00920237412553,0.714155700658,0.699920072039
1385570176058357898,736750,1385570176058357898,/world,vicon/Archie/Archie,0.0566194508125,0.0360065180428,0.113693405694,-0.00260823350901,-0.00944447045812,0.714247072778,0.699825062514
1385570176068577673,736751,1385570176068577673,/world,vicon/Archie/Archie,0.0566994813338,0.0360420942846,0.113624691132,-0.00302583447101,-0.00917466813637,0.71413577597,0.699940542668
1385570176078544021,736752,1385570176078544021,/world,vicon/Archie/Archie,0.0566410345265,0.0359874985036,0.113708761722,-0.00262376358292,-0.00946860780798,0.714234538186,0.699837470983
1385570176088245502,736753,1385570176088245502,/world,vicon/Archie/Archie,0.0566724940579,0.0360418810482,0.113614185855,-0.00294276699253,-0.00912660687178,0.714166796452,0.699909874209
1385570176098341191,736754,1385570176098341191,/world,vicon/Archie/Archie,0.0566784198387,0.036045011128,0.113616442042,-0.00295408364524,-0.00915145444769,0.714185252304,0.699890669792
1385570176108305184,736755,1385570176108305184,/world,vicon/Archie/Archie,0.0566243579953,0.036007058313,0.113676449519,-0.00259701154542,-0.00942787534109,0.714238622846,0.699833951972
1385570176118326085,736756,1385570176118326085,/world,vicon/Archie/Archie,0.056608597008,0.0359889636531,0.113699088403,-0.00251544230391,-0.00950840469727,0.714267490491,0.699803697345
1385570176128403685,736757,1385570176128403685,/world,vicon/Archie/Archie,0.0566167309901,0.0359816482991,0.113720652215,-0.00251438283902,-0.00961919773217,0.714258766489,0.699811091229
1385570176138194378,736758,1385570176138194378,/world,vicon/Archie/Archie,0.0566235897835,0.0359831255918,0.113695460046,-0.00254297911009,-0.00945412867786,0.714262490684,0.699809436282
1385570176148610805,736759,1385570176148610805,/world,vicon/Archie/Archie,0.0566392440499,0.0359745199627,0.113735172529,-0.00252153158667,-0.00965959723011,0.714254433151,0.69981493181
1385570176158323471,736760,1385570176158323471,/world,vicon/Archie/Archie,0.0566787304638,0.0360570634871,0.113603536585,-0.00299068214002,-0.00907436591337,0.714150221745,0.699927262282
1385570176168264643,736761,1385570176168264643,/world,vicon/Archie/Archie,0.0567108107452,0.0360388646294,0.113643385801,-0.00304376237098,-0.00925677201322,0.714137055039,0.699938078906
1385570176178163852,736762,1385570176178163852,/world,vicon/Archie/Archie,0.0566227230852,0.0359785797931,0.113715695544,-0.00249630466106,-0.00957103756729,0.714246270093,0.699824570419
1385570176188296794,736763,1385570176188296794,/world,vicon/Archie/Archie,0.0566941992428,0.0360431919175,0.113628864652,-0.0030475956392,-0.00915726851564,0.714154842085,0.699921222797
1385570176198385345,736764,1385570176198385345,/world,vicon/Archie/Archie,0.0566317078817,0.0359838298127,0.113717578035,-0.00253778172553,-0.00956371171821,0.714265070838,0.699805332691
1385570176208368337,736765,1385570176208368337,/world,vicon/Archie/Archie,0.0567175704288,0.03603531423,0.113627391161,-0.00305698912368,-0.0092022115006,0.714137010472,0.699938786177
1385570176218261236,736766,1385570176218261236,/world,vicon/Archie/Archie,0.0567000661912,0.0360406086129,0.113630951541,-0.00300413844054,-0.00914717278099,0.714156225594,0.699920131035
1385570176228330421,736767,1385570176228330421,/world,vicon/Archie/Archie,0.0566984149337,0.0360352280404,0.113603622441,-0.00302402869938,-0.00914572664962,0.714129853495,0.699946971764
1385570176238172815,736768,1385570176238172815,/world,vicon/Archie/Archie,0.0566176152217,0.035982535625,0.113708938228,-0.00251763721627,-0.00956996750481,0.714247420014,0.699823335012
