%time,field.linear.x,field.linear.y,field.linear.z,field.angular.x,field.angular.y,field.angular.z
1385577024840496729,-0.0,0.0,0.0,1.0,0.0,0.0
1385577025330571844,-0.0,0.0,8.7551194932e-08,1.0,0.0,0.28369075426
1385577025831426843,0.703145329249,0.0838929924947,-0.00433371502738,1.0,0.0,0.108168326795
1385577026330523859,0.171249978289,0.0210310729622,0.018354410688,1.0,0.0,0.0272139780168
1385577026830543982,-0.26530505828,-0.0311753215943,0.0417911901938,1.0,0.0,0.00751562713854
1385577027331623700,-0.38940349851,-0.0494707505644,0.0679332035557,1.0,0.0,0.0267849300326
1385577027830617362,0.000548045760496,2.208049627e-05,0.0928781471838,1.0,0.0,0.0408474468164
1385577028330516932,0.463512458647,0.0603278390782,0.0764131807626,1.0,0.0,0.0442119389643
1385577028830536445,0.565443555632,0.0461921633346,0.0340806139913,1.0,0.0,0.0395263713967
1385577029330745235,0.312136052069,-0.0197290694376,0.0672103300282,1.0,0.0,0.0324710249707
1385577029831779832,-0.149301196295,-0.107362732705,0.226519982856,1.0,0.0,0.027927573298
1385577030330447099,-0.364324515386,-0.158064374603,0.263066731865,1.0,0.0,0.0216737432261
1385577030830976379,-0.231332537604,-0.0569919927994,0.241212395191,1.0,0.0,0.0183532994207
1385577031331776878,0.115092658989,0.0457679015483,0.10103554603,1.0,0.0,0.0167478814136
1385577031830651913,0.338406468318,0.0961649822763,0.0406545178759,1.0,0.0,0.0139951969516
1385577032331581138,0.396860139033,0.0654291252815,0.0256316810582,1.0,0.0,0.0106801113637
1385577032830807815,0.200199178267,-0.0268111131366,0.090219766031,1.0,0.0,0.00990416239034
1385577033330675978,-0.13962880992,-0.133952672151,0.14022321402,1.0,0.0,0.00958408319408
1385577033830773812,-0.323928561741,-0.153544868548,0.114456007555,1.0,0.0,0.00715272172878
1385577034330628185,-0.232077316436,-0.0725066653804,0.0733948809721,1.0,0.0,0.00488830665804
1385577034831661395,0.0470881234305,0.0439151804567,0.0159689904744,1.0,0.0,0.00509156147269
1385577035330660435,0.322675168267,0.13213963713,-0.0135785693487,1.0,0.0,0.00642570167089
1385577035830644478,0.422427332052,0.133407458938,-0.0217805023205,1.0,0.0,0.00771918565162
1385577036330628494,0.235073456805,0.020082277154,0.0286606156057,1.0,0.0,0.00885201109225
1385577036831326637,-0.137557702179,-0.136547215154,0.0872766741948,1.0,0.0,0.00994768660351
1385577037330752920,-0.367337074467,-0.203497851394,0.069424143246,1.0,0.0,0.00837433468431
1385577037830629831,-0.271091210253,-0.116354612636,0.0480213145757,1.0,0.0,0.00876538607405
1385577038330720159,0.0316816388098,0.0324221544855,0.00285926830784,1.0,0.0,0.00869798600502
1385577038831699031,0.341177118582,0.170453489711,-0.0127111835483,1.0,0.0,0.00777893016792
1385577039330711864,0.439630833018,0.19207581924,-0.0294257891401,1.0,0.0,0.0054379059387
1385577039830614432,0.251131471401,0.0800936084587,0.00732774306177,1.0,0.0,0.00702770727239
1385577040330738748,-0.131581084121,-0.129763996122,0.0736631086069,1.0,0.0,0.00970461047164
1385577040831673617,-0.37582383077,-0.243988461448,0.0423199040394,1.0,0.0,0.00923790548937
1385577041330739269,-0.278585160976,-0.169352679812,0.0276533636231,1.0,0.0,0.011735833324
1385577041831590899,0.0284445268931,0.00593053770211,-0.0107179320311,1.0,0.0,0.0134918243756
1385577042330720547,0.350854886208,0.19372602278,-0.0164705830336,1.0,0.0,0.0131482911171
1385577042832345997,0.443145767996,0.240686469082,-0.0365109085604,1.0,0.0,0.0105807025635
1385577043330701319,0.244592369808,0.11361875465,-0.00026195999904,1.0,0.0,0.0108689939163
1385577043831311783,-0.15228253057,-0.143872090174,0.0651421384732,1.0,0.0,0.0127001940704
1385577044330489007,-0.396368449185,-0.294174324695,0.0272546119542,1.0,0.0,0.0115690959954
1385577044831509854,-0.2787339123,-0.215544369746,0.0130755124237,1.0,0.0,0.0133479269221
1385577045330502268,0.0405186838631,-0.00523232508195,-0.0110966926912,1.0,0.0,0.0153628923896
1385577045830554349,0.358066446899,0.237781800111,-0.0121004822741,1.0,0.0,0.0135801147762
1385577046330601811,0.413995019747,0.294369073763,-0.0302870131894,1.0,0.0,0.0107699207742
1385577046830503179,0.191848367838,0.14162576339,-0.00398742431515,1.0,0.0,0.0123042008998
1385577047331572039,-0.17607172592,-0.164343486777,0.0522093116552,1.0,0.0,0.0149015485689
1385577047830548916,-0.369359452384,-0.353980197498,0.0170058545998,1.0,0.0,0.0120314896381
1385577048330508878,-0.222550868117,-0.263748199604,0.00183810280101,1.0,0.0,0.0138530341507
1385577048831719037,0.0808398297842,-0.0148376515137,-0.00979603581053,1.0,0.0,0.0171727421946
1385577049330502049,0.368147960923,0.270623492471,-0.00435978113039,1.0,0.0,0.0178061969813
1385577049831421108,0.379670791596,0.321129354919,-0.01792821044,1.0,0.0,0.0166377256516
1385577050331299478,0.131479362786,0.144833692575,-0.00078394748279,1.0,0.0,0.0169974737945
1385577050830321498,-0.202728619228,-0.172036942336,0.0370884647788,1.0,0.0,0.0190566975479
1385577051330263830,-0.332604876129,-0.374182736951,0.00447566463175,1.0,0.0,0.0155848002601
1385577051830381536,-0.16082208611,-0.278307553404,-0.0134132009354,1.0,0.0,0.0151007650195
1385577052331412905,0.127133116679,-0.00570087358466,-0.0136766031912,1.0,0.0,0.0171373629159
1385577052830275206,0.37398702416,0.304184881522,-0.00760772327872,1.0,0.0,0.0184058937196
1385577053330341777,0.346237771184,0.34804654162,-0.0180893796355,1.0,0.0,0.018928003152
1385577053830579510,0.0908009651806,0.14152547746,0.0071642971467,1.0,0.0,0.0183885658675
1385577054330596321,-0.221003907305,-0.206710404205,0.037663300506,1.0,0.0,0.0180053632327
1385577054830592855,-0.308331551485,-0.400099112632,0.00724270044774,1.0,0.0,0.0134487838154
1385577055331698570,-0.114815834886,-0.276436182306,-0.0154456977491,1.0,0.0,0.0124120324865
1385577055830309050,0.161121032622,0.0137039397754,-0.0128192891777,1.0,0.0,0.0143948396857
1385577056330943837,0.361808120586,0.319923412632,-0.0070144817571,1.0,0.0,0.0148488580263
1385577056830021165,0.296180912961,0.336694959212,-0.0117190943801,1.0,0.0,0.0145923533387
1385577057330096960,0.0330227272764,0.106358954994,0.0140746385233,1.0,0.0,0.0146543850351
1385577057830074061,-0.243035642744,-0.244538550884,0.0282664202462,1.0,0.0,0.0146415592268
1385577058330214096,-0.284682806857,-0.41548336192,-0.00011590761401,1.0,0.0,0.0130955265454
1385577058830509958,-0.0810509104815,-0.264560242515,-0.020727572183,1.0,0.0,0.0145512821411
1385577059330999140,0.18065323786,0.0713105856166,-3.27870809003e-05,1.0,0.0,0.0162213643786
1385577059830272804,0.336086958656,0.385627991969,-0.000287177362808,1.0,0.0,0.0134621631563
1385577060330014866,0.240515147114,0.376944299363,-0.0128513291766,1.0,0.0,0.0133711924104
1385577060829979893,-0.00921953135899,0.0992981662193,0.013283988807,1.0,0.0,0.0170467590677
1385577061329971593,-0.240978139806,-0.296592099619,0.0282839306687,1.0,0.0,0.0197659507877
1385577061830030940,-0.245838180125,-0.438837542339,4.0392824946e-05,1.0,0.0,0.0200837242819
1385577062330852772,-0.0442382509763,-0.23938144563,-0.0245657169299,1.0,0.0,0.0222823595481
1385577062830435462,0.195619671507,0.126440986019,0.00136110585132,1.0,0.0,0.0262192007404
1385577063330577002,0.303516736316,0.435871874222,-0.00981385049126,1.0,0.0,0.0256990152354
1385577063830331860,0.190757960653,0.367848092252,-0.0185126432716,1.0,0.0,0.0252909005136
1385577064330293248,-0.0376474927467,0.0363437738291,0.0167079466945,1.0,0.0,0.0265904489075
1385577064831456986,-0.224648009256,-0.357905045458,0.0254116920226,1.0,0.0,0.0251367380988
1385577065330382309,-0.209156071681,-0.437080933062,-0.000732234652188,1.0,0.0,0.0233556949822
1385577065830280766,-0.0267686697537,-0.19784651439,-0.0198292054961,1.0,0.0,0.0233249909629
1385577066331255732,0.178387564969,0.197227095937,0.0107218720941,1.0,0.0,0.0255109321893
1385577066830471779,0.246617569308,0.478986258339,-0.00656470523243,1.0,0.0,0.0245905057349
1385577067330589381,0.143025063327,0.363870648438,-0.0155816191554,1.0,0.0,0.0255432375428
1385577067830503713,-0.0493570197483,-0.0323070941574,0.0185600102698,1.0,0.0,0.0279372446258
1385577068330284537,-0.191650898488,-0.4336551403,0.0176922028367,1.0,0.0,0.02635027181
1385577068830513726,-0.168671375207,-0.456714259916,-0.00978415798825,1.0,0.0,0.0240183284466
1385577069330592367,-0.00998165056414,-0.157590186856,-0.0137822621672,1.0,0.0,0.024885321753
1385577069830624484,0.154417600927,0.283790581404,0.0168220024881,1.0,0.0,0.0270892649128
1385577070330407402,0.207501588029,0.514034136337,-0.0037307613812,1.0,0.0,0.0266331694995
1385577070831364637,0.12100379516,0.327636067022,-0.0159069770154,1.0,0.0,0.0284306007825
1385577071330469813,-0.0345478353563,-0.111316908306,0.0185412184698,1.0,0.0,0.0303019092485
1385577071830368490,-0.145520306881,-0.491161419279,0.00907591286336,1.0,0.0,0.0287941069727
1385577072330466146,-0.129348612787,-0.444986431644,-0.011832312985,1.0,0.0,0.0275021314479
1385577072830416106,-0.020200168921,-0.109205613791,-0.00508707993706,1.0,0.0,0.0283688043271
1385577073330452665,0.0993763863959,0.341049150283,0.0172200263149,1.0,0.0,0.0296248457391
1385577073830433291,0.153505890986,0.505014644885,-0.00191658347377,1.0,0.0,0.0249866920249
1385577074331390454,0.111144703608,0.285957377118,-0.0176832633894,1.0,0.0,0.0263513519885
1385577074830371655,0.00483851511743,-0.164133669491,0.0142873821617,1.0,0.0,0.0285305095229
1385577075331420732,-0.0769576613213,-0.529204431428,0.0029526092049,1.0,0.0,0.0276041669192
1385577075830439172,-0.0936343234865,-0.458878154155,-0.0154595730765,1.0,0.0,0.0281355239856
1385577076330521831,-0.0491965947486,-0.0803514833271,0.0115393332054,1.0,0.0,0.0284710312338
1385577076830413949,0.0343565973991,0.394275522988,0.0271347809949,1.0,0.0,0.0263060775904
1385577077331608573,0.104645911269,0.520886229902,0.00714234874314,1.0,0.0,0.0179029450522
1385577077830626698,0.105898264513,0.240447507021,-0.0179853234806,1.0,0.0,0.0175110709017
1385577078330435921,0.0455029732569,-0.232172721498,0.000586919258104,1.0,0.0,0.0218079376135
1385577078830582894,-0.0237596100231,-0.567438945487,-0.00954127590599,1.0,0.0,0.0256746385318
1385577079330572995,-0.0751743391302,-0.44830535093,-0.023420379312,1.0,0.0,0.0275814109644
1385577079830663718,-0.0813260392082,-0.00373645465719,0.0259842887949,1.0,0.0,0.0249648506003
1385577080331842755,-0.0209544648848,0.463421523088,0.034233876708,1.0,0.0,0.0209809083122
1385577080832227116,0.0599128633858,0.511498724735,0.0167337918207,1.0,0.0,0.0136388526813
1385577081330362383,0.112080211659,0.178936936507,-0.0154924800365,1.0,0.0,0.0151085799252
1385577081830830593,0.110283146334,-0.297140155005,0.00236342202621,1.0,0.0,0.01985073966
1385577082330678857,0.0560339448358,-0.56136528189,-0.00894569123316,1.0,0.0,0.0241381488658
1385577082831663542,-0.0402242390203,-0.376651834204,-0.014729122793,1.0,0.0,0.0260680264036
1385577083330742760,-0.119564953134,0.089802729759,0.031285629777,1.0,0.0,0.0230376271384
1385577083830677032,-0.101649679215,0.504674316301,0.0201171502637,1.0,0.0,0.0188215042064
1385577084331726648,-0.00732158668214,0.488978029921,-0.000768222486167,1.0,0.0,0.0143988467976
1385577084831717226,0.109395834765,0.137334147689,-0.012680053294,1.0,0.0,0.0156212260958
1385577085330718840,0.198925660081,-0.350025034792,0.00594637252611,1.0,0.0,0.0166400471308
1385577085830714932,0.174670381306,-0.556450001523,-0.0075523052882,1.0,0.0,0.0179445127048
1385577086330724025,0.02203246013,-0.340791522442,-0.00952357941039,1.0,0.0,0.0171116245158
1385577086830840904,-0.162602604529,0.130725363895,0.04327080916,1.0,0.0,0.0134554090045
1385577087330937615,-0.207303380201,0.515786230236,0.0151715914612,1.0,0.0,0.0144971352499
1385577087830579018,-0.0919535044784,0.451038292785,-0.00935908182496,1.0,0.0,0.0151405871258
1385577088330654664,0.105568072628,0.100954445228,-0.0154228073588,1.0,0.0,0.0144030709594
1385577088831494787,0.288494724586,-0.358260599937,0.000239498523674,1.0,0.0,0.0123681528498
1385577089330416926,0.289964272828,-0.513195848829,-0.0144527556439,1.0,0.0,0.012604315366
1385577089830501434,0.0900476752506,-0.287509014074,-0.00473224208183,1.0,0.0,0.0130054784418
1385577090330452390,-0.197895951273,0.143248895715,0.046234018355,1.0,0.0,0.0084123929888
1385577090830447735,-0.310598063174,0.452187496288,0.0154336193417,1.0,0.0,0.00768909402767
1385577091330544766,-0.164600004362,0.35318914016,-0.00897535731095,1.0,0.0,0.00797760120687
1385577091830456532,0.107733489448,0.0344229641046,-0.0277172504388,1.0,0.0,0.00684937023992
1385577092330452678,0.371044029184,-0.355898181516,-0.0212690904646,1.0,0.0,0.00604447789411
1385577092830588777,0.37722543441,-0.451739560537,-0.0339033660146,1.0,0.0,0.00972921858161
1385577093330686130,0.120455809852,-0.227947434335,0.00283483667117,1.0,0.0,0.0140393952939
1385577093832370153,-0.238376840101,0.178251029352,0.0601059493505,1.0,0.0,0.01474183682
1385577094330462221,-0.362071145062,0.415978027755,0.0253969447885,1.0,0.0,0.0205546445599
1385577094830385678,-0.172196488799,0.284799265306,0.000518907511512,1.0,0.0,0.0220694320978
1385577095330506426,0.145913492289,-0.000104770034118,-0.032505393982,1.0,0.0,0.0192282635443
1385577095830389590,0.427230751789,-0.315106688019,-0.0321401359961,1.0,0.0,0.0159147928379
1385577096330678500,0.400178907778,-0.354830335893,-0.0454440580648,1.0,0.0,0.0181155272221
1385577096831362953,0.114797406494,-0.178432559629,0.0127062617428,1.0,0.0,0.0215808470689
1385577097330414513,-0.278113627954,0.136978985313,0.0649160744495,1.0,0.0,0.0201850514254
1385577097831390242,-0.393008899358,0.328771930601,0.030830278243,1.0,0.0,0.0222268912873
1385577098330326106,-0.156014921654,0.256156534033,0.00253999963856,1.0,0.0,0.0237416299646
1385577098831373237,0.192399991927,0.0383160836881,-0.0377577436517,1.0,0.0,0.0198478453207
1385577099330397523,0.475901153551,-0.223714783604,-0.0349528228838,1.0,0.0,0.0166329877435
1385577099830815915,0.399791169596,-0.305762375833,-0.0449910112294,1.0,0.0,0.0190156506377
1385577100331494649,0.0586856215246,-0.218089073811,0.0280966112221,1.0,0.0,0.0209981622453
1385577100830470525,-0.353531488371,0.0505113431031,0.0663096042292,1.0,0.0,0.0187216402567
1385577101331402524,-0.434102357276,0.269372459772,0.0372777454167,1.0,0.0,0.0187363738551
1385577101830510030,-0.14825479189,0.281112339264,0.000989240723791,1.0,0.0,0.0194696779286
1385577102330441416,0.242501876536,0.117148227051,-0.0370043257731,1.0,0.0,0.0160069574287
1385577102830508209,0.530448586045,-0.141169895067,-0.0348290188683,1.0,0.0,0.0148548104979
1385577103330482227,0.405662017868,-0.301417319,-0.0400130306855,1.0,0.0,0.0192630332576
1385577103830417991,0.0150708328071,-0.28033602393,0.0344005764778,1.0,0.0,0.0239327788575
1385577104330507106,-0.399808999603,-0.0347247096879,0.0603459881676,1.0,0.0,0.0225518538054
1385577104831528646,-0.434158528262,0.240003591679,0.0369230278948,1.0,0.0,0.0225782482975
1385577105330406806,-0.106620087245,0.327444337086,-0.00223354703517,1.0,0.0,0.0221537703439
1385577105830590155,0.284002930098,0.210500354035,-0.0415592377106,1.0,0.0,0.0203725736831
1385577106331103025,0.524091422704,-0.0669497791645,-0.0335742056466,1.0,0.0,0.0209221289244
1385577106830496346,0.370924915668,-0.328922410046,-0.0293434082695,1.0,0.0,0.0237187173911
1385577107330613180,-0.0265129080868,-0.369077652765,0.0419509825364,1.0,0.0,0.0262436443158
1385577107830450789,-0.407088472979,-0.113858065852,0.0474482074939,1.0,0.0,0.0245708413496
1385577108330477103,-0.405968699995,0.22847679578,0.0382042281937,1.0,0.0,0.0251596614392
1385577108830466850,-0.0713307977405,0.383907978816,-0.00107409126973,1.0,0.0,0.0265601988303
1385577109330599998,0.297206701299,0.289234614507,-0.0431007704568,1.0,0.0,0.0267757184678
1385577109830392696,0.500593257682,-0.0138988484901,-0.0333017984171,1.0,0.0,0.0277826777493
1385577110330630118,0.337925434433,-0.350068666773,-0.0194919307691,1.0,0.0,0.0305928536957
1385577110830449193,-0.0417899142116,-0.440166758811,0.0322334496796,1.0,0.0,0.0318629696731
1385577111330455676,-0.382116729988,-0.184939919489,0.0406809970471,1.0,0.0,0.0283015323684
1385577111831007347,-0.380154543647,0.207175376896,0.0382819287071,1.0,0.0,0.027858276469
1385577112330389914,-0.07663568475,0.422319277112,0.00303763814152,1.0,0.0,0.0302507869068
1385577112830527280,0.270489955741,0.33219793862,-0.0380179417887,1.0,0.0,0.0308999622834
1385577113330529767,0.465816014478,0.019510093312,-0.0356212462183,1.0,0.0,0.0316114582734
1385577113830771036,0.333601169463,-0.343663704611,-0.0186144673414,1.0,0.0,0.0362054635592
1385577114331472044,-0.0190043391785,-0.468495083059,0.0224709189061,1.0,0.0,0.0381806240251
1385577114831520641,-0.356577463916,-0.230978372288,0.0362202194957,1.0,0.0,0.0332835965454
1385577115330476005,-0.387379407254,0.177203247826,0.0398091956744,1.0,0.0,0.0296590642342
1385577115830470327,-0.11679010389,0.433618729438,0.00773385768132,1.0,0.0,0.0295374855156
1385577116330574457,0.226138670404,0.363817465815,-0.0292347583404,1.0,0.0,0.0280413486217
1385577116830537736,0.445911238047,0.0426311390478,-0.0342274680454,1.0,0.0,0.0269186641628
1385577117330480302,0.355547465845,-0.336746396587,-0.0233475390625,1.0,0.0,0.0315511897567
1385577117831474480,0.0275460108565,-0.472733507088,0.00766775461228,1.0,0.0,0.0363814575286
1385577118330602754,-0.324197419487,-0.253528385615,0.0318426902404,1.0,0.0,0.0334938062752
1385577118830516606,-0.401921747026,0.167493408797,0.0332734482679,1.0,0.0,0.0312508680881
1385577119330434756,-0.157851111697,0.438423017431,0.0102364926866,1.0,0.0,0.0291359372425
1385577119830507805,0.197030762836,0.372365881768,-0.0254196790336,1.0,0.0,0.028321281002
1385577120330663207,0.453010865867,0.0548487744655,-0.0306460584378,1.0,0.0,0.0279709418878
1385577120830447420,0.392746453766,-0.332923858895,-0.0252477207968,1.0,0.0,0.0308963630317
1385577121331404464,0.0832703653029,-0.469573879069,0.0026048095102,1.0,0.0,0.0347458812645
1385577121830787736,-0.283174693624,-0.273560365713,0.0356216048258,1.0,0.0,0.0312518946701
1385577122330476341,-0.398772426052,0.141767963328,0.0368188663114,1.0,0.0,0.0300964846691
1385577122830525375,-0.1699744542,0.421474979833,0.0144189046167,1.0,0.0,0.0289195923138
1385577123330681717,0.180334602446,0.365868341954,-0.0307837721072,1.0,0.0,0.028042873267
1385577123831637364,0.449497726981,0.0701561066306,-0.0442543415264,1.0,0.0,0.0265400090848
1385577124330702040,0.418410568278,-0.325051762616,-0.0338786697624,1.0,0.0,0.029662452154
1385577124829935300,0.113862062276,-0.498417186496,0.000831418797177,1.0,0.0,0.0334637043293
1385577125330177475,-0.277959388006,-0.306430110751,0.0459961863298,1.0,0.0,0.0308682256158
1385577125830455925,-0.409368104945,0.122958094562,0.0473333579197,1.0,0.0,0.0294537245109
1385577126330159592,-0.173791641852,0.416596761897,0.0305289104123,1.0,0.0,0.0280527076814
1385577126830202628,0.179575970577,0.360537410498,-0.0268789250146,1.0,0.0,0.0275229574296
1385577127330100914,0.440208454379,0.0779523403203,-0.0570651975229,1.0,0.0,0.0262558835971
1385577127831179644,0.422863520652,-0.302615660937,-0.0464244452334,1.0,0.0,0.0304148833751
1385577128331147839,0.130146420575,-0.497694804384,-0.00458180733391,1.0,0.0,0.0352921171917
1385577128830103262,-0.262963886081,-0.32148061835,0.0498459301132,1.0,0.0,0.0339434739446
1385577129330180042,-0.411154379607,0.09782225974,0.0574324781064,1.0,0.0,0.0323552248889
1385577129830150744,-0.196941292356,0.401667089316,0.040448204834,1.0,0.0,0.0310244005735
1385577130330455940,0.150655634238,0.365098050969,-0.0186291231489,1.0,0.0,0.0304666119052
1385577130833715433,0.421854936875,0.102532003728,-0.0592748762823,1.0,0.0,0.0280516303906
1385577131331124920,0.433417029458,-0.23958593302,-0.0465974323062,1.0,0.0,0.0342250691164
1385577131831841228,0.148646858757,-0.461367903646,-0.0109031863769,1.0,0.0,0.0406645550265
1385577132330893567,-0.2479800234,-0.352413064948,0.0449729286478,1.0,0.0,0.0384789304421
1385577132830714479,-0.42250191221,0.0466204365922,0.0547838597917,1.0,0.0,0.0358355872946
1385577133331719817,-0.237157801292,0.378937304515,0.0386998510217,1.0,0.0,0.0338434352061
1385577133831823529,0.117193918154,0.400213980402,-0.0149366336074,1.0,0.0,0.03321818519
1385577134331636474,0.419074578577,0.148468624365,-0.0503702306007,1.0,0.0,0.0294512658736
1385577134830109628,0.448119031432,-0.216070784455,-0.0429630915709,1.0,0.0,0.0329459766049
1385577135330918372,0.170689249198,-0.476005179338,-0.0129859228836,1.0,0.0,0.0381746137362
1385577135830902325,-0.229519127979,-0.384342933711,0.0366843921687,1.0,0.0,0.0383758467642
1385577136331658398,-0.429436482188,0.0137917968402,0.0573065566975,1.0,0.0,0.0365398765402
1385577136830005397,-0.266903764085,0.379416445168,0.0365408211128,1.0,0.0,0.0349049882329
1385577137330662120,0.0769764960421,0.421123172961,-0.00958940024839,1.0,0.0,0.033059273139
1385577137831495432,0.385776372898,0.167166985387,-0.0451118190421,1.0,0.0,0.0290966672926
1385577138330485897,0.443137792678,-0.206755941756,-0.0414402143454,1.0,0.0,0.0325000634199
1385577138831426206,0.193007240736,-0.468713702762,-0.0245399920686,1.0,0.0,0.0388413134716
1385577139330431393,-0.198914742863,-0.384742556544,0.0233609928172,1.0,0.0,0.0397887131801
1385577139830400959,-0.431245074028,0.0138767076962,0.0438272732543,1.0,0.0,0.0384562131234
1385577140330588634,-0.300567537157,0.389727389982,0.0301830567732,1.0,0.0,0.0369467993832
1385577140830433026,0.0404607305255,0.436097755278,-0.00792264020767,1.0,0.0,0.0356919632852
1385577141330759763,0.377456126671,0.17454616301,-0.0336872426525,1.0,0.0,0.0320627110198
1385577141830440681,0.464300328216,-0.216395900921,-0.0282112448065,1.0,0.0,0.035201793308
1385577142330382872,0.213559185238,-0.472471738053,-0.0225185582854,1.0,0.0,0.038979174567
1385577142831600388,-0.179507457428,-0.38706008328,0.0216619881805,1.0,0.0,0.0386759972155
1385577143330686978,-0.432727398937,-0.00177731301921,0.0390690781856,1.0,0.0,0.0365895050219
1385577143831406913,-0.304421930464,0.378472755255,0.0302344039189,1.0,0.0,0.0373815816622
1385577144330667461,0.0313502675279,0.431044643507,-0.00880177844739,1.0,0.0,0.0366729473994
1385577144831622714,0.359340464152,0.182085631596,-0.0325867449928,1.0,0.0,0.033870188255
1385577145330661651,0.457099087352,-0.198087283706,-0.028060944155,1.0,0.0,0.037844638415
1385577145830712118,0.231007438535,-0.460884606176,-0.0258411284369,1.0,0.0,0.0428110118435
1385577146331634951,-0.150431252795,-0.401169457768,0.0225744781362,1.0,0.0,0.0421182954444
1385577146831630502,-0.434441701239,-0.0276171801084,0.0373056284501,1.0,0.0,0.0370878242712
1385577147330714729,-0.329057389362,0.367424436948,0.0321880129309,1.0,0.0,0.0374704926147
1385577147831613006,0.00975345946639,0.444981051065,-0.00563652250572,1.0,0.0,0.0374878018684
1385577148330627058,0.362289050043,0.206910317608,-0.0314975436979,1.0,0.0,0.0339536096316
1385577148830706642,0.47841112191,-0.18582039024,-0.0277819635954,1.0,0.0,0.0371483408127
1385577149330704795,0.245325006893,-0.477861320896,-0.0268986156259,1.0,0.0,0.0405292544827
1385577149830622786,-0.150608493455,-0.422845544237,0.019444888443,1.0,0.0,0.0403526669022
1385577150330945997,-0.443800747831,-0.0484271140684,0.0362448790647,1.0,0.0,0.033920885741
1385577150829936704,-0.336370825001,0.352653873986,0.0307179033117,1.0,0.0,0.0325178813635
1385577151330972338,0.0178494558745,0.43171079883,-0.00102353037157,1.0,0.0,0.0330587721613
1385577151830909560,0.361537739289,0.203033081801,-0.0319234871255,1.0,0.0,0.0296569612609
1385577152331033327,0.466633433162,-0.166510974431,-0.0302159840562,1.0,0.0,0.0340313075764
1385577152830192823,0.239975090147,-0.461318443247,-0.0274069202992,1.0,0.0,0.039188570093
1385577153330947403,-0.144433440432,-0.430448302707,0.0196408288444,1.0,0.0,0.0402633894835
1385577153829952405,-0.430213127389,-0.0641128789778,0.0402158066986,1.0,0.0,0.037632372004
1385577154331130235,-0.340354352505,0.331485176722,0.0372059623111,1.0,0.0,0.0372492854236
1385577154829908584,0.00653552442859,0.435456013727,0.00701825849793,1.0,0.0,0.0369173226638
1385577155330946259,0.357961910315,0.226411871025,-0.0281453217614,1.0,0.0,0.0324854233554
1385577155831207836,0.465643619293,-0.14318369076,-0.0353424902308,1.0,0.0,0.034016246378
1385577156330259885,0.248179413434,-0.454485424879,-0.0321250215853,1.0,0.0,0.0386500287317
1385577156831274712,-0.132263733729,-0.434454010732,0.0102129175816,1.0,0.0,0.0408760849677
1385577157330235713,-0.424459958118,-0.0879674813274,0.0318212132819,1.0,0.0,0.0376583266638
1385577157830799920,-0.34014128746,0.316733176694,0.0340089764388,1.0,0.0,0.037606060719
1385577158329985973,-0.000195509346053,0.438733970997,0.00370200847565,1.0,0.0,0.03638739631
1385577158830803338,0.36019770436,0.239402508964,-0.0292283921941,1.0,0.0,0.03119686111
1385577159331783547,0.487924130016,-0.127289492078,-0.0366708535678,1.0,0.0,0.0328994626108
1385577159830798260,0.280639342459,-0.446754058253,-0.0308000836529,1.0,0.0,0.0383267141227
1385577160330793249,-0.114512417296,-0.451161085739,0.0206012399736,1.0,0.0,0.0406593048377
1385577160830700423,-0.434001299228,-0.116268891956,0.040769829672,1.0,0.0,0.035937732867
1385577161330759174,-0.365908969082,0.284054313959,0.0432534196814,1.0,0.0,0.0334281714874
1385577161829818292,-0.0182612221739,0.416154080191,0.0116410626725,1.0,0.0,0.032519173566
1385577162330045184,0.349345383239,0.238129986049,-0.0294281748367,1.0,0.0,0.0293365541306
1385577162830449685,0.490780564586,-0.0928849233241,-0.0471507512136,1.0,0.0,0.0298644830805
1385577163330274957,0.290679366759,-0.400884982416,-0.0374947054727,1.0,0.0,0.0339383130722
1385577163830204366,-0.105124375353,-0.433726706699,0.0179142674064,1.0,0.0,0.0374504764082
1385577164330288603,-0.438707160975,-0.143054920435,0.0350789071136,1.0,0.0,0.0338087492852
1385577164830286445,-0.388356207191,0.238223834805,0.0403046486706,1.0,0.0,0.0297988361859
1385577165330444773,-0.030959383081,0.401183225734,0.0142638947563,1.0,0.0,0.0283955996091
1385577165830283558,0.355033694736,0.262882008155,-0.0245343607452,1.0,0.0,0.0260119365674
1385577166331073074,0.510632099387,-0.054469284454,-0.0455421872757,1.0,0.0,0.0256686219512
1385577166830118804,0.304300487311,-0.369538832674,-0.0371681872041,1.0,0.0,0.0312773503281
1385577167330271364,-0.0988952968914,-0.443097387442,0.0178088504867,1.0,0.0,0.0379039407002
1385577167830381308,-0.437489525395,-0.188233989497,0.0345335606171,1.0,0.0,0.035398654297
1385577168331177400,-0.388087431159,0.198441884362,0.041844661227,1.0,0.0,0.0328682890809
1385577168830451606,-0.0280879076814,0.395413537774,0.0192991456818,1.0,0.0,0.032190226348
1385577169330434542,0.351999368414,0.302585569237,-0.02175990403,1.0,0.0,0.0297776437837
1385577169830514298,0.497978860534,0.00252571528327,-0.0474893005934,1.0,0.0,0.0287941965868
1385577170330441489,0.304977979258,-0.326224384971,-0.0334759060665,1.0,0.0,0.0360705730205
1385577170830439332,-0.0753857813267,-0.470380047894,0.00628335065908,1.0,0.0,0.0413385822747
1385577171330443996,-0.395383914852,-0.249330306231,0.0135051088603,1.0,0.0,0.039295783299
1385577171830463931,-0.376109832304,0.152620873486,0.0204042671803,1.0,0.0,0.036573347412
1385577172330417819,-0.0704287731242,0.427960833136,-0.0221251746914,1.0,0.0,0.0355631221514
1385577172830449326,0.299945889101,0.373533959539,-0.0704511036688,1.0,0.0,0.0333384272113
1385577173330462254,0.495896887464,0.0742977336211,-0.103845620163,1.0,0.0,0.0303509803857
1385577173830393669,0.381315000011,-0.304640798363,-0.0906712101129,1.0,0.0,0.0372209153295
1385577174330589115,0.0249823249605,-0.518387215724,-0.0513461973777,1.0,0.0,0.0422326222041
1385577174830939760,-0.348831155,-0.318602976698,-0.0363329036313,1.0,0.0,0.0399967779708
1385577175329926925,-0.411375927066,0.0899651261215,-0.0268938144589,1.0,0.0,0.0374123562776
1385577175830959378,-0.136947968491,0.414176316762,-0.0547654909264,1.0,0.0,0.0366327983435
1385577176330027953,0.215465552649,0.415172562724,-0.110857103815,1.0,0.0,0.0365118766608
1385577176832533868,0.480029856809,0.136786913141,-0.143999025457,1.0,0.0,0.0342937876769
1385577177330718583,0.467945223568,-0.24846829829,-0.127841244093,1.0,0.0,0.0401653547697
1385577177830866132,0.145986186359,-0.530645779288,-0.0826149645565,1.0,0.0,0.044305239307
1385577178331827905,-0.276727852461,-0.411406584683,-0.053532036589,1.0,0.0,0.0410286526832
1385577178831705674,-0.451954857856,-0.0139980005054,-0.0347307385868,1.0,0.0,0.035798163856
1385577179330837637,-0.224849159784,0.382081487009,-0.0542594158257,1.0,0.0,0.0330357674145
1385577179831817076,0.117082846508,0.43521825599,-0.112737192913,1.0,0.0,0.0325973121294
