%time,field.header.seq,field.header.stamp,field.header.frame_id,field.child_frame_id,field.transform.translation.x,field.transform.translation.y,field.transform.translation.z,field.transform.rotation.x,field.transform.rotation.y,field.transform.rotation.z,field.transform.rotation.w
1385577021525488594,1342413,1385577021525488594,/world,vicon/Archie/Archie,-0.115445459086,-1.22545679709,0.102108150199,0.00714676498787,-0.00118278206905,0.628017823349,0.778165238451
1385577021535669443,1342414,1385577021535669443,/world,vicon/Archie/Archie,-0.115465351389,-1.2254302014,0.102149897724,0.00704915657361,-0.000988559372821,0.627993312558,0.778186180502
1385577021545470774,1342415,1385577021545470774,/world,vicon/Archie/Archie,-0.115462083359,-1.22543032245,0.102145054791,0.00704820632368,-0.000997898704689,0.628000261792,0.778180569132
1385577021555458961,1342416,1385577021555458961,/world,vicon/Archie/Archie,-0.115448564191,-1.22545588008,0.102105735314,0.00716092695035,-0.0011878016839,0.62801956112,0.77816369814
1385577021565432029,1342417,1385577021565432029,/world,vicon/Archie/Archie,-0.115452928321,-1.22546014538,0.102104420825,0.00715508660079,-0.00121133857606,0.628031053183,0.778154440733
1385577021575516189,1342418,1385577021575516189,/world,vicon/Archie/Archie,-0.115435837999,-1.22545522251,0.10210539873,0.00716945198028,-0.00121931803215,0.628031217451,0.778154163472
1385577021585553205,1342419,1385577021585553205,/world,vicon/Archie/Archie,-0.115446837129,-1.22545606244,0.102108542223,0.00716416482016,-0.00121745907223,0.628022657411,0.77816112362
1385577021595502912,1342420,1385577021595502912,/world,vicon/Archie/Archie,-0.115468521554,-1.22543196512,0.102150169505,0.00705364025221,-0.000987483456608,0.627999132217,0.778181444761
1385577021605492406,1342421,1385577021605492406,/world,vicon/Archie/Archie,-0.115453712688,-1.22545734308,0.102107208905,0.00716882434438,-0.00122609617618,0.628013352889,0.778168576363
1385577021615520008,1342422,1385577021615520008,/world,vicon/Archie/Archie,-0.115452538022,-1.22545346178,0.102107713914,0.00715271183543,-0.00120184232192,0.628017126927,0.778165716653
1385577021625400982,1342423,1385577021625400982,/world,vicon/Archie/Archie,-0.115445496966,-1.22545158683,0.102109267424,0.00716527915581,-0.00119856908056,0.628008766128,0.778172353578
1385577021635534710,1342424,1385577021635534710,/world,vicon/Archie/Archie,-0.115439560665,-1.22543273225,0.102101087526,0.00718819769562,-0.00121879854886,0.627980052752,0.77819528249
1385577021645420075,1342425,1385577021645420075,/world,vicon/Archie/Archie,-0.11546120878,-1.22545646615,0.102112158576,0.00714089369351,-0.00119807232618,0.628013764173,0.778168544899
1385577021655838599,1342426,1385577021655838599,/world,vicon/Archie/Archie,-0.115456245354,-1.22545228687,0.102110323316,0.00716627782453,-0.00121898126684,0.628008173335,0.778172791076
1385577021665512827,1342427,1385577021665512827,/world,vicon/Archie/Archie,-0.115453599125,-1.22545498683,0.102101788011,0.00715454965115,-0.00118930813256,0.628020069656,0.778163344083
1385577021675331034,1342428,1385577021675331034,/world,vicon/Archie/Archie,-0.115443264778,-1.22545693497,0.102107211569,0.00717271809186,-0.00118834481047,0.628018615558,0.778164351833
1385577021685437358,1342429,1385577021685437358,/world,vicon/Archie/Archie,-0.115438161443,-1.22545867846,0.102111453132,0.00716508603764,-0.00122153231218,0.62801211519,0.778169616841
1385577021695240874,1342430,1385577021695240874,/world,vicon/Archie/Archie,-0.115445103961,-1.22545644711,0.102115995756,0.00716451293684,-0.00121153822987,0.628016700667,0.778165937068
1385577021705596594,1342431,1385577021705596594,/world,vicon/Archie/Archie,-0.115458568273,-1.22545205183,0.102114622496,0.0071583407178,-0.00118890389525,0.628021800099,0.778161913271
1385577021715478485,1342432,1385577021715478485,/world,vicon/Archie/Archie,-0.115461375511,-1.22545532633,0.102111849621,0.00715281375198,-0.00119802419901,0.628013866371,0.778168353018
1385577021725373520,1342433,1385577021725373520,/world,vicon/Archie/Archie,-0.115444687173,-1.22545046605,0.102109829613,0.00715402520467,-0.00121632470384,0.628021485134,0.778162164775
1385577021735563604,1342434,1385577021735563604,/world,vicon/Archie/Archie,-0.1154881451,-1.22544582129,0.102173509856,0.00741141349982,-0.00145178343023,0.628037400419,0.778146507382
1385577021745573530,1342435,1385577021745573530,/world,vicon/Archie/Archie,-0.115468525471,-1.22543023381,0.102156983959,0.00706393891655,-0.00099864019129,0.628008688649,0.778173624885
1385577021755569814,1342436,1385577021755569814,/world,vicon/Archie/Archie,-0.115453833412,-1.22545580341,0.102121213842,0.00717178631852,-0.0011946672913,0.628020526028,0.778162808889
1385577021766337689,1342437,1385577021766337689,/world,vicon/Archie/Archie,-0.115460851629,-1.22544958316,0.102112656138,0.00717781236851,-0.0012251113756,0.628032787894,0.778152809827
1385577021775364675,1342438,1385577021775364675,/world,vicon/Archie/Archie,-0.115457988469,-1.22545241522,0.102115960974,0.00717306641552,-0.00119811516192,0.628006676671,0.778173968785
1385577021785392669,1342439,1385577021785392669,/world,vicon/Archie/Archie,-0.115455226698,-1.22545705867,0.102121229623,0.00718567887459,-0.00119600786614,0.628030870732,0.778154329803
1385577021797064432,1342440,1385577021797064432,/world,vicon/Archie/Archie,-0.11546350229,-1.22545897655,0.102117093113,0.00717741540396,-0.00121294435079,0.628016090813,0.778166308159
1385577021805616033,1342441,1385577021805616033,/world,vicon/Archie/Archie,-0.115469740536,-1.22543113418,0.102161943036,0.00706409002859,-0.000973246793446,0.628009244485,0.77817320711
1385577021815460946,1342442,1385577021815460946,/world,vicon/Archie/Archie,-0.115455701331,-1.22546093201,0.102125198217,0.00717594248734,-0.00116218319019,0.628022206431,0.778161463586
1385577021825658957,1342443,1385577021825658957,/world,vicon/Archie/Archie,-0.115450900333,-1.22545069034,0.102116539391,0.00718179290541,-0.00121191246038,0.628012405506,0.778169243577
1385577021835519563,1342444,1385577021835519563,/world,vicon/Archie/Archie,-0.115459544806,-1.22545537028,0.10212360736,0.00717963588354,-0.00119902020618,0.628027328644,0.778157239673
1385577021845364785,1342445,1385577021845364785,/world,vicon/Archie/Archie,-0.115453226639,-1.22545414272,0.102116212025,0.00717055256923,-0.00118973929424,0.628015719682,0.778166706772
1385577021855468247,1342446,1385577021855468247,/world,vicon/Archie/Archie,-0.115468160026,-1.22545828303,0.102115016965,0.00717956821655,-0.0012071299236,0.628016219664,0.778166193352
1385577021865526649,1342447,1385577021865526649,/world,vicon/Archie/Archie,-0.115448851602,-1.22545399223,0.102123344081,0.00719082377969,-0.00117756243689,0.628009712565,0.778171386215
1385577021875495046,1342448,1385577021875495046,/world,vicon/Archie/Archie,-0.115451657718,-1.22546133007,0.102116575203,0.00717274590793,-0.00120184024218,0.62803191989,0.778153593383
1385577021885488398,1342449,1385577021885488398,/world,vicon/Archie/Archie,-0.115459896445,-1.22545050219,0.102124919174,0.00716974560567,-0.00119076574122,0.628007807426,0.77817309812
1385577021895378849,1342450,1385577021895378849,/world,vicon/Archie/Archie,-0.115451860899,-1.22545509115,0.102119311019,0.00717017643477,-0.00117418705684,0.628025097202,0.778159165685
1385577021905636767,1342451,1385577021905636767,/world,vicon/Archie/Archie,-0.115473778231,-1.2254262009,0.102148795734,0.00707185560361,-0.0010132417477,0.627999130919,0.778181247374
1385577021915527412,1342452,1385577021915527412,/world,vicon/Archie/Archie,-0.115449111455,-1.2254366293,0.102112652488,0.00717799000506,-0.00123029610746,0.627981248081,0.778194394024
1385577021925559658,1342453,1385577021925559658,/world,vicon/Archie/Archie,-0.115504794113,-1.22541112125,0.102164001863,0.00691525885857,-0.00106521704554,0.628032069443,0.778156002521
1385577021935553492,1342454,1385577021935553492,/world,vicon/Archie/Archie,-0.115452800039,-1.22545454124,0.102124452397,0.00718595011995,-0.00119174381665,0.628016508108,0.778165925373
1385577021945264087,1342455,1385577021945264087,/world,vicon/Archie/Archie,-0.115495436918,-1.22540890062,0.102166470456,0.00692819420091,-0.00107153557946,0.628027490101,0.778159574646
1385577021955585560,1342456,1385577021955585560,/world,vicon/Archie/Archie,-0.115452122686,-1.22545258548,0.102121311849,0.00717709947104,-0.00119071106895,0.628015560493,0.778166773403
1385577021965527359,1342457,1385577021965527359,/world,vicon/Archie/Archie,-0.115458848296,-1.22545756149,0.102115917313,0.0071669195372,-0.001208374817,0.628013134497,0.77816879788
1385577021975365004,1342458,1385577021975365004,/world,vicon/Archie/Archie,-0.11544348839,-1.22545921881,0.10212214324,0.00717522184151,-0.00115896274264,0.628028092602,0.778156724509
1385577021985463237,1342459,1385577021985463237,/world,vicon/Archie/Archie,-0.115442712712,-1.22545270923,0.102111524554,0.00719278525206,-0.00121951368111,0.628007283003,0.778173264204
1385577021995393390,1342460,1385577021995393390,/world,vicon/Archie/Archie,-0.115442395233,-1.22546080303,0.102103154651,0.00716865691124,-0.00117567083965,0.628024564181,0.778159607627
1385577022005558201,1342461,1385577022005558201,/world,vicon/Archie/Archie,-0.115468592673,-1.22543952926,0.102151758865,0.00707969057721,-0.00100432707861,0.627998007228,0.778182094516
1385577022015463203,1342462,1385577022015463203,/world,vicon/Archie/Archie,-0.115445685415,-1.2254570364,0.102111075767,0.00714941282848,-0.00117524850693,0.628019590033,0.778163799738
1385577022025386641,1342463,1385577022025386641,/world,vicon/Archie/Archie,-0.115448098336,-1.22546051605,0.102107938055,0.00717195016406,-0.00118734618262,0.62801413836,0.778167973744
1385577022035544096,1342464,1385577022035544096,/world,vicon/Archie/Archie,-0.115492225581,-1.22545662963,0.102157723012,0.00742146727523,-0.00144763460815,0.628052625681,0.778134130824
1385577022045448792,1342465,1385577022045448792,/world,vicon/Archie/Archie,-0.115444397415,-1.22546098596,0.102110455854,0.0071819811359,-0.00118184452457,0.628019711161,0.778163392087
1385577022055561785,1342466,1385577022055561785,/world,vicon/Archie/Archie,-0.115435233241,-1.22546344999,0.102107198346,0.00717870441886,-0.0011876081734,0.628014325752,0.778167759831
1385577022065488930,1342467,1385577022065488930,/world,vicon/Archie/Archie,-0.115445989732,-1.22545605988,0.102106843069,0.00717653819826,-0.00119910343116,0.628009711374,0.778171486158
1385577022075404838,1342468,1385577022075404838,/world,vicon/Archie/Archie,-0.115483638224,-1.2254591348,0.102167480415,0.00740755969192,-0.00145149098059,0.62803990585,0.778144522498
1385577022085551795,1342469,1385577022085551795,/world,vicon/Archie/Archie,-0.115451497327,-1.22545634371,0.102112428072,0.00716832750343,-0.00116438649324,0.628013679224,0.778168412358
1385577022095476651,1342470,1385577022095476651,/world,vicon/Archie/Archie,-0.115434602003,-1.2254533638,0.102104569562,0.00717036906113,-0.00119457364761,0.628000076035,0.778179325928
1385577022105574056,1342471,1385577022105574056,/world,vicon/Archie/Archie,-0.115436762703,-1.22546264243,0.102103035475,0.00717815842083,-0.00120003512408,0.628024181289,0.778159791864
1385577022115497478,1342472,1385577022115497478,/world,vicon/Archie/Archie,-0.115441622015,-1.22545873761,0.10210880759,0.00715888828784,-0.00119291119844,0.628021272353,0.778162328022
1385577022125467283,1342473,1385577022125467283,/world,vicon/Archie/Archie,-0.115448738766,-1.22545934401,0.102104676308,0.00715846425828,-0.00117986114746,0.628002356617,0.778177617515
1385577022135511069,1342474,1385577022135511069,/world,vicon/Archie/Archie,-0.115442809329,-1.2254589249,0.102104353118,0.00716494453062,-0.00120341284421,0.628023775679,0.77816023578
1385577022145396713,1342475,1385577022145396713,/world,vicon/Archie/Archie,-0.115447756387,-1.22545546817,0.102105480206,0.00717519674024,-0.00122105639063,0.628014259612,0.778167793793
1385577022155937617,1342476,1385577022155937617,/world,vicon/Archie/Archie,-0.115468454447,-1.22543804963,0.102144682745,0.00706522442876,-0.000981035141841,0.628006237175,0.778175614012
1385577022165529225,1342477,1385577022165529225,/world,vicon/Archie/Archie,-0.115441732432,-1.22546813643,0.102109807835,0.00716078409891,-0.00120489393962,0.628015380222,0.778167047366
1385577022175370466,1342478,1385577022175370466,/world,vicon/Archie/Archie,-0.115444309141,-1.22546130922,0.102110267251,0.0071611052328,-0.00118252570312,0.628019392432,0.778163840675
1385577022185585820,1342479,1385577022185585820,/world,vicon/Archie/Archie,-0.115434233612,-1.22546216728,0.102108110683,0.00714723537947,-0.00120856165863,0.628009076278,0.778172253757
1385577022195388324,1342480,1385577022195388324,/world,vicon/Archie/Archie,-0.11543924,-1.22547146444,0.102105822631,0.00717344522329,-0.00119949703697,0.628015944252,0.778166483894
1385577022205558567,1342481,1385577022205558567,/world,vicon/Archie/Archie,-0.115459115308,-1.22544199344,0.102148013351,0.00707033908759,-0.000987615605697,0.627997361372,0.778182722136
1385577022215495399,1342482,1385577022215495399,/world,vicon/Archie/Archie,-0.115442404288,-1.22546848436,0.102111181167,0.00718419960445,-0.00119126918998,0.628018732862,0.778164146776
1385577022225405306,1342483,1385577022225405306,/world,vicon/Archie/Archie,-0.115444329343,-1.22546593783,0.102103279822,0.00717956086384,-0.00120421430279,0.628012217163,0.778169428125
1385577022235464857,1342484,1385577022235464857,/world,vicon/Archie/Archie,-0.115450168154,-1.22546127841,0.102111085472,0.00717123932048,-0.00119258934166,0.628013235072,0.778168701267
1385577022245410591,1342485,1385577022245410591,/world,vicon/Archie/Archie,-0.115431066858,-1.22546652662,0.102110418379,0.00717210598729,-0.00120883170673,0.628009722023,0.778171503376
1385577022255472642,1342486,1385577022255472642,/world,vicon/Archie/Archie,-0.11544915125,-1.22546125003,0.102109136268,0.00715645073812,-0.00117779677869,0.628009418802,0.778171939807
1385577022265578116,1342487,1385577022265578116,/world,vicon/Archie/Archie,-0.115452424571,-1.22547220623,0.102098849666,0.0071726250705,-0.00120191842291,0.628021233994,0.778162218624
1385577022275425562,1342488,1385577022275425562,/world,vicon/Archie/Archie,-0.115440476361,-1.22546324521,0.102104109747,0.00718216975313,-0.00122742378195,0.628006856315,0.778173694165
1385577022285490532,1342489,1385577022285490532,/world,vicon/Archie/Archie,-0.115488827631,-1.22546028663,0.102160606469,0.00740592019036,-0.00144976826347,0.628034948344,0.778148542488
1385577022295489070,1342490,1385577022295489070,/world,vicon/Archie/Archie,-0.115446533929,-1.22547124442,0.102102693929,0.00718894501368,-0.00120417003145,0.628002576866,0.778177121544
1385577022305575278,1342491,1385577022305575278,/world,vicon/Archie/Archie,-0.115449200628,-1.22546667797,0.102108355405,0.00715407861727,-0.00119525626246,0.628003975492,0.778176327889
1385577022321606683,1342492,1385577022321606683,/world,vicon/Archie/Archie,-0.115455714282,-1.22546945066,0.102110284625,0.00717002600593,-0.00119312960302,0.628010948064,0.778170557321
1385577022325542078,1342493,1385577022325542078,/world,vicon/Archie/Archie,-0.115452492299,-1.22547011753,0.102105843789,0.00717663666512,-0.0011832020974,0.628017319787,0.778165369293
1385577022335533723,1342494,1385577022335533723,/world,vicon/Archie/Archie,-0.115441983598,-1.22546858952,0.102102868177,0.00718233902294,-0.00120231483268,0.62802460555,0.778159407364
1385577022345414749,1342495,1385577022345414749,/world,vicon/Archie/Archie,-0.115449816193,-1.22546468599,0.10210344291,0.0071632708027,-0.00121218872973,0.628010491011,0.778170958935
1385577022355534764,1342496,1385577022355534764,/world,vicon/Archie/Archie,-0.115440173247,-1.22546362707,0.102105387066,0.00718165622412,-0.00120487193457,0.628019231495,0.778163746887
1385577022365493807,1342497,1385577022365493807,/world,vicon/Archie/Archie,-0.115455938215,-1.22546591358,0.102106786103,0.00716488278928,-0.00118953631111,0.628015597214,0.778166858144
1385577022375400967,1342498,1385577022375400967,/world,vicon/Archie/Archie,-0.115449836739,-1.22546992134,0.102102246876,0.00715643249116,-0.00119341821481,0.62801031301,0.778171194519
1385577022385525212,1342499,1385577022385525212,/world,vicon/Archie/Archie,-0.115449011445,-1.22546168552,0.102105200026,0.00717921481782,-0.00121080903199,0.628004363941,0.778175758866
1385577022395390248,1342500,1385577022395390248,/world,vicon/Archie/Archie,-0.11545250371,-1.22546162119,0.102105752949,0.00716153571812,-0.00120968818872,0.628000297279,0.778179205375
1385577022405466664,1342501,1385577022405466664,/world,vicon/Archie/Archie,-0.115435483059,-1.22546972788,0.102108445298,0.00715737450346,-0.00120050802991,0.628013455909,0.778168638515
1385577022415524402,1342502,1385577022415524402,/world,vicon/Archie/Archie,-0.115441799602,-1.22546392247,0.102109519194,0.00716628094259,-0.00123203130568,0.628011448632,0.778170127223
1385577022425436223,1342503,1385577022425436223,/world,vicon/Archie/Archie,-0.115451273762,-1.22546408176,0.10210332669,0.00715549681944,-0.00120708350003,0.628003842709,0.778176403753
1385577022435509416,1342504,1385577022435509416,/world,vicon/Archie/Archie,-0.115452394425,-1.22545706558,0.102110095907,0.00715429672065,-0.00119005566325,0.628021096795,0.778162516308
1385577022445434474,1342505,1385577022445434474,/world,vicon/Archie/Archie,-0.115442352826,-1.22546583919,0.102113260728,0.00714813498208,-0.00120235796746,0.628031587101,0.778154087636
1385577022455464948,1342506,1385577022455464948,/world,vicon/Archie/Archie,-0.115445876208,-1.22545606243,0.102103380446,0.0071759349234,-0.00121289945175,0.628018817741,0.778164121119
1385577022465568785,1342507,1385577022465568785,/world,vicon/Archie/Archie,-0.115454921796,-1.22545165063,0.102113131211,0.00716858524541,-0.00119913408301,0.628010336161,0.778171055191
1385577022475415903,1342508,1385577022475415903,/world,vicon/Archie/Archie,-0.115451399281,-1.22546462279,0.102102705076,0.00717665336353,-0.00121500302553,0.628022900079,0.778160816535
1385577022485522070,1342509,1385577022485522070,/world,vicon/Archie/Archie,-0.115444823982,-1.22546114142,0.102109793451,0.00716347745507,-0.00117481039452,0.628033275151,0.778152626234
1385577022495407875,1342510,1385577022495407875,/world,vicon/Archie/Archie,-0.115451733491,-1.22545496148,0.10210830505,0.00715961523146,-0.00121447286738,0.628026993474,0.778157670677
1385577022505532790,1342511,1385577022505532790,/world,vicon/Archie/Archie,-0.115443709977,-1.22545730976,0.102111297765,0.00716595157051,-0.00120834963842,0.628018075726,0.77816481904
1385577022515711387,1342512,1385577022515711387,/world,vicon/Archie/Archie,-0.115454405283,-1.22545340048,0.102109607012,0.00717301557214,-0.00118381364112,0.628019296001,0.778163806844
1385577022525425778,1342513,1385577022525425778,/world,vicon/Archie/Archie,-0.115454957087,-1.22544869111,0.102112957247,0.00717984179208,-0.00118667968334,0.628011587254,0.77816996083
1385577022535493590,1342514,1385577022535493590,/world,vicon/Archie/Archie,-0.115457557041,-1.22545864272,0.102112324473,0.0071500983556,-0.00120441018557,0.628027228284,0.778157584313
1385577022545428035,1342515,1385577022545428035,/world,vicon/Archie/Archie,-0.115449082137,-1.22543863773,0.102113429534,0.00715262155221,-0.00120638079653,0.627982230487,0.778193872273
1385577022555533739,1342516,1385577022555533739,/world,vicon/Archie/Archie,-0.115454445569,-1.22543391598,0.102107924275,0.00716762323927,-0.00123475178197,0.627971628848,0.778202244874
1385577022565522991,1342517,1385577022565522991,/world,vicon/Archie/Archie,-0.115448055508,-1.22542984586,0.102104361775,0.00715391070754,-0.00120231014521,0.627981785202,0.778194226056
1385577022575522515,1342518,1385577022575522515,/world,vicon/Archie/Archie,-0.11546794057,-1.22544249833,0.102115249593,0.00719098227616,-0.00119226098632,0.628005063944,0.778175113935
1385577022585533781,1342519,1385577022585533781,/world,vicon/Archie/Archie,-0.115455939939,-1.22545318089,0.102113810234,0.00716897647758,-0.00118422435594,0.62802995429,0.778155241519
1385577022595390684,1342520,1385577022595390684,/world,vicon/Archie/Archie,-0.115454193086,-1.22545537669,0.102111473208,0.00715907080503,-0.00118804611855,0.62802729654,0.778157471886
1385577022605458735,1342521,1385577022605458735,/world,vicon/Archie/Archie,-0.115462227534,-1.22545823404,0.10210738522,0.00715667225947,-0.00120659225481,0.628027648967,0.778157180979
1385577022615536719,1342522,1385577022615536719,/world,vicon/Archie/Archie,-0.115461828928,-1.22545719752,0.102107810687,0.00715302604736,-0.00119847382627,0.628014017492,0.778168228414
1385577022625397604,1342523,1385577022625397604,/world,vicon/Archie/Archie,-0.115452854546,-1.22545971326,0.102100244795,0.00716156428981,-0.00120192611641,0.628031863537,0.77815374172
1385577022635522328,1342524,1385577022635522328,/world,vicon/Archie/Archie,-0.115451331078,-1.2254538079,0.102104922785,0.00718488057079,-0.00121173424121,0.628017308555,0.778165258378
1385577022645408176,1342525,1385577022645408176,/world,vicon/Archie/Archie,-0.115455328553,-1.22546199352,0.102107130523,0.0071730257017,-0.00118778970566,0.628025061303,0.778159147754
1385577022655467489,1342526,1385577022655467489,/world,vicon/Archie/Archie,-0.11545263441,-1.22545924859,0.102106513047,0.00715583406398,-0.00119670619517,0.628016261657,0.778166394177
1385577022665615686,1342527,1385577022665615686,/world,vicon/Archie/Archie,-0.11545355657,-1.22545959469,0.102105647674,0.00716116569935,-0.00120509885239,0.628029859218,0.778155358121
1385577022675411997,1342528,1385577022675411997,/world,vicon/Archie/Archie,-0.11545083974,-1.22545397449,0.102105014048,0.00717059935279,-0.00119409636096,0.628010841409,0.778170636629
1385577022685493808,1342529,1385577022685493808,/world,vicon/Archie/Archie,-0.115453644657,-1.22545787333,0.102104317405,0.00717265467625,-0.00118495027653,0.628026589313,0.778157922297
1385577022695406041,1342530,1385577022695406041,/world,vicon/Archie/Archie,-0.115451883846,-1.22546088359,0.102103844611,0.00717587390626,-0.00119266148894,0.628008333193,0.77817261442
1385577022705480479,1342531,1385577022705480479,/world,vicon/Archie/Archie,-0.115453615778,-1.22546041939,0.102102597256,0.00716641029121,-0.00120759250327,0.628016405674,0.778166163803
1385577022715535430,1342532,1385577022715535430,/world,vicon/Archie/Archie,-0.115452853831,-1.22545882093,0.102104999918,0.00716120730462,-0.00120234760186,0.628022902085,0.778160976872
1385577022725429035,1342533,1385577022725429035,/world,vicon/Archie/Archie,-0.115460953147,-1.22546085452,0.102105401952,0.00718578843397,-0.00119915971822,0.628032938846,0.778152654808
1385577022735488931,1342534,1385577022735488931,/world,vicon/Archie/Archie,-0.115458841223,-1.22545986905,0.102101711214,0.00716283617133,-0.00120185266675,0.628014551816,0.778167701742
1385577022745457831,1342535,1385577022745457831,/world,vicon/Archie/Archie,-0.115454114432,-1.22545843945,0.102106105681,0.00716646241747,-0.00116617521481,0.628015557894,0.778166910691
1385577022755514936,1342536,1385577022755514936,/world,vicon/Archie/Archie,-0.11545778514,-1.22545815137,0.102107687071,0.00717137564075,-0.00120934398953,0.628012391933,0.778169354599
1385577022765505389,1342537,1385577022765505389,/world,vicon/Archie/Archie,-0.115447890799,-1.22545629709,0.102104396116,0.00717348353363,-0.00121470596751,0.628024780873,0.778159328308
1385577022775428279,1342538,1385577022775428279,/world,vicon/Archie/Archie,-0.115454562365,-1.22546065618,0.102106799926,0.00716341403105,-0.00118809281065,0.628025185172,0.778159135862
1385577022785467295,1342539,1385577022785467295,/world,vicon/Archie/Archie,-0.115455647925,-1.22545709706,0.102105226164,0.00717252391783,-0.00122024825383,0.628033381127,0.778152387444
1385577022795270144,1342540,1385577022795270144,/world,vicon/Archie/Archie,-0.115508585453,-1.22541025447,0.102158874171,0.00688247644943,-0.00105754630926,0.628031512501,0.778156753116
1385577022805671841,1342541,1385577022805671841,/world,vicon/Archie/Archie,-0.115463708093,-1.22545484796,0.102102876294,0.0071478327644,-0.0011668342598,0.628035160376,0.778151260563
1385577022815482687,1342542,1385577022815482687,/world,vicon/Archie/Archie,-0.115457494684,-1.22545783674,0.102101818814,0.00715374061482,-0.0011916959862,0.628020705176,0.778162834969
1385577022825312730,1342543,1385577022825312730,/world,vicon/Archie/Archie,-0.115506256142,-1.22541457922,0.102147425764,0.00689797997964,-0.00108023962831,0.628032951544,0.778155423248
1385577022835800176,1342544,1385577022835800176,/world,vicon/Archie/Archie,-0.115450896874,-1.22545847087,0.102101133256,0.00715712295105,-0.00118677999845,0.628017879079,0.778165092189
1385577022845664453,1342545,1385577022845664453,/world,vicon/Archie/Archie,-0.115478497029,-1.22543847284,0.102147073313,0.00704259294377,-0.000995090389986,0.627994885723,0.778184962066
1385577022855501272,1342546,1385577022855501272,/world,vicon/Archie/Archie,-0.115454014522,-1.22546036743,0.1021066729,0.00715917188058,-0.00119982579249,0.628024628935,0.778159605818
1385577022865612848,1342547,1385577022865612848,/world,vicon/Archie/Archie,-0.1154523914,-1.2254582982,0.102105570284,0.007170940352,-0.00121913119893,0.628011477358,0.778170081434
1385577022875418772,1342548,1385577022875418772,/world,vicon/Archie/Archie,-0.115449337728,-1.22546235479,0.102102573482,0.00716758335507,-0.00119922547139,0.628031786328,0.778153752782
1385577022885499439,1342549,1385577022885499439,/world,vicon/Archie/Archie,-0.115448613375,-1.22545456782,0.102106957913,0.00718221866121,-0.00118062108602,0.62800544283,0.778174906846
1385577022895371633,1342550,1385577022895371633,/world,vicon/Archie/Archie,-0.115451542018,-1.22545921194,0.102107986964,0.00716771155785,-0.00120276965926,0.628018117302,0.778164777921
1385577022905501898,1342551,1385577022905501898,/world,vicon/Archie/Archie,-0.115454338392,-1.22545517651,0.102104973826,0.00716967990136,-0.00119570044547,0.628018844731,0.77816418361
1385577022915527410,1342552,1385577022915527410,/world,vicon/Archie/Archie,-0.11544937719,-1.22545486191,0.102111184731,0.00714867329156,-0.001216844708,0.628022084914,0.77816172909
1385577022925368624,1342553,1385577022925368624,/world,vicon/Archie/Archie,-0.115458616314,-1.22546396344,0.102102664204,0.00715068064782,-0.00121450354931,0.628018631277,0.778164501578
1385577022935492268,1342554,1385577022935492268,/world,vicon/Archie/Archie,-0.1154476701,-1.22546616878,0.10210562164,0.00716364315968,-0.00120967583964,0.628018477754,0.778164513776
1385577022945437567,1342555,1385577022945437567,/world,vicon/Archie/Archie,-0.115448270785,-1.22546014318,0.102107522184,0.00714546349481,-0.00116583067405,0.62801881022,0.778164479529
1385577022955434147,1342556,1385577022955434147,/world,vicon/Archie/Archie,-0.115454493265,-1.22546091702,0.102105718644,0.00718120635911,-0.00118953588748,0.628015421393,0.778166849572
1385577022965488374,1342557,1385577022965488374,/world,vicon/Archie/Archie,-0.115450108072,-1.22545948222,0.102106838489,0.0071765240649,-0.00118191355764,0.628031881897,0.778153619733
1385577022975357207,1342558,1385577022975357207,/world,vicon/Archie/Archie,-0.115456070583,-1.22545945662,0.102113694373,0.00716266895249,-0.00116590191289,0.628023558641,0.778160488999
1385577022985517317,1342559,1385577022985517317,/world,vicon/Archie/Archie,-0.115494379747,-1.22545463687,0.102162604823,0.00739967234544,-0.00148072217323,0.628043879194,0.778141335567
1385577022995451493,1342560,1385577022995451493,/world,vicon/Archie/Archie,-0.115458598228,-1.22546431034,0.102109252197,0.00716196812096,-0.00120260329661,0.62801867897,0.778164377766
1385577023005539111,1342561,1385577023005539111,/world,vicon/Archie/Archie,-0.115446064077,-1.22546438827,0.102106906647,0.00715148696037,-0.00120627496606,0.628013966443,0.778168271705
1385577023015535721,1342562,1385577023015535721,/world,vicon/Archie/Archie,-0.115449515127,-1.22546197153,0.102110078351,0.0071645772792,-0.00117940187777,0.628011661243,0.778170052872
1385577023025419224,1342563,1385577023025419224,/world,vicon/Archie/Archie,-0.115495031609,-1.22546073136,0.10216426479,0.00740291126815,-0.00142524090753,0.628042920183,0.778142182381
1385577023035575630,1342564,1385577023035575630,/world,vicon/Archie/Archie,-0.115455632793,-1.22546134026,0.102110115602,0.00716010929323,-0.0011858918912,0.628006201564,0.77817449026
1385577023045379958,1342565,1385577023045379958,/world,vicon/Archie/Archie,-0.115449104567,-1.22545896778,0.102107286326,0.00715036630355,-0.00118108726304,0.628003281286,0.778176943882
1385577023055600511,1342566,1385577023055600511,/world,vicon/Archie/Archie,-0.11544693656,-1.22546500511,0.102110132785,0.00716253285904,-0.00118818156524,0.628020038424,0.77816329757
1385577023065686027,1342567,1385577023065686027,/world,vicon/Archie/Archie,-0.115460231975,-1.22544117836,0.102152651045,0.00704733677353,-0.000984423940448,0.627995410324,0.778184509333
1385577023075363684,1342568,1385577023075363684,/world,vicon/Archie/Archie,-0.115442442514,-1.22546326043,0.102104411059,0.00716404479633,-0.00119310969163,0.628027052285,0.778157615493
1385577023085487119,1342569,1385577023085487119,/world,vicon/Archie/Archie,-0.115444890739,-1.22546968634,0.10211351722,0.00717817361325,-0.00119253635437,0.628007440014,0.778173314222
1385577023095397877,1342570,1385577023095397877,/world,vicon/Archie/Archie,-0.115451447414,-1.22546049367,0.102111016372,0.0071458456925,-0.00121098613664,0.628016414582,0.778166340455
1385577023105571410,1342571,1385577023105571410,/world,vicon/Archie/Archie,-0.115440510398,-1.22546404324,0.102111214742,0.00716558729,-0.00120653933648,0.627997578433,0.778181367101
1385577023115525507,1342572,1385577023115525507,/world,vicon/Archie/Archie,-0.115440924389,-1.22546989459,0.102107492281,0.00716326301909,-0.00121186550686,0.628012160351,0.778169612293
1385577023125415547,1342573,1385577023125415547,/world,vicon/Archie/Archie,-0.115451109433,-1.22546536167,0.102108922092,0.00715046798395,-0.00121081187508,0.628008288342,0.77817285645
1385577023135621590,1342574,1385577023135621590,/world,vicon/Archie/Archie,-0.115450389385,-1.22546143002,0.102104578035,0.00718322279642,-0.00120999426268,0.628011264141,0.778170154488
1385577023145639932,1342575,1385577023145639932,/world,vicon/Archie/Archie,-0.115467855923,-1.22544183324,0.102151732967,0.00703971317873,-0.000979721248221,0.627990301222,0.778188707291
1385577023155568101,1342576,1385577023155568101,/world,vicon/Archie/Archie,-0.115457978626,-1.22546005233,0.102105813497,0.0071721663623,-0.00118533688795,0.628006391548,0.778174226752
1385577023165596765,1342577,1385577023165596765,/world,vicon/Archie/Archie,-0.115455740452,-1.22547464237,0.102108947003,0.0071620392591,-0.00120541787089,0.628027739858,0.778157060066
1385577023175383491,1342578,1385577023175383491,/world,vicon/Archie/Archie,-0.115443831298,-1.22546170999,0.102110598424,0.00715377271227,-0.00119445721666,0.628010328016,0.778171205271
1385577023185513082,1342579,1385577023185513082,/world,vicon/Archie/Archie,-0.115454955269,-1.22546213632,0.102106387317,0.00715534254656,-0.00119961680148,0.628005081299,0.778175417149
1385577023195454615,1342580,1385577023195454615,/world,vicon/Archie/Archie,-0.115448075624,-1.22546321669,0.102110999932,0.00715304840192,-0.00120064071567,0.628001318046,0.778178473676
1385577023205501902,1342581,1385577023205501902,/world,vicon/Archie/Archie,-0.115446419785,-1.2254651258,0.102110629523,0.00714825630608,-0.00119290313562,0.628007709375,0.778173371672
1385577023215511255,1342582,1385577023215511255,/world,vicon/Archie/Archie,-0.115450546592,-1.22546477267,0.102111168454,0.00716571245019,-0.00118660210375,0.628016932207,0.778165777584
1385577023225382251,1342583,1385577023225382251,/world,vicon/Archie/Archie,-0.115460608527,-1.22546377438,0.102104764417,0.00716369019945,-0.00120134508996,0.628008896137,0.778172259005
1385577023235550406,1342584,1385577023235550406,/world,vicon/Archie/Archie,-0.115447321508,-1.22546779107,0.10210537102,0.0071500467458,-0.00121419166733,0.628013243461,0.778168856102
1385577023245761062,1342585,1385577023245761062,/world,vicon/Archie/Archie,-0.115440743215,-1.22546297482,0.102110685731,0.00715243726866,-0.00119333237435,0.62800908297,0.778172224065
1385577023255526555,1342586,1385577023255526555,/world,vicon/Archie/Archie,-0.115455738927,-1.22546495268,0.102105067169,0.007163438451,-0.00120411183842,0.628010660783,0.77817083292
1385577023265616319,1342587,1385577023265616319,/world,vicon/Archie/Archie,-0.115450049894,-1.22546618845,0.102107421982,0.00715061453375,-0.00121557090345,0.628008780456,0.778172450533
1385577023275432661,1342588,1385577023275432661,/world,vicon/Archie/Archie,-0.115452462322,-1.22546502582,0.1021076227,0.00716888068109,-0.00120716110165,0.628009742649,0.778171519043
1385577023285471152,1342589,1385577023285471152,/world,vicon/Archie/Archie,-0.11543782701,-1.2254663108,0.102106413483,0.00717481946467,-0.00120378302122,0.628009067068,0.778172014758
1385577023295616195,1342590,1385577023295616195,/world,vicon/Archie/Archie,-0.115449359533,-1.22546853661,0.102104364082,0.00717096100483,-0.00121138272369,0.628012467205,0.778169294502
1385577023305521322,1342591,1385577023305521322,/world,vicon/Archie/Archie,-0.115452774074,-1.22546724134,0.102107184021,0.00717491874265,-0.00120015100938,0.628003705882,0.778176346066
1385577023315527287,1342592,1385577023315527287,/world,vicon/Archie/Archie,-0.115454990514,-1.22546991767,0.102113831225,0.00715547017131,-0.00121902088396,0.628016617945,0.778166075346
1385577023325411673,1342593,1385577023325411673,/world,vicon/Archie/Archie,-0.115443728191,-1.22546590186,0.102114726205,0.0071567960522,-0.00120024977626,0.628016475064,0.778166207644
1385577023335556920,1342594,1385577023335556920,/world,vicon/Archie/Archie,-0.115448480075,-1.22547131399,0.102112022734,0.00717902264744,-0.00118590010802,0.628017271005,0.778165382547
1385577023345423073,1342595,1385577023345423073,/world,vicon/Archie/Archie,-0.115443002796,-1.22546843495,0.10210913938,0.00716333078074,-0.00118383567068,0.627998480349,0.778180694893
1385577023355763361,1342596,1385577023355763361,/world,vicon/Archie/Archie,-0.115463482961,-1.22544535715,0.102153346444,0.00704131363411,-0.000990105705604,0.627987818623,0.778190683094
1385577023365576245,1342597,1385577023365576245,/world,vicon/Archie/Archie,-0.115443650489,-1.22547021949,0.102107675903,0.00718298268392,-0.00120896398887,0.628013892622,0.77816803702
1385577023375405302,1342598,1385577023375405302,/world,vicon/Archie/Archie,-0.115444064019,-1.22546196218,0.102106397962,0.00716946449033,-0.00122065012032,0.628004306487,0.778175879751
1385577023385614772,1342599,1385577023385614772,/world,vicon/Archie/Archie,-0.115451102786,-1.22546208579,0.102111280801,0.00717237203488,-0.00119276382096,0.628006386088,0.778174217914
1385577023395647894,1342600,1385577023395647894,/world,vicon/Archie/Archie,-0.115464415464,-1.22544301639,0.102154489485,0.00705388967224,-0.000971418534201,0.627983814599,0.778193823921
1385577023405490652,1342601,1385577023405490652,/world,vicon/Archie/Archie,-0.115441908861,-1.22546926174,0.102112837844,0.00716291041382,-0.00118332726947,0.628020612764,0.778162837968
1385577023415550136,1342602,1385577023415550136,/world,vicon/Archie/Archie,-0.115451605536,-1.22545747847,0.102117306608,0.00715771919114,-0.00117577202558,0.628014269122,0.778168016816
1385577023425465705,1342603,1385577023425465705,/world,vicon/Archie/Archie,-0.11544898281,-1.22546182472,0.102107773339,0.00717892993786,-0.00120044465347,0.628009193268,0.778171880158
1385577023435489902,1342604,1385577023435489902,/world,vicon/Archie/Archie,-0.115450138274,-1.2254602625,0.102109834697,0.00715624183777,-0.0012264903741,0.628005482037,0.778175043583
1385577023445395674,1342605,1385577023445395674,/world,vicon/Archie/Archie,-0.115448135056,-1.2254627311,0.102109456515,0.00714891735937,-0.0012080147236,0.628016674167,0.778166107363
1385577023455478480,1342606,1385577023455478480,/world,vicon/Archie/Archie,-0.115448320935,-1.22545845619,0.102111792508,0.00718113658302,-0.00120944960841,0.628006904752,0.778173692753
1385577023465531709,1342607,1385577023465531709,/world,vicon/Archie/Archie,-0.115449378761,-1.22546671056,0.102100974614,0.00715213682918,-0.00121886161837,0.628002609236,0.778177411718
1385577023475402101,1342608,1385577023475402101,/world,vicon/Archie/Archie,-0.115492847072,-1.2254603043,0.102169768644,0.00738333808092,-0.00143501720037,0.628046402384,0.778139539862
1385577023485550255,1342609,1385577023485550255,/world,vicon/Archie/Archie,-0.115479373819,-1.22545739825,0.102161881311,0.00739973025709,-0.00145183989899,0.628039567115,0.778144869732
1385577023495657254,1342610,1385577023495657254,/world,vicon/Archie/Archie,-0.115451959934,-1.2254592578,0.10210916464,0.00715729690254,-0.00119717944756,0.628011531277,0.778170197608
1385577023505493247,1342611,1385577023505493247,/world,vicon/Archie/Archie,-0.115446275174,-1.22546185457,0.102113279648,0.00715080009115,-0.00116571295931,0.628019825408,0.778163611373
1385577023515503232,1342612,1385577023515503232,/world,vicon/Archie/Archie,-0.115441680518,-1.22546303351,0.102106725774,0.0071650702885,-0.00120207162154,0.628007071925,0.778173717369
1385577023525502428,1342613,1385577023525502428,/world,vicon/Archie/Archie,-0.115456946191,-1.22546929595,0.102107028957,0.00717124017634,-0.00120586642568,0.628007063617,0.778173661368
1385577023535546843,1342614,1385577023535546843,/world,vicon/Archie/Archie,-0.115457494386,-1.22546579764,0.102110480294,0.00717041272538,-0.0011899539163,0.628013455013,0.778168535417
1385577023545383414,1342615,1385577023545383414,/world,vicon/Archie/Archie,-0.115442111946,-1.22546325489,0.102113193213,0.00715464042215,-0.00118033959476,0.628001264191,0.77817853356
1385577023555590564,1342616,1385577023555590564,/world,vicon/Archie/Archie,-0.11545002323,-1.22545985503,0.102112403278,0.0071773016892,-0.00118590879892,0.628006447631,0.778174133272
1385577023565590280,1342617,1385577023565590280,/world,vicon/Archie/Archie,-0.11545808658,-1.22546008464,0.102114341261,0.00716672204825,-0.00120352301281,0.628014894077,0.778167387164
1385577023575414303,1342618,1385577023575414303,/world,vicon/Archie/Archie,-0.115455456758,-1.22546440325,0.102112796622,0.00717454529521,-0.00120539999272,0.628009093737,0.77817199326
1385577023585569605,1342619,1385577023585569605,/world,vicon/Archie/Archie,-0.115451019386,-1.22546649125,0.10211182234,0.00717226518143,-0.00120366930647,0.62801567465,0.77816670591
1385577023595399012,1342620,1385577023595399012,/world,vicon/Archie/Archie,-0.115456487972,-1.22545953393,0.102104306322,0.00718485256784,-0.00121083331384,0.628020536423,0.778162654981
1385577023605488011,1342621,1385577023605488011,/world,vicon/Archie/Archie,-0.1155064066,-1.22545730017,0.102173511473,0.00741690309231,-0.00143592364441,0.628048954746,0.778137158934
1385577023615624052,1342622,1385577023615624052,/world,vicon/Archie/Archie,-0.115459886586,-1.22546161421,0.102118452915,0.00717412600997,-0.00117546614631,0.62800760264,0.778173246277
1385577023625404418,1342623,1385577023625404418,/world,vicon/Archie/Archie,-0.115453921001,-1.22546459919,0.102111324652,0.00716616588279,-0.00117721728975,0.628017076661,0.77816567108
1385577023635604267,1342624,1385577023635604267,/world,vicon/Archie/Archie,-0.115473247566,-1.22542883045,0.102151791593,0.00706082700809,-0.00100780888475,0.627991292925,0.778187679839
1385577023645392618,1342625,1385577023645392618,/world,vicon/Archie/Archie,-0.115467633421,-1.22545854907,0.102106644782,0.00717096904427,-0.00120721196016,0.628024943842,0.778159231619
1385577023655519761,1342626,1385577023655519761,/world,vicon/Archie/Archie,-0.115451780057,-1.22545930421,0.102109931774,0.00717677466611,-0.00119302040852,0.628020417919,0.778162852676
1385577023665584019,1342627,1385577023665584019,/world,vicon/Archie/Archie,-0.115462252966,-1.22545719985,0.102112715396,0.0071675142186,-0.00120574430024,0.628017467294,0.778165299724
1385577023675411407,1342628,1385577023675411407,/world,vicon/Archie/Archie,-0.115458728226,-1.22546018827,0.102111656301,0.00717466885408,-0.00119749462926,0.628020428699,0.778162856522
1385577023685520977,1342629,1385577023685520977,/world,vicon/Archie/Archie,-0.115465147168,-1.22545899232,0.102110027217,0.00717679857736,-0.00118659209138,0.62801034723,0.778170989779
1385577023695458242,1342630,1385577023695458242,/world,vicon/Archie/Archie,-0.115461661039,-1.22545395802,0.102112632655,0.007153326859,-0.00119757238452,0.628014149691,0.778168120346
1385577023705490747,1342631,1385577023705490747,/world,vicon/Archie/Archie,-0.115464350642,-1.22545923182,0.102111993114,0.0071613450525,-0.00121073611034,0.628027974663,0.778156868694
1385577023715579171,1342632,1385577023715579171,/world,vicon/Archie/Archie,-0.115457516415,-1.22545229213,0.1021122763,0.00717521145962,-0.00118805093843,0.628015089638,0.778167174881
1385577023725450126,1342633,1385577023725450126,/world,vicon/Archie/Archie,-0.115449861605,-1.22543934108,0.1021058236,0.0071824287342,-0.00122057060472,0.627980936759,0.778194619611
1385577023735530616,1342634,1385577023735530616,/world,vicon/Archie/Archie,-0.115455913446,-1.22545379106,0.102111969897,0.00716323677757,-0.00118206401051,0.628025752276,0.778158688984
1385577023745436300,1342635,1385577023745436300,/world,vicon/Archie/Archie,-0.115457097329,-1.22545585113,0.102113617171,0.0071596462159,-0.00117478366458,0.628022435313,0.778161410051
1385577023755662112,1342636,1385577023755662112,/world,vicon/Archie/Archie,-0.11549868471,-1.22544173264,0.102168662845,0.00741015492547,-0.00142091489572,0.62803355994,0.778149675959
1385577023765495710,1342637,1385577023765495710,/world,vicon/Archie/Archie,-0.115459788234,-1.22545059766,0.102104271149,0.00716386088137,-0.00121440198879,0.628030594684,0.778154725274
1385577023775494376,1342638,1385577023775494376,/world,vicon/Archie/Archie,-0.115462503613,-1.22545053267,0.10210685694,0.00715243162287,-0.00120673802933,0.628019398004,0.778163878778
1385577023785510683,1342639,1385577023785510683,/world,vicon/Archie/Archie,-0.115453971004,-1.22545153479,0.102103778177,0.00716794216766,-0.00121720770851,0.62802244485,0.778161260778
1385577023795377032,1342640,1385577023795377032,/world,vicon/Archie/Archie,-0.115449371304,-1.22543064458,0.102106370974,0.00717022272149,-0.00121600288007,0.627972047598,0.778201912538
1385577023805571031,1342641,1385577023805571031,/world,vicon/Archie/Archie,-0.115453797624,-1.22545743217,0.102103410045,0.00714125254256,-0.00119334885961,0.628024314288,0.778160034372
1385577023815581254,1342642,1385577023815581254,/world,vicon/Archie/Archie,-0.115451875548,-1.22544870969,0.102108260801,0.00716948166721,-0.00119510057915,0.628009938549,0.778171374024
1385577023825407780,1342643,1385577023825407780,/world,vicon/Archie/Archie,-0.115466673493,-1.22545495555,0.102105165116,0.00717102050093,-0.00119445420881,0.628027334688,0.778157321259
1385577023835482448,1342644,1385577023835482448,/world,vicon/Archie/Archie,-0.115453181256,-1.22542952803,0.102107882923,0.00716549424139,-0.00123347055242,0.627971589252,0.778202298464
1385577023845400743,1342645,1385577023845400743,/world,vicon/Archie/Archie,-0.115445136678,-1.22542913989,0.102105888482,0.00716675186018,-0.00119601703111,0.627986359352,0.77819042636
1385577023855617289,1342646,1385577023855617289,/world,vicon/Archie/Archie,-0.115464309318,-1.22543127031,0.102143726608,0.00704645833005,-0.00100008216558,0.627999886513,0.778180885013
1385577023865575871,1342647,1385577023865575871,/world,vicon/Archie/Archie,-0.115446194931,-1.22543500026,0.102104707445,0.00716093130811,-0.00122948272385,0.627984332942,0.778192063063
1385577023875515707,1342648,1385577023875515707,/world,vicon/Archie/Archie,-0.115459636818,-1.22542642165,0.102147225988,0.00704716649254,-0.000962617299357,0.628002484142,0.778178829527
1385577023885565198,1342649,1385577023885565198,/world,vicon/Archie/Archie,-0.11544806564,-1.22542840965,0.1020980328,0.00716978407502,-0.00121725238377,0.627968364725,0.778204886516
1385577023895418370,1342650,1385577023895418370,/world,vicon/Archie/Archie,-0.115433984474,-1.22543219745,0.102091666391,0.00716664801776,-0.00123015064748,0.627980641071,0.778194988628
1385577023905522503,1342651,1385577023905522503,/world,vicon/Archie/Archie,-0.11544020189,-1.22543125141,0.10209839765,0.00717058267251,-0.00123960575775,0.627971906591,0.778201985769
1385577023915746274,1342652,1385577023915746274,/world,vicon/Archie/Archie,-0.115462742325,-1.22542840221,0.102143738271,0.00705998527952,-0.000992169705443,0.628002264966,0.778178853095
1385577023925417269,1342653,1385577023925417269,/world,vicon/Archie/Archie,-0.115451798544,-1.22545992318,0.102103848655,0.00718674236189,-0.00120924342778,0.628025739251,0.778158441002
1385577023935478181,1342654,1385577023935478181,/world,vicon/Archie/Archie,-0.115449555908,-1.22543087864,0.102102154446,0.00717801796341,-0.00121793498024,0.627976140982,0.778198534469
1385577023945396041,1342655,1385577023945396041,/world,vicon/Archie/Archie,-0.11544476454,-1.2254428808,0.102101605818,0.00719427951572,-0.00123859599189,0.627993602077,0.778184260939
1385577023955532424,1342656,1385577023955532424,/world,vicon/Archie/Archie,-0.115448883354,-1.22545291926,0.102103886374,0.00716122880269,-0.00122407926454,0.628022236865,0.778161479665
1385577023965536505,1342657,1385577023965536505,/world,vicon/Archie/Archie,-0.115445953595,-1.22542789145,0.10209797546,0.00716785341163,-0.00123357998256,0.627981927946,0.778193933625
1385577023975435842,1342658,1385577023975435842,/world,vicon/Archie/Archie,-0.115455346806,-1.22545423728,0.102100910814,0.00718788007579,-0.00120414965396,0.628017343671,0.77816521411
1385577023985506010,1342659,1385577023985506010,/world,vicon/Archie/Archie,-0.115448994913,-1.22545108438,0.102103347884,0.00716912627055,-0.00120635393111,0.62801828035,0.778164627752
1385577023995487048,1342660,1385577023995487048,/world,vicon/Archie/Archie,-0.115441406035,-1.22543160135,0.102105835309,0.00717500555227,-0.00121283820774,0.627977887243,0.778197161042
1385577024005541866,1342661,1385577024005541866,/world,vicon/Archie/Archie,-0.115430194203,-1.22543761305,0.102104429151,0.00718800736628,-0.00121216344767,0.627984303691,0.778191864214
1385577024015605767,1342662,1385577024015605767,/world,vicon/Archie/Archie,-0.115457544785,-1.22545783348,0.102103434283,0.00716576961078,-0.00123006398134,0.628027722536,0.778157001134
1385577024025473655,1342663,1385577024025473655,/world,vicon/Archie/Archie,-0.115440911307,-1.22543313419,0.102108078046,0.00718758156793,-0.00121195476294,0.627974265545,0.778199968935
1385577024035493826,1342664,1385577024035493826,/world,vicon/Archie/Archie,-0.115443059466,-1.22542919386,0.102100971702,0.00717652798806,-0.00122031310811,0.627983042691,0.778192975022
1385577024045578939,1342665,1385577024045578939,/world,vicon/Archie/Archie,-0.115450059156,-1.22545460919,0.102098943375,0.00715724576422,-0.00120617875356,0.628017716596,0.778165192365
1385577024055615827,1342666,1385577024055615827,/world,vicon/Archie/Archie,-0.115459563885,-1.22543717494,0.102100493068,0.00717826028045,-0.0012288792851,0.62798819661,0.778188786448
1385577024065621575,1342667,1385577024065621575,/world,vicon/Archie/Archie,-0.115443167057,-1.22545659583,0.102106325171,0.0071679327709,-0.00118989909658,0.628016498026,0.778166102505
1385577024075512327,1342668,1385577024075512327,/world,vicon/Archie/Archie,-0.115439807233,-1.22545244794,0.102103749729,0.00716314640587,-0.00120113531444,0.628026289396,0.77815822712
1385577024085554522,1342669,1385577024085554522,/world,vicon/Archie/Archie,-0.115447947988,-1.22545418982,0.102103887685,0.00717610063363,-0.00121409993238,0.628015551653,0.77816675361
1385577024095437297,1342670,1385577024095437297,/world,vicon/Archie/Archie,-0.115448080123,-1.22545589692,0.102100640908,0.00717663704461,-0.0012027244587,0.628021230964,0.778162182834
1385577024105545083,1342671,1385577024105545083,/world,vicon/Archie/Archie,-0.115450054191,-1.22545069554,0.102097205612,0.00718330069754,-0.00123101642442,0.628003391096,0.778176474562
1385577024115519789,1342672,1385577024115519789,/world,vicon/Archie/Archie,-0.115452775052,-1.22545711355,0.102103553104,0.00717441599247,-0.00120266506345,0.628034609862,0.778151405683
1385577024125404827,1342673,1385577024125404827,/world,vicon/Archie/Archie,-0.115449292794,-1.22545921529,0.102098003856,0.00717388223318,-0.00119746425149,0.628028632252,0.778156243029
1385577024135598915,1342674,1385577024135598915,/world,vicon/Archie/Archie,-0.115451331367,-1.22545043387,0.102103873057,0.0071754602085,-0.00119173576917,0.628015381079,0.778166931748
1385577024145465323,1342675,1385577024145465323,/world,vicon/Archie/Archie,-0.115456981357,-1.22545506175,0.10210019222,0.00717963137987,-0.00120286632999,0.628031047777,0.778154232164
1385577024155626103,1342676,1385577024155626103,/world,vicon/Archie/Archie,-0.115437284711,-1.22543432712,0.102103354384,0.00719241297356,-0.00120691043974,0.627984452452,0.778191711625
1385577024165914176,1342677,1385577024165914176,/world,vicon/Archie/Archie,-0.115449126335,-1.22545830124,0.10210185609,0.00717813777139,-0.0012085138994,0.628021980622,0.778161555005
1385577024175423789,1342678,1385577024175423789,/world,vicon/Archie/Archie,-0.115452611106,-1.22545693909,0.102099625973,0.00719034180885,-0.00119781628486,0.628022140934,0.778161329493
1385577024185705109,1342679,1385577024185705109,/world,vicon/Archie/Archie,-0.115463714511,-1.22543052235,0.102143199163,0.00706805021904,-0.000994964038151,0.627995182888,0.77818449161
1385577024195435078,1342680,1385577024195435078,/world,vicon/Archie/Archie,-0.115446374075,-1.2254546853,0.102107833593,0.00717443493428,-0.00116811572917,0.628024166992,0.778159886311
1385577024205511535,1342681,1385577024205511535,/world,vicon/Archie/Archie,-0.115445943037,-1.22545257823,0.102103234204,0.00716359360485,-0.00119361917536,0.628015587587,0.77816687153
1385577024215558149,1342682,1385577024215558149,/world,vicon/Archie/Archie,-0.115452791617,-1.22545867812,0.102099880658,0.00717425740546,-0.00121882116607,0.628024022267,0.778159926982
1385577024225492696,1342683,1385577024225492696,/world,vicon/Archie/Archie,-0.115473923656,-1.22540604167,0.102139645211,0.00705952706211,-0.00101126106204,0.627953866194,0.778217888744
1385577024235787127,1342684,1385577024235787127,/world,vicon/Archie/Archie,-0.115453890701,-1.22545540844,0.102109660832,0.00716441757187,-0.00120053038444,0.628015502288,0.778166922153
1385577024245466473,1342685,1385577024245466473,/world,vicon/Archie/Archie,-0.115455997503,-1.22545282413,0.102108083528,0.0071651091577,-0.00119254618853,0.628019344597,0.778163827132
1385577024255560333,1342686,1385577024255560333,/world,vicon/Archie/Archie,-0.115498296244,-1.22545223981,0.102156735882,0.00740061869447,-0.00146428697542,0.628052318057,0.778134546521
1385577024265705571,1342687,1385577024265705571,/world,vicon/Archie/Archie,-0.115505303953,-1.22545234713,0.102163771247,0.00740137848968,-0.00144138075911,0.628047949342,0.778138108144
1385577024275603240,1342688,1385577024275603240,/world,vicon/Archie/Archie,-0.115458020897,-1.22543090327,0.1021454713,0.00704818704837,-0.000986134254113,0.62799772191,0.77818263401
1385577024285547081,1342689,1385577024285547081,/world,vicon/Archie/Archie,-0.115453038432,-1.22543557081,0.102098308608,0.00716856852986,-0.00120186565949,0.627980108085,0.778195445241
1385577024295541725,1342690,1385577024295541725,/world,vicon/Archie/Archie,-0.115447132331,-1.22543801908,0.102098784806,0.00717285971732,-0.00122774899039,0.627978914391,0.778196328568
1385577024305872711,1342691,1385577024305872711,/world,vicon/Archie/Archie,-0.11544868557,-1.22542897705,0.102100974624,0.00716880658589,-0.00122122422296,0.627974039084,0.77820031037
1385577024315697715,1342692,1385577024315697715,/world,vicon/Archie/Archie,-0.115449091797,-1.22545203785,0.102111820799,0.00715773252063,-0.00119204352431,0.628015680419,0.77816685296
1385577024325484164,1342693,1385577024325484164,/world,vicon/Archie/Archie,-0.115448519365,-1.22545534474,0.102106206871,0.0071460702216,-0.00120580588909,0.628021185487,0.778162496072
1385577024335632614,1342694,1385577024335632614,/world,vicon/Archie/Archie,-0.115439729639,-1.22545703052,0.10210450018,0.00716153163165,-0.00118486646184,0.628009223867,0.778172039651
1385577024345587962,1342695,1385577024345587962,/world,vicon/Archie/Archie,-0.115499811152,-1.22544870291,0.102156101547,0.00739637400123,-0.00145458008556,0.628044225743,0.778141136529
1385577024355587253,1342696,1385577024355587253,/world,vicon/Archie/Archie,-0.115455136113,-1.22545455091,0.102111644886,0.00715729288512,-0.00120165679252,0.628014415778,0.778167862838
1385577024365750350,1342697,1385577024365750350,/world,vicon/Archie/Archie,-0.115456552225,-1.22545257764,0.102106485466,0.0071697853127,-0.00119017457717,0.628013745512,0.778168306416
1385577024375455365,1342698,1385577024375455365,/world,vicon/Archie/Archie,-0.115443345829,-1.22543328043,0.102104185917,0.00717124249902,-0.00122176827859,0.627982907489,0.77819313057
1385577024385550796,1342699,1385577024385550796,/world,vicon/Archie/Archie,-0.115428574153,-1.22543428566,0.102110234797,0.00714678172932,-0.00120571941209,0.627978630355,0.778196832151
1385577024395545496,1342700,1385577024395545496,/world,vicon/Archie/Archie,-0.115441501093,-1.22543535512,0.102093113976,0.00716180993783,-0.00122890531076,0.627986102491,0.778190627898
1385577024405633023,1342701,1385577024405633023,/world,vicon/Archie/Archie,-0.115456197309,-1.225454889,0.102106839287,0.00715819908221,-0.00120928393842,0.628024779661,0.778159478481
1385577024415624646,1342702,1385577024415624646,/world,vicon/Archie/Archie,-0.115456663159,-1.22545539196,0.102106519943,0.00715029685526,-0.00122176000079,0.628013066245,0.778168984979
1385577024425442909,1342703,1385577024425442909,/world,vicon/Archie/Archie,-0.115448046474,-1.22545337819,0.102104951154,0.00715880630533,-0.00120348735664,0.6280082697,0.778172806193
1385577024435535695,1342704,1385577024435535695,/world,vicon/Archie/Archie,-0.115452330327,-1.2254503024,0.102102721509,0.00717109198649,-0.00121373169197,0.628019818889,0.778163356486
1385577024445544942,1342705,1385577024445544942,/world,vicon/Archie/Archie,-0.115440221619,-1.22542940662,0.102105626219,0.00716577030759,-0.00121605552017,0.627975767495,0.778198951672
1385577024455582886,1342706,1385577024455582886,/world,vicon/Archie/Archie,-0.115446268078,-1.22545261557,0.102105900881,0.00715794463782,-0.00119342845092,0.628037724399,0.778149057886
1385577024465563993,1342707,1385577024465563993,/world,vicon/Archie/Archie,-0.115452336886,-1.22545662372,0.102106041512,0.00717547356953,-0.00119814495235,0.62802229467,0.778161342155
1385577024475474350,1342708,1385577024475474350,/world,vicon/Archie/Archie,-0.115448774162,-1.22545040297,0.102104700302,0.00715985454151,-0.00119380690354,0.628020237786,0.778163152712
1385577024485608848,1342709,1385577024485608848,/world,vicon/Archie/Archie,-0.115442920191,-1.225452705,0.102101750389,0.00716454137374,-0.0012162483762,0.628018928621,0.778164131389
1385577024495575278,1342710,1385577024495575278,/world,vicon/Archie/Archie,-0.115428254213,-1.22543143657,0.102098456027,0.00716627693293,-0.00123204557946,0.627970298908,0.778203334758
1385577024505569124,1342711,1385577024505569124,/world,vicon/Archie/Archie,-0.115450236567,-1.22543494625,0.102102209271,0.00717483892199,-0.0012110177624,0.627978357959,0.778196785561
1385577024515584949,1342712,1385577024515584949,/world,vicon/Archie/Archie,-0.115448616267,-1.22543108691,0.102100922351,0.0071674112958,-0.00120716616745,0.627969717982,0.778203832079
1385577024525504172,1342713,1385577024525504172,/world,vicon/Archie/Archie,-0.115448356733,-1.22542997836,0.102103967643,0.00717054775107,-0.00122002115045,0.627975150611,0.77819939926
1385577024535610264,1342714,1385577024535610264,/world,vicon/Archie/Archie,-0.115450747165,-1.22545362062,0.102105026195,0.0071534201474,-0.00119613379866,0.628016552182,0.778166182785
1385577024545577097,1342715,1385577024545577097,/world,vicon/Archie/Archie,-0.115450145132,-1.22543569712,0.102101844544,0.00717201695803,-0.00123486178669,0.627973883839,0.778200384544
1385577024555578639,1342716,1385577024555578639,/world,vicon/Archie/Archie,-0.115447757531,-1.22545374048,0.102102525556,0.00718412063402,-0.00120866680347,0.62802419931,0.778159708939
1385577024565539241,1342717,1385577024565539241,/world,vicon/Archie/Archie,-0.115455173613,-1.22545732653,0.102105205392,0.00715977724598,-0.00120548390296,0.628037154191,0.778149482654
1385577024575623130,1342718,1385577024575623130,/world,vicon/Archie/Archie,-0.115457160693,-1.22542992997,0.102149365584,0.00705833816031,-0.001001599494,0.627994733453,0.778184933943
1385577024585587968,1342719,1385577024585587968,/world,vicon/Archie/Archie,-0.115434748237,-1.2254356764,0.102100688722,0.00716632306843,-0.00122078060049,0.627985785695,0.778190854787
1385577024595540626,1342720,1385577024595540626,/world,vicon/Archie/Archie,-0.115464933806,-1.22543172201,0.102146819002,0.00703481319167,-0.000989924025963,0.628007158743,0.778175134544
1385577024605583969,1342721,1385577024605583969,/world,vicon/Archie/Archie,-0.11544632931,-1.22545394922,0.102110193345,0.00715272227081,-0.00119834006584,0.628015460352,0.778167066962
1385577024615613433,1342722,1385577024615613433,/world,vicon/Archie/Archie,-0.115453895132,-1.2254545182,0.102110317061,0.00714708242837,-0.00120273475038,0.628017544538,0.778165429966
1385577024625542415,1342723,1385577024625542415,/world,vicon/Archie/Archie,-0.115488092354,-1.22543020534,0.102159945122,0.00742670171262,-0.00147154699864,0.628011189841,0.778167478173
1385577024635644045,1342724,1385577024635644045,/world,vicon/Archie/Archie,-0.115447647603,-1.22543219854,0.102098833364,0.00716910794281,-0.00122154778678,0.627972056535,0.778201906913
1385577024645601856,1342725,1385577024645601856,/world,vicon/Archie/Archie,-0.115442107432,-1.22545033764,0.102110939784,0.00716894291367,-0.00119074624919,0.628017034835,0.778165658673
1385577024658204387,1342726,1385577024658204387,/world,vicon/Archie/Archie,-0.115441358305,-1.22543353579,0.102110067541,0.00716812745166,-0.00122165738071,0.627983746785,0.778192482151
1385577024665598399,1342727,1385577024665598399,/world,vicon/Archie/Archie,-0.115446374818,-1.22542861124,0.102116840213,0.00717522438267,-0.00116984994435,0.627978774627,0.778196508745
1385577024675496359,1342728,1385577024675496359,/world,vicon/Archie/Archie,-0.115443894481,-1.22545340958,0.10210324294,0.00717154165173,-0.0012005566044,0.628021903519,0.778161690367
1385577024687147346,1342729,1385577024687147346,/world,vicon/Archie/Archie,-0.115453416573,-1.2254603247,0.102108408112,0.00715975237337,-0.00121731132892,0.628029706138,0.778155475665
1385577024695583067,1342730,1385577024695583067,/world,vicon/Archie/Archie,-0.115449690634,-1.22545610516,0.102101791297,0.00717867010693,-0.00120952622812,0.628022003391,0.778161530145
1385577024705593700,1342731,1385577024705593700,/world,vicon/Archie/Archie,-0.115435292433,-1.22543268509,0.102108572671,0.00716988365805,-0.00120499153429,0.627966339824,0.778206538659
1385577024715629429,1342732,1385577024715629429,/world,vicon/Archie/Archie,-0.115444365432,-1.22545146572,0.102104096377,0.00714100013958,-0.00119588233245,0.628009275283,0.778172169987
1385577024725535147,1342733,1385577024725535147,/world,vicon/Archie/Archie,-0.115448007384,-1.22545741232,0.102100205035,0.00717761425207,-0.00122693653642,0.628011626349,0.778169887397
1385577024735573755,1342734,1385577024735573755,/world,vicon/Archie/Archie,-0.115448945217,-1.22545916702,0.102102864765,0.00717344654784,-0.00121511366639,0.628028493901,0.778156331345
