%time,field.linear.x,field.linear.y,field.linear.z,field.angular.x,field.angular.y,field.angular.z
1385577024339511508,0.0,0.0,0.0,0.0,0.0,0.0
1385577024339555219,-0.115439729639,1.22545703052,-0.10210450018,0.00965831074197,0.0108392879964,-1.35797498135
1385577024349690779,-0.115499811152,1.22544870291,-0.102156101547,0.00968456234007,0.0115544942657,-1.35806467067
1385577024359559978,-0.115455136113,1.22545455091,-0.102111644886,0.00963055182102,0.0108601610947,-1.35798835854
1385577024369627609,-0.115456552225,1.22545257764,-0.102106485466,0.00966442752652,0.0108579730775,-1.35798658477
1385577024379575354,-0.115443345829,1.22543328043,-0.102104185917,0.00962744563886,0.0109085951407,-1.35790736351
1385577024389786058,-0.115428574153,1.22543428566,-0.102110234797,0.00960958756538,0.010852839505,-1.3578964223
1385577024399989929,-0.115441501093,1.22543535512,-0.102093113976,0.00960375478379,0.0109078957163,-1.35791561245
1385577024409565444,-0.115456197309,1.225454889,-0.102106839287,0.00962223765137,0.010873298575,-1.35801500256
1385577024419596627,-0.115456663159,1.22545539196,-0.102106519943,0.009594431332,0.0108826459923,-1.35798493687
1385577024429532953,-0.115448046474,1.22545337819,-0.102104951154,0.00963069404409,0.0108648351436,-1.35797256007
1385577024439586707,-0.115452330327,1.2254503024,-0.102102721509,0.00963678813803,0.0108963544562,-1.35800222018
1385577024449727665,-0.115440221619,1.22542940662,-0.102105626219,0.00962620282024,0.0108927418852,-1.35788902193
1385577024459532736,-0.115446268078,1.22545261557,-0.102105900881,0.00964157629496,0.0108484617626,-1.35804825384
1385577024469625091,-0.115452336886,1.22545662372,-0.102106041512,0.00966315085786,0.0108776294321,-1.35800855057
1385577024479631627,-0.115448774162,1.22545040297,-0.102104700302,0.00964431747324,0.0108512331438,-1.35800330469
1385577024490098712,-0.115442920191,1.225452705,-0.102101750389,0.00962344359445,0.0108920322815,-1.3579999547
1385577024499759961,-0.115428254213,1.22543143657,-0.102098456027,0.00960698552565,0.0109181990121,-1.35787498733
1385577024509553166,-0.115450236567,1.22543494625,-0.102102209271,0.00964660954949,0.0108963230081,-1.35789564619
1385577024519657812,-0.115448616267,1.22543108691,-0.102100922351,0.00964000622804,0.0108808918789,-1.35787345804
1385577024529605240,-0.115448356733,1.22542997836,-0.102103967643,0.00962866724493,0.0109049071891,-1.35788742759
1385577024539562663,-0.115450747165,1.22545362062,-0.102105026195,0.00963143112173,0.0108467269466,-1.35799385391
1385577024549612717,-0.115450145132,1.22543569712,-0.102101844544,0.00961233296579,0.0109298361369,-1.3578841876
1385577024559512949,-0.115447757531,1.22545374048,-0.102102525556,0.00966336738772,0.0109048909614,-1.35801343356
1385577024569591199,-0.115455173613,1.22545732653,-0.102105205392,0.0096292941885,0.0108695196346,-1.35804679804
1385577024579653816,-0.115457160693,1.22542992997,-0.102149365584,0.00972806838801,0.010424246446,-1.35793787258
1385577024589603068,-0.115434748237,1.2254356764,-0.102100688722,0.0096209884603,0.0109009145346,-1.35791477398
1385577024604372176,-0.115464933806,1.22543172201,-0.102146819002,0.00970594957914,0.0103766808318,-1.35796986661
1385577024609525385,-0.11544632931,1.22545394922,-0.102110193345,0.00962758897602,0.0108492707252,-1.35799105255
1385577024619700936,-0.115453895132,1.2254545182,-0.102110317061,0.00961326169519,0.0108490523474,-1.3579964314
1385577024629608702,-0.115488092354,1.22543020534,-0.102159945122,0.00971094757981,0.0116185849921,-1.35797970158
1385577024639590394,-0.115447647603,1.22543219854,-0.102098833364,0.00962455208436,0.0109054367109,-1.35787948196
1385577024649617653,-0.115442107432,1.22545033764,-0.102110939784,0.00966235240518,0.0108578455641,-1.35799504203
1385577024659527071,-0.115441358305,1.22543353579,-0.102110067541,0.00962272443212,0.0109045203534,-1.35790952964
1385577024669649079,-0.115446374818,1.22542861124,-0.102116840213,0.00969890837915,0.0108327353816,-1.35789666585
1385577024679577275,-0.115443894481,1.22545340958,-0.10210324294,0.00965400722373,0.0108764392322,-1.35800755986
1385577024689859928,-0.115453416573,1.2254603247,-0.102108408112,0.0096145036576,0.0108878044237,-1.35802767045
1385577024699676946,-0.115449690634,1.22545610516,-0.102101791297,0.00965383501333,0.0108993549239,-1.35800780688
1385577024709464823,-0.115435292433,1.22543268509,-0.102108572671,0.00964663305881,0.0108805704622,-1.35786476599
1385577024719695288,-0.115444365432,1.22545146572,-0.102104096377,0.00961251656168,0.0108306450874,-1.3579751874
1385577024729589571,-0.115448007384,1.22545741232,-0.102100205035,0.00963046930361,0.0109249978576,-1.35798116222
1385577024739531211,-0.115448945217,1.22545916702,-0.102102864765,0.00963859565807,0.0109015703788,-1.35802451139
1385577024749683723,-0.115455966749,1.22544677455,-0.102108295504,0.00969016555298,0.0108504317767,-1.3579582472
1385577024759576114,-0.11544120456,1.22545612989,-0.102109839921,0.00964903826978,0.0108188637283,-1.35799426752
1385577024769637658,-0.115448393307,1.22545757335,-0.102105424742,0.00963150839045,0.010852181323,-1.3579934845
1385577024779597248,-0.11544370029,1.22545869714,-0.102103305393,0.00967460315585,0.0108682412094,-1.35802272096
1385577024789562555,-0.11545263829,1.22545382514,-0.102106014524,0.00968263197067,0.0108027815733,-1.35799996318
1385577024799662761,-0.115450796015,1.22545603711,-0.102105512428,0.00969897329552,0.010861087727,-1.35799250837
1385577024809518432,-0.11543854131,1.22545843118,-0.102108083104,0.00966910676203,0.010847623779,-1.35801315174
1385577024819508700,-0.115441744628,1.22545818705,-0.102099872351,0.00965885828285,0.0109093447566,-1.35803125017
1385577024829581225,-0.115448394923,1.22545963911,-0.102098154353,0.0096819915671,0.0109119741137,-1.35798550935
1385577024839546072,-0.115455931352,1.22545628138,-0.102110371934,0.00967163357516,0.0108412275968,-1.35800348791
1385577024849654370,-0.115529101253,1.2254396006,-0.102054936641,0.00961078447212,0.0114465125723,-1.35776651628
1385577024859540315,-0.115525767398,1.22546331267,-0.102106117997,0.00991518001703,0.0104223870905,-1.35782864593
1385577024869549856,-0.115567118824,1.22545860285,-0.102153746797,0.00994345707001,0.0111323363876,-1.35803408799
1385577024879541274,-0.115473864324,1.22549574389,-0.102134229379,0.00968370428301,0.0107225507444,-1.35810086232
1385577024889595010,-0.115445674407,1.22541099478,-0.102169828998,0.00985940589373,0.0102846112125,-1.35690489694
1385577024899619867,-0.115434942264,1.22541913807,-0.102139427843,0.00961948007313,0.0107176132832,-1.35652157707
1385577024909522100,-0.11544487318,1.22538720167,-0.102108726774,0.00977902934525,0.0111576597189,-1.35871358046
1385577024919557265,-0.115533803059,1.2254136975,-0.102057309041,0.0095247465934,0.011412833596,-1.3583777619
1385577024929568234,-0.115339176101,1.22544731396,-0.10214648592,0.00992331977697,0.00986500948853,-1.35567158301
1385577024939554184,-0.115375859033,1.22543788323,-0.102168613287,0.0099444324333,0.00985396098571,-1.35611060125
1385577024949589226,-0.115447849101,1.22537892281,-0.102181453019,0.0094821561236,0.00954779557377,-1.35933271789
1385577024959553226,-0.115446831934,1.2254529013,-0.102180017801,0.010031658112,0.00982961126726,-1.35903280518
1385577024969564639,-0.115371412909,1.22549014925,-0.102103083469,0.0101920557374,0.0103163822606,-1.35621702828
1385577024979572097,-0.115390732553,1.22543693604,-0.102167395728,0.00983220713041,0.0103932235943,-1.35602155106
1385577024989589316,-0.115451701211,1.22543741307,-0.102174760983,0.00992158174408,0.00953642268714,-1.35918875002
1385577024999711092,-0.115284446397,1.22545839508,-0.102161121337,0.0100601473833,0.0104008190512,-1.35865736338
1385577025009548015,-0.115346778362,1.22550316149,-0.102128353992,0.00975983990214,0.01105378648,-1.35640310001
1385577025019544510,-0.115284056417,1.22548282343,-0.102087865908,0.0100399396821,0.0104396270997,-1.35660047341
1385577025029580293,-0.115478109611,1.22544546908,-0.102112044447,0.00963006302891,0.0111406912673,-1.35871018446
1385577025039545771,-0.115478429661,1.22550225676,-0.102177756654,0.0100464325311,0.0102308126908,-1.35839121064
1385577025049627746,-0.115407842112,1.22548035837,-0.102185483863,0.00955471213494,0.0103849550669,-1.35681364542
1385577025059535538,-0.115370323038,1.22548444335,-0.102116729553,0.00949043509642,0.010679432595,-1.35751963571
1385577025069564225,-0.115453565085,1.22546637685,-0.102062382537,0.00977789604152,0.0109452560473,-1.35863668758
1385577025079540156,-0.11538274516,1.22548421635,-0.10210828775,0.00979013553242,0.0104114840868,-1.35783028032
1385577025089516590,-0.115294836262,1.22548507216,-0.102071843502,0.0100246794308,0.0104601698755,-1.35666143551
1385577025099656176,-0.115400835525,1.22542355194,-0.102176617405,0.00950185692525,0.0100820918315,-1.3577686958
1385577025109620336,-0.115615932471,1.22542431431,-0.102055178638,0.0101385521096,0.0120428110757,-1.35781251057
1385577025119778675,-0.1153585009,1.22550588783,-0.102146523024,0.00970918110854,0.0105450540838,-1.35749341503
1385577025129732253,-0.115279519814,1.22548521238,-0.102082881017,0.0100156525253,0.0103461556511,-1.35690315712
1385577025139611793,-0.115366614077,1.22548960468,-0.102120507552,0.00975223986747,0.0104225449802,-1.35803914067
1385577025149771998,-0.115367262611,1.22549106038,-0.102120506003,0.0095930791137,0.0105357471867,-1.35823648901
1385577025159628432,-0.115383496261,1.22544917298,-0.10216400076,0.00962470104685,0.0103735878541,-1.35713957552
1385577025169601942,-0.115421899397,1.22546342955,-0.102127419009,0.00982674609291,0.0104449735899,-1.35713524998
1385577025179536316,-0.115375226399,1.22549665409,-0.102135600431,0.00959410633085,0.0105302767618,-1.35806028668
1385577025189573154,-0.115385536455,1.22547968935,-0.102106400106,0.00973861158363,0.0104931107782,-1.35800488013
1385577025199673210,-0.11535323364,1.22549290586,-0.102131063391,0.00960305210746,0.0106408014544,-1.35745962095
1385577025209541669,-0.115422042307,1.22548029416,-0.102078183716,0.00962073269758,0.0113711203915,-1.35738129046
1385577025219579052,-0.115587704922,1.22535265007,-0.102179748804,0.0104359904753,0.0108539362078,-1.3571942681
1385577025229603952,-0.115403600763,1.22549679235,-0.102178939265,0.00965675560939,0.0112675225205,-1.35783474133
1385577025239562078,-0.115407003474,1.22549211152,-0.102128575272,0.00976911214173,0.0105462568295,-1.35753393048
1385577025249733207,-0.115367352834,1.22548460817,-0.102129343299,0.00954968457134,0.0105511559954,-1.35767206096
1385577025259571370,-0.115453189409,1.22549644371,-0.102147728821,0.00972107798858,0.0103503053629,-1.35775568648
1385577025269596919,-0.115365192443,1.22550275861,-0.10215184761,0.00953039031109,0.0104853168599,-1.35759367036
1385577025279528477,-0.115370897343,1.22548937829,-0.102108397816,0.00959780039876,0.0104701413431,-1.35762957566
1385577025289555515,-0.115482622819,1.22549053341,-0.102107279079,0.00942691693222,0.0120775669557,-1.35781945018
1385577025299619882,-0.115506431949,1.22548835665,-0.102194642005,0.00975912263508,0.0111511443882,-1.35762428088
1385577025309540341,-0.115404440381,1.22545844366,-0.102153558215,0.00974371809504,0.00996827082311,-1.35746403777
1385577025319521309,-0.115346252809,1.22549091201,-0.102137791856,0.00958587301407,0.0105722753148,-1.35767482916
1385577025329677462,-0.115512977317,1.2254790296,-0.102092494568,0.00979893561194,0.0118611136512,-1.3577618207
1385577025339542182,-0.115335607518,1.22554856376,-0.10211640492,0.00967229626339,0.0104765937456,-1.35798416929
1385577025349629893,-0.115317807066,1.2254900995,-0.102047907783,0.0102542384181,0.0101684092846,-1.35732838855
1385577025359576079,-0.115474871093,1.22544775068,-0.102168648738,0.00974276817914,0.011729345093,-1.35775094833
1385577025369567505,-0.115390198358,1.2255081141,-0.102186018689,0.0100465498156,0.0106060657245,-1.35813325535
1385577025379487887,-0.115365714253,1.22546541954,-0.102144625025,0.00992483258289,0.0102084698635,-1.35775569178
1385577025389505785,-0.115361600519,1.22549818552,-0.102004863405,0.00989790927647,0.0110273360387,-1.35722691062
1385577025399487546,-0.115401436244,1.22543109385,-0.102180483001,0.00970763813169,0.0099803986368,-1.35752933888
1385577025409487115,-0.115396251317,1.22549701669,-0.102161371512,0.00979100573276,0.0103778774487,-1.35797941417
1385577025419489473,-0.115404997626,1.22548452942,-0.102122144704,0.00978943877588,0.0105026623339,-1.35746930936
1385577025429482186,-0.115375496503,1.22551053292,-0.102192765591,0.00988638221853,0.010377021722,-1.35772166102
1385577025439482213,-0.115420732283,1.2254863179,-0.102168763192,0.0101229177951,0.0103103318738,-1.35754374246
1385577025449499733,-0.115448250887,1.22547848453,-0.102141878903,0.0100929308192,0.0111336629386,-1.35768349982
1385577025459548727,-0.115335342351,1.22546951334,-0.10218479481,0.00991182787714,0.0105588155344,-1.35771849242
1385577025469538565,-0.115341666283,1.22549797744,-0.102158329871,0.00968952439262,0.0106534384259,-1.35768500046
1385577025479547386,-0.115385533273,1.22551346473,-0.102112685034,0.00955490482225,0.0103743565723,-1.35804660495
1385577025489617905,-0.11539314328,1.22548930563,-0.102168225665,0.00904071206748,0.0103155408512,-1.35804399229
1385577025499615928,-0.115450597847,1.22550499608,-0.102173769288,0.00864590244598,0.0111176351443,-1.3576495226
1385577025509544204,-0.115472887007,1.22544297521,-0.102247502928,0.00874917239353,0.00984827704985,-1.35792164022
1385577025519513829,-0.115377886475,1.22549274466,-0.102205240449,0.00904839580928,0.0106144081704,-1.35782493953
1385577025529514076,-0.115427436306,1.22550554051,-0.10222017504,0.0097421803519,0.00989453567059,-1.35743925937
1385577025539510984,-0.115433049933,1.22548082025,-0.102107833842,0.00968898320781,0.0113892493112,-1.35800777569
1385577025549530020,-0.115359035114,1.22551731837,-0.102172548663,0.00987612211741,0.0103582504179,-1.35824446078
1385577025559568139,-0.115337738214,1.22547871965,-0.102243439682,0.00988379857056,0.0105592471371,-1.35765322474
1385577025569525499,-0.115363493884,1.22546838308,-0.102235616329,0.0100927537803,0.0103487607036,-1.35810409321
1385577025579524068,-0.115440709512,1.22545683845,-0.10224955171,0.00973774662084,0.0095214673367,-1.35747587876
1385577025589598058,-0.115413723692,1.22547768831,-0.102209913435,0.00933452194849,0.010849746648,-1.3575844728
1385577025599557999,-0.115488223806,1.22552312944,-0.102168121867,0.00935678025667,0.0105617592666,-1.35824492353
1385577025609562225,-0.115462342606,1.22549965711,-0.10226686652,0.00879713753754,0.0093517180773,-1.35777026113
1385577025619611008,-0.11537547381,1.22548728321,-0.102232224409,0.00891609245492,0.0101099853936,-1.35773177706
1385577025629542646,-0.115477231968,1.22551021678,-0.102192408617,0.00911155402018,0.0104350780218,-1.35778143963
1385577025639541706,-0.115519787714,1.22546545308,-0.102218070592,0.0087633036002,0.0102572903561,-1.35752414978
1385577025649633322,-0.115446394998,1.22550486382,-0.10221298399,0.00919065606338,0.0112331690867,-1.35798571805
1385577025659545441,-0.115451815248,1.22560883177,-0.102250579906,0.0088656392277,0.0102554712162,-1.35821866827
1385577025669544817,-0.115383696018,1.2255251883,-0.102270339008,0.0084916186478,0.010008034033,-1.35766562009
1385577025679599311,-0.115446449109,1.22549389697,-0.102204970923,0.00859458177952,0.0103744639374,-1.35793246492
1385577025689543996,-0.115431191904,1.22554316327,-0.102226971394,0.00815801002274,0.0103421699947,-1.35798818481
1385577025699556370,-0.115415994403,1.22556799349,-0.102092283122,0.00854953889538,0.0100421815903,-1.35729688978
1385577025709613891,-0.115505874538,1.22551594408,-0.102132470327,0.00827762635726,0.0109587172501,-1.357742119
1385577025719540886,-0.11544964475,1.22557140025,-0.102235217544,0.00857689071762,0.00997326853019,-1.35800836534
1385577025729551623,-0.11542787162,1.22549444809,-0.102307206654,0.00878182924968,0.0107100709161,-1.35759969176
1385577025739541837,-0.115460221003,1.22547319899,-0.102253146727,0.00865673610609,0.00986569901179,-1.3580641195
1385577025749593106,-0.115489442774,1.22553617221,-0.102187225326,0.00884113965247,0.00953571270169,-1.35796136506
1385577025759556219,-0.115451966548,1.22551788468,-0.102255310185,0.00867340747734,0.0108329756681,-1.35759832404
1385577025769537022,-0.11552368963,1.22553726143,-0.1021804998,0.00849006151078,0.0103389298422,-1.3577846602
1385577025779728652,-0.115438668924,1.22561653385,-0.102121565333,0.00815347082949,0.0103817034539,-1.35773420207
1385577025789605084,-0.11542722892,1.22547688814,-0.102165984486,0.00829097832516,0.0107224598507,-1.35764755882
1385577025799543823,-0.115463750783,1.22559786565,-0.102132428435,0.00785407732978,0.0105054629066,-1.35819428799
1385577025809534069,-0.115368040271,1.22554434856,-0.102241692535,0.0083212145106,0.0104174393089,-1.357731243
1385577025819533983,-0.115512484906,1.2255209836,-0.102147588923,0.00854339017247,0.0110263792429,-1.35790932387
1385577025829657523,-0.115370015851,1.22556869577,-0.102243519007,0.00859590355556,0.0105664391368,-1.35795145646
1385577025839584736,-0.11555478003,1.2255851355,-0.102171729916,0.00874018684687,0.0102449368105,-1.35786631754
1385577025849575235,-0.115529536993,1.2255079253,-0.102128158768,0.00832459820233,0.0106656664111,-1.35757752282
1385577025859562392,-0.11536837164,1.22556765519,-0.102188506194,0.00822108359293,0.0102338109863,-1.35784611116
1385577025869567608,-0.115387664623,1.22556893519,-0.102151026611,0.00815317583633,0.0100978731074,-1.35775655869
1385577025879560645,-0.115500088024,1.22553865184,-0.102119133337,0.00851269812149,0.00984072186583,-1.35777425651
1385577025889544314,-0.115397633393,1.22557150482,-0.102172893639,0.00784363141377,0.0102585783584,-1.35782511008
1385577025899547975,-0.115409158167,1.22554712974,-0.10208848149,0.00820835360101,0.0101558582195,-1.35751167498
1385577025909541965,-0.11540270958,1.22562843939,-0.102175710012,0.00812217306179,0.0102834878201,-1.35809300014
1385577025919536824,-0.115518995542,1.22555685653,-0.10220122946,0.00833497182016,0.0104807304936,-1.35783502799
1385577025929549183,-0.115481986099,1.22553389467,-0.102233540003,0.00855718622928,0.010123583651,-1.35754539368
1385577025939533990,-0.115406392695,1.2255661478,-0.102186346745,0.00835034068613,0.0105000185709,-1.35792241554
1385577025949526197,-0.115467376128,1.22560455694,-0.102183103593,0.00874827534055,0.0100592311955,-1.35780579476
1385577025959514711,-0.115515432402,1.22549643187,-0.102242150083,0.00799865982337,0.00982466603266,-1.35765809577
1385577025969513633,-0.115570374528,1.22559024669,-0.102121986365,0.00827258038209,0.0108767207069,-1.35812211182
1385577025979535577,-0.115430304574,1.22560396862,-0.102147189976,0.0085058276977,0.010040854941,-1.35762101793
1385577025989510627,-0.11553880677,1.22548600586,-0.102249584691,0.00834651030436,0.0106855933591,-1.35772712213
1385577025999527083,-0.115383326603,1.22560194186,-0.10216650278,0.00885759301297,0.0101553169376,-1.35813392407
1385577026009553368,-0.115535132035,1.22549832368,-0.102284583264,0.0085888744609,0.00940840722932,-1.35782490392
1385577026019511869,-0.11559657223,1.22553823294,-0.102280892281,0.0090436985245,0.00929016258636,-1.35790964347
1385577026029556403,-0.115502609756,1.225565098,-0.102244791328,0.00864533213584,0.00979831999915,-1.35803504398
1385577026039520907,-0.115472191447,1.22557064039,-0.102160000313,0.0090121907685,0.0104268026387,-1.35769887541
1385577026049509545,-0.115424177227,1.22550014211,-0.102348092317,0.00868373901448,0.00962734888212,-1.35959464185
1385577026059508951,-0.115354309267,1.22547079099,-0.102558264583,0.00814874731626,0.00745731259927,-1.35997234453
1385577026069507481,-0.115362998188,1.22543836745,-0.102532291145,0.00793621312178,0.00891328980188,-1.35973421009
1385577026079511669,-0.115399869678,1.22554760085,-0.102215929277,0.00769529036434,0.0105566772069,-1.35993555227
1385577026089526904,-0.115510758133,1.22553007727,-0.10208862207,0.00846122345356,0.00968429358026,-1.35967032786
1385577026099518918,-0.115383725758,1.22565836427,-0.102163646777,0.0100385661202,0.0104733633026,-1.35977254666
1385577026109514396,-0.11531365971,1.22561105046,-0.10239035455,0.0116407262785,0.00976464098575,-1.36075136382
1385577026119526035,-0.115277836858,1.2256420396,-0.102620398449,0.0123042701047,0.00983975035559,-1.35963103275
1385577026129523167,-0.115179383595,1.22561107209,-0.102313355671,0.0121701792518,0.00919562574687,-1.36028803714
1385577026139518074,-0.115330009224,1.22561686977,-0.102129905641,0.0110390922632,0.00967330505547,-1.36128844726
1385577026149524243,-0.115297931303,1.22566261444,-0.102149104254,0.00918628894737,0.0109012164301,-1.36078227201
1385577026159527742,-0.115275652893,1.22568157814,-0.102355039486,0.00909273315647,0.010265735139,-1.36179340563
1385577026169515770,-0.115360111344,1.22558212158,-0.102351234604,0.00818829500414,0.0092415907769,-1.36104490137
1385577026179511747,-0.115395856088,1.22560011219,-0.10225994708,0.00840233166254,0.00894952531532,-1.36139373298
1385577026189513362,-0.115360500757,1.22551798165,-0.102282730215,0.00848954049568,0.00936118645177,-1.36127906645
1385577026199531869,-0.115392344894,1.22566953671,-0.102387050188,0.00895989333379,0.009455318758,-1.36110474553
1385577026209516007,-0.115385159262,1.22560769654,-0.102286236451,0.00968212722512,0.0100230633745,-1.36175270093
1385577026219522771,-0.115356758631,1.22570766758,-0.10214710392,0.00989474262469,0.0105739556591,-1.3612293915
1385577026229511626,-0.115431705272,1.22567364865,-0.102176742726,0.0107122119024,0.00954640904542,-1.36204769802
1385577026239512022,-0.115091248931,1.2257249693,-0.102359859062,0.0113936595845,0.00917971220615,-1.36127774641
1385577026249509947,-0.115287930482,1.22571835764,-0.102510595128,0.0103054730988,0.00829959746317,-1.36280442057
1385577026259509789,-0.11530144051,1.22570156722,-0.102366569917,0.00959919652361,0.00957410266986,-1.36266712188
1385577026269524341,-0.115155948569,1.2257707717,-0.102303641621,0.00926264318908,0.00839672484943,-1.36308268132
1385577026279526347,-0.11510353191,1.2258275696,-0.102231100927,0.00983312108549,0.00792298777502,-1.3637142822
1385577026289510982,-0.115158263239,1.22579842098,-0.102444036932,0.00941432889355,0.00893432690675,-1.3632116195
1385577026299515906,-0.115205968839,1.2258053854,-0.102406780462,0.0107194655,0.00847558739518,-1.36316673585
1385577026309521947,-0.115196821771,1.22576718992,-0.102424843918,0.0113885014597,0.00755148939855,-1.363034056
1385577026319515175,-0.115211881887,1.22574128743,-0.10238629896,0.0115766866997,0.0077309080552,-1.3626942619
1385577026329522092,-0.115245630016,1.22573774015,-0.102375315809,0.011247804597,0.00850748959064,-1.36335248311
1385577026339517883,-0.115140553042,1.22579621232,-0.102414654594,0.0102426672547,0.0089040344981,-1.36284046358
1385577026349597700,-0.115250849388,1.22575387227,-0.10239701952,0.0102133574159,0.00841077667667,-1.36322276803
1385577026359661335,-0.115232555762,1.22577918918,-0.102366214657,0.00984768922468,0.00835907262062,-1.36314534096
1385577026369569685,-0.115182282497,1.22582601263,-0.102268115612,0.0107263572257,0.00745905160383,-1.36312651186
1385577026379558698,-0.115114130672,1.22583988082,-0.102304400424,0.0104221328306,0.00845849889043,-1.36334112424
1385577026389567765,-0.115173962479,1.22578310173,-0.102402457036,0.0108804062311,0.00790635252824,-1.3638800876
1385577026399566240,-0.115198541327,1.22579540358,-0.102459732674,0.0104391988775,0.00799138913785,-1.36326929804
1385577026409543171,-0.115278382996,1.22583253044,-0.102201901216,0.0109412092816,0.00901860947403,-1.36325640874
1385577026419527159,-0.115237295909,1.22579670058,-0.102261495311,0.0107870722528,0.00805502963363,-1.36288091713
1385577026429548202,-0.11531317821,1.22582598842,-0.102382025223,0.0110256315656,0.00899610782766,-1.36331142815
1385577026439542879,-0.115162133724,1.22570577069,-0.102347254005,0.0113992807387,0.00820461724154,-1.3631318676
1385577026449529109,-0.115399744644,1.22577105936,-0.102278514437,0.0110412495705,0.00957371570362,-1.36218969075
1385577026459559647,-0.115340587731,1.22572359781,-0.102208530973,0.0112067152545,0.00842620404565,-1.36287746694
1385577026469554749,-0.115432614875,1.2257359882,-0.102306454597,0.00988358756386,0.00954631697536,-1.36221880671
1385577026479557423,-0.115403448228,1.2257245652,-0.102293144161,0.00887696979048,0.0093332957113,-1.36209051758
1385577026489541405,-0.115449538218,1.22564421532,-0.10222850417,0.00834337133784,0.00915749793427,-1.36224483918
1385577026499538632,-0.115280663398,1.22569681242,-0.102396832517,0.00898159825258,0.00920727007074,-1.36118399579
1385577026509552551,-0.115331960977,1.22563073828,-0.102399221242,0.00938983494176,0.00946469303117,-1.36184334408
1385577026519535102,-0.115382030554,1.22563081271,-0.102410899149,0.00904008015667,0.00923528611539,-1.36165143487
1385577026529536037,-0.115390819437,1.22550440729,-0.102334009544,0.0096127327303,0.00922172738894,-1.36194011973
1385577026539551502,-0.115404014537,1.22556942359,-0.10225819201,0.00961866704477,0.00970085525978,-1.36203068166
1385577026549537851,-0.115370351971,1.22559682966,-0.102326196862,0.00970808994707,0.0094067132512,-1.36186948058
1385577026559538656,-0.115387593894,1.22552718349,-0.102419189498,0.00934531648949,0.00939506848527,-1.3618250323
1385577026569543901,-0.115294312524,1.22565372897,-0.102436205212,0.00999015089477,0.00949198674082,-1.36186727001
1385577026579534752,-0.115419225384,1.22558757665,-0.102346862819,0.00930903969799,0.00966777971166,-1.36127132716
1385577026589520541,-0.115378731578,1.22566463807,-0.102412590391,0.00928896097209,0.00967830847209,-1.36141338071
1385577026599543123,-0.115275585513,1.22564414187,-0.102223373466,0.00966847909292,0.00924700684007,-1.36106651311
1385577026609539005,-0.115238171721,1.22567848533,-0.102298104946,0.0104945343037,0.00918152684168,-1.36118686003
1385577026619525078,-0.115378942301,1.22562875958,-0.102324719508,0.0102173490322,0.00960834904907,-1.36064179281
1385577026629547591,-0.115360842189,1.22562337379,-0.102415713455,0.0103679209683,0.00995131740986,-1.36073685712
1385577026639539852,-0.115304966145,1.22568513204,-0.102412516656,0.010137867937,0.0102717846777,-1.36044323287
1385577026649535245,-0.115375849802,1.22565276647,-0.102289711595,0.0103706029319,0.00887877594663,-1.36029679108
1385577026659528414,-0.115210720323,1.22576420321,-0.102493482494,0.0110363156856,0.00883806217091,-1.36008062837
1385577026669539359,-0.115357120938,1.22574721494,-0.102499591368,0.0101704757943,0.00938598847743,-1.35974040044
1385577026679542565,-0.115183151389,1.22563048076,-0.102636978255,0.00986336589271,0.00868028901283,-1.3598354347
1385577026689541855,-0.115230535227,1.22565721986,-0.102680766518,0.0103958459504,0.00792300922432,-1.36003220263
1385577026699555599,-0.115267276184,1.22563181116,-0.102263092109,0.0103974543169,0.0091570308031,-1.36045781163
1385577026709555289,-0.115158067454,1.22573411111,-0.102352783511,0.0113685144127,0.0102618856408,-1.36024859789
1385577026719526454,-0.115108830622,1.22565817066,-0.102462983193,0.011202931376,0.00864683949916,-1.36001235705
1385577026729546968,-0.115058724512,1.22585627166,-0.102492883406,0.0108320580029,0.00868754457175,-1.36036312547
1385577026739562683,-0.114906437362,1.22576925461,-0.102324957417,0.0109889690234,0.00972799385612,-1.36055806291
1385577026749529683,-0.114498257342,1.22603653816,-0.102637737984,0.01120326902,0.0069689749317,-1.36088606039
1385577026759537705,-0.114824438637,1.22591009071,-0.102712796296,0.00961330313977,0.00666723130187,-1.36098831973
1385577026769547684,-0.114695571034,1.22610004601,-0.102615230096,0.00859322177792,0.00783634759665,-1.36107301653
1385577026779535853,-0.114705651798,1.22615016362,-0.102369070762,0.0089161717154,0.00914275276009,-1.36072348425
1385577026789548155,-0.114338974971,1.22639790426,-0.102495487403,0.00984655134058,0.00832773660875,-1.36109036894
1385577026799538583,-0.114308005334,1.22643319192,-0.102582488939,0.0107754649813,0.00738396882756,-1.36110513767
1385577026809521428,-0.11444990026,1.22653801967,-0.102556872112,0.0104761812222,0.00800585174082,-1.36233947009
1385577026819540138,-0.1143495598,1.22661279438,-0.10272426461,0.0116468520411,0.00590139105953,-1.36224532596
1385577026829521471,-0.114415027894,1.22678502692,-0.102797357975,0.010149988753,0.00709725141854,-1.3630927485
1385577026839521291,-0.114291281449,1.22692761085,-0.102572229921,0.00894609977121,0.00875605711939,-1.36259721548
1385577026849517154,-0.114147446674,1.22723045794,-0.102383203753,0.00959819830923,0.00743708435825,-1.36195782018
1385577026859514429,-0.114086425106,1.22740050028,-0.102259836072,0.00924570276845,0.00896392054287,-1.36202208678
1385577026869530866,-0.113920929847,1.22761813529,-0.102342476267,0.010764711195,0.00777848822724,-1.36267060149
1385577026879511828,-0.113833537059,1.22788795177,-0.102525403731,0.0099724991497,0.00961721383352,-1.3625397955
1385577026889528416,-0.113757718719,1.22804170843,-0.10274085808,0.0111498893126,0.00750808951687,-1.36333363661
1385577026899513825,-0.113512569064,1.22836193604,-0.102462129341,0.0116997811358,0.0065124027046,-1.36341287868
1385577026909511013,-0.113540382342,1.22847107665,-0.102335999689,0.0120880417896,0.00670467855837,-1.36324258045
1385577026919508014,-0.113461275584,1.22883987086,-0.102629220321,0.011403220346,0.00767778705857,-1.36280551992
1385577026929519567,-0.113331252728,1.22898967027,-0.102822371274,0.0113973846242,0.00806349117159,-1.36260817123
1385577026939510876,-0.113197896108,1.22939785539,-0.102627891428,0.0109477834192,0.00787408114345,-1.36231793636
1385577026949541325,-0.113096381232,1.22967717503,-0.102397601129,0.0112116244626,0.00730463616691,-1.36225593172
1385577026959569238,-0.112882357064,1.2300945041,-0.102375428365,0.0112400383263,0.00889431300584,-1.36224698229
1385577026969563842,-0.112836305544,1.23036755487,-0.102547427122,0.0111143418288,0.00765300461679,-1.36261690132
1385577026979533071,-0.112960725911,1.23060952749,-0.10248858878,0.0116409747974,0.0109447930887,-1.36244384242
1385577026989511735,-0.112754965453,1.23104264244,-0.102632921388,0.013098184215,0.0122395654708,-1.3626829705
1385577026999512463,-0.112618377249,1.23140437732,-0.102569886617,0.0150478560413,0.0133366109327,-1.36089599749
1385577027009513769,-0.112533911099,1.23161061312,-0.102658164878,0.0148451621077,0.0143533269654,-1.36074639019
1385577027019511853,-0.112520015943,1.23196273294,-0.102738297105,0.0159515605321,0.0134053614664,-1.35994474683
1385577027029516648,-0.112278798169,1.23236249957,-0.103038876873,0.0152725946406,0.0143304896399,-1.35913512579
1385577027039514327,-0.112499095292,1.23267331008,-0.103083766794,0.0152321342186,0.0160744222189,-1.35919677428
1385577027049515194,-0.112241386085,1.23309545324,-0.103371323553,0.0142177448771,0.0184494003714,-1.35831372356
1385577027059525812,-0.112291016257,1.23360100458,-0.103650358521,0.0137923959494,0.0191713969683,-1.35852641054
1385577027069510748,-0.11227997494,1.23398435105,-0.103876049944,0.01385027685,0.0224500283074,-1.35724138259
1385577027079519098,-0.112312453175,1.23453966518,-0.104285090089,0.0144242978409,0.0250510801728,-1.35718614081
1385577027089511933,-0.112392583365,1.2351233912,-0.104661123785,0.0151416717505,0.0282719291323,-1.35621011733
1385577027099510076,-0.112442383723,1.23576700142,-0.104946063518,0.0156035404794,0.0318413373177,-1.35546957533
1385577027109511261,-0.112131607253,1.23647978165,-0.105681962185,0.0170018350129,0.0361279587239,-1.3546936118
1385577027119509459,-0.11244017247,1.23728640702,-0.105907548627,0.0164534474505,0.0392183743214,-1.35437053484
1385577027129514390,-0.112531742134,1.2380659753,-0.106503200968,0.0166477018418,0.04409099053,-1.35468624715
1385577027139511419,-0.112694741264,1.23894584484,-0.107081029081,0.0173975685935,0.0490421015815,-1.35428504184
1385577027149541556,-0.11284352061,1.23977396624,-0.10776695803,0.0167838870357,0.0523614335418,-1.35447083846
1385577027159514611,-0.113161451388,1.24070886896,-0.108481604533,0.0187797017988,0.056018476855,-1.35474728398
1385577027169513626,-0.113364768361,1.2417092055,-0.10918150278,0.0198881270616,0.0609917859916,-1.35518140948
1385577027179537541,-0.113712436564,1.24282200557,-0.109785040435,0.0223371442381,0.0650431598699,-1.35566315945
1385577027189515697,-0.11406190206,1.24392009554,-0.110737311552,0.025342947239,0.0689043436322,-1.35561065054
1385577027199511352,-0.11422889796,1.24518758929,-0.111720558165,0.0277452038936,0.0735114786863,-1.35673752334
1385577027209513742,-0.114576609361,1.24644156217,-0.112440571305,0.0305997905144,0.0775899503534,-1.35673617493
1385577027219511949,-0.114715156445,1.24799676395,-0.113497013401,0.0333429308921,0.0835259333912,-1.35677953166
1385577027229519706,-0.115267768022,1.24928782395,-0.114263545018,0.0343247284846,0.0860986369615,-1.35715763479
1385577027239536083,-0.115855587172,1.25103494508,-0.115519190222,0.0351802839723,0.090668827038,-1.35766945435
1385577027249518362,-0.116270798951,1.25271057188,-0.116555907374,0.0359103460133,0.0951674829571,-1.35807677454
1385577027259512073,-0.11665875538,1.25460722671,-0.117629445372,0.0376226784441,0.100133375078,-1.3584736103
1385577027269510273,-0.116961207561,1.25669149792,-0.119022151182,0.0394092542069,0.10464767332,-1.35882725287
1385577027279509017,-0.117458367488,1.25870160068,-0.120393128472,0.0409349809007,0.108260863223,-1.35929520371
1385577027289513620,-0.117969765859,1.26087895654,-0.121623648183,0.0401967396968,0.112910503944,-1.35885808662
1385577027299510174,-0.118526755364,1.26318524712,-0.122901112459,0.040058538326,0.115186122597,-1.35948988171
1385577027309525556,-0.119134680489,1.26564080298,-0.124231627297,0.039477619795,0.118935594233,-1.35903654091
1385577027319530914,-0.119605550694,1.26803983128,-0.12610169805,0.0386350273053,0.119350794889,-1.35875473116
1385577027329525452,-0.119984936792,1.27082980478,-0.127606941321,0.0372955758952,0.121777900806,-1.35837200293
1385577027339520380,-0.120448743421,1.27344627831,-0.129226061069,0.0353326392214,0.12455407222,-1.35768223764
1385577027349590395,-0.120901044065,1.27643180023,-0.130919453304,0.0337678278387,0.126403792265,-1.35766966689
1385577027359569559,-0.121414642951,1.27942794584,-0.132925696656,0.0326183124334,0.126999682843,-1.35710692648
1385577027369530427,-0.121865981974,1.28264737324,-0.13490783194,0.0315498521862,0.127151139505,-1.35653348638
1385577027379542364,-0.122342111655,1.28583182046,-0.136913883495,0.0297064767355,0.127690054136,-1.35579627964
1385577027389513088,-0.122549708702,1.28918734756,-0.139042958332,0.0292530079735,0.128052388432,-1.35570437495
1385577027399523951,-0.123297812068,1.2928720973,-0.141293585672,0.0260359879598,0.130707978505,-1.355689509
1385577027409521913,-0.123451389983,1.29661515772,-0.143657524969,0.0239322267772,0.130872584116,-1.35612984364
1385577027419510035,-0.124143442234,1.3003772954,-0.146106036387,0.0223634675617,0.131580762557,-1.35629431206
1385577027429533143,-0.124593261813,1.30419954509,-0.148553634722,0.022498925635,0.131267680396,-1.35659847711
1385577027439527531,-0.12524634736,1.30826900657,-0.151105321958,0.0219835440614,0.132721538424,-1.35692516747
1385577027449522804,-0.125598989761,1.31240512408,-0.153778082366,0.0224575993045,0.133369640404,-1.35696165292
1385577027459515154,-0.126225046979,1.31668334877,-0.156621570137,0.0239579541465,0.133656468987,-1.35629915888
1385577027469514348,-0.126710104913,1.32106555943,-0.159271217809,0.0253317436874,0.134501249255,-1.35633658564
1385577027479527461,-0.127361050941,1.32560140453,-0.161979855928,0.024813463729,0.136395440717,-1.35556875133
1385577027489508509,-0.128013035791,1.33011682738,-0.16500007849,0.0261549963266,0.137376426447,-1.3557581679
1385577027499509607,-0.128610424332,1.33483768366,-0.168286598622,0.0279595722153,0.137948747281,-1.35576202567
1385577027509523378,-0.128926343478,1.33976272382,-0.171497254268,0.0294590040415,0.139781204187,-1.35546052509
1385577027519511332,-0.129645834342,1.34480411524,-0.174516282483,0.0299368186978,0.143118008353,-1.35566910366
1385577027529519457,-0.130320161933,1.34993304874,-0.177622007967,0.0309429541486,0.147257369265,-1.35540687108
1385577027539532530,-0.131136400231,1.35514964692,-0.180817397957,0.0309346641606,0.149606165078,-1.3564499366
1385577027549512854,-0.131714852296,1.3605992142,-0.184254695611,0.0299338003995,0.149109544883,-1.35739878583
1385577027559513867,-0.132594803607,1.36608093363,-0.187714191169,0.0294550605348,0.151600027849,-1.35802061814
1385577027569510939,-0.133264890344,1.37167180633,-0.190987489099,0.0283468492176,0.15401586516,-1.35836948936
1385577027579512807,-0.134251780347,1.37745995611,-0.194137081107,0.0284006331783,0.158963487603,-1.35813086346
1385577027589509543,-0.134897410952,1.38339526094,-0.197551947664,0.029456280506,0.157204650345,-1.35813865579
1385577027599515964,-0.135607020716,1.38943271483,-0.201087568145,0.0289366496803,0.159335546645,-1.35780651316
1385577027609511188,-0.136483682546,1.39568294249,-0.204626357303,0.0292560643643,0.162358941135,-1.35833285826
1385577027619510632,-0.137414216197,1.4019550717,-0.20795500474,0.0307985908294,0.163881599353,-1.35849906603
1385577027629542284,-0.138139742782,1.40856584722,-0.211440597851,0.0303953482471,0.168085291221,-1.35907416572
1385577027639517660,-0.138983748946,1.41514163966,-0.215107711735,0.0295126933195,0.169160271809,-1.36017794827
1385577027649512919,-0.139775610666,1.42211921399,-0.218332753667,0.0287927436106,0.1723189015,-1.3591826363
1385577027659517002,-0.140861195607,1.42890060506,-0.221907831705,0.0288529037734,0.173971772785,-1.36071278938
1385577027669513255,-0.14198671329,1.43585753725,-0.225442348101,0.0278434304219,0.175824990162,-1.36204202678
1385577027679532233,-0.142663696028,1.44309561262,-0.22914227428,0.0259967158489,0.175855019735,-1.36300798403
1385577027689513017,-0.143799922581,1.45035412014,-0.232620046998,0.0259530121861,0.176135210255,-1.36398938262
1385577027699511305,-0.144938434409,1.457692994,-0.236245532572,0.0242725113858,0.175864993125,-1.36401437601
1385577027709527489,-0.145987288675,1.46526394666,-0.239934753498,0.0238903141433,0.176132298981,-1.36390450587
1385577027719513290,-0.147058110444,1.4729570776,-0.243506416898,0.0223669310071,0.176018223112,-1.364348453
1385577027729520074,-0.148189257121,1.48077549574,-0.247062805053,0.0228733254775,0.175769172076,-1.36378168459
1385577027739616765,-0.149403715647,1.4888368444,-0.250550897049,0.0229337981809,0.177022540387,-1.36381905562
1385577027749529571,-0.15050420214,1.49691851928,-0.254127190343,0.0217423342008,0.17750180391,-1.36583062783
1385577027759533116,-0.151866757876,1.50524121548,-0.257747650902,0.0202177293668,0.177797448716,-1.36722800733
1385577027769521550,-0.153338452564,1.51356553706,-0.261671976401,0.0190214440935,0.179177644423,-1.3682139509
1385577027779528460,-0.154382993505,1.52220628211,-0.265227784825,0.0165881662889,0.177473727192,-1.36963635953
1385577027789529109,-0.155725446093,1.53088870125,-0.269032448136,0.0145408880873,0.17849913021,-1.3699049044
1385577027799519575,-0.157190179434,1.5398503315,-0.272769764916,0.013179540723,0.179048237881,-1.3706230579
1385577027809516105,-0.158478464447,1.54906056637,-0.276385353447,0.0141856482187,0.178964097811,-1.37036387306
1385577027819543057,-0.159834174933,1.55812737314,-0.280113842555,0.0147761290686,0.180257353112,-1.36929544663
1385577027829532462,-0.161274356629,1.5674585687,-0.284000503719,0.0169378765279,0.1816251413,-1.36980996138
1385577027839517568,-0.162716068338,1.57681166685,-0.287874512945,0.0196122827419,0.181695995176,-1.37117994628
1385577027849524785,-0.16440578604,1.58611677148,-0.291550549735,0.0204872357362,0.182075807476,-1.37158338514
1385577027859539853,-0.165372678973,1.59612700113,-0.295696749278,0.0230583330068,0.181975796208,-1.37190242748
1385577027869525327,-0.167179320048,1.60589269137,-0.299495793381,0.0249519364938,0.184238381653,-1.37225373759
1385577027879513968,-0.168485373114,1.61612806666,-0.303332053274,0.0263107290421,0.185759839631,-1.37180590283
1385577027889513189,-0.170015397015,1.62631725529,-0.307623811597,0.0276979576966,0.18551581146,-1.37198271177
1385577027899511956,-0.171852210439,1.63629594715,-0.31155791191,0.0311774501249,0.186333249174,-1.37288654745
1385577027909510399,-0.173184450107,1.64658826562,-0.315787584369,0.0325905944852,0.187507271608,-1.37400266558
1385577027919509710,-0.174827126122,1.65715260448,-0.319769795601,0.0355272602635,0.189145089786,-1.37443309249
1385577027929570009,-0.176772239556,1.66790694764,-0.323985283445,0.0382685834757,0.186242527619,-1.37432849472
1385577027939541828,-0.178401108258,1.67872863822,-0.328200887124,0.039556780149,0.186362650449,-1.37528049705
1385577027949517829,-0.18008870485,1.68948535166,-0.332434837741,0.0420438297732,0.185511061891,-1.37527088937
1385577027959511580,-0.181565783852,1.70048429634,-0.336784277017,0.0430036669997,0.184283983842,-1.37527855568
1385577027969527465,-0.183333056096,1.71180122178,-0.34119908249,0.0454979346249,0.18200366321,-1.37596748337
1385577027979537351,-0.184730670466,1.72307755899,-0.345570416062,0.0446929758323,0.179795156841,-1.37725592086
1385577027989538546,-0.186486009413,1.734436267,-0.350096850601,0.0458240983021,0.176058478452,-1.3773763992
1385577027999526131,-0.188260573529,1.74586251559,-0.354764851183,0.0472547598494,0.172325724448,-1.37809438065
1385577028009516440,-0.18944188419,1.75763158622,-0.359783977045,0.0468484825274,0.16920667458,-1.38045333809
1385577028019517435,-0.191141349075,1.76937243497,-0.364707687405,0.04683184146,0.165876753838,-1.38123621129
1385577028029523851,-0.193216039267,1.78096610356,-0.36916060868,0.0459731745806,0.159393360095,-1.38161203314
1385577028039516884,-0.194851145775,1.79271335739,-0.373645202002,0.0445187790803,0.155876987217,-1.38230924204
1385577028049512584,-0.196345033085,1.80467590584,-0.37820132887,0.0441798481508,0.151817999084,-1.38290005319
1385577028059515961,-0.197923576485,1.81668779404,-0.382445631195,0.0407790797665,0.14638200991,-1.38490041773
1385577028069512024,-0.199510765749,1.82873095907,-0.386598408659,0.0386786267065,0.140929389474,-1.38524822574
1385577028079512765,-0.20153598553,1.84067541681,-0.39056943279,0.0369658926639,0.134940365418,-1.38555452615
1385577028089511153,-0.2031523296,1.85283814284,-0.394264067802,0.0350797536407,0.130249088094,-1.3858153981
1385577028099529146,-0.204857241576,1.86488869219,-0.398195998868,0.034064068205,0.126166028214,-1.38609154322
1385577028109516908,-0.206469463235,1.87715937156,-0.40168611435,0.0322532654622,0.12135045884,-1.38718836191
1385577028119518376,-0.208050016465,1.88936970772,-0.405320302466,0.0307820971164,0.116612503472,-1.38762169529
1385577028129544585,-0.209763625652,1.90158533722,-0.408719250136,0.0293320045315,0.111833593463,-1.38863921788
1385577028139527497,-0.211551633053,1.91391578069,-0.411729867296,0.0273087495978,0.106849724794,-1.38768794788
1385577028149517643,-0.213046116027,1.92635740339,-0.415252735833,0.026145349404,0.102161704933,-1.38888630285
1385577028159519961,-0.214598591742,1.93873985719,-0.418049515333,0.0236038649165,0.0955912505661,-1.38977520211
1385577028169544089,-0.216429071913,1.95111297256,-0.420977470739,0.0223001774331,0.0937130899532,-1.38963764896
1385577028179542680,-0.218269241982,1.96342499205,-0.42338114408,0.0204226958365,0.0888071832918,-1.39044654372
1385577028189545551,-0.219822235177,1.97564968647,-0.426209394459,0.0187415024323,0.0829512537797,-1.39085537349
1385577028199555951,-0.221472627616,1.98816076255,-0.428635726039,0.0176748874233,0.0786727127893,-1.39132853813
1385577028209601607,-0.223175683942,2.00062477847,-0.431119305336,0.0157042383615,0.0759469229614,-1.39124097992
1385577028219539067,-0.224820530663,2.01294925911,-0.43319461027,0.0144712108322,0.0696268594843,-1.39177979299
1385577028229565902,-0.226567194745,2.02526198141,-0.435397149234,0.0123118101625,0.0654250064256,-1.39196663181
1385577028239576799,-0.228215544769,2.03760684659,-0.43733312756,0.0103171640222,0.0609914376056,-1.39211082487
1385577028249541941,-0.230232460144,2.04983361638,-0.439186709772,0.00886086487576,0.0576767943905,-1.39254125204
1385577028259542822,-0.231979591998,2.06212365354,-0.441069286685,0.00722420753901,0.0535986693735,-1.39238569301
1385577028269555895,-0.233821706385,2.07452897201,-0.442444604031,0.00544188947612,0.0506357689347,-1.39334320599
1385577028279552620,-0.235546991947,2.08674178716,-0.444315385319,0.00227340429213,0.0485957099854,-1.39322413036
1385577028289543898,-0.237392573899,2.09898506385,-0.445609064072,0.000692785847477,0.043563442806,-1.39327134301
1385577028299549557,-0.239168912425,2.11114520284,-0.446879350348,-0.000920087262571,0.0403363928344,-1.39383075204
1385577028309529416,-0.241057110892,2.12317376531,-0.44799586491,-0.00145219966115,0.0378887083288,-1.3933571638
1385577028319561709,-0.243216291384,2.13550804391,-0.448899117545,-0.00308214672405,0.0349626526326,-1.39375579606
1385577028329674976,-0.244853216173,2.1474494117,-0.449837940298,-0.00425369042953,0.0313733192044,-1.39362818719
1385577028339552993,-0.246932550187,2.15959167033,-0.45066686341,-0.00623076000269,0.0307434791343,-1.39476167189
1385577028349556495,-0.248717788129,2.17145923476,-0.451534264362,-0.0067918477044,0.0262016690264,-1.39499741464
1385577028359568151,-0.250639425829,2.18350002968,-0.452156238527,-0.00742668287092,0.0242327835055,-1.39536159129
1385577028369540965,-0.25256782217,2.19535473377,-0.452699991136,-0.00816019649931,0.0229002439192,-1.39567076338
1385577028379535433,-0.254621535143,2.20716555997,-0.45301768373,-0.00847696400548,0.0208271180011,-1.39535092042
1385577028389534696,-0.256774270836,2.2189923455,-0.453375620851,-0.00889727215835,0.0191292362448,-1.39553766594
1385577028399546485,-0.258712572255,2.23062353322,-0.453851646621,-0.00895199157714,0.0190387734935,-1.39575840331
1385577028409548068,-0.260699168998,2.24250005064,-0.453663437109,-0.00930704470807,0.0154002054093,-1.39711454836
1385577028419529053,-0.262612654394,2.25401013216,-0.453802221448,-0.0102025152931,0.0133491093962,-1.39676508348
1385577028429573916,-0.264784840063,2.26549740456,-0.453579366804,-0.00975774388461,0.0101193936985,-1.3972307395
1385577028439552205,-0.266840869832,2.27690064464,-0.453579183419,-0.00924112502446,0.0084301907489,-1.39777388334
1385577028449526229,-0.268946011421,2.28838390163,-0.453243805402,-0.00916005709655,0.0048650931305,-1.39807408719
1385577028459559531,-0.271013468876,2.2996134188,-0.452981612273,-0.00910786298906,0.000430754841052,-1.39927263526
1385577028469548415,-0.273069266859,2.31095617089,-0.452467148099,-0.00964356065875,-0.00210577828399,-1.39878855803
1385577028479545758,-0.275118230943,2.32189005822,-0.452046653428,-0.00799840472574,-0.00840662526501,-1.40000152371
1385577028489544356,-0.277235343426,2.33289614119,-0.451375384544,-0.00811435866893,-0.0143447189367,-1.3998737563
1385577028499539135,-0.279274532158,2.34388736982,-0.450842183179,-0.00801123602575,-0.0204444857458,-1.39996671496
1385577028509541034,-0.28143735383,2.35476801394,-0.450090561657,-0.00686707692333,-0.0264998524614,-1.4010071052
1385577028519549990,-0.283578510593,2.36552276274,-0.449293963651,-0.00750765009454,-0.0332493077189,-1.40035385797
1385577028529564927,-0.285878325671,2.37591343364,-0.448516521829,-0.00769592065919,-0.0410837142149,-1.40164905528
1385577028539513990,-0.287869829766,2.38645109839,-0.447455544311,-0.00887791447588,-0.0468616680836,-1.40146647148
1385577028549542222,-0.290095882338,2.39669760117,-0.446663235082,-0.00876640502718,-0.0551538776367,-1.40173927799
1385577028559548364,-0.292311832884,2.40692986751,-0.445537272113,-0.00979770193693,-0.0635992996629,-1.40225074056
1385577028569514776,-0.294647795306,2.41714598317,-0.444277118433,-0.0109680126598,-0.0703438652153,-1.40209751277
1385577028579546669,-0.296844123439,2.42709292408,-0.443413768288,-0.0116982827667,-0.0768848477974,-1.40282256653
1385577028589540135,-0.299007386716,2.43688604729,-0.442005486651,-0.0129643480475,-0.0860112292239,-1.40268959011
1385577028599545537,-0.301283257837,2.44656928809,-0.440611418722,-0.0146144911404,-0.0913438233942,-1.40311900436
1385577028609550160,-0.303567772171,2.45603978447,-0.439634524729,-0.0151280822493,-0.0968747804048,-1.40321530688
1385577028619538485,-0.30583614084,2.46558989301,-0.4380726614,-0.0170530130317,-0.106221382517,-1.40337365378
1385577028629540247,-0.307965889211,2.47477315486,-0.436800300083,-0.0188739672368,-0.113476422593,-1.40416462764
1385577028639544486,-0.310407256809,2.48372387335,-0.435370569343,-0.0202059611467,-0.119453171606,-1.40395759686
1385577028649510430,-0.312652304217,2.49282452861,-0.433854719276,-0.0224346410369,-0.124063269681,-1.40443546862
1385577028659539126,-0.31489714736,2.50150505338,-0.432537580254,-0.0241032091844,-0.131306410028,-1.405096067
1385577028669534031,-0.317328543846,2.51001063777,-0.431027305971,-0.0254695838735,-0.13751304608,-1.40464365083
1385577028679522979,-0.319519736405,2.51827778932,-0.42960292663,-0.0270726164159,-0.142740157084,-1.40485047059
1385577028689548083,-0.322042322513,2.52652713652,-0.42782957777,-0.029037582947,-0.148170687537,-1.40490029683
1385577028699538460,-0.324366138138,2.53453795369,-0.426383433721,-0.0302406194577,-0.152383962458,-1.40574297139
1385577028709525479,-0.32656267926,2.54221534532,-0.424817461926,-0.0314714330539,-0.156207356263,-1.40621099572
1385577028719509941,-0.329005208542,2.54996394588,-0.423132372825,-0.0328207034785,-0.158884136202,-1.40589527017
1385577028729515918,-0.331132804832,2.55718286475,-0.421857907139,-0.032848264577,-0.164318514408,-1.40580689237
1385577028739513344,-0.333731795,2.56441386785,-0.420065551704,-0.0335644745106,-0.167808236038,-1.40675610218
1385577028749509208,-0.336137567633,2.57139287679,-0.418426613404,-0.0343389593703,-0.17231196945,-1.40688079282
1385577028759507922,-0.338488717134,2.57815873611,-0.416907311716,-0.0344294990633,-0.176315912172,-1.40763679144
1385577028769509385,-0.341068101168,2.58465276615,-0.415234106166,-0.0345602406306,-0.178963167576,-1.40795857703
1385577028779508045,-0.343265223107,2.59093569468,-0.413732119571,-0.0353137587541,-0.181102394035,-1.40842927678
1385577028789532703,-0.345817420889,2.5969910132,-0.411973980711,-0.0352682929884,-0.182543257306,-1.40871728594
1385577028799536994,-0.34838201629,2.6028404233,-0.41058517607,-0.035431881575,-0.183556543569,-1.40882136152
1385577028809558751,-0.350638329769,2.608463453,-0.408929176018,-0.035094167432,-0.186424407063,-1.41027543365
1385577028819543579,-0.352952801396,2.61383008175,-0.407569353946,-0.0335665187377,-0.18821212855,-1.410147635
1385577028829682345,-0.355533411292,2.61901221148,-0.405887043444,-0.0337378183416,-0.190062868272,-1.41110592712
1385577028839559660,-0.357911130568,2.62399516958,-0.404274881383,-0.0330782741832,-0.191352686974,-1.41189972658
1385577028849632832,-0.360658970508,2.62858440913,-0.402921083568,-0.0321941080863,-0.193403716749,-1.41179254731
1385577028859660205,-0.362941220295,2.63308312201,-0.401468322003,-0.0321969674717,-0.193698324793,-1.41272885169
1385577028869555242,-0.365508827319,2.637321734,-0.400025986372,-0.0314352450184,-0.195248261497,-1.41317893336
1385577028879545082,-0.367976970551,2.64136581066,-0.398585994214,-0.0307928832688,-0.194975053338,-1.41390980537
1385577028889556928,-0.370492177123,2.64509917242,-0.397258323294,-0.0304599975829,-0.196425477373,-1.41448015064
1385577028899546151,-0.373038136965,2.64870302439,-0.395747042027,-0.0303314600568,-0.196054461542,-1.41472393518
1385577028909543259,-0.375468975928,2.6520047816,-0.394385224088,-0.0294158740328,-0.196240875547,-1.4155607221
1385577028919521714,-0.378081037875,2.65513039487,-0.392911789459,-0.0285936361264,-0.196530214482,-1.41589293979
1385577028929531616,-0.380594725522,2.65792466667,-0.391689274948,-0.0277049168275,-0.196340096433,-1.4171003665
1385577028939568677,-0.382814234994,2.66056484571,-0.390417561516,-0.026574105802,-0.195893413762,-1.4172035377
1385577028949543558,-0.38557569347,2.66303741089,-0.388924784452,-0.0264605925967,-0.19641872448,-1.41851564377
1385577028959540334,-0.387825038632,2.66514332514,-0.387682934656,-0.025446864886,-0.196195691406,-1.41863402026
1385577028969587784,-0.390700736607,2.66720725063,-0.386236598353,-0.0252961186629,-0.196403080927,-1.42031773835
1385577028979529652,-0.393232380508,2.66893892767,-0.385115795767,-0.0249671625763,-0.193480237998,-1.42098538209
1385577028989514399,-0.395627988591,2.67058701788,-0.383598660088,-0.0249632171304,-0.195296332293,-1.42146253208
1385577028999578233,-0.398207530031,2.67188399753,-0.382249735044,-0.0247879457145,-0.195134221824,-1.42216318303
1385577029009525496,-0.400820208274,2.6729125449,-0.381118046561,-0.023557700809,-0.192301171872,-1.42348999154
1385577029019534562,-0.40316501405,2.67384636249,-0.379690467146,-0.0232922725269,-0.193955794647,-1.42440631294
1385577029029516550,-0.405779719751,2.67464949191,-0.378414428461,-0.0234335472233,-0.192930277261,-1.42520340324
1385577029039528504,-0.408317509162,2.67523013555,-0.377129154077,-0.0220687795075,-0.192204380499,-1.4254334427
1385577029049516285,-0.410716163438,2.67537791226,-0.375896571507,-0.0221279097706,-0.19150859957,-1.42690363011
1385577029059515550,-0.413297079361,2.67549623678,-0.374803411327,-0.0216226537216,-0.189928317262,-1.42768958644
1385577029069537220,-0.415734414563,2.67543976469,-0.373548759687,-0.0224842618869,-0.188880232185,-1.42869220099
1385577029079515801,-0.418276298727,2.67493903828,-0.372502616886,-0.0222679563959,-0.187195577345,-1.4295489918
1385577029089536838,-0.420850571098,2.6745587451,-0.371032681796,-0.0233395063762,-0.187757337495,-1.43033255696
1385577029099528584,-0.423307823575,2.67376259399,-0.369849820929,-0.0239887984208,-0.186372106923,-1.43076412746
1385577029109518520,-0.425789487354,2.67295979703,-0.368802899691,-0.0236092463701,-0.186303592166,-1.4323469728
1385577029119510075,-0.428320570468,2.67180538258,-0.367547338848,-0.0243623458666,-0.185416365797,-1.43274713188
1385577029129525732,-0.430407695476,2.67037556036,-0.366609311357,-0.0235364078832,-0.184296071144,-1.43250411155
1385577029139538215,-0.433265094296,2.66891245187,-0.36537350727,-0.0237998007863,-0.184066590227,-1.43447723231
1385577029149513834,-0.435799941136,2.66719309953,-0.364381905889,-0.0241289696989,-0.183344432061,-1.43561311771
1385577029159538097,-0.438137201623,2.66531870772,-0.363374287126,-0.0242366361514,-0.183740763146,-1.43626750915
1385577029169541130,-0.440740292596,2.66314494282,-0.362300368999,-0.025025466008,-0.182944379795,-1.43643346552
1385577029179537183,-0.442965115227,2.66062586235,-0.361654520246,-0.0245694398213,-0.180367106908,-1.4363704994
1385577029189555534,-0.445741167082,2.65823404556,-0.360453936668,-0.0260816515575,-0.183351169111,-1.43778367618
1385577029199538148,-0.448279323812,2.65570372371,-0.359563550266,-0.0265608194109,-0.179396246797,-1.4387377873
1385577029209564867,-0.450592622695,2.65299617574,-0.358478914253,-0.0270533502077,-0.181097370941,-1.43991931589
1385577029219536907,-0.453241064361,2.64971028824,-0.357723089183,-0.0267140266395,-0.182626290647,-1.44031026721
1385577029229535530,-0.455758748946,2.646415225,-0.35675935,-0.0274612473619,-0.182771430211,-1.44094451061
1385577029239563221,-0.458255705945,2.64308558278,-0.356043707689,-0.0272326083691,-0.183603901199,-1.44179036206
1385577029249545683,-0.460777783461,2.63953120677,-0.355201496446,-0.0273241451018,-0.178650602236,-1.44221795929
1385577029259533886,-0.463211204143,2.63582916231,-0.354222257529,-0.0278847972631,-0.179604740178,-1.4427239473
1385577029269557119,-0.465890315323,2.63167586008,-0.353668992825,-0.0272171569429,-0.182813419443,-1.44366936768
1385577029279546428,-0.46838025916,2.62754448046,-0.352866145918,-0.0279411630183,-0.181876642218,-1.44407740074
1385577029289588608,-0.470921306304,2.62311920519,-0.35206807965,-0.028401202109,-0.181877825378,-1.44501831099
1385577029299549929,-0.473278426615,2.6186988471,-0.351564113576,-0.0279499072288,-0.181832538504,-1.44422202682
1385577029309547956,-0.476035116766,2.61396648642,-0.350879960296,-0.0294651636223,-0.178615041132,-1.44595751394
1385577029319514386,-0.478405161978,2.60917620604,-0.350332721849,-0.0280851307322,-0.180780321607,-1.44587764677
1385577029329556280,-0.481164969856,2.60422507434,-0.349422622373,-0.028788353828,-0.180863628448,-1.44687790689
1385577029339761347,-0.483651231795,2.59906333904,-0.34890745388,-0.0283709315966,-0.180289612462,-1.4475961121
1385577029349590911,-0.486437306038,2.59356705797,-0.348408766588,-0.0269251417091,-0.179064554049,-1.44807687342
1385577029359582125,-0.488783146271,2.58806010238,-0.347858351564,-0.0266337321097,-0.179452164022,-1.44857816365
1385577029369530284,-0.491403265155,2.58247039967,-0.347308972168,-0.0258970043448,-0.178503333254,-1.44953402467
1385577029379559878,-0.494007848751,2.57659574264,-0.346965124334,-0.0255591647087,-0.17564872274,-1.44927859584
1385577029389549824,-0.496455394854,2.57062338941,-0.346392104042,-0.0258058874357,-0.176580614097,-1.4504145662
1385577029399537648,-0.499030821446,2.56444076992,-0.34604601472,-0.0247376970088,-0.17593751744,-1.45069240143
1385577029409537620,-0.501463786692,2.55824923508,-0.345512057015,-0.0248838446073,-0.174423169509,-1.45183167531
1385577029419526634,-0.504130718661,2.55158772042,-0.345246070252,-0.0237110003635,-0.173741612444,-1.45233923182
1385577029429569778,-0.506820980215,2.54492627751,-0.34499545741,-0.023218342028,-0.17125409071,-1.45258850343
1385577029439543536,-0.509288564166,2.53824813776,-0.344527925048,-0.0232092502976,-0.172025983829,-1.45279765693
1385577029449561238,-0.511771975357,2.53120216889,-0.344166338126,-0.0224456665982,-0.170915830876,-1.45273732228
1385577029459632368,-0.514524470366,2.52407674619,-0.343885988287,-0.0227066072605,-0.170602544241,-1.45299988957
1385577029469556032,-0.51700329431,2.51679262033,-0.343817274634,-0.0219735990611,-0.169018418734,-1.45400636393
1385577029479584868,-0.51942138374,2.50946483514,-0.343316308128,-0.0209250224748,-0.169916944067,-1.45430823309
1385577029489541863,-0.522006217055,2.50179013903,-0.343194129728,-0.0191301991444,-0.169281073767,-1.45477503752
1385577029499544135,-0.524370823994,2.49421564477,-0.342993123694,-0.0180822869869,-0.169228830439,-1.45576479681
1385577029509548327,-0.526689394233,2.48626620761,-0.342969710212,-0.0150411014811,-0.168067554628,-1.45491131856
1385577029519531313,-0.529491330634,2.47828369315,-0.342833085067,-0.0141643156738,-0.166300244944,-1.45614201556
1385577029529562409,-0.531762219857,2.47019998773,-0.342648286252,-0.0134928394046,-0.166903207435,-1.45610276262
1385577029539558847,-0.534423080807,2.46190012994,-0.342387964256,-0.0124743091884,-0.166407466126,-1.45696245438
1385577029549622980,-0.5366357134,2.45353256157,-0.342464383879,-0.0111908740203,-0.165447816635,-1.45730981371
1385577029559561104,-0.539172642088,2.44494241469,-0.342543941577,-0.00879106392569,-0.163661004292,-1.45713080999
1385577029569580583,-0.541567721708,2.43625531966,-0.342445919754,-0.00682094064445,-0.161870064198,-1.45748989488
1385577029579599795,-0.54395425292,2.42768123101,-0.342572572764,-0.00478875758635,-0.156674612891,-1.4587178261
1385577029589543242,-0.546212347729,2.41877161429,-0.342706211906,-0.00344627515658,-0.153650448823,-1.45821847819
1385577029599590483,-0.548604659941,2.40968566749,-0.342637964598,-0.00115840667788,-0.153763841555,-1.45916629928
1385577029609569652,-0.550863815929,2.4005169198,-0.342619951817,-0.000243363451119,-0.153869132595,-1.4594918568
1385577029619594055,-0.553182403558,2.39103298286,-0.343001070594,0.0019099523674,-0.154395748359,-1.45978991759
