%time,field.linear.x,field.linear.y,field.linear.z,field.angular.x,field.angular.y,field.angular.z
1385568454590909757,-0.0,0.0,0.0,1.0,0.0,0.0
1385568454629845053,-0.0,0.0,3.5913311595e-08,1.0,0.0,0.104693428311
1385568454679901018,0.0110365546435,0.0338088529887,-0.0100609307481,1.0,0.0,0.0249938750952
1385568454729977937,0.00884215887585,0.0270158608133,-0.0118918497722,1.0,0.0,0.0660030662167
1385568454779906131,0.0110906763728,0.0338676148812,-0.0121670663826,1.0,0.0,0.0527855576925
1385568454830786456,0.0112685739003,0.0343454555263,-0.0120049211379,1.0,0.0,0.0630392384352
1385568454880884544,0.0118379597483,0.0360587590432,-0.0116140346728,1.0,0.0,0.0623237893207
1385568454929768515,0.011954403443,0.0362877543556,-0.0110315208597,1.0,0.0,0.0659610585429
1385568454979735214,0.011930176026,0.0361585370991,-0.0102729535669,1.0,0.0,0.0674255033736
1385568455029977069,0.011707401018,0.0353855407759,-0.00935658157192,1.0,0.0,0.0695143581711
1385568455079801431,0.0113447855455,0.0342290153104,-0.00830335707634,1.0,0.0,0.0710481283225
1385568455130099687,0.0108702598786,0.0326963238233,-0.00711589512021,1.0,0.0,0.0725716309453
1385568455179913248,0.0102830418707,0.030901778413,-0.00580516056445,1.0,0.0,0.0738942148799
1385568455230962235,0.00968020468789,0.0289207782805,-0.00437537595641,1.0,0.0,0.0750577171388
1385568455280974026,0.00901977899156,0.0268224987317,-0.00285485873066,1.0,0.0,0.0761400680728
1385568455330966071,0.0083202850957,0.0246800045612,-0.0012192370387,1.0,0.0,0.077073423065
1385568455380816268,0.00759815081205,0.0225070075882,0.000497590576206,1.0,0.0,0.0779591651278
1385568455429978948,0.00697684705164,0.0204005539821,0.00231556905097,1.0,0.0,0.0787151617629
1385568455479802338,0.00629591176198,0.0183628475319,0.00420279888707,1.0,0.0,0.0793860159156
1385568455529863249,0.00567748765207,0.0164485934089,0.00616165880239,1.0,0.0,0.0800217439881
1385568455579816077,0.00510628708222,0.0146144458087,0.00819485880597,1.0,0.0,0.0805342922473
1385568455629837096,0.00458818411696,0.0129602157549,0.0102917725815,1.0,0.0,0.0810413219024
1385568455679763631,0.00409588758649,0.0114576302592,0.0124470815175,1.0,0.0,0.0814697270427
1385568455731041141,0.0036539665595,0.0101171714179,0.0146589609068,1.0,0.0,0.0818868288542
1385568455779956618,0.0033050226174,0.0089492943083,0.016916492842,1.0,0.0,0.0822021311757
1385568455830867026,0.00296359561213,0.00793226010904,0.0192340280273,1.0,0.0,0.0825639156463
1385568455880878352,0.00267906705148,0.0070907772918,0.0216025717396,1.0,0.0,0.0828885359537
1385568455931144257,0.00252588048227,0.00634396500294,0.0240032006682,1.0,0.0,0.0831080232629
1385568455980874422,0.00228845701103,0.00581916218816,0.0264383173496,1.0,0.0,0.083306284774
1385568456029847184,0.00216824691658,0.00537224412305,0.0289099557436,1.0,0.0,0.08355645742
1385568456080067515,0.00205214922317,0.00510019008271,0.0314168754859,1.0,0.0,0.0837781812323
1385568456129945907,0.00200880672101,0.0048382758329,0.0339638274903,1.0,0.0,0.0839690960582
1385568456179756068,0.00200022592419,0.00474379006407,0.036535962505,1.0,0.0,0.0840909043515
1385568456229973029,0.00199368411697,0.0047117123444,0.0391300806073,1.0,0.0,0.0841948003489
1385568456279759330,0.00200551460417,0.00482587243658,0.0417546404903,1.0,0.0,0.084324939834
1385568456329813606,0.0020324086988,0.0050087014555,0.0444017493357,1.0,0.0,0.0844282820287
1385568456379817336,0.00210299892544,0.00512390528596,0.0470597131911,1.0,0.0,0.0844299115195
1385568456429781958,0.00217279559975,0.00533286300934,0.0497296150354,1.0,0.0,0.0844943901104
1385568456479923962,0.00233720036532,0.0055203943715,0.0524317483492,1.0,0.0,0.0845025310631
1385568456530548596,0.00245529216849,0.00578182700104,0.0551481929969,1.0,0.0,0.0844911738807
1385568456579758941,0.00278246014066,0.00590708310012,0.0578899562211,1.0,0.0,0.0844116433453
1385568456630034335,0.00290497758585,0.00622744455834,0.060624972212,1.0,0.0,0.0843109885289
1385568456680936063,0.00307119276634,0.00628912715705,0.0634098084895,1.0,0.0,0.0842374230172
1385568456730882482,0.00323960235516,0.00669001481209,0.0661780752479,1.0,0.0,0.084123863946
1385568456779835321,0.003488124186,0.00680614050808,0.068965253063,1.0,0.0,0.0839590134483
1385568456829834738,0.00352167893537,0.00690432527327,0.071775123782,1.0,0.0,0.0837738755358
1385568456879828603,0.00364117047458,0.00714827246105,0.0745729561253,1.0,0.0,0.083454037334
1385568456929883174,0.00391798012557,0.00690775234945,0.0773871634759,1.0,0.0,0.0830808499612
1385568456980811125,0.00404896256076,0.00703591774031,0.080210796493,1.0,0.0,0.0827666365789
1385568457030842959,0.00451213741944,0.00669937586669,0.0830662725707,1.0,0.0,0.0822121073173
1385568457079768464,0.00497535211375,0.00663539589624,0.0859214397818,1.0,0.0,0.0815269218091
1385568457129783022,0.00494617052958,0.00630868117739,0.0887638054667,1.0,0.0,0.0806689985782
1385568457179816542,0.00625912921576,0.00594438562392,0.0916392637152,1.0,0.0,0.0796785939349
1385568457229765042,0.00656586911411,0.00563668490838,0.0945380470385,1.0,0.0,0.0787070062362
1385568457279771692,0.00686473395197,0.00560028003369,0.0973736450057,1.0,0.0,0.0775576387746
1385568457330865257,0.00610994526341,0.00525423877735,0.100185390738,1.0,0.0,0.0763225496802
1385568457379764492,0.00532253400848,0.00541950345232,0.102823762996,1.0,0.0,0.0749019940194
1385568457429820030,0.00394587502108,0.00577826852521,0.105253151234,1.0,0.0,0.0734025541856
1385568457479884128,0.00312568776175,0.0058346550115,0.107367318469,1.0,0.0,0.0718934966386
1385568457529772670,0.00237155168973,0.00521818819878,0.109127445203,1.0,0.0,0.0703510707515
1385568457579893199,0.00183616293406,0.00446880692128,0.11052241961,1.0,0.0,0.0689503862662
1385568457629832826,0.000726930164907,0.00416036363461,0.111504367368,1.0,0.0,0.0672044973361
1385568457679844990,0.000277585188145,0.00400839772404,0.112030201549,1.0,0.0,0.0655201708809
1385568457729916044,-0.00112077542267,0.00497999880802,0.112180016295,1.0,0.0,0.063794056202
1385568457779747292,-0.00230460174561,0.00538340631515,0.111990219785,1.0,0.0,0.062114898477
1385568457830954616,-0.00376708160863,0.00546108781919,0.11152447221,1.0,0.0,0.0603902168146
1385568457880786199,-0.0059264024104,0.00618702358143,0.110720937793,1.0,0.0,0.0587424578674
1385568457929760807,-0.0089982778358,0.00727692966631,0.109562320991,1.0,0.0,0.0571777013249
1385568457979810775,-0.0121939501622,0.00809580558225,0.108085369484,1.0,0.0,0.0555727624995
1385568458029898410,-0.0155907471195,0.00860065916531,0.106303602629,1.0,0.0,0.0541502581871
1385568458080061244,-0.0191144143984,0.00916239682606,0.104234977658,1.0,0.0,0.0527799196689
1385568458129814450,-0.0225300029745,0.00967291922581,0.101898688319,1.0,0.0,0.0515315762433
1385568458179832217,-0.0263196692709,0.0102689583208,0.0992237404948,1.0,0.0,0.0503078974632
1385568458230270423,-0.0300465655473,0.0108685687669,0.096601803489,1.0,0.0,0.0492004061837
1385568458280758156,-0.0342717962526,0.0116685863363,0.094182210056,1.0,0.0,0.0481421015636
1385568458330120834,-0.0385306145288,0.0125532049829,0.0920151692904,1.0,0.0,0.0471315574322
1385568458379985742,-0.0428615020483,0.0133096082868,0.0902260905486,1.0,0.0,0.0462079907895
1385568458430114848,-0.0469297930927,0.0142920344486,0.0888472868488,1.0,0.0,0.0453179229997
1385568458480095222,-0.0507781708486,0.0152725569223,0.0879461277812,1.0,0.0,0.0445360254258
1385568458529976805,-0.0542945008604,0.0165301398969,0.0874926571927,1.0,0.0,0.0437673821794
1385568458581100552,-0.0577199994742,0.0176445579668,0.0874919852793,1.0,0.0,0.04310424575
1385568458631124595,-0.0606884133844,0.0185229475161,0.0880199115881,1.0,0.0,0.0424783663282
1385568458680054712,-0.0633019756997,0.0193368231056,0.0890550328359,1.0,0.0,0.0419470478794
1385568458729973229,-0.065233487217,0.0200754144529,0.0906114573856,1.0,0.0,0.0414055757746
1385568458779941573,-0.0669950421014,0.0207644070957,0.0925618037313,1.0,0.0,0.0409977323726
1385568458830058233,-0.0685037165086,0.0216484580328,0.0948311532068,1.0,0.0,0.0406580897011
1385568458880078211,-0.0696748271961,0.0224123587186,0.0974253573847,1.0,0.0,0.040357096089
1385568458929973810,-0.0706636081334,0.0235008118677,0.100212572628,1.0,0.0,0.040188655641
1385568458980109290,-0.0714903168953,0.0243431287611,0.103211078925,1.0,0.0,0.0400479230714
1385568459031140294,-0.0719429799107,0.0253384853208,0.106390582296,1.0,0.0,0.0398969789055
1385568459080118168,-0.0723561257191,0.0259190220999,0.109697502322,1.0,0.0,0.039897473324
1385568459130100852,-0.0723561412298,0.0267359410745,0.113129305549,1.0,0.0,0.0399022967106
1385568459180126861,-0.0718337124052,0.0269355952318,0.116743062165,1.0,0.0,0.0399813570631
1385568459230058708,-0.070703327806,0.0273563887325,0.120471044985,1.0,0.0,0.0401148159193
1385568459279968916,-0.0699810409723,0.0268857014547,0.124177090151,1.0,0.0,0.0402743444355
1385568459330050784,-0.0687987965372,0.027385808335,0.127807628256,1.0,0.0,0.040481815822
1385568459381081872,-0.0672603161915,0.0272947664307,0.1314140988,1.0,0.0,0.0406999058547
1385568459430075260,-0.065128393765,0.0272282807851,0.135026215443,1.0,0.0,0.0409999338267
1385568459479904140,-0.0632900036963,0.0265659194353,0.138552888921,1.0,0.0,0.041294095445
1385568459529958070,-0.0622168289762,0.0262495552075,0.141760081238,1.0,0.0,0.0415953575152
1385568459579969034,-0.0609330037893,0.0256443434018,0.144828285823,1.0,0.0,0.0419423734637
1385568459630154747,-0.0596809910047,0.0253703304918,0.147724733438,1.0,0.0,0.042248587327
1385568459681080832,-0.0581001551004,0.0248155333584,0.149810154512,1.0,0.0,0.0426028092045
1385568459730026600,-0.0572098124764,0.0242413924516,0.151319204776,1.0,0.0,0.0429867204628
1385568459780974448,-0.056267409959,0.0244669565218,0.152388620899,1.0,0.0,0.0433362044542
1385568459829981681,-0.0551618950833,0.0241738297908,0.153245568618,1.0,0.0,0.0436770049208
1385568459879942751,-0.0535693722003,0.0236392468981,0.154068254821,1.0,0.0,0.0441008541994
1385568459929998591,-0.0522631279984,0.0233245605309,0.15466104406,1.0,0.0,0.0444525936616
1385568459979849334,-0.0510443458148,0.0231682430104,0.155002878959,1.0,0.0,0.0448021474712
1385568460029939686,-0.0501378257207,0.0221962951192,0.155191559354,1.0,0.0,0.0451869645199
1385568460079903623,-0.0494785000809,0.0221972759209,0.155087314614,1.0,0.0,0.045504119391
1385568460129914101,-0.0489474811059,0.0217984331812,0.154773723308,1.0,0.0,0.0458870039401
1385568460180077523,-0.0485737226712,0.0211236687432,0.154345175963,1.0,0.0,0.0462449834492
1385568460229970573,-0.0481751677536,0.0204648427482,0.15381824775,1.0,0.0,0.0465488918749
1385568460281124598,-0.0481447227742,0.0197828559093,0.153086215143,1.0,0.0,0.046836164836
1385568460331054582,-0.047914030225,0.0194315862142,0.152243654006,1.0,0.0,0.0472442670081
1385568460380099998,-0.0479307060169,0.0199149121618,0.151150293469,1.0,0.0,0.0475212624839
1385568460431096486,-0.0474554680739,0.0202935899949,0.150053870486,1.0,0.0,0.0478860396166
1385568460480141246,-0.0476442136615,0.0207150760917,0.14878968944,1.0,0.0,0.0481284747029
1385568460530157078,-0.0474347152313,0.020896399244,0.147531608091,1.0,0.0,0.0484686402409
1385568460579978551,-0.0472240975043,0.0209422627606,0.146352642469,1.0,0.0,0.0487334241375
1385568460629974497,-0.0471631658515,0.0211691065096,0.145110272393,1.0,0.0,0.0490361274366
1385568460680208020,-0.0472017008496,0.0211633918246,0.143840370218,1.0,0.0,0.0492678140896
1385568460729949477,-0.0472584383167,0.0219308723606,0.142397991485,1.0,0.0,0.0495345467048
1385568460779945191,-0.0475726424862,0.0225263543061,0.140871537331,1.0,0.0,0.0497641756823
1385568460831176285,-0.0481858648389,0.0229999983774,0.139233810268,1.0,0.0,0.0499094536424
1385568460881158392,-0.0486847880529,0.0237757089427,0.137555638931,1.0,0.0,0.0501068410338
1385568460929940505,-0.0493292027178,0.0246044193227,0.135821243483,1.0,0.0,0.0502343285103
1385568460980075111,-0.049659714281,0.0250677743902,0.134226674847,1.0,0.0,0.0504859034674
1385568461031143832,-0.0500765307214,0.0259370787098,0.132628659154,1.0,0.0,0.0505652915597
1385568461080093520,-0.0504994134325,0.0272218156589,0.130938229588,1.0,0.0,0.0506994842257
1385568461129941477,-0.0505933008047,0.0281964197715,0.129338816283,1.0,0.0,0.0507239970191
1385568461179956038,-0.0511997731872,0.0295626028505,0.127563804397,1.0,0.0,0.0507839301452
1385568461230071350,-0.0511529462494,0.0303671428397,0.126028318658,1.0,0.0,0.0508232895628
1385568461280052226,-0.0517049082962,0.0313567595095,0.124371930164,1.0,0.0,0.0508825738182
1385568461329993345,-0.0520620075221,0.0325097750866,0.12262442015,1.0,0.0,0.0508878091026
1385568461379960879,-0.0519542850007,0.033760270488,0.121037411277,1.0,0.0,0.0508235648914
1385568461429968017,-0.0523261875695,0.0348883200524,0.119358742343,1.0,0.0,0.0507989222847
1385568461479937258,-0.0524061093332,0.0357391972212,0.117758780156,1.0,0.0,0.0507228625779
1385568461529957735,-0.052481216205,0.0368509737904,0.116174685127,1.0,0.0,0.0506425929606
1385568461580162689,-0.0524183252258,0.0377431067319,0.114661782075,1.0,0.0,0.050533244912
1385568461630069770,-0.0526405219506,0.0383923124314,0.113083259796,1.0,0.0,0.0504041887757
1385568461679855282,-0.0525205537201,0.0390080573401,0.111585710256,1.0,0.0,0.050292109737
1385568461731007905,-0.0526033383083,0.0398664899919,0.109967208925,1.0,0.0,0.0500729461722
1385568461780377898,-0.0528562960671,0.0400315066778,0.108346145472,1.0,0.0,0.0499610691404
1385568461830064147,-0.0527789870435,0.0406342805452,0.106771060401,1.0,0.0,0.0497927215309
1385568461880027387,-0.0526612391081,0.0408429007709,0.105205408469,1.0,0.0,0.0495206577441
1385568461930088010,-0.0527901966439,0.040826160659,0.103695037056,1.0,0.0,0.0493878385885
1385568461981098442,-0.0526442241279,0.0410689518117,0.10211845562,1.0,0.0,0.0491134016843
1385568462029966264,-0.0528976628451,0.0406444861211,0.100499530252,1.0,0.0,0.0490168868174
1385568462080157127,-0.0525955878538,0.040723596834,0.0990193306064,1.0,0.0,0.0486991632179
1385568462129968384,-0.0526143917948,0.0403043647373,0.0974465040792,1.0,0.0,0.0485348714002
1385568462180004374,-0.0526748589928,0.0398431703609,0.0958264877404,1.0,0.0,0.0482102647259
1385568462230015160,-0.0527928593589,0.0389614654975,0.0941859859364,1.0,0.0,0.0480923224148
1385568462280138935,-0.0527561668364,0.0383346651065,0.0925810587023,1.0,0.0,0.0477956990321
1385568462330075901,-0.0527155381237,0.0376594071803,0.0909163456936,1.0,0.0,0.0476226538413
1385568462380162633,-0.0527625051554,0.0366899986879,0.0892536444359,1.0,0.0,0.0473680861008
1385568462429989854,-0.0528938208592,0.0357481765073,0.0875340677738,1.0,0.0,0.0471864927698
1385568462479970537,-0.0528111585419,0.0347970046173,0.0859139784321,1.0,0.0,0.0469459417797
1385568462531127264,-0.0530449522376,0.0336345333217,0.0842806314364,1.0,0.0,0.0466790227516
1385568462581082544,-0.0529783231795,0.0322276219324,0.0828586436859,1.0,0.0,0.0465045576105
1385568462629994424,-0.0529164018514,0.0312142431093,0.0813905361603,1.0,0.0,0.0461849366168
1385568462679952070,-0.0532443577475,0.0296477699132,0.0798626422585,1.0,0.0,0.0459256765802
1385568462730004300,-0.0528682770439,0.0286975198727,0.0785059929378,1.0,0.0,0.0457275549976
1385568462779987318,-0.0530839433543,0.0272614161108,0.077111465832,1.0,0.0,0.0454873275163
1385568462829956064,-0.0531019146299,0.0259985670497,0.0756995760927,1.0,0.0,0.0452932155913
1385568462879852934,-0.0532669103572,0.0245869919438,0.0743648205329,1.0,0.0,0.0450208459957
1385568462930190505,-0.0535384531946,0.0231593406344,0.0729454159594,1.0,0.0,0.0448614617186
1385568462980079569,-0.0535354595075,0.0219594327846,0.0715597576593,1.0,0.0,0.0445988904436
1385568463030106611,-0.0537257457471,0.0204237366343,0.0703776729793,1.0,0.0,0.0443871741511
1385568463079936513,-0.0538572361402,0.0190729877762,0.0691099428828,1.0,0.0,0.0442084644222
1385568463130001222,-0.0540515182977,0.0177798779539,0.0678519253043,1.0,0.0,0.0440039983246
1385568463180058954,-0.0541313956556,0.0165415068274,0.0666146131881,1.0,0.0,0.0437842890492
1385568463230122385,-0.0542610917307,0.015449908431,0.065367891631,1.0,0.0,0.0435424827204
1385568463280049667,-0.0542764056972,0.0142557120065,0.0642508748629,1.0,0.0,0.0432979539076
1385568463329926188,-0.0543621238648,0.0131612240134,0.0632248195179,1.0,0.0,0.0430316977506
1385568463379983036,-0.0542641210561,0.012279682348,0.0621247360662,1.0,0.0,0.0427735110217
1385568463430889866,-0.0545130819649,0.0112129965376,0.0610302995518,1.0,0.0,0.0425297099003
1385568463479986753,-0.0543466685333,0.0103813014086,0.0600345462715,1.0,0.0,0.04221807432
1385568463529951263,-0.0544071586672,0.00958441000303,0.0589207360534,1.0,0.0,0.0419455938877
1385568463579955950,-0.0545007747223,0.00864471045795,0.0578855929483,1.0,0.0,0.0416653473487
1385568463630002533,-0.0542690044949,0.00797034250372,0.0570011843942,1.0,0.0,0.0413701736039
1385568463679876222,-0.0543450154456,0.00706357387744,0.0560761400877,1.0,0.0,0.0411266001211
1385568463730181595,-0.054219454617,0.00651936177984,0.0552338970946,1.0,0.0,0.0407962495514
1385568463779859306,-0.0542186234277,0.00546866681256,0.0544319720959,1.0,0.0,0.0406365199526
1385568463829875332,-0.0540814471041,0.00489111539922,0.0537087571029,1.0,0.0,0.0403401961474
1385568463880177892,-0.0538899899967,0.00405540667643,0.0531098450771,1.0,0.0,0.0401407397529
1385568463931095147,-0.0534827979976,0.00366063241638,0.0525896211733,1.0,0.0,0.0398094473872
1385568463979922340,-0.0536480035628,0.00267713038514,0.051693157549,1.0,0.0,0.0396237120972
1385568464030104041,-0.0529180757039,0.00257729323074,0.051256684574,1.0,0.0,0.039333946422
1385568464080979183,-0.0527848531516,0.00200168071203,0.0505173906201,1.0,0.0,0.0390941650355
1385568464131051264,-0.0523158812241,0.00177132098769,0.0497141975074,1.0,0.0,0.0388295727812
1385568464180008629,-0.0518837425871,0.0013158549318,0.0490151578657,1.0,0.0,0.0386007337467
1385568464230178556,-0.0513041870112,0.000907430989318,0.0484302871619,1.0,0.0,0.0383854210074
1385568464280913915,-0.0507551719631,0.000562033835096,0.0478643031137,1.0,0.0,0.0381824996554
1385568464330243658,-0.050144961123,0.000226077426569,0.0472095789386,1.0,0.0,0.0380210754284
1385568464382718720,-0.0494683261476,0.000253572092113,0.0465082678548,1.0,0.0,0.037782810736
1385568464430981230,-0.0487271922098,0.000218253543052,0.0458516890935,1.0,0.0,0.0375702605104
1385568464479907620,-0.047915813198,0.00022369530901,0.0452507029965,1.0,0.0,0.0373633644923
1385568464531427080,-0.0470481493377,0.000275061539942,0.0447407331436,1.0,0.0,0.0371603203704
1385568464583875854,-0.0461828023314,0.00032508768429,0.0442830904744,1.0,0.0,0.0369549302222
1385568464629876201,-0.0452315089974,0.00063494667674,0.0438039675891,1.0,0.0,0.0367297753655
1385568464681013128,-0.0443066546392,0.000891650910248,0.0433365924695,1.0,0.0,0.0365151444204
1385568464730983849,-0.0433748052717,0.00109632179415,0.0429061293629,1.0,0.0,0.0363234255132
1385568464779994476,-0.042511229044,0.00144388736473,0.0424142268151,1.0,0.0,0.0361368081873
1385568464830418829,-0.0415739198152,0.00154001123104,0.0420222547341,1.0,0.0,0.0360097109415
1385568464879887514,-0.0407136347515,0.00188505419806,0.0416472441184,1.0,0.0,0.0358326138846
1385568464931120651,-0.0397925221451,0.00216183137961,0.0413619886273,1.0,0.0,0.0356840992285
1385568464980107979,-0.0389855768554,0.00239054855473,0.040981182153,1.0,0.0,0.0355903940418
1385568465030955653,-0.0380769998431,0.00292499191169,0.0405736666422,1.0,0.0,0.0354180397975
1385568465079964086,-0.0373166986574,0.0032350739993,0.0402231338582,1.0,0.0,0.0352959961724
1385568465130097320,-0.0365673722798,0.00350327988876,0.0399539726955,1.0,0.0,0.0351658031322
1385568465181044025,-0.0358630643546,0.0037345561059,0.0395950607496,1.0,0.0,0.0351028946525
1385568465229960761,-0.035265462202,0.00381979217475,0.0393182427581,1.0,0.0,0.0350559023084
1385568465279941147,-0.0346321694329,0.00412597019956,0.0390439601711,1.0,0.0,0.0350031714823
1385568465329996526,-0.0339742666062,0.00447409934151,0.0387686456985,1.0,0.0,0.0348910068711
1385568465379884353,-0.0335597370905,0.00457983117322,0.0384105327989,1.0,0.0,0.0349003840308
1385568465429996117,-0.0331002688846,0.00491029298125,0.0380787638203,1.0,0.0,0.0348259259905
1385568465480072209,-0.0327029734957,0.00504897812227,0.037758320689,1.0,0.0,0.0348197573925
1385568465530098617,-0.0321986351906,0.00542606899536,0.0375265744047,1.0,0.0,0.0347420737244
1385568465580243090,-0.0319774789883,0.00568677712587,0.0371687538271,1.0,0.0,0.0347417823955
1385568465629981318,-0.0317012986993,0.00583925293714,0.036804629073,1.0,0.0,0.0347593432359
1385568465680074085,-0.0314138297598,0.00611615710265,0.0364968395127,1.0,0.0,0.034765918405
1385568465730093628,-0.031214569134,0.00641893697956,0.0362228212938,1.0,0.0,0.034758777784
1385568465780067957,-0.0309756052014,0.00666669861544,0.0359498305749,1.0,0.0,0.034788785561
1385568465830072317,-0.0308858274003,0.0067543471934,0.0355500598075,1.0,0.0,0.0348842991842
1385568465880076940,-0.0306126719667,0.00713377613758,0.035152882681,1.0,0.0,0.0349142652316
1385568465929956730,-0.0305479221006,0.00727055827014,0.034739095341,1.0,0.0,0.0350296790184
1385568465979947338,-0.0303450282445,0.00759052798499,0.0342869522661,1.0,0.0,0.0351219768169
1385568466030939572,-0.0301347089596,0.00781342841529,0.0339001962474,1.0,0.0,0.0352299015993
1385568466081028437,-0.0299873453799,0.0080888603883,0.0334249720177,1.0,0.0,0.0353432483034
1385568466129962097,-0.0297619971604,0.00831434943231,0.032994875662,1.0,0.0,0.0354777274203
1385568466179965719,-0.0295699237254,0.00860133446044,0.032528646213,1.0,0.0,0.035594510129
1385568466229958681,-0.0293233346784,0.00892936428641,0.0320561703684,1.0,0.0,0.035694729933
1385568466281015447,-0.0291418184392,0.00890994551571,0.031614225608,1.0,0.0,0.0358476475177
1385568466329955533,-0.0289619322493,0.00922026217364,0.0311004150054,1.0,0.0,0.035976206952
1385568466379957505,-0.0287485426019,0.00919135600779,0.030599100019,1.0,0.0,0.0361332314554
1385568466429966879,-0.0285299836282,0.00936183765568,0.0300941279557,1.0,0.0,0.0362853850886
1385568466480973053,-0.0283549308586,0.00938252542195,0.0295035352473,1.0,0.0,0.0364567593357
1385568466529989849,-0.0281566015755,0.00943935811821,0.0289887647489,1.0,0.0,0.0365981504111
1385568466580075414,-0.0279879341178,0.00940377090106,0.0284631614049,1.0,0.0,0.036774544579
1385568466629968892,-0.0277396702814,0.00931455768528,0.0280006546881,1.0,0.0,0.0369973647759
1385568466679977690,-0.0277082645209,0.00916151387115,0.027477058993,1.0,0.0,0.0371799116415
1385568466729973213,-0.0275354167,0.00918979550491,0.0269810361277,1.0,0.0,0.0373801395178
1385568466780394918,-0.027544731997,0.00906224514486,0.0264440894817,1.0,0.0,0.0375619786327
1385568466829930775,-0.0273789652345,0.00899840189773,0.0260855646936,1.0,0.0,0.037712534437
1385568466879919545,-0.0275539751236,0.00858601877937,0.0256568920244,1.0,0.0,0.038024831704
1385568466929959801,-0.0275440436079,0.00840153544447,0.0252703224984,1.0,0.0,0.0382341319322
1385568466979989418,-0.0275751453741,0.008263905146,0.0249561497416,1.0,0.0,0.0384924820103
1385568467030176765,-0.0277641027284,0.00801755699028,0.0246161606838,1.0,0.0,0.0387389300372
1385568467079958576,-0.0279267633676,0.00781068102555,0.0243227984639,1.0,0.0,0.0389913139257
1385568467130976513,-0.0281832018875,0.00731670522986,0.0240694685312,1.0,0.0,0.0393117178468
1385568467181022466,-0.0284320160722,0.0070294742691,0.0238332544638,1.0,0.0,0.0396137900851
1385568467229895462,-0.0287840122648,0.00665702238637,0.0235959518756,1.0,0.0,0.0399257715359
1385568467281064336,-0.0291116994636,0.00626639257182,0.0233805914874,1.0,0.0,0.0402586961099
1385568467330266071,-0.0294761406548,0.00583990370949,0.023178798312,1.0,0.0,0.040585796496
1385568467379926351,-0.0298390863987,0.0053099206509,0.0230601493613,1.0,0.0,0.0409990940145
1385568467430978347,-0.0301638280764,0.00498850521931,0.0229360625011,1.0,0.0,0.0413076896465
1385568467480165302,-0.0305003848521,0.00448383117574,0.0227874767368,1.0,0.0,0.0416673503367
1385568467529961107,-0.0308385593423,0.00407578326092,0.0226535409378,1.0,0.0,0.0420228911812
1385568467579952087,-0.0310980692449,0.00365754793656,0.0225741898396,1.0,0.0,0.0423660582914
1385568467630059280,-0.0313771684691,0.00322564983706,0.0224625747159,1.0,0.0,0.042720008448
1385568467680939503,-0.0315042706679,0.00279800680205,0.0224196491216,1.0,0.0,0.0431102999152
1385568467729926209,-0.0316288590411,0.00241180513767,0.0223230343327,1.0,0.0,0.0434759296121
1385568467781145447,-0.0316518807918,0.00219236893994,0.022215192461,1.0,0.0,0.0437349603568
1385568467829932835,-0.0317165529307,0.00167292766907,0.0220262916004,1.0,0.0,0.0441753711032
1385568467879966116,-0.031562415172,0.00155304118287,0.0219041313041,1.0,0.0,0.0444671978981
1385568467930061858,-0.0314624429941,0.00122148316545,0.0217022816728,1.0,0.0,0.0448044629309
1385568467980219291,-0.0312624012804,0.000977409266845,0.0215320540968,1.0,0.0,0.0451722907741
1385568468029971961,-0.0310368326717,0.000721702471667,0.0212633898337,1.0,0.0,0.0455190851426
1385568468080154775,-0.0308924397425,0.00046371000888,0.020946862038,1.0,0.0,0.045876036505
1385568468130101457,-0.030503647547,0.000526283741021,0.0206796951268,1.0,0.0,0.0461705613791
1385568468179895043,-0.0301979607292,0.000493347967773,0.0204860831453,1.0,0.0,0.0464477010095
1385568468229946957,-0.0299864591186,0.000259470359121,0.0200993938468,1.0,0.0,0.0468257196828
1385568468281152893,-0.0295781640109,0.000563875927328,0.0198567703393,1.0,0.0,0.0470523116928
1385568468331041583,-0.0293231527181,0.000396622143637,0.0195683658748,1.0,0.0,0.0474116188637
1385568468380102899,-0.0290040155897,0.000592853291335,0.0192951084767,1.0,0.0,0.0476827360352
1385568468429945785,-0.0286169796044,0.000855136771147,0.0190768709626,1.0,0.0,0.0479482867503
1385568468481013887,-0.028419463324,0.00084746065563,0.0187986991974,1.0,0.0,0.0482347835091
1385568468530962166,-0.0281546396847,0.00114925759983,0.0185207991964,1.0,0.0,0.0484676637747
1385568468579951667,-0.0278942115034,0.00133181448432,0.0182254158035,1.0,0.0,0.04873957724
1385568468629864691,-0.0276849236464,0.0016368292634,0.018023564415,1.0,0.0,0.0489592597129
1385568468679978705,-0.0274710175597,0.00191968952047,0.0177618385096,1.0,0.0,0.0491785809709
1385568468730292036,-0.0272853469518,0.00228635857332,0.0175833593419,1.0,0.0,0.0493857112726
1385568468779938195,-0.0271562492806,0.00241085431608,0.0173880449287,1.0,0.0,0.0496473096262
1385568468829912786,-0.027041667508,0.00285928906914,0.017167792658,1.0,0.0,0.0498568610602
1385568468879956668,-0.0269361214518,0.0030730765979,0.0169776068165,1.0,0.0,0.0500985689183
1385568468929921305,-0.0268269156266,0.00337604717462,0.016789916673,1.0,0.0,0.0502911568049
1385568468981037296,-0.0266622956737,0.00364939714272,0.0166409050307,1.0,0.0,0.0505215294594
1385568469030106290,-0.0266295463532,0.00383450636021,0.016414203454,1.0,0.0,0.0507075347043
1385568469080870388,-0.0265312265288,0.00413082947206,0.0162569225182,1.0,0.0,0.0509018008855
1385568469131006158,-0.0264692175594,0.00416728087785,0.0160516321752,1.0,0.0,0.0511172841351
1385568469179862850,-0.0263778674451,0.00436741617803,0.0158619568151,1.0,0.0,0.0512926190668
1385568469230899279,-0.0262064494574,0.00443885789683,0.0157359911446,1.0,0.0,0.0515104361895
1385568469279859102,-0.0261096228044,0.00454540912235,0.0155850666172,1.0,0.0,0.0516600082582
1385568469330012733,-0.0259319288526,0.00457069295739,0.01539448336,1.0,0.0,0.0518722012197
1385568469379947230,-0.0256502016621,0.00465009708668,0.0152870312624,1.0,0.0,0.0520078337848
1385568469430046986,-0.0254761920532,0.00452533884323,0.0150911345046,1.0,0.0,0.0522130146192
1385568469480138509,-0.025196269504,0.00452193914032,0.014811244885,1.0,0.0,0.0523595653461
1385568469529971758,-0.0249149895279,0.00444331521014,0.0145073165274,1.0,0.0,0.0524992700237
1385568469579870373,-0.02456011972,0.00440184000759,0.0141797046384,1.0,0.0,0.0526345310928
1385568469630095344,-0.0242438949902,0.00423898574937,0.0138775574381,1.0,0.0,0.0527527227752
1385568469680709128,-0.0238668074212,0.00399980158523,0.0136060637519,1.0,0.0,0.0529518381183
1385568469729962510,-0.0235449713408,0.00381789541095,0.0132192722184,1.0,0.0,0.0530436928273
1385568469779962134,-0.0231519128174,0.00349479906444,0.0128858467734,1.0,0.0,0.0532052229338
1385568469829928039,-0.0227558037776,0.00334234943191,0.0125970071055,1.0,0.0,0.0533177083993
1385568469881185816,-0.0224049019325,0.00298499183614,0.0122895703797,1.0,0.0,0.0534078477653
1385568469929925033,-0.0220359491255,0.00275978905118,0.0119761539813,1.0,0.0,0.0534885345454
1385568469980061821,-0.0216475972557,0.00242626972411,0.0116487432278,1.0,0.0,0.0535802610774
1385568470031018818,-0.0213218924762,0.00204340792561,0.0113314971767,1.0,0.0,0.0536596304302
1385568470080179611,-0.0209320563942,0.00177718793274,0.010989905219,1.0,0.0,0.0537332686118
1385568470130041649,-0.0205704064772,0.0014648897014,0.0106491080271,1.0,0.0,0.0537476396923
1385568470180027266,-0.0202582769766,0.00105586583976,0.0102834394124,1.0,0.0,0.0538156130792
1385568470229887788,-0.019907863361,0.000804652985001,0.00995988196424,1.0,0.0,0.0538026631871
1385568470280038559,-0.0195815874353,0.000567423767835,0.0096396925322,1.0,0.0,0.0537902305541
1385568470330194315,-0.0191853379778,0.00034932532849,0.00939307127792,1.0,0.0,0.0537471833138
1385568470380009568,-0.0189844207179,-1.9196059893e-05,0.00898560832257,1.0,0.0,0.0537306868596
1385568470429904102,-0.0186490046837,-8.98252903152e-05,0.00865175276141,1.0,0.0,0.053672719555
1385568470480942340,-0.0184154230754,-0.000314513773941,0.00832452928044,1.0,0.0,0.0536060322054
1385568470530932938,-0.018213846588,-0.00052008716057,0.00803278910556,1.0,0.0,0.0535705715029
1385568470580971001,-0.0180141514096,-0.000628666918722,0.00769973347502,1.0,0.0,0.0535070618951
1385568470630968235,-0.0178801659982,-0.000795199769512,0.00738117013466,1.0,0.0,0.0534464485387
1385568470679948839,-0.0177160797442,-0.000806926575325,0.00710542468629,1.0,0.0,0.0533360622404
1385568470730067551,-0.0175973372825,-0.000794537831773,0.00681513541949,1.0,0.0,0.0532280223957
1385568470779976485,-0.0174913197714,-0.00090957868724,0.00665534669886,1.0,0.0,0.0531566580523
1385568470829933669,-0.0174445961936,-0.00106724343494,0.00644514500861,1.0,0.0,0.0530936250374
1385568470880145676,-0.017399472219,-0.00111192266989,0.00619650938915,1.0,0.0,0.0530387398607
1385568470929898266,-0.0173247967699,-0.00110606385413,0.00595063161953,1.0,0.0,0.0529378710408
1385568470980063126,-0.0173315555616,-0.0012720179362,0.00568853810783,1.0,0.0,0.0528648576145
1385568471029971286,-0.0172450881736,-0.00141658308768,0.00541778838386,1.0,0.0,0.0527894326827
1385568471079894215,-0.0171344244244,-0.00135194781145,0.00522011183041,1.0,0.0,0.0526538721913
1385568471129902955,-0.0171092758781,-0.00169161975848,0.00491327167366,1.0,0.0,0.0526407213894
1385568471180888586,-0.0169942250157,-0.00170402866363,0.00470785189405,1.0,0.0,0.0525039054317
1385568471230970193,-0.0169376640025,-0.00196989764993,0.00438752524758,1.0,0.0,0.0524513088948
1385568471281085601,-0.0168114171099,-0.00212444982987,0.00409126957339,1.0,0.0,0.052374496579
1385568471329966668,-0.016709984398,-0.00224301617464,0.00383370037292,1.0,0.0,0.0522978947647
1385568471380157005,-0.0165856510178,-0.00238279071366,0.00359029758749,1.0,0.0,0.0522251552577
1385568471429982530,-0.0165214672264,-0.0024662700994,0.00332180860594,1.0,0.0,0.0521175512159
1385568471479982634,-0.0164136103135,-0.00261844798862,0.00311135604749,1.0,0.0,0.0520845449239
1385568471529862107,-0.0163911209961,-0.00262144525508,0.00290257342491,1.0,0.0,0.0520057375296
1385568471580915308,-0.0163384153555,-0.00271136367339,0.00274663548305,1.0,0.0,0.0519713241512
1385568471629867140,-0.0163039119492,-0.0026796461847,0.00262861255759,1.0,0.0,0.0519091326414
1385568471681070002,-0.0163998516574,-0.00277396685018,0.00242639291274,1.0,0.0,0.0518840210023
1385568471730004494,-0.0164125313953,-0.00285558112344,0.00233282153117,1.0,0.0,0.0519025747784
1385568471780048983,-0.0165310501055,-0.00283372945209,0.00222292858929,1.0,0.0,0.0518338712171
1385568471830983259,-0.0166877526863,-0.00278831399326,0.00216867951004,1.0,0.0,0.0517813051509
1385568471880009179,-0.0168253328447,-0.00273941307826,0.00214219136583,1.0,0.0,0.0517066285023
1385568471930030029,-0.0170095796167,-0.00283838007492,0.00218918958512,1.0,0.0,0.0517470833149
1385568471979960171,-0.0172309481296,-0.00282880709041,0.00213335405735,1.0,0.0,0.0516809305192
1385568472030062229,-0.0174126184151,-0.00287954565608,0.00211636149095,1.0,0.0,0.0516973838337
1385568472080032720,-0.0176094901941,-0.00287376590723,0.00214532329933,1.0,0.0,0.0516547465087
1385568472129893613,-0.0177690115475,-0.00296567534303,0.00206623936127,1.0,0.0,0.0516707468393
1385568472179982650,-0.017929906879,-0.00291823331861,0.00206745265871,1.0,0.0,0.0516171125875
1385568472229924622,-0.0181061832038,-0.0029511232449,0.00199951856216,1.0,0.0,0.0515972474842
1385568472280269276,-0.0181821868804,-0.0030125249902,0.00200615506895,1.0,0.0,0.0515557881956
1385568472331111038,-0.0182713959694,-0.00301182696924,0.00199057610664,1.0,0.0,0.0515107538392
1385568472379899761,-0.0182925534239,-0.00304367232922,0.00196939068892,1.0,0.0,0.0514792240355
1385568472429926272,-0.0183130350758,-0.0030284126879,0.00197418971028,1.0,0.0,0.0514296954321
1385568472481141580,-0.0182571187535,-0.00313130995853,0.00192314758731,1.0,0.0,0.0514374606649
1385568472529957451,-0.0182233894466,-0.00320918228137,0.00189265622143,1.0,0.0,0.05145586041
1385568472580958484,-0.0181389290614,-0.00326110947624,0.00190043976446,1.0,0.0,0.0514224695706
1385568472629913320,-0.0180023526216,-0.00327853016714,0.00191093824355,1.0,0.0,0.0513936884954
1385568472679955872,-0.0178356007132,-0.00346547136228,0.00191191308754,1.0,0.0,0.0514155426702
1385568472729971208,-0.0176563522353,-0.00352163168484,0.001941500273,1.0,0.0,0.0513872822896
1385568472780099622,-0.0174116756127,-0.00371056223287,0.00200776274173,1.0,0.0,0.0514224968637
1385568472830201947,-0.0171000989726,-0.00376662824734,0.00206299897419,1.0,0.0,0.0514091011637
1385568472880876902,-0.0168580822978,-0.00408167292046,0.00207044716366,1.0,0.0,0.0514740418625
1385568472929951189,-0.0165682992406,-0.00425859291895,0.00203234143398,1.0,0.0,0.0514565499859
1385568472980989406,-0.016214224113,-0.00452435441341,0.00205350297138,1.0,0.0,0.0515323903291
1385568473030162359,-0.0158487401793,-0.00480676519701,0.0021074625987,1.0,0.0,0.0515531764579
1385568473080022654,-0.015486417758,-0.00501653078658,0.00214080573075,1.0,0.0,0.0515928194504
1385568473129976931,-0.0151593470854,-0.0053599492258,0.00214773268087,1.0,0.0,0.0516404983664
1385568473180144815,-0.0147663516836,-0.00565869491114,0.00217198028133,1.0,0.0,0.0516799835843
1385568473229972365,-0.0144350468973,-0.00598018492413,0.00216899424306,1.0,0.0,0.0517549776789
1385568473280015652,-0.0141144373311,-0.00631999401204,0.00215357742183,1.0,0.0,0.0518628560092
1385568473330069242,-0.0137998209535,-0.00649762845839,0.00218489851955,1.0,0.0,0.0518924707269
1385568473380018171,-0.0135559261388,-0.00685382605873,0.00218957604194,1.0,0.0,0.0519846677791
1385568473430937153,-0.013333421349,-0.00711213662646,0.00223381488305,1.0,0.0,0.0520916809645
1385568473480984079,-0.0132099490161,-0.00745333388198,0.00225881030117,1.0,0.0,0.0521979580148
1385568473531146198,-0.0130905799961,-0.00760552583397,0.00235449908456,1.0,0.0,0.0522405027283
1385568473579988448,-0.0131433544585,-0.00794042708068,0.0023991103504,1.0,0.0,0.0523346713655
1385568473629986311,-0.0131139458159,-0.00809089980314,0.00255993085967,1.0,0.0,0.0524277896596
1385568473680083089,-0.0132514758369,-0.00821534598592,0.00265617701521,1.0,0.0,0.0525000693641
1385568473729879358,-0.0133774528816,-0.00842040505315,0.00275868254257,1.0,0.0,0.0526013757252
1385568473780963520,-0.0136054616793,-0.00853847799396,0.00287053973492,1.0,0.0,0.0527231862018
1385568473829982430,-0.0138489317823,-0.00869726020534,0.00301060728417,1.0,0.0,0.0528320049362
1385568473879971400,-0.0141785430041,-0.00887458496678,0.00314700482435,1.0,0.0,0.0529898500427
1385568473929869718,-0.0144466563261,-0.00892130672402,0.0033703118416,1.0,0.0,0.0531199041806
1385568473979966314,-0.0148229977586,-0.00923602883833,0.00356357328434,1.0,0.0,0.0533479313349
1385568474029936982,-0.0152276277956,-0.00927749477294,0.00371415790204,1.0,0.0,0.0534863564258
1385568474080098136,-0.0155636616136,-0.00938697364674,0.00390308912957,1.0,0.0,0.0536527733352
1385568474130215792,-0.0159394455522,-0.0094963365185,0.00412302195652,1.0,0.0,0.0538138068975
1385568474180118852,-0.0163299634967,-0.00954775491545,0.00428007171047,1.0,0.0,0.0539350235654
1385568474229947265,-0.0166503103088,-0.00952091718626,0.0044149948109,1.0,0.0,0.054039297092
1385568474279997312,-0.0169491471596,-0.00967596433138,0.00458233331129,1.0,0.0,0.0542446931113
1385568474330942408,-0.0172468850854,-0.00952247354734,0.00474857709565,1.0,0.0,0.054279474127
1385568474380083839,-0.017507482895,-0.00957155925899,0.00490636149712,1.0,0.0,0.0544679960985
1385568474430173452,-0.0178166398437,-0.00943782393657,0.00500654578611,1.0,0.0,0.0545409241509
1385568474480078870,-0.0180271313637,-0.00928198600744,0.00515847228222,1.0,0.0,0.0546408211844
1385568474530238227,-0.0182698583977,-0.00908808537588,0.00530304891553,1.0,0.0,0.0547433041803
1385568474579965950,-0.0185130010486,-0.00890989202228,0.00541358881914,1.0,0.0,0.0548219508452
1385568474629973704,-0.0187601866464,-0.00861457102142,0.00552708274433,1.0,0.0,0.0548921808874
1385568474681013813,-0.0190413197183,-0.0082640367848,0.00566024024379,1.0,0.0,0.0549103940384
1385568474731336767,-0.0192992307078,-0.00791132984803,0.00578232310075,1.0,0.0,0.0549351829198
1385568474779985116,-0.0195550314409,-0.00766549363137,0.0059068444146,1.0,0.0,0.0550062977505
1385568474830069657,-0.0198133954965,-0.00730268294065,0.0060379098443,1.0,0.0,0.0550294773287
1385568474880052641,-0.0201086675055,-0.00698600752202,0.00613998883002,1.0,0.0,0.0550504037321
1385568474929984452,-0.0202458042218,-0.00661111156971,0.00626925297462,1.0,0.0,0.055104009812
1385568474979966959,-0.0204843758504,-0.00634054935723,0.00633087458563,1.0,0.0,0.0551385715057
1385568475030164018,-0.0206400639961,-0.00600466563387,0.00635505015856,1.0,0.0,0.0552285221017
1385568475080034725,-0.0207548020726,-0.00547166103595,0.00639422882813,1.0,0.0,0.055164127313
1385568475130050927,-0.0208489971973,-0.00521801130386,0.00636528550479,1.0,0.0,0.055265238971
1385568475180268897,-0.0209454648399,-0.00485277822365,0.00631988017911,1.0,0.0,0.0552591651525
1385568475229960979,-0.0209707365159,-0.00446366034638,0.00628505275701,1.0,0.0,0.0552751343946
1385568475280892722,-0.0209338439035,-0.00401696000317,0.00630103841131,1.0,0.0,0.0552418214995
1385568475331222724,-0.0208853560473,-0.00371971279795,0.00625374537947,1.0,0.0,0.0552634124746
1385568475380947248,-0.0207602751191,-0.00323457358114,0.00620987805561,1.0,0.0,0.0551957654263
1385568475429919376,-0.0206059461171,-0.00280996925002,0.00615850374004,1.0,0.0,0.0551647269895
1385568475480078305,-0.0203933941785,-0.00254676679089,0.00608558615118,1.0,0.0,0.0551667177809
1385568475530048204,-0.0201664906177,-0.0021602168093,0.0059457070963,1.0,0.0,0.0550919020339
1385568475580008625,-0.0198462820049,-0.0019094204152,0.00585370816362,1.0,0.0,0.0551076658394
1385568475630959167,-0.0194913193595,-0.00153236274698,0.00575734590809,1.0,0.0,0.0550826775274
1385568475680076399,-0.0191074567717,-0.00145266211988,0.00561697359559,1.0,0.0,0.0551238511841
1385568475730075216,-0.0186096768609,-0.00117862929734,0.00551298959917,1.0,0.0,0.0551256983803
1385568475780080611,-0.0182304132973,-0.00110127401075,0.00533470527979,1.0,0.0,0.0551428138301
1385568475829918477,-0.0177020821115,-0.000975291992859,0.00518981866258,1.0,0.0,0.0551859068549
1385568475879961371,-0.0172502187896,-0.000935285165894,0.00498958530825,1.0,0.0,0.0551995743331
1385568475931054105,-0.016745768355,-0.000846918260551,0.00477961316863,1.0,0.0,0.055195712498
1385568475979973392,-0.0162549678779,-0.000877473145183,0.00456975601487,1.0,0.0,0.0552104664557
1385568476030026273,-0.0157267866129,-0.000796792816252,0.00436733850479,1.0,0.0,0.0551914911208
1385568476079945286,-0.0153108492237,-0.000845087785425,0.00413846860233,1.0,0.0,0.0551782114704
1385568476130001326,-0.0148703329664,-0.000873424809029,0.0038845629507,1.0,0.0,0.0551504830869
1385568476181123267,-0.014449583916,-0.000912374159516,0.0036401313093,1.0,0.0,0.0551253521773
1385568476230933093,-0.0140275019736,-0.000988119945445,0.00340488028548,1.0,0.0,0.0551169424436
1385568476280116957,-0.0137104312282,-0.0010290117528,0.00315750412017,1.0,0.0,0.0550721486019
1385568476330289991,-0.0133452387365,-0.0011145256024,0.00289523298329,1.0,0.0,0.0550321853729
1385568476379983392,-0.013015567668,-0.00124431680614,0.00269482045425,1.0,0.0,0.0550178131123
1385568476429938171,-0.0126565101243,-0.00135249416942,0.00243895400028,1.0,0.0,0.0549942407116
1385568476479963122,-0.0124268883623,-0.00152335075124,0.0021458311918,1.0,0.0,0.0549568651385
1385568476530089447,-0.012165210107,-0.00165344437959,0.00187846663862,1.0,0.0,0.0549012054763
1385568476579874952,-0.0119049583238,-0.00199925470074,0.00152722252774,1.0,0.0,0.0549040656097
1385568476630113916,-0.0117046743362,-0.00217712397591,0.00120605192173,1.0,0.0,0.0548740183389
1385568476679887263,-0.0115333208618,-0.00251944962304,0.000869864960805,1.0,0.0,0.0548575708188
1385568476729982737,-0.0113518587599,-0.00275366551858,0.000544534312136,1.0,0.0,0.0547873411744
1385568476779991937,-0.0112772452406,-0.00309593451083,0.000227799938992,1.0,0.0,0.0547312088222
1385568476829866308,-0.0110514789861,-0.00345275361959,-4.28859645837e-05,1.0,0.0,0.0546926246088
1385568476880092251,-0.0110424436076,-0.003884441637,-0.000377309873801,1.0,0.0,0.0546875592634
1385568476929970696,-0.010944172144,-0.0043072858874,-0.0006894043778,1.0,0.0,0.0546471446866
1385568476979963382,-0.0108775854552,-0.00464753034102,-0.00094652868721,1.0,0.0,0.0545898701412
1385568477030152470,-0.010857494687,-0.00517059933555,-0.00124754885646,1.0,0.0,0.0545579529397
1385568477079983864,-0.0108862268945,-0.00551221026609,-0.00152775621051,1.0,0.0,0.0544775195735
1385568477129922614,-0.0108475533197,-0.00601006122526,-0.00174802000126,1.0,0.0,0.0544476055939
1385568477181117060,-0.0108059941645,-0.00647437072412,-0.00196975826696,1.0,0.0,0.0543794323544
1385568477229919412,-0.010782373191,-0.00704109171066,-0.0021837657196,1.0,0.0,0.0543880933731
1385568477279903050,-0.0107060327793,-0.00747871335527,-0.00239235438249,1.0,0.0,0.0543487419577
1385568477330036701,-0.0106735147821,-0.00791587467054,-0.00261975855199,1.0,0.0,0.0543205428575
1385568477381050691,-0.010514832911,-0.00832885470108,-0.00282573266527,1.0,0.0,0.0543069167518
1385568477430934273,-0.010450460881,-0.00866826815505,-0.00305939107428,1.0,0.0,0.0542754332809
1385568477480066743,-0.0103133586841,-0.00900319765635,-0.0032935998969,1.0,0.0,0.0543151727379
1385568477531067703,-0.0101833515577,-0.00930439071618,-0.00356502766835,1.0,0.0,0.0543024213365
1385568477579936592,-0.010059454737,-0.0095832233186,-0.00383565903636,1.0,0.0,0.0543261101485
1385568477630062102,-0.00991666793937,-0.00968443133062,-0.0040283248938,1.0,0.0,0.0542929702397
1385568477680906691,-0.00985824480475,-0.0099798695068,-0.00424754061525,1.0,0.0,0.0543296929447
1385568477730887421,-0.00970049172195,-0.0100149901209,-0.00440611172776,1.0,0.0,0.0543253582392
1385568477781104911,-0.00966405009642,-0.0102091534529,-0.0046138120829,1.0,0.0,0.054360991824
1385568477830294521,-0.00959893507675,-0.010211893571,-0.00476547477398,1.0,0.0,0.0543232464855
1385568477879979193,-0.00959082040927,-0.0103014555849,-0.00491996925094,1.0,0.0,0.0543928632347
1385568477929988443,-0.00958611493303,-0.0103090583379,-0.00506268309854,1.0,0.0,0.0544232602703
1385568477980053031,-0.00961902461671,-0.0101926374972,-0.00518135912962,1.0,0.0,0.0544451207712
1385568478030972197,-0.0096662906158,-0.0101281239392,-0.00527840630857,1.0,0.0,0.0545291725664
1385568478080909228,-0.00973113571612,-0.00989753351402,-0.00532909199833,1.0,0.0,0.0545702809132
1385568478129939872,-0.0098093666518,-0.00968506278048,-0.00539659638398,1.0,0.0,0.0546113498184
1385568478179989527,-0.00991304877599,-0.00943538861,-0.00540875792975,1.0,0.0,0.0546692790667
1385568478229969923,-0.010043059441,-0.00915240932666,-0.00547683476513,1.0,0.0,0.0546933698131
1385568478279920332,-0.0101796293892,-0.00892462183295,-0.0055226431241,1.0,0.0,0.0547677249431
1385568478330990646,-0.0102781120602,-0.00866256265797,-0.00552896645021,1.0,0.0,0.0548273145137
1385568478380095024,-0.0104742286716,-0.00845799601764,-0.0055789534564,1.0,0.0,0.0549144520103
1385568478429980099,-0.0105589518507,-0.00817524869874,-0.00552420481176,1.0,0.0,0.0549927158012
1385568478480394538,-0.0107651312071,-0.00790025972363,-0.0054970502833,1.0,0.0,0.0550684125046
1385568478530192065,-0.010910824089,-0.00769529846091,-0.00545500593362,1.0,0.0,0.0551962449021
1385568478580146422,-0.0110338854307,-0.00746692200595,-0.00535252485806,1.0,0.0,0.0553301981307
1385568478630008490,-0.0112008152607,-0.00724283791016,-0.00526564446291,1.0,0.0,0.0554694223623
1385568478681036735,-0.0112975786686,-0.00703352222118,-0.0051725709903,1.0,0.0,0.0556302640732
1385568478729869543,-0.0114420929203,-0.0067304646509,-0.0050539304378,1.0,0.0,0.0557338782349
1385568478779855450,-0.0114831560484,-0.00656918193871,-0.00491297713043,1.0,0.0,0.055915615692
1385568478830035231,-0.0115402476298,-0.00628090630935,-0.00471475211756,1.0,0.0,0.0560319307935
1385568478879966586,-0.0115745794961,-0.00614504416,-0.00455189604712,1.0,0.0,0.0562333272085
1385568478929983622,-0.0116019774292,-0.00588618329309,-0.00437818956011,1.0,0.0,0.0563247150249
1385568478979946294,-0.0116027576841,-0.00573540479976,-0.00415065962589,1.0,0.0,0.056495100344
1385568479029914470,-0.0115430258845,-0.00556119714511,-0.00394591527146,1.0,0.0,0.0566722205694
1385568479079934680,-0.0115132616736,-0.00541662486827,-0.00374212563325,1.0,0.0,0.0567789472029
1385568479129921792,-0.0114380025933,-0.00530913318636,-0.00348085251391,1.0,0.0,0.0569279099779
1385568479180020292,-0.0112534950541,-0.00523506207925,-0.00321303318163,1.0,0.0,0.0570830060917
1385568479230046803,-0.0110117908432,-0.00511754538988,-0.00292564614428,1.0,0.0,0.0572637517522
1385568479279994519,-0.0107633312759,-0.00514322500534,-0.00267254681916,1.0,0.0,0.0574529941619
1385568479329964362,-0.0103967708152,-0.00505408962462,-0.00245755147215,1.0,0.0,0.0576806303306
1385568479381130816,-0.0100654319955,-0.00508109535483,-0.00227138742229,1.0,0.0,0.0578621343496
1385568479429961768,-0.00967484199199,-0.00506521593806,-0.00214247956443,1.0,0.0,0.0580789172421
1385568479480036052,-0.00926267947368,-0.00508684292549,-0.0020357947688,1.0,0.0,0.0582676177607
1385568479530941832,-0.00873445292126,-0.00509277276661,-0.0018300706526,1.0,0.0,0.0585158457663
1385568479580117511,-0.00826824692376,-0.00519960004827,-0.0016485045665,1.0,0.0,0.0587226279162
1385568479630913733,-0.00777197417809,-0.00520697428422,-0.00152460512307,1.0,0.0,0.0589216150971
1385568479680951615,-0.00727603713001,-0.00528427250779,-0.00141020495792,1.0,0.0,0.0591245990535
1385568479731013833,-0.00676740194491,-0.00539607002579,-0.00130402801325,1.0,0.0,0.0593527756413
1385568479779961553,-0.00629566280667,-0.00553284589773,-0.00120810878009,1.0,0.0,0.0595695479089
1385568479830169489,-0.00578810035871,-0.00567620672826,-0.00104131494587,1.0,0.0,0.059793778493
1385568479879957471,-0.00538144228817,-0.00575141609378,-0.000902206625365,1.0,0.0,0.060000649633
1385568479930083964,-0.00491571666179,-0.00603560886082,-0.000737020511589,1.0,0.0,0.0602065104274
1385568479980225798,-0.00454275095739,-0.00622593294063,-0.000595174569084,1.0,0.0,0.0604061287779
1385568480029937192,-0.00415024807138,-0.00652968845949,-0.000493054977152,1.0,0.0,0.0606469429611
1385568480079861761,-0.00385446823129,-0.00677188354065,-0.000356414694087,1.0,0.0,0.0608099138166
1385568480129911818,-0.00354743208113,-0.00696529798807,-0.000183872530231,1.0,0.0,0.061044746181
1385568480181051949,-0.00324190320971,-0.00735817700494,-1.20478777471e-05,1.0,0.0,0.0612772601603
1385568480230106302,-0.0030549791615,-0.00768040278535,0.000104334385357,1.0,0.0,0.0615403718916
1385568480279943734,-0.00286470665827,-0.00800223662717,0.000262982582183,1.0,0.0,0.0617987370968
1385568480330109399,-0.00271324647618,-0.00832018083751,0.000416711166879,1.0,0.0,0.0620695852908
1385568480380103143,-0.00261522765352,-0.00863502291194,0.000585017009663,1.0,0.0,0.0623435866813
1385568480430050189,-0.00260377411166,-0.00891214671433,0.000743124698526,1.0,0.0,0.0625736990916
1385568480480001474,-0.00253801622917,-0.00929563188501,0.000892093873366,1.0,0.0,0.0629261794002
1385568480531185876,-0.00262768723112,-0.00950970833371,0.00103230770085,1.0,0.0,0.0631309390265
1385568480579958370,-0.00271096660022,-0.00981790617455,0.00117011514175,1.0,0.0,0.0634746678521
1385568480629866966,-0.00283564458898,-0.0100380390651,0.00128996544789,1.0,0.0,0.0637574162038
1385568480680134186,-0.00294972943533,-0.0103020859035,0.00146383745387,1.0,0.0,0.0640779367505
1385568480730087427,-0.00321009678904,-0.0104441696806,0.00158517837994,1.0,0.0,0.0643176222644
1385568480780113305,-0.00330274059131,-0.0107209058896,0.0017638888875,1.0,0.0,0.0646825521423
1385568480830075079,-0.00360624065204,-0.0108438204006,0.00183847422656,1.0,0.0,0.0649471217156
1385568480879950723,-0.00378501310088,-0.011098276119,0.00192559293229,1.0,0.0,0.0653135652877
1385568480930200961,-0.0040582917126,-0.0112177582924,0.00203297759975,1.0,0.0,0.0655992538323
1385568480979899444,-0.00428700830871,-0.0114265153638,0.00212482098861,1.0,0.0,0.0659789593089
1385568481030198505,-0.00459900300984,-0.011594486848,0.00218268725822,1.0,0.0,0.0662936245479
1385568481079963637,-0.00484663312697,-0.0116900561843,0.00227001775497,1.0,0.0,0.0666747256612
1385568481130857927,-0.00514523301359,-0.0117803718357,0.00233127980697,1.0,0.0,0.0669809902019
1385568481181072674,-0.00546398925948,-0.0119248182787,0.00235444436396,1.0,0.0,0.0673806861007
1385568481230975966,-0.0057714090364,-0.0118851384371,0.00244362261483,1.0,0.0,0.0677008463909
1385568481281187713,-0.00609791941511,-0.0119842113713,0.00247082709104,1.0,0.0,0.0680372780318
1385568481330183988,-0.00641623611959,-0.0119510587528,0.00247096508326,1.0,0.0,0.0683810029513
1385568481379978884,-0.00671219703599,-0.0119548480314,0.00247949522479,1.0,0.0,0.0687369269862
1385568481429969859,-0.00705070263384,-0.0119047390486,0.00245481976477,1.0,0.0,0.0690315465088
1385568481480073206,-0.00731655831967,-0.0119339385177,0.00242953744998,1.0,0.0,0.0694303079944
1385568481530232614,-0.00764084113669,-0.0118892163827,0.00235487480644,1.0,0.0,0.0697018871721
1385568481579953419,-0.00779046792799,-0.0118456875238,0.0023781630197,1.0,0.0,0.0700923745373
1385568481629956868,-0.00806974709575,-0.0118188727545,0.00235514445065,1.0,0.0,0.0704092525308
1385568481679966601,-0.00828622381747,-0.0117354355199,0.00231942245667,1.0,0.0,0.0707025285671
1385568481730093623,-0.00851003478184,-0.0117587703438,0.00225409078756,1.0,0.0,0.0710394438122
1385568481779991221,-0.00874077610024,-0.0117592867116,0.00218139518972,1.0,0.0,0.0713405712907
1385568481829900000,-0.00895827360423,-0.0116752914467,0.00213401252741,1.0,0.0,0.0716386560244
1385568481880854545,-0.00916271872991,-0.0115983876287,0.00209794907459,1.0,0.0,0.0719322418569
1385568481930927486,-0.00942025623855,-0.0116444259731,0.00205528129991,1.0,0.0,0.0722664485317
1385568481980168636,-0.00968770814011,-0.0116886680047,0.00200584088321,1.0,0.0,0.072568264365
1385568482030850822,-0.00991613480253,-0.0116192327809,0.00202701741811,1.0,0.0,0.0728923181201
1385568482079953744,-0.0102420256237,-0.0116453231263,0.00199339238549,1.0,0.0,0.0731687077979
1385568482129965080,-0.0106072629131,-0.0116475470811,0.0019742086866,1.0,0.0,0.0734654443625
1385568482180926123,-0.0109432500593,-0.0117238621832,0.00193427122687,1.0,0.0,0.0737895434181
1385568482229943804,-0.0112489514397,-0.01170100798,0.00192029513499,1.0,0.0,0.0741077748437
1385568482280191701,-0.0116565361791,-0.0117602321414,0.00191125684381,1.0,0.0,0.0744319364407
1385568482329962421,-0.0120134164087,-0.0118336894968,0.00184090693529,1.0,0.0,0.0747899989534
1385568482379944870,-0.0123221624543,-0.0117858179325,0.00181390406155,1.0,0.0,0.0751296846934
1385568482429863844,-0.0127412326799,-0.0118350715582,0.00173416457675,1.0,0.0,0.0754697198846
1385568482480315414,-0.013118960664,-0.0118325696307,0.00161775600144,1.0,0.0,0.0757897986682
1385568482530085995,-0.013550422074,-0.0119189250087,0.00145004668109,1.0,0.0,0.0761564837745
1385568482580079686,-0.0139039063459,-0.0118971427222,0.00138706327558,1.0,0.0,0.0764846032902
1385568482630160059,-0.0143879413764,-0.011907369555,0.00126387630549,1.0,0.0,0.0768369153917
1385568482679916000,-0.0147867664938,-0.0118235601125,0.00116915073261,1.0,0.0,0.0771909954261
1385568482730059478,-0.0152477106725,-0.0117538289456,0.00106200215435,1.0,0.0,0.0775466436921
1385568482780170889,-0.0157468788285,-0.0117010729383,0.00098442040903,1.0,0.0,0.0779012435981
1385568482830195249,-0.0162654387697,-0.0115173037294,0.000867798637688,1.0,0.0,0.078258116083
1385568482879990439,-0.0167358390867,-0.0113985959136,0.000788971956597,1.0,0.0,0.0786116044657
1385568482929980200,-0.0172744367576,-0.0111423166473,0.000679382348568,1.0,0.0,0.0789371096784
1385568482980161995,-0.0178264192561,-0.0109053215209,0.000597169655344,1.0,0.0,0.0792969218683
1385568483030149089,-0.0183616385722,-0.0105224118252,0.000498036020544,1.0,0.0,0.0796124487337
1385568483079952054,-0.0189230461637,-0.0101033928312,0.000390287730144,1.0,0.0,0.0799135280404
1385568483129870513,-0.0194611735856,-0.00969674555735,0.000280985195562,1.0,0.0,0.080227701504
1385568483180975895,-0.0199728195229,-0.00910883400342,0.000146987144393,1.0,0.0,0.0804723156463
1385568483231052618,-0.0204360099608,-0.00850267630682,3.40828905519e-05,1.0,0.0,0.0807023287942
1385568483280010228,-0.0209491408538,-0.00795504677397,-0.000148211019352,1.0,0.0,0.0809642069728
1385568483329979339,-0.0213676660789,-0.00731464350006,-0.000270228818316,1.0,0.0,0.0811781995631
1385568483379870425,-0.0217810645759,-0.0065703794596,-0.000369446997048,1.0,0.0,0.0813567827432
1385568483430066220,-0.0221313582176,-0.00581738390518,-0.000452078728268,1.0,0.0,0.08154947871
1385568483480073522,-0.0223903590168,-0.00512057371296,-0.000538212796767,1.0,0.0,0.0817881552348
1385568483530099531,-0.0226958435735,-0.00429906024886,-0.000641208217585,1.0,0.0,0.0819277727316
1385568483579943353,-0.0228563858693,-0.00340614247771,-0.000710720958749,1.0,0.0,0.0820737884859
1385568483630093718,-0.0230520467623,-0.00271134785197,-0.000852635181945,1.0,0.0,0.0822612583796
1385568483680917631,-0.0230873034428,-0.00168647927161,-0.000926788899635,1.0,0.0,0.0823192956682
1385568483729906594,-0.0231041857924,-0.000820478621593,-0.000992843951305,1.0,0.0,0.0824596080618
1385568483779988474,-0.0230203700998,6.09119797072e-05,-0.00111760847218,1.0,0.0,0.0825022247398
1385568483829964339,-0.0228257182015,0.00092662911817,-0.0012205388731,1.0,0.0,0.0825944822422
1385568483879940106,-0.0225448692504,0.00185581070407,-0.00130440580149,1.0,0.0,0.082642849291
1385568483930071580,-0.0221672048708,0.00270177736006,-0.00142412145778,1.0,0.0,0.0826994842065
1385568483980240628,-0.0217117679845,0.00342182600292,-0.00157005460735,1.0,0.0,0.0828011785397
1385568484029995855,-0.0211560793618,0.00427705730627,-0.00169061642947,1.0,0.0,0.0828040366036
1385568484079971795,-0.0205685971346,0.00498687571987,-0.00180040164841,1.0,0.0,0.0828378344707
1385568484129896717,-0.0198765651341,0.00568373890857,-0.00186197390078,1.0,0.0,0.0828258849342
1385568484181023765,-0.0191678539926,0.00633790809055,-0.0019273259636,1.0,0.0,0.082816091676
1385568484230084860,-0.0183017802422,0.00682767418994,-0.00195900585937,1.0,0.0,0.0828390492036
1385568484280100193,-0.017546866141,0.00735028729923,-0.00205913769638,1.0,0.0,0.0827954468658
1385568484329968070,-0.0166410960242,0.00783421470018,-0.00206893206735,1.0,0.0,0.0827346516142
1385568484380929839,-0.0158139735758,0.00814701155256,-0.00217972494378,1.0,0.0,0.0826593620874
1385568484429947001,-0.0148932308743,0.00836526447672,-0.00224450460391,1.0,0.0,0.0826121278361
1385568484479987024,-0.0139726404714,0.0085125243269,-0.00227307908324,1.0,0.0,0.0825346433808
1385568484529913203,-0.0130939166352,0.00871727184962,-0.00233620323879,1.0,0.0,0.082392334086
1385568484580021084,-0.0122559913354,0.00870982896761,-0.00247893658645,1.0,0.0,0.0822832612982
1385568484630047651,-0.0113822517131,0.00867668616403,-0.00247898235413,1.0,0.0,0.0821571699564
1385568484679981081,-0.0106032306401,0.00851012034761,-0.00254253468405,1.0,0.0,0.0820785566511
1385568484730024603,-0.00978910030373,0.00831746940042,-0.0024966128686,1.0,0.0,0.0819894015851
1385568484779905171,-0.00909301337145,0.00804271220455,-0.00246262499823,1.0,0.0,0.0818731963733
1385568484829968838,-0.00848323234457,0.00767618620032,-0.00254075391683,1.0,0.0,0.0817607965429
1385568484880942484,-0.00777608265156,0.00729982631764,-0.00245224437669,1.0,0.0,0.0816325303859
1385568484931123100,-0.00721930141432,0.00680045545323,-0.00243333394283,1.0,0.0,0.0815827469144
1385568484980949281,-0.00672244848205,0.00629408049977,-0.00242013474878,1.0,0.0,0.0814667177761
1385568485030191175,-0.00627863406578,0.00572182283467,-0.00241205784724,1.0,0.0,0.0813966968109
1385568485079908177,-0.00584382423632,0.00516271446412,-0.00226507494944,1.0,0.0,0.0813181739359
1385568485129985504,-0.00554626027298,0.00450267017016,-0.00221225460161,1.0,0.0,0.0812625583631
1385568485179986921,-0.00523867905883,0.00399578094853,-0.00208482135377,1.0,0.0,0.0811348446638
1385568485231016343,-0.00510302523931,0.0032321127886,-0.00200607994828,1.0,0.0,0.0811073542488
1385568485280940717,-0.00493788942354,0.00259047967251,-0.00186517519501,1.0,0.0,0.0810367063973
1385568485330291106,-0.00494970653584,0.00190375225279,-0.00172178650002,1.0,0.0,0.0810118523599
1385568485379945484,-0.00502106633206,0.00113212694961,-0.00160093251571,1.0,0.0,0.0809668837684
1385568485429963471,-0.00508912934764,0.000511178142264,-0.00138531337621,1.0,0.0,0.0809736594821
1385568485480066040,-0.0052937625868,-0.000227699608418,-0.00119520265361,1.0,0.0,0.0809821854918
1385568485529965180,-0.00557778320858,-0.00100350704427,-0.00102156315731,1.0,0.0,0.0810028639198
1385568485580014689,-0.00583743952056,-0.00171100404771,-0.000830828186082,1.0,0.0,0.0810190969773
1385568485630113082,-0.00612679078702,-0.00236102143815,-0.000604947244734,1.0,0.0,0.081083550561
1385568485679996175,-0.00656229629264,-0.00310279898439,-0.000474418938001,1.0,0.0,0.0811166582412
1385568485729857549,-0.00700309425209,-0.00383109857259,-0.000358465876365,1.0,0.0,0.0811892486499
1385568485780897270,-0.00743707241578,-0.00452272910315,-0.000209899452197,1.0,0.0,0.0812738073763
1385568485829872529,-0.0078984100256,-0.00512693112804,-6.11700407087e-05,1.0,0.0,0.0813503585969
1385568485879857354,-0.00833091343585,-0.00587834435097,0.000123182750733,1.0,0.0,0.0815075334853
1385568485929871344,-0.00881614411448,-0.00640885782306,0.00027216416205,1.0,0.0,0.0815668385143
1385568485979953420,-0.00920198324179,-0.00697326845807,0.000466270649809,1.0,0.0,0.0816729001351
1385568486030076196,-0.00965023847777,-0.00751761847713,0.000615756762906,1.0,0.0,0.0818369615059
1385568486079857019,-0.0100447645746,-0.0080118405082,0.000737631880186,1.0,0.0,0.0819739101074
1385568486130053105,-0.0103690488374,-0.00839482443116,0.000918637980615,1.0,0.0,0.0821576741487
1385568486180023220,-0.0107242027009,-0.00868496184574,0.00102806294057,1.0,0.0,0.0822259685642
