%time,field.header.seq,field.header.stamp,field.header.frame_id,field.child_frame_id,field.transform.translation.x,field.transform.translation.y,field.transform.translation.z,field.transform.rotation.x,field.transform.rotation.y,field.transform.rotation.z,field.transform.rotation.w
1385568451350264040,566674,1385568451350264040,/world,vicon/Archie/Archie,0.0903566448234,-0.0682748386582,0.112548758376,0.00180842176279,-0.00314536530486,0.583225575274,0.81230213876
1385568451360350082,566675,1385568451360350082,/world,vicon/Archie/Archie,0.0903984328853,-0.0682530353782,0.112608647525,0.0016671397132,-0.00285677015634,0.58324327013,0.812290802211
1385568451370316225,566676,1385568451370316225,/world,vicon/Archie/Archie,0.0904204852052,-0.0682613613818,0.112565980836,0.0018700243214,-0.00318856489865,0.583145974549,0.812358977565
1385568451380406255,566677,1385568451380406255,/world,vicon/Archie/Archie,0.0903653785742,-0.068275646446,0.112545321952,0.00177608673035,-0.00310678504849,0.583221934923,0.812304972303
1385568451390258505,566678,1385568451390258505,/world,vicon/Archie/Archie,0.0905032036225,-0.0682317406777,0.112616903405,0.00170905733886,-0.00287384862404,0.583144484609,0.812361576016
1385568451400395280,566679,1385568451400395280,/world,vicon/Archie/Archie,0.0904352873474,-0.0682616395504,0.112567683234,0.00185032447386,-0.00314984239798,0.583132576512,0.812368791254
1385568451410412190,566680,1385568451410412190,/world,vicon/Archie/Archie,0.0903685864202,-0.0682721164563,0.112547572771,0.00181326010507,-0.00314613061414,0.583209892972,0.812313384532
1385568451420364056,566681,1385568451420364056,/world,vicon/Archie/Archie,0.0904769538876,-0.0682404143001,0.112623745672,0.00169324112229,-0.00286323905323,0.58315123166,0.812356803265
1385568451430467535,566682,1385568451430467535,/world,vicon/Archie/Archie,0.0903440990905,-0.0683038155567,0.112586655797,0.00190573388775,-0.0030630015076,0.583306594402,0.812244053919
1385568451440499161,566683,1385568451440499161,/world,vicon/Archie/Archie,0.0904162913604,-0.0682509177587,0.112608738675,0.00165576909441,-0.00286421737926,0.583234013487,0.812297445644
1385568451451388666,566684,1385568451451388666,/world,vicon/Archie/Archie,0.0903625178137,-0.0682719218376,0.112541217999,0.00180810028995,-0.00314504733952,0.583217838896,0.8123076953
1385568451460441297,566685,1385568451460441297,/world,vicon/Archie/Archie,0.0904619182544,-0.0682378329509,0.112622791137,0.00171969041973,-0.00288240272565,0.583159446206,0.812350783049
1385568451470407430,566686,1385568451470407430,/world,vicon/Archie/Archie,0.0904663965126,-0.0682393115326,0.112624671375,0.00170594406739,-0.00290649501225,0.583157091001,0.812352416908
1385568451480494938,566687,1385568451480494938,/world,vicon/Archie/Archie,0.0904448896444,-0.0682426247204,0.112599926958,0.00162766900245,-0.00284865748087,0.583228646724,0.81230141049
1385568451490388020,566688,1385568451490388020,/world,vicon/Archie/Archie,0.0904657097796,-0.0682341767981,0.112631140995,0.00171571626413,-0.00289656835814,0.583161775915,0.812349068641
1385568451500386693,566689,1385568451500386693,/world,vicon/Archie/Archie,0.0903702476391,-0.0682685025269,0.112560155009,0.00180521902799,-0.00315381479789,0.583207451641,0.812315125421
1385568451510335263,566690,1385568451510335263,/world,vicon/Archie/Archie,0.0904034874365,-0.0682459979148,0.112611186315,0.00162643664819,-0.00282689565394,0.5832454405,0.812289430868
1385568451520198980,566691,1385568451520198980,/world,vicon/Archie/Archie,0.0904760063214,-0.0682434694935,0.11261953663,0.00170345204141,-0.00291518967264,0.583145985342,0.812360363201
1385568451530511394,566692,1385568451530511394,/world,vicon/Archie/Archie,0.0904607018373,-0.0682391785705,0.11261462885,0.00168049241342,-0.0029041123867,0.583173365845,0.812340795138
1385568451540436379,566693,1385568451540436379,/world,vicon/Archie/Archie,0.0904072327377,-0.0682522795275,0.112614431306,0.0016379354948,-0.00288877384567,0.583234949215,0.812296722982
1385568451550208720,566694,1385568451550208720,/world,vicon/Archie/Archie,0.09043853302,-0.0682422458856,0.112613773663,0.0016335060071,-0.00285504644588,0.583224091374,0.812304647044
1385568451560360900,566695,1385568451560360900,/world,vicon/Archie/Archie,0.0904026431825,-0.0682477517995,0.112606989379,0.00165499634051,-0.00287407823704,0.583236907106,0.812295334746
1385568451570519190,566696,1385568451570519190,/world,vicon/Archie/Archie,0.090407736944,-0.0682649005839,0.112551115848,0.00176576582474,-0.00311439493613,0.583216571235,0.812308816677
1385568451580398662,566697,1385568451580398662,/world,vicon/Archie/Archie,0.0903776941644,-0.0682765766599,0.112559251201,0.00180393216975,-0.00316497749538,0.58320408819,0.812317499666
1385568451590333392,566698,1385568451590333392,/world,vicon/Archie/Archie,0.0903961993695,-0.0682437720021,0.112613614644,0.00165576516268,-0.00284488453459,0.583255824049,0.812281853045
1385568451600268549,566699,1385568451600268549,/world,vicon/Archie/Archie,0.0903965062435,-0.0682532057475,0.112616677858,0.00160089972631,-0.00281229749258,0.583252008766,0.812284816042
1385568451610399187,566700,1385568451610399187,/world,vicon/Archie/Archie,0.0904091707089,-0.0682540180376,0.112616969401,0.00166216402467,-0.00289030327573,0.583245169069,0.812289330297
1385568451620486078,566701,1385568451620486078,/world,vicon/Archie/Archie,0.0904024906678,-0.0682449256707,0.112611405408,0.00163628654774,-0.00282291993936,0.583251585973,0.812285012264
1385568451630432217,566702,1385568451630432217,/world,vicon/Archie/Archie,0.0903928538961,-0.0682479846936,0.112611986173,0.00163086667518,-0.00285122277768,0.583260329583,0.812278645994
1385568451640331310,566703,1385568451640331310,/world,vicon/Archie/Archie,0.0903749251578,-0.0682458910369,0.112594542033,0.00168960742606,-0.00273599796609,0.583265092031,0.812275502499
1385568451650338696,566704,1385568451650338696,/world,vicon/Archie/Archie,0.090421813604,-0.0682668749952,0.112577278541,0.00184868247734,-0.00318983960456,0.583154741457,0.812352728076
1385568451660397421,566705,1385568451660397421,/world,vicon/Archie/Archie,0.0903973962896,-0.0682554828397,0.112616357325,0.00163558186805,-0.00289883915069,0.58325121145,0.812285015217
1385568451670318061,566706,1385568451670318061,/world,vicon/Archie/Archie,0.0903567648717,-0.0682698516883,0.112567472773,0.0017787179895,-0.00317258040594,0.583219820472,0.812306230374
1385568451680470249,566707,1385568451680470249,/world,vicon/Archie/Archie,0.0903872678503,-0.068251826807,0.112614605542,0.00163986724162,-0.00286262349267,0.583261926476,0.812277441116
1385568451690324433,566708,1385568451690324433,/world,vicon/Archie/Archie,0.0903977383612,-0.0682546534706,0.112617466256,0.00162860663725,-0.00286520508924,0.583259357522,0.81227929932
1385568451700348861,566709,1385568451700348861,/world,vicon/Archie/Archie,0.0903918815011,-0.0682507374515,0.112622091338,0.00162799281138,-0.00287442332316,0.58325728515,0.81228075605
1385568451710451938,566710,1385568451710451938,/world,vicon/Archie/Archie,0.0903954614451,-0.0682457247067,0.11261599324,0.00163970978032,-0.00285556411314,0.583254718925,0.812282641669
1385568451720273095,566711,1385568451720273095,/world,vicon/Archie/Archie,0.0903881340247,-0.0682462548377,0.112621467407,0.00164673726255,-0.00283893745676,0.583258955247,0.812279643851
1385568451730483811,566712,1385568451730483811,/world,vicon/Archie/Archie,0.090426250431,-0.068241052111,0.112615231234,0.00163769466159,-0.00285394532115,0.583239817839,0.812293350853
1385568451740436851,566713,1385568451740436851,/world,vicon/Archie/Archie,0.0903814793104,-0.0682467988902,0.112620644906,0.00167239951352,-0.00288034241023,0.583251177565,0.812285030378
1385568451750296615,566714,1385568451750296615,/world,vicon/Archie/Archie,0.0904428140134,-0.0682436459471,0.112636948605,0.00171869742876,-0.00290444820348,0.583181894467,0.812334591302
1385568451760560328,566715,1385568451760560328,/world,vicon/Archie/Archie,0.0903830356253,-0.0682507433399,0.112621152111,0.00166024726344,-0.00285498264687,0.58325021129,0.812285838658
1385568451770294043,566716,1385568451770294043,/world,vicon/Archie/Archie,0.0903516146398,-0.0682729735581,0.112556373845,0.00178753671843,-0.00312922149403,0.583228903825,0.812299857459
1385568451780494991,566717,1385568451780494991,/world,vicon/Archie/Archie,0.0904243643595,-0.0682423480527,0.112617611657,0.00164598056727,-0.00285267023295,0.583253981403,0.812283168727
1385568451790509183,566718,1385568451790509183,/world,vicon/Archie/Archie,0.0903914818182,-0.0682515888084,0.112613299499,0.00163193046568,-0.00284994420113,0.583252302091,0.812284412461
1385568451800319094,566719,1385568451800319094,/world,vicon/Archie/Archie,0.0904461082669,-0.0682399078082,0.112632196929,0.00167498198038,-0.00285716821645,0.583172528198,0.812341574327
1385568451810705629,566720,1385568451810705629,/world,vicon/Archie/Archie,0.0903860714073,-0.0682481470218,0.11261037941,0.00164210393851,-0.00285128435724,0.583252848718,0.812283994754
1385568451820329789,566721,1385568451820329789,/world,vicon/Archie/Archie,0.0903872986601,-0.0682511273245,0.112610743564,0.00165241843796,-0.00285454738176,0.583251606968,0.812284854002
1385568451830591379,566722,1385568451830591379,/world,vicon/Archie/Archie,0.0904464176755,-0.0682388786422,0.112627584549,0.00170377286158,-0.00287885885054,0.583176339569,0.812338701711
1385568451840470765,566723,1385568451840470765,/world,vicon/Archie/Archie,0.090342102913,-0.0682766366119,0.112566245231,0.00180362045495,-0.0031330190068,0.58324078028,0.812291279877
1385568451850396254,566724,1385568451850396254,/world,vicon/Archie/Archie,0.0903912009457,-0.0682571236909,0.112617359045,0.00167746617172,-0.00286079185958,0.583258443497,0.81227987176
1385568451860337806,566725,1385568451860337806,/world,vicon/Archie/Archie,0.0903932878636,-0.0682560482883,0.112612205977,0.00166523462879,-0.00287027598725,0.583250763338,0.812285378161
1385568451870346587,566726,1385568451870346587,/world,vicon/Archie/Archie,0.090397618573,-0.0682531209942,0.112618357376,0.00164355917155,-0.00285404673522,0.583243830185,0.812290457707
1385568451880462728,566727,1385568451880462728,/world,vicon/Archie/Archie,0.0903447835714,-0.068266633462,0.112549658405,0.00177775066331,-0.0031248694849,0.583235556798,0.812295118833
1385568451890328978,566728,1385568451890328978,/world,vicon/Archie/Archie,0.0903641016212,-0.0682736138809,0.112564979796,0.00181527500618,-0.00315004735719,0.583212048156,0.812311817509
1385568451900329622,566729,1385568451900329622,/world,vicon/Archie/Archie,0.090359697679,-0.068290353292,0.112555336365,0.00181931400311,-0.00314606184356,0.583233267549,0.812296588701
1385568451910398426,566730,1385568451910398426,/world,vicon/Archie/Archie,0.0903564462597,-0.0682706631667,0.11254534877,0.00179906689214,-0.00312844138587,0.58323025388,0.812298865672
1385568451920378725,566731,1385568451920378725,/world,vicon/Archie/Archie,0.0904634436281,-0.0682564323684,0.112564448168,0.00183473015394,-0.00316041599638,0.583131863735,0.8123692972
1385568451930416881,566732,1385568451930416881,/world,vicon/Archie/Archie,0.0903969036647,-0.0682592098273,0.112609213966,0.00166402544718,-0.00288511247786,0.583254179735,0.812282874968
1385568451940754971,566733,1385568451940754971,/world,vicon/Archie/Archie,0.0903926555834,-0.0682596305094,0.112613130636,0.00166588761683,-0.0028615081106,0.583250237866,0.812285785065
1385568451950327676,566734,1385568451950327676,/world,vicon/Archie/Archie,0.0903904804498,-0.0682499030724,0.112608697923,0.00165457946644,-0.0028657098168,0.583256826407,0.812281062517
1385568451960368811,566735,1385568451960368811,/world,vicon/Archie/Archie,0.0903944288609,-0.0682584789481,0.112610496339,0.00166680942933,-0.00289393642562,0.583259870908,0.812278751333
1385568451970711086,566736,1385568451970711086,/world,vicon/Archie/Archie,0.0904509695637,-0.0682458370387,0.112626457715,0.00171856407363,-0.00292502151031,0.583166318032,0.812345699994
1385568451980408323,566737,1385568451980408323,/world,vicon/Archie/Archie,0.0903846738081,-0.0682611090894,0.112611901841,0.00166514646841,-0.0028757005808,0.583248453319,0.81228701783
1385568451990428648,566738,1385568451990428648,/world,vicon/Archie/Archie,0.0903913153947,-0.0682583595765,0.112609869652,0.00166335647398,-0.00288668338572,0.583241520424,0.81229196054
1385568452000284695,566739,1385568452000284695,/world,vicon/Archie/Archie,0.0903485678221,-0.0682720655721,0.112551916582,0.00178670145571,-0.003148392522,0.583233562987,0.812296439933
1385568452010363386,566740,1385568452010363386,/world,vicon/Archie/Archie,0.0903783070751,-0.0682629744077,0.112607594563,0.00168132527194,-0.00288073676915,0.583249733429,0.812286047496
1385568452020212860,566741,1385568452020212860,/world,vicon/Archie/Archie,0.0903496604684,-0.0682846335567,0.112561159655,0.00183119109542,-0.0031379792907,0.583225850204,0.812301918919
1385568452030377141,566742,1385568452030377141,/world,vicon/Archie/Archie,0.0903785496551,-0.0682570461095,0.11260274704,0.00163734045209,-0.00285662518886,0.58325975384,0.812279027403
1385568452040431870,566743,1385568452040431870,/world,vicon/Archie/Archie,0.0904429018485,-0.0682492303729,0.112626515517,0.00169043391017,-0.00289178381228,0.583162017234,0.812348965455
1385568452050478631,566744,1385568452050478631,/world,vicon/Archie/Archie,0.090385864236,-0.0682603658968,0.112605659729,0.00164475762138,-0.00287466680364,0.583238861897,0.812293949895
1385568452060354834,566745,1385568452060354834,/world,vicon/Archie/Archie,0.0903873436462,-0.0682562469394,0.112607937638,0.00164226935297,-0.0028650686113,0.58323958133,0.812293472277
1385568452070112083,566746,1385568452070112083,/world,vicon/Archie/Archie,0.0904065746521,-0.0682388135462,0.112602690379,0.00174893600121,-0.00280049240165,0.583187059457,0.812331183784
1385568452080458232,566747,1385568452080458232,/world,vicon/Archie/Archie,0.0903375647661,-0.0682832047245,0.112551419505,0.00181855794087,-0.00316287158164,0.583232212345,0.812297282757
1385568452090398251,566748,1385568452090398251,/world,vicon/Archie/Archie,0.090380571435,-0.0682631186786,0.11260930219,0.00166752236537,-0.00287867428561,0.583248499969,0.812286968926
1385568452100225783,566749,1385568452100225783,/world,vicon/Archie/Archie,0.0903788905304,-0.0682638712809,0.112602567123,0.0016531115578,-0.00286782888286,0.583255034005,0.812282345055
1385568452110420298,566750,1385568452110420298,/world,vicon/Archie/Archie,0.0904423068158,-0.0682567329156,0.112627668011,0.00173026093675,-0.0029140331984,0.583165171464,0.812346537753
1385568452120288063,566751,1385568452120288063,/world,vicon/Archie/Archie,0.0903764757677,-0.0682640311412,0.112599811638,0.00163775327298,-0.0028214714566,0.583247640685,0.812287847194
1385568452130395568,566752,1385568452130395568,/world,vicon/Archie/Archie,0.0903736835439,-0.0682631768867,0.112612171171,0.00167825463009,-0.00288346177517,0.58324743387,0.812287695336
1385568452140396443,566753,1385568452140396443,/world,vicon/Archie/Archie,0.0903676456317,-0.0682672376145,0.112609404714,0.00164933944298,-0.00287493581652,0.583253592002,0.812283363021
1385568452150303521,566754,1385568452150303521,/world,vicon/Archie/Archie,0.0904280983059,-0.0682501898029,0.11262489311,0.00170759130315,-0.00289636431259,0.58316483625,0.812346889553
1385568452160334444,566755,1385568452160334444,/world,vicon/Archie/Archie,0.0904281780922,-0.0682607112802,0.112623595655,0.00169774649248,-0.00287455598114,0.583168618062,0.812344272764
1385568452170295519,566756,1385568452170295519,/world,vicon/Archie/Archie,0.0903620365412,-0.0682679885836,0.112601412799,0.00164721544584,-0.00282454404561,0.583254349891,0.812282999924
1385568452180350196,566757,1385568452180350196,/world,vicon/Archie/Archie,0.0904274383059,-0.0682572719546,0.112626837811,0.00170167997962,-0.00290153130587,0.583177797576,0.812337578729
1385568452190367903,566758,1385568452190367903,/world,vicon/Archie/Archie,0.0903666050362,-0.0682738675616,0.112606577951,0.0016502206697,-0.00288484110453,0.583249180131,0.812286494003
1385568452200275240,566759,1385568452200275240,/world,vicon/Archie/Archie,0.0904047669038,-0.0682665769416,0.112612180945,0.00163263122474,-0.0028492474867,0.583232270631,0.812298796502
1385568452210343122,566760,1385568452210343122,/world,vicon/Archie/Archie,0.0903667618325,-0.0682693989773,0.112603058377,0.00163721160548,-0.00286571388531,0.583250875049,0.812285371022
1385568452220292124,566761,1385568452220292124,/world,vicon/Archie/Archie,0.0903595376345,-0.0682650977773,0.112598488739,0.00164040269858,-0.0028365692829,0.583258750345,0.812279812072
1385568452230386160,566762,1385568452230386160,/world,vicon/Archie/Archie,0.090368032405,-0.0682708244932,0.112609649274,0.00167230567232,-0.00286334096545,0.583253585294,0.812283361835
1385568452240554581,566763,1385568452240554581,/world,vicon/Archie/Archie,0.0903644255376,-0.0682615651946,0.112597574589,0.0016307625829,-0.00282188905257,0.583257128808,0.81228104696
1385568452250304741,566764,1385568452250304741,/world,vicon/Archie/Archie,0.0903780765993,-0.0682785186023,0.112609109753,0.00164612756258,-0.00287527149233,0.583253018411,0.81228378021
1385568452260412766,566765,1385568452260412766,/world,vicon/Archie/Archie,0.0904264390847,-0.0682562645062,0.112635826461,0.00168378381777,-0.00285151703881,0.583185234929,0.812332453792
1385568452270525904,566766,1385568452270525904,/world,vicon/Archie/Archie,0.0904141710297,-0.0682658634,0.1126078117,0.00162791315467,-0.00283074482375,0.58323947751,0.812293696058
1385568452280467360,566767,1385568452280467360,/world,vicon/Archie/Archie,0.0903770919186,-0.0682688689963,0.112614379337,0.00164077047414,-0.00283885076524,0.583256754727,0.812281236312
1385568452290374138,566768,1385568452290374138,/world,vicon/Archie/Archie,0.0903836415599,-0.0682729898733,0.112612544052,0.00163740105623,-0.00288098733044,0.583260098215,0.812278693959
1385568452300359514,566769,1385568452300359514,/world,vicon/Archie/Archie,0.0903795166163,-0.068269520736,0.11261015508,0.00163355465568,-0.00285130380185,0.583256038043,0.81228172185
1385568452312572855,566770,1385568452312572855,/world,vicon/Archie/Archie,0.0903846852425,-0.0682647971073,0.112608480635,0.0016441699482,-0.00288045044588,0.58325781505,0.812280321622
1385568452320268952,566771,1385568452320268952,/world,vicon/Archie/Archie,0.0903781465169,-0.0682631376962,0.112608029401,0.00163636829402,-0.00284886334063,0.583258379154,0.812280043718
1385568452330430307,566772,1385568452330430307,/world,vicon/Archie/Archie,0.090359509471,-0.0682642474233,0.112588876133,0.00168660295558,-0.00273063602055,0.583268075111,0.812273384738
1385568452340467848,566773,1385568452340467848,/world,vicon/Archie/Archie,0.0904344520903,-0.0682593245662,0.112603352975,0.00162861845386,-0.00281839108407,0.583230013175,0.812300533058
1385568452350379035,566774,1385568452350379035,/world,vicon/Archie/Archie,0.0903822029434,-0.0682569798037,0.112604425443,0.00162396022959,-0.0028491513625,0.58324310465,0.812291035263
1385568452360437937,566775,1385568452360437937,/world,vicon/Archie/Archie,0.0903402004903,-0.0682817030507,0.112543713553,0.00175724653188,-0.00308856637755,0.583233717356,0.812296623028
1385568452370339777,566776,1385568452370339777,/world,vicon/Archie/Archie,0.0904044555047,-0.0682684942149,0.112562281082,0.00183846140466,-0.00316925921268,0.583145768492,0.812359273072
1385568452380443394,566777,1385568452380443394,/world,vicon/Archie/Archie,0.0903509590667,-0.0682969079102,0.112633303965,0.00175038991989,-0.00275026254755,0.583337722033,0.812223167759
1385568452390368294,566778,1385568452390368294,/world,vicon/Archie/Archie,0.0904013390672,-0.0682709828948,0.112564528676,0.00184874895505,-0.00317961400974,0.583147602901,0.812357892442
1385568452400390527,566779,1385568452400390527,/world,vicon/Archie/Archie,0.0903572230891,-0.0682828155802,0.112550241804,0.00179242066259,-0.00315102463715,0.583207260751,0.81231530164
1385568452410425554,566780,1385568452410425554,/world,vicon/Archie/Archie,0.0904445850365,-0.068252822226,0.112614027654,0.00166799075438,-0.00286298328097,0.583193552472,0.812326474694
1385568452420599059,566781,1385568452420599059,/world,vicon/Archie/Archie,0.0903819886215,-0.0682564443229,0.112597284822,0.00164896662991,-0.00283623657588,0.58324412313,0.812290298788
1385568452430513156,566782,1385568452430513156,/world,vicon/Archie/Archie,0.0904492912878,-0.0682465635962,0.112625316592,0.0016868017211,-0.00288615413003,0.583158534127,0.812351493437
1385568452440472998,566783,1385568452440472998,/world,vicon/Archie/Archie,0.0904061861638,-0.0682623537387,0.112560158295,0.00180667157317,-0.00314009485125,0.583141662038,0.812362405419
1385568452450321438,566784,1385568452450321438,/world,vicon/Archie/Archie,0.0904518310428,-0.0682560807172,0.112623718505,0.00167032360021,-0.00286573394677,0.583172648443,0.812341467424
1385568452460391541,566785,1385568452460391541,/world,vicon/Archie/Archie,0.090444171801,-0.0682472122276,0.112630706861,0.00167621645848,-0.00286824688785,0.583169969074,0.812343369905
1385568452470247627,566786,1385568452470247627,/world,vicon/Archie/Archie,0.0903442849236,-0.0682837622999,0.112568261792,0.00181673872841,-0.00313901174872,0.583211732498,0.812312083587
1385568452480704991,566787,1385568452480704991,/world,vicon/Archie/Archie,0.0903817822554,-0.0682655721204,0.112605756677,0.00165377245774,-0.00285307839912,0.583248826857,0.812286852627
1385568452490381451,566788,1385568452490381451,/world,vicon/Archie/Archie,0.0903681547168,-0.0682584183082,0.112613694469,0.00163119592917,-0.00283164281779,0.583252781759,0.81228413352
1385568452500308500,566789,1385568452500308500,/world,vicon/Archie/Archie,0.0903824171534,-0.0682594605622,0.11261860686,0.00165095723411,-0.00284390278592,0.583248860138,0.812286866633
1385568452510346709,566790,1385568452510346709,/world,vicon/Archie/Archie,0.0903836560588,-0.0682630999448,0.112624017755,0.00165026350968,-0.00286850075065,0.583245578341,0.81228913798
1385568452520283556,566791,1385568452520283556,/world,vicon/Archie/Archie,0.0903462086825,-0.0682888414263,0.112573632769,0.00181716092009,-0.00314613530385,0.583218969596,0.812306859052
1385568452530493305,566792,1385568452530493305,/world,vicon/Archie/Archie,0.090391077694,-0.0682623085319,0.112624923898,0.00168396059489,-0.00286695624386,0.583245476586,0.812289147336
1385568452540367193,566793,1385568452540367193,/world,vicon/Archie/Archie,0.09045666986,-0.0682484659782,0.112630351604,0.00170351057838,-0.00289380295109,0.583161978723,0.812348958593
1385568452550432429,566794,1385568452550432429,/world,vicon/Archie/Archie,0.0903940661283,-0.0682588808427,0.11262041321,0.00166216214757,-0.00286950908307,0.583249044506,0.812286621346
1385568452560331242,566795,1385568452560331242,/world,vicon/Archie/Archie,0.0903440637121,-0.0682716617369,0.112560067594,0.00181080772433,-0.00314261261283,0.583229939629,0.812299010514
1385568452570314048,566796,1385568452570314048,/world,vicon/Archie/Archie,0.090352444812,-0.0682817759703,0.112559219204,0.00180802402439,-0.00314274931741,0.583223008513,0.812303992676
1385568452580365635,566797,1385568452580365635,/world,vicon/Archie/Archie,0.0903486957614,-0.0682766743144,0.112567663649,0.00179434031358,-0.0031394371127,0.583226540695,0.812301499757
1385568452590381592,566798,1385568452590381592,/world,vicon/Archie/Archie,0.0903877667619,-0.0682571521169,0.112619000841,0.00165932198686,-0.00289337227449,0.583242889128,0.812290962236
1385568452600229289,566799,1385568452600229289,/world,vicon/Archie/Archie,0.0903391525731,-0.0682729201432,0.112574247421,0.00181574762156,-0.00315423726148,0.58323299554,0.81229676028
1385568452610355737,566800,1385568452610355737,/world,vicon/Archie/Archie,0.0904353773371,-0.0682453992364,0.112629288381,0.0016570159653,-0.00285317229741,0.583175671287,0.812339368814
1385568452620460668,566801,1385568452620460668,/world,vicon/Archie/Archie,0.0903819850876,-0.068250858255,0.112621498045,0.00164390624634,-0.00287712606575,0.583260438678,0.812278450035
1385568452630551516,566802,1385568452630551516,/world,vicon/Archie/Archie,0.0903326738975,-0.0682715686136,0.112573257704,0.00181852648074,-0.00314343862776,0.583230683772,0.81229845578
1385568452640343536,566803,1385568452640343536,/world,vicon/Archie/Archie,0.0903261892931,-0.0682734399609,0.11257095739,0.00180761596666,-0.00315147973641,0.583233474048,0.812296445548
1385568452650501607,566804,1385568452650501607,/world,vicon/Archie/Archie,0.0904112162982,-0.068246182285,0.112620411404,0.00166467138951,-0.00287138126465,0.583247194261,0.812287938126
1385568452660481015,566805,1385568452660481015,/world,vicon/Archie/Archie,0.0903783430722,-0.0682544398508,0.112626986662,0.00166345120547,-0.00289267006137,0.583242447868,0.812291273125
1385568452670356182,566806,1385568452670356182,/world,vicon/Archie/Archie,0.0903730438697,-0.0682545626726,0.112618865154,0.00164115485463,-0.00285489692446,0.58326408514,0.812275915659
1385568452680393535,566807,1385568452680393535,/world,vicon/Archie/Archie,0.0903237272865,-0.0682641992349,0.112564294217,0.00178495143389,-0.00312606986792,0.583225978968,0.81230197531
1385568452690518773,566808,1385568452690518773,/world,vicon/Archie/Archie,0.0904298409163,-0.068243567186,0.11264626695,0.00172023440298,-0.0029198523839,0.583189217031,0.812329275845
1385568452700338949,566809,1385568452700338949,/world,vicon/Archie/Archie,0.0903637301844,-0.06824954215,0.112624355288,0.00165380921796,-0.00285353279344,0.583247265638,0.812287971961
1385568452710270604,566810,1385568452710270604,/world,vicon/Archie/Archie,0.0903646592706,-0.0682538018289,0.112627419164,0.00167711253729,-0.00288968503299,0.583250686538,0.812285340054
1385568452720330167,566811,1385568452720330167,/world,vicon/Archie/Archie,0.0903649863825,-0.0682455415111,0.112626275842,0.00162813465536,-0.00286139251854,0.583257586183,0.812280585617
1385568452730410058,566812,1385568452730410058,/world,vicon/Archie/Archie,0.0903464731865,-0.0682754121069,0.112569876482,0.00182792474279,-0.00317882772886,0.583227016443,0.812300930097
1385568452740443371,566813,1385568452740443371,/world,vicon/Archie/Archie,0.0903788579654,-0.0682538963396,0.112620459905,0.00166896435263,-0.00285219832521,0.583256301579,0.812281457495
1385568452750299215,566814,1385568452750299215,/world,vicon/Archie/Archie,0.0904313380374,-0.06825227474,0.112619310909,0.00166556444162,-0.00286179706332,0.583229600371,0.812300602772
1385568452760494423,566815,1385568452760494423,/world,vicon/Archie/Archie,0.0903611227404,-0.0682799602234,0.112574820338,0.00182935838449,-0.00317188749712,0.583233858542,0.812296041371
1385568452770476625,566816,1385568452770476625,/world,vicon/Archie/Archie,0.090360184155,-0.0682797634108,0.112558212043,0.00180285768001,-0.00313457494017,0.583216900506,0.812308421173
1385568452781047153,566817,1385568452781047153,/world,vicon/Archie/Archie,0.0903808011667,-0.0682598807138,0.112622108818,0.00168909528972,-0.00289189705885,0.583255040728,0.812282180867
1385568452790402819,566818,1385568452790402819,/world,vicon/Archie/Archie,0.0903902587187,-0.0682641586621,0.112624526888,0.00165237819232,-0.00288922262193,0.583255300472,0.812282079398
1385568452800340286,566819,1385568452800340286,/world,vicon/Archie/Archie,0.0903622495029,-0.0682850821542,0.112558260754,0.00181121905319,-0.00316260183219,0.583221307109,0.812305130089
1385568452810343202,566820,1385568452810343202,/world,vicon/Archie/Archie,0.0904051932513,-0.0682687090879,0.112612850822,0.00164473917615,-0.00285451591243,0.583253566019,0.812283463021
1385568452820312671,566821,1385568452820312671,/world,vicon/Archie/Archie,0.0903542974301,-0.0682843733484,0.112556412554,0.00178988786734,-0.00311370395012,0.583224100753,0.812303360482
1385568452830368546,566822,1385568452830368546,/world,vicon/Archie/Archie,0.0904162594438,-0.0682618042527,0.112567375378,0.00181553201132,-0.00312428715511,0.58315826294,0.81235052966
1385568452840504986,566823,1385568452840504986,/world,vicon/Archie/Archie,0.0904041177993,-0.0682685448329,0.112617098088,0.00164245752883,-0.00287579070876,0.58324894905,0.812286707754
1385568452850391276,566824,1385568452850391276,/world,vicon/Archie/Archie,0.0903931737096,-0.068257214474,0.112613074544,0.00163443869576,-0.0028518813268,0.583246849638,0.812288315668
1385568452860388520,566825,1385568452860388520,/world,vicon/Archie/Archie,0.0904052408027,-0.0682571830007,0.112623686825,0.00165457201089,-0.00288249480768,0.583249230626,0.812286457224
1385568452870277682,566826,1385568452870277682,/world,vicon/Archie/Archie,0.0903773865209,-0.0682528582468,0.112599787581,0.0016746327514,-0.00275535802367,0.583263617252,0.81227652705
1385568452880394187,566827,1385568452880394187,/world,vicon/Archie/Archie,0.090357458728,-0.0682850681476,0.112570719379,0.0018055403203,-0.00312553642087,0.583231741681,0.812297794249
1385568452890417112,566828,1385568452890417112,/world,vicon/Archie/Archie,0.0903942958206,-0.0682580609731,0.112624021096,0.0016372991662,-0.00286204769933,0.583249123202,0.81228664166
1385568452900303007,566829,1385568452900303007,/world,vicon/Archie/Archie,0.0903651616872,-0.068285541518,0.112569943088,0.00180631587315,-0.00314345288366,0.583218659726,0.812307116105
1385568452910427125,566830,1385568452910427125,/world,vicon/Archie/Archie,0.0903911542728,-0.068261583889,0.112623120965,0.00165180985702,-0.00285225303146,0.583233579364,0.812297807506
1385568452920360255,566831,1385568452920360255,/world,vicon/Archie/Archie,0.0903978976985,-0.0682585797824,0.112619199219,0.00166143972563,-0.00289147092633,0.583254357565,0.812282729962
1385568452930315664,566832,1385568452930315664,/world,vicon/Archie/Archie,0.0904113914089,-0.0682677626566,0.112583032608,0.00186605916326,-0.00319370440498,0.583140694212,0.812362756919
1385568452940378189,566833,1385568452940378189,/world,vicon/Archie/Archie,0.090391432201,-0.0682504729821,0.112622250051,0.0016358955764,-0.00285520980927,0.583258497108,0.81227993769
1385568452950344864,566834,1385568452950344864,/world,vicon/Archie/Archie,0.0904077864325,-0.0682703534741,0.112632288284,0.00167412317391,-0.0028784943388,0.583241245932,0.812292164573
1385568452960306086,566835,1385568452960306086,/world,vicon/Archie/Archie,0.09040128656,-0.0682629787753,0.112630384177,0.00165582905562,-0.0028449411494,0.583242840016,0.812291175693
1385568452970269147,566836,1385568452970269147,/world,vicon/Archie/Archie,0.0903921598667,-0.06825714902,0.112623651663,0.0016415065093,-0.0028450827643,0.58324588314,0.812289019229
1385568452980609534,566837,1385568452980609534,/world,vicon/Archie/Archie,0.0904129183381,-0.0682741964856,0.112584433902,0.00185188719022,-0.00320177302819,0.583146094627,0.812358880966
1385568452990366194,566838,1385568452990366194,/world,vicon/Archie/Archie,0.0903889030397,-0.0682576026325,0.112634524136,0.00167750650418,-0.00287837034479,0.583242370367,0.812291350665
1385568453000320986,566839,1385568453000320986,/world,vicon/Archie/Archie,0.0903935701735,-0.0682519242021,0.112631997426,0.00166352689685,-0.00288040987235,0.583254452976,0.81228269648
1385568453010324830,566840,1385568453010324830,/world,vicon/Archie/Archie,0.0904531510554,-0.0682548054735,0.112637306045,0.00169862920441,-0.00286605277007,0.583161024494,0.812349752207
1385568453020427530,566841,1385568453020427530,/world,vicon/Archie/Archie,0.0903817481479,-0.0682595251329,0.112631737827,0.00166601185001,-0.00286384403314,0.583252066741,0.812284463377
1385568453030384607,566842,1385568453030384607,/world,vicon/Archie/Archie,0.0903819086567,-0.068256879314,0.112618629206,0.00163407527495,-0.00284670317392,0.583253843433,0.812283312767
1385568453040346465,566843,1385568453040346465,/world,vicon/Archie/Archie,0.0903806886689,-0.0682549883183,0.112619832445,0.00163431982438,-0.00280068048676,0.58324759708,0.81228795737
1385568453050262895,566844,1385568453050262895,/world,vicon/Archie/Archie,0.0904876742485,-0.0682342285922,0.112632284992,0.00168879897685,-0.00286942749068,0.583165545972,0.81234651494
1385568453060522688,566845,1385568453060522688,/world,vicon/Archie/Archie,0.0903916112638,-0.0682591016468,0.112626886085,0.00167407988381,-0.00286949022652,0.583252622106,0.812284028089
1385568453070769513,566846,1385568453070769513,/world,vicon/Archie/Archie,0.0903548173566,-0.0682793965661,0.112565360165,0.00178518684219,-0.00312098455138,0.583232021814,0.8122976556
1385568453080477792,566847,1385568453080477792,/world,vicon/Archie/Archie,0.0903850691989,-0.0682491399404,0.112619930036,0.00164721479921,-0.00283024398389,0.583247749316,0.812287719543
1385568453090400162,566848,1385568453090400162,/world,vicon/Archie/Archie,0.0903834497748,-0.0682586343274,0.112625813311,0.00167451475361,-0.00287018778166,0.583249914407,0.812285968959
1385568453100274710,566849,1385568453100274710,/world,vicon/Archie/Archie,0.0903881286985,-0.0682510563027,0.112623677234,0.00165058530747,-0.0028617787804,0.583245407414,0.812289283766
1385568453110405260,566850,1385568453110405260,/world,vicon/Archie/Archie,0.0903883330471,-0.0682516964704,0.11262070806,0.00164759841079,-0.0028498473825,0.583253185209,0.812283747057
1385568453120489081,566851,1385568453120489081,/world,vicon/Archie/Archie,0.0904471069538,-0.068242790002,0.112630240863,0.00170611324042,-0.00289049957474,0.583182506986,0.812334227849
1385568453130477089,566852,1385568453130477089,/world,vicon/Archie/Archie,0.0903505841657,-0.0682756578621,0.112562356562,0.00178050341469,-0.00313633578045,0.583231803715,0.812297763349
1385568453140398352,566853,1385568453140398352,/world,vicon/Archie/Archie,0.0903939270138,-0.0682530004134,0.112621564258,0.00165512073439,-0.002866245525,0.583241280123,0.812292222278
1385568453150414401,566854,1385568453150414401,/world,vicon/Archie/Archie,0.0903921863738,-0.0682589902291,0.112622944308,0.00167595132848,-0.00288221392637,0.583254620979,0.812282543908
1385568453160426343,566855,1385568453160426343,/world,vicon/Archie/Archie,0.0903962574197,-0.0682537109037,0.112621447791,0.00166517171045,-0.00286784795081,0.583239328571,0.812293597327
1385568453170267271,566856,1385568453170267271,/world,vicon/Archie/Archie,0.0903885252054,-0.0682499328124,0.112627589591,0.00165299045236,-0.00287141892839,0.583249215082,0.812286510833
1385568453180480643,566857,1385568453180480643,/world,vicon/Archie/Archie,0.0903567500339,-0.0682778356503,0.112561667872,0.00181042203765,-0.0031548682001,0.583229997524,0.812298922298
1385568453190402169,566858,1385568453190402169,/world,vicon/Archie/Archie,0.0903824222559,-0.0682552743309,0.112614562712,0.00163792570999,-0.00288020190298,0.583245823997,0.812288945159
1385568453200761719,566859,1385568453200761719,/world,vicon/Archie/Archie,0.0903858676588,-0.0682646901147,0.112552474923,0.00179370412934,-0.00312640886162,0.58320745087,0.812315257424
1385568453210524286,566860,1385568453210524286,/world,vicon/Archie/Archie,0.0903565175685,-0.0682789953967,0.112566975587,0.00183384172221,-0.0031556318564,0.583234197496,0.812295851204
1385568453220202003,566861,1385568453220202003,/world,vicon/Archie/Archie,0.0903450458952,-0.0682760321526,0.112561791684,0.00182261226132,-0.0031431377838,0.583222345605,0.812304434529
1385568453230450791,566862,1385568453230450791,/world,vicon/Archie/Archie,0.0903764912029,-0.0682572989611,0.112613257016,0.00165676973087,-0.0028695887346,0.583249309182,0.812286442035
1385568453240439681,566863,1385568453240439681,/world,vicon/Archie/Archie,0.0903832114465,-0.0682527264127,0.112612711413,0.00164575940538,-0.00284175372964,0.583249875423,0.812286155693
1385568453250306500,566864,1385568453250306500,/world,vicon/Archie/Archie,0.0903873071707,-0.068252790078,0.112608673948,0.00163638351383,-0.00286219112024,0.583260584248,0.812278413461
1385568453260435749,566865,1385568453260435749,/world,vicon/Archie/Archie,0.0903949472347,-0.0682598701165,0.112611035438,0.00162768801859,-0.0028409868728,0.583244589489,0.812289990248
1385568453270468281,566866,1385568453270468281,/world,vicon/Archie/Archie,0.0903456543255,-0.0682793931172,0.112555265975,0.00181892483853,-0.00315941082491,0.58322807004,0.812300269576
1385568453280407930,566867,1385568453280407930,/world,vicon/Archie/Archie,0.0903883371828,-0.0682600728183,0.11261650706,0.0016708820659,-0.00287516270905,0.583246202692,0.812288623974
1385568453290356847,566868,1385568453290356847,/world,vicon/Archie/Archie,0.0904541960522,-0.06825522317,0.112631241561,0.00171897653956,-0.00293517304831,0.583176384265,0.812338436069
1385568453300345256,566869,1385568453300345256,/world,vicon/Archie/Archie,0.0903426867694,-0.0682836830387,0.112563271192,0.00182763971456,-0.00316264691217,0.583228847118,0.812299679482
1385568453310390144,566870,1385568453310390144,/world,vicon/Archie/Archie,0.0904744009424,-0.068237850464,0.112599347426,0.00173421609098,-0.00275991703462,0.58316546975,0.812346853409
1385568453320441244,566871,1385568453320441244,/world,vicon/Archie/Archie,0.0904465708621,-0.0682560971364,0.112629398679,0.00171019121828,-0.00292262432738,0.583171756083,0.8123418224
1385568453330430688,566872,1385568453330430688,/world,vicon/Archie/Archie,0.0903508592484,-0.0682784502309,0.112551062599,0.00176206088248,-0.00310072108465,0.583228995309,0.812299956728
1385568453340392256,566873,1385568453340392256,/world,vicon/Archie/Archie,0.0903659388913,-0.0682727568542,0.112530980175,0.00186585047439,-0.00304151230354,0.583235241831,0.812295463788
1385568453350348172,566874,1385568453350348172,/world,vicon/Archie/Archie,0.0903896147127,-0.0682661134465,0.112610131575,0.00164370700403,-0.00287642103321,0.583249815533,0.81228608083
1385568453360351671,566875,1385568453360351671,/world,vicon/Archie/Archie,0.0903523468271,-0.0682919618801,0.112561398106,0.00182613856465,-0.00317351965413,0.583220823223,0.812305401527
1385568453370321262,566876,1385568453370321262,/world,vicon/Archie/Archie,0.0904157472375,-0.0682781857734,0.112574598441,0.00184624435384,-0.00317121414681,0.583146224358,0.812358920552
1385568453380358922,566877,1385568453380358922,/world,vicon/Archie/Archie,0.0903508310734,-0.0682877986321,0.112553453294,0.0018103139558,-0.00312964203782,0.583231380976,0.812298026803
1385568453390479371,566878,1385568453390479371,/world,vicon/Archie/Archie,0.0903905618847,-0.0682716040496,0.112616734971,0.00168132683059,-0.00290843094942,0.583244084151,0.812290005154
1385568453400274178,566879,1385568453400274178,/world,vicon/Archie/Archie,0.0904558186466,-0.0682587548275,0.11262776843,0.00169215315447,-0.00288522272959,0.58317257152,0.812341408482
1385568453410429812,566880,1385568453410429812,/world,vicon/Archie/Archie,0.0903617846193,-0.0682907623175,0.112556647159,0.00181829099805,-0.00318437458357,0.583226058266,0.812301617957
1385568453420433370,566881,1385568453420433370,/world,vicon/Archie/Archie,0.0904143229995,-0.0682852221275,0.112563788566,0.00182853213126,-0.00315316458226,0.583157501919,0.812350935236
1385568453430460147,566882,1385568453430460147,/world,vicon/Archie/Archie,0.0903662389151,-0.0682981878132,0.112556509957,0.00181550699756,-0.00315798172099,0.58323176982,0.812297626341
1385568453440526516,566883,1385568453440526516,/world,vicon/Archie/Archie,0.0903977742137,-0.0682756710946,0.112619810525,0.00165208504057,-0.00288113671202,0.583244823646,0.812289631447
1385568453450344609,566884,1385568453450344609,/world,vicon/Archie/Archie,0.09036011631,-0.0682944869286,0.112561300052,0.0018129771066,-0.00315414895011,0.583222312601,0.812304437107
1385568453460396036,566885,1385568453460396036,/world,vicon/Archie/Archie,0.0903706473049,-0.0682612312698,0.112591494419,0.00168882428188,-0.00276044857116,0.583266200198,0.812274625667
1385568453470548574,566886,1385568453470548574,/world,vicon/Archie/Archie,0.0904217402862,-0.0682770122571,0.11257807042,0.00184526817199,-0.00315918579098,0.58315150466,0.812355179182
1385568453480398206,566887,1385568453480398206,/world,vicon/Archie/Archie,0.090416102147,-0.0682838121116,0.112580398306,0.00182817771003,-0.00313845240168,0.583160199486,0.812349056513
1385568453490317275,566888,1385568453490317275,/world,vicon/Archie/Archie,0.0904193433026,-0.0682831272441,0.11256741364,0.00184304044676,-0.00319010835469,0.583154186733,0.812353138054
1385568453500356549,566889,1385568453500356549,/world,vicon/Archie/Archie,0.0903952491536,-0.0682714113998,0.112612421805,0.00164891133549,-0.002863018825,0.583247826808,0.812287545601
1385568453510359259,566890,1385568453510359259,/world,vicon/Archie/Archie,0.0903985935631,-0.0682648949228,0.112620137566,0.00166615367668,-0.00288177053813,0.583243061193,0.812290865947
1385568453520293807,566891,1385568453520293807,/world,vicon/Archie/Archie,0.0903555958996,-0.0682938898958,0.112557166494,0.00181687157118,-0.00315002869421,0.583232191803,0.812297351184
1385568453530408035,566892,1385568453530408035,/world,vicon/Archie/Archie,0.0904132397498,-0.0682696337789,0.112563410239,0.00181762768917,-0.00314456721378,0.583149240632,0.81235692345
1385568453540438308,566893,1385568453540438308,/world,vicon/Archie/Archie,0.0904140246632,-0.0682698737829,0.112574373254,0.00184561830619,-0.00316945133498,0.58315543992,0.812352313447
1385568453550647513,566894,1385568453550647513,/world,vicon/Archie/Archie,0.0904128242716,-0.0682814221707,0.112571030691,0.00183152796204,-0.00318268790631,0.583151608939,0.812355043682
1385568453560465947,566895,1385568453560465947,/world,vicon/Archie/Archie,0.0903536054799,-0.0682861360313,0.112554213329,0.0017772746452,-0.00311641349161,0.583216380227,0.812308920976
1385568453570263836,566896,1385568453570263836,/world,vicon/Archie/Archie,0.0903861203431,-0.0682640108582,0.112611150257,0.00166206299513,-0.00288548610306,0.583247159197,0.812287918663
1385568453580385093,566897,1385568453580385093,/world,vicon/Archie/Archie,0.0904557468948,-0.0682580235958,0.112621735628,0.00168248469472,-0.00287310607924,0.583173716518,0.812340649524
1385568453590469576,566898,1385568453590469576,/world,vicon/Archie/Archie,0.0903866125278,-0.0682615212495,0.112602067323,0.00163946574165,-0.00284425381229,0.583252555018,0.81228423562
1385568453600385307,566899,1385568453600385307,/world,vicon/Archie/Archie,0.0903617055623,-0.0682872181044,0.112561508323,0.00181137564105,-0.00315169939347,0.583230957027,0.81229824355
1385568453610390362,566900,1385568453610390362,/world,vicon/Archie/Archie,0.0903501596598,-0.0682918184238,0.112549733039,0.00177296657704,-0.00312083150526,0.583233733754,0.812296453773
1385568453620377802,566901,1385568453620377802,/world,vicon/Archie/Archie,0.090389911327,-0.0682597980781,0.112604852795,0.0016480580866,-0.00284508682024,0.583249605372,0.812286333271
1385568453630520254,566902,1385568453630520254,/world,vicon/Archie/Archie,0.0903295424042,-0.0682755221171,0.112528856504,0.00185084860012,-0.00304988707146,0.583234403192,0.812296068858
1385568453640507834,566903,1385568453640507834,/world,vicon/Archie/Archie,0.0903894744489,-0.0682681126848,0.112605609084,0.00164571130394,-0.00288793423811,0.58325913362,0.812279345127
1385568453650427407,566904,1385568453650427407,/world,vicon/Archie/Archie,0.0903848065722,-0.0682689990694,0.112604960973,0.00165195200144,-0.00285059305986,0.583253117077,0.81228378452
1385568453660563344,566905,1385568453660563344,/world,vicon/Archie/Archie,0.0903637363667,-0.068257381329,0.112580361032,0.00170484329033,-0.00277583270675,0.583258058409,0.812280386051
1385568453670521562,566906,1385568453670521562,/world,vicon/Archie/Archie,0.0903925421211,-0.0682684073229,0.112601794515,0.00167011463312,-0.00288089308316,0.583249102965,0.812286522763
1385568453680424009,566907,1385568453680424009,/world,vicon/Archie/Archie,0.0903921123458,-0.0682611561664,0.112602593032,0.00163583106827,-0.0028462996837,0.583249981635,0.812286083567
1385568453690374064,566908,1385568453690374064,/world,vicon/Archie/Archie,0.0903820655382,-0.0682667800935,0.112598629892,0.0016494114716,-0.00284384095648,0.583259972683,0.8122788907
1385568453700397977,566909,1385568453700397977,/world,vicon/Archie/Archie,0.0903940758379,-0.0682645007494,0.112597275464,0.00162766283577,-0.00284579520275,0.583257455321,0.812280735322
1385568453710376453,566910,1385568453710376453,/world,vicon/Archie/Archie,0.0903805467887,-0.0682691278069,0.112612810866,0.00167030362681,-0.00288409126046,0.583244365629,0.812289912572
1385568453720238226,566911,1385568453720238226,/world,vicon/Archie/Archie,0.0903595512699,-0.068257095838,0.112570758697,0.00168201965234,-0.00272752378687,0.583257085437,0.812281295926
1385568453730700225,566912,1385568453730700225,/world,vicon/Archie/Archie,0.0903826155709,-0.0682736127546,0.112620372299,0.00168518729475,-0.00288853787967,0.583251061187,0.81228505841
1385568453740422058,566913,1385568453740422058,/world,vicon/Archie/Archie,0.0904529879493,-0.0682570648116,0.112622267264,0.00169772864039,-0.00290756107529,0.58317647735,0.812338513227
1385568453750358732,566914,1385568453750358732,/world,vicon/Archie/Archie,0.0903891145626,-0.0682652514053,0.112605393251,0.00162211490544,-0.00286150088544,0.583247758097,0.81228765424
1385568453760355492,566915,1385568453760355492,/world,vicon/Archie/Archie,0.0903406623729,-0.0682787841151,0.112549140996,0.00178349742295,-0.00309026278755,0.58322017243,0.812306284528
1385568453770284538,566916,1385568453770284538,/world,vicon/Archie/Archie,0.0903551694036,-0.0682890361193,0.112552686305,0.00181138025123,-0.0031265761157,0.583226569207,0.81230149107
1385568453780431564,566917,1385568453780431564,/world,vicon/Archie/Archie,0.0903860028425,-0.0682668177195,0.112612693389,0.00164920848626,-0.0028391541255,0.583247633546,0.812287767529
1385568453790422172,566918,1385568453790422172,/world,vicon/Archie/Archie,0.0903904454679,-0.0682697981098,0.112621222669,0.00165376660037,-0.00284773233612,0.583252317488,0.812284364998
1385568453800321004,566919,1385568453800321004,/world,vicon/Archie/Archie,0.0903830496525,-0.0682602974351,0.112612838612,0.00163882351056,-0.00280695581922,0.5832570021,0.81228117346
1385568453810515607,566920,1385568453810515607,/world,vicon/Archie/Archie,0.0904552355347,-0.0682558351514,0.112628150729,0.00170068326474,-0.00290598888251,0.583167424563,0.812345011577
1385568453820431747,566921,1385568453820431747,/world,vicon/Archie/Archie,0.0903487023488,-0.0682801014608,0.112545908304,0.00176774549104,-0.00311006023566,0.583231796869,0.812297897155
1385568453830340487,566922,1385568453830340487,/world,vicon/Archie/Archie,0.0903541814484,-0.0682868092041,0.112556919709,0.00181308531741,-0.00314558483245,0.583225657368,0.812302068572
1385568453840549229,566923,1385568453840549229,/world,vicon/Archie/Archie,0.0903832671306,-0.0682626629954,0.112620231227,0.00166723418423,-0.0028550919771,0.58325249089,0.812284187124
1385568453850363713,566924,1385568453850363713,/world,vicon/Archie/Archie,0.0903869552208,-0.0682572428006,0.112606668321,0.00165153158164,-0.00286461698767,0.583253887639,0.812283182743
1385568453860385965,566925,1385568453860385965,/world,vicon/Archie/Archie,0.090349044496,-0.0682778109845,0.112554248797,0.00178184980206,-0.00310668766794,0.583214217976,0.812310500642
1385568453870476650,566926,1385568453870476650,/world,vicon/Archie/Archie,0.0903959700976,-0.0682564170109,0.11261552763,0.0016575133474,-0.00287277482131,0.583243957976,0.812290271577
1385568453880388036,566927,1385568453880388036,/world,vicon/Archie/Archie,0.0903950477292,-0.068261442509,0.112615420161,0.00166744931501,-0.00287494004038,0.583251638401,0.812284728796
1385568453890440894,566928,1385568453890440894,/world,vicon/Archie/Archie,0.0903918301319,-0.0682532770534,0.112611227129,0.00163313934763,-0.00285685876728,0.583247201192,0.812288048364
1385568453900277401,566929,1385568453900277401,/world,vicon/Archie/Archie,0.0903445703691,-0.0682828248156,0.112568637164,0.00183310014366,-0.00314703291422,0.583222509542,0.812304278144
1385568453910389768,566930,1385568453910389768,/world,vicon/Archie/Archie,0.0903449735653,-0.068279929257,0.112560625927,0.00179494767901,-0.00312263909203,0.583232132745,0.812297548083
1385568453920177602,566931,1385568453920177602,/world,vicon/Archie/Archie,0.0903916208345,-0.0682792313331,0.112557787865,0.00178483377091,-0.00313024683164,0.583224919705,0.812302720024
1385568453930464933,566932,1385568453930464933,/world,vicon/Archie/Archie,0.090389083653,-0.068260016749,0.112622918018,0.00166204094685,-0.00287200617918,0.583248120199,0.812287276452
1385568453940371639,566933,1385568453940371639,/world,vicon/Archie/Archie,0.0903542347606,-0.0682839071857,0.112563734745,0.00178887327223,-0.0031372575129,0.583229168103,0.812299633769
1385568453950274489,566934,1385568453950274489,/world,vicon/Archie/Archie,0.0903954485853,-0.0682587490194,0.112619227226,0.0016601222692,-0.00287455334227,0.583245835117,0.812288912121
1385568453960473186,566935,1385568453960473186,/world,vicon/Archie/Archie,0.0903975632605,-0.0682622913573,0.112618983919,0.00166542191918,-0.00289722170129,0.583242645943,0.812291110643
1385568453970398125,566936,1385568453970398125,/world,vicon/Archie/Archie,0.0904818977446,-0.068235735557,0.112625238528,0.00167210528674,-0.0028552038648,0.583172841551,0.812341362207
1385568453980351771,566937,1385568453980351771,/world,vicon/Archie/Archie,0.0904446106072,-0.0682472558493,0.112620229656,0.00167977290838,-0.00287381131509,0.583173817526,0.812340580129
1385568453990437945,566938,1385568453990437945,/world,vicon/Archie/Archie,0.0904290931663,-0.068252222307,0.112605507754,0.0016015072883,-0.00284383257145,0.583248070878,0.812287532594
1385568454000352528,566939,1385568454000352528,/world,vicon/Archie/Archie,0.0903863993537,-0.0682600911629,0.112616065297,0.00165456101411,-0.00286445560333,0.583254337164,0.812282854369
1385568454010363034,566940,1385568454010363034,/world,vicon/Archie/Archie,0.0903572917698,-0.0682505980842,0.112594418696,0.0016920778178,-0.00276410776245,0.583266612105,0.812274310676
1385568454020370840,566941,1385568454020370840,/world,vicon/Archie/Archie,0.0903884426509,-0.0682684660322,0.112619277893,0.00165521121067,-0.00286866377301,0.583245205506,0.812289395042
1385568454030343575,566942,1385568454030343575,/world,vicon/Archie/Archie,0.0903862716342,-0.068272381282,0.11261263934,0.00165281850918,-0.00287983106643,0.583255110546,0.812282248227
1385568454040741708,566943,1385568454040741708,/world,vicon/Archie/Archie,0.0903902311122,-0.0682625142133,0.112618324265,0.00167525011177,-0.00287943731334,0.583243098394,0.812290828801
1385568454050393342,566944,1385568454050393342,/world,vicon/Archie/Archie,0.0903858740592,-0.0682569006034,0.112612730228,0.00166048167101,-0.0028587979591,0.583241458041,0.812292109833
1385568454060539365,566945,1385568454060539365,/world,vicon/Archie/Archie,0.0904515284041,-0.0682573797269,0.112633171909,0.0017055544194,-0.00288700522383,0.58316633707,0.812345849742
1385568454070400655,566946,1385568454070400655,/world,vicon/Archie/Archie,0.0903810328699,-0.0682629546271,0.112605428789,0.00162443936617,-0.00286515280511,0.583255644361,0.812281974081
1385568454080408201,566947,1385568454080408201,/world,vicon/Archie/Archie,0.0903778227482,-0.0682533999404,0.112615764023,0.00163983539346,-0.00281415520229,0.583233768438,0.812297828893
1385568454090420599,566948,1385568454090420599,/world,vicon/Archie/Archie,0.0903863535279,-0.0682639886511,0.112612956245,0.00166217231726,-0.00286536165323,0.583256930423,0.812280973555
1385568454100433922,566949,1385568454100433922,/world,vicon/Archie/Archie,0.0903961097795,-0.0682713230382,0.112617382613,0.00164127011359,-0.00286658169636,0.58324345943,0.812290684407
1385568454110394605,566950,1385568454110394605,/world,vicon/Archie/Archie,0.0903984030991,-0.0682769918745,0.112627629972,0.00166939618478,-0.00286116075679,0.583243783108,0.812290413794
1385568454120471285,566951,1385568454120471285,/world,vicon/Archie/Archie,0.090400147996,-0.0682655083686,0.112615974922,0.00165170211291,-0.00284072471963,0.583237338101,0.81229514932
1385568454130361220,566952,1385568454130361220,/world,vicon/Archie/Archie,0.0903968564816,-0.068269407124,0.1126152729,0.00164650998301,-0.00286122369185,0.583238363755,0.812294351481
1385568454140374398,566953,1385568454140374398,/world,vicon/Archie/Archie,0.0903911685316,-0.0682713652811,0.11261565561,0.00165441932127,-0.00287973575361,0.583241719792,0.812291860302
1385568454150708228,566954,1385568454150708228,/world,vicon/Archie/Archie,0.09042229511,-0.0682786512465,0.11256769002,0.00184879869244,-0.00316716245941,0.583142219986,0.812361805045
1385568454160648501,566955,1385568454160648501,/world,vicon/Archie/Archie,0.090391382341,-0.0682741330742,0.112545082573,0.00179039357895,-0.0031182028026,0.583219982862,0.812306298691
1385568454170401324,566956,1385568454170401324,/world,vicon/Archie/Archie,0.0904000652156,-0.068278816482,0.112546240093,0.00177888997965,-0.00312171460205,0.583217345044,0.812308204371
1385568454180685858,566957,1385568454180685858,/world,vicon/Archie/Archie,0.0903643862511,-0.0682839022994,0.112546334304,0.00176327018785,-0.003107338443,0.583219771683,0.812306551275
1385568454190417029,566958,1385568454190417029,/world,vicon/Archie/Archie,0.0904129433144,-0.0682765754891,0.112567604205,0.0018404501182,-0.00315444364906,0.583140665384,0.812362989435
1385568454200397235,566959,1385568454200397235,/world,vicon/Archie/Archie,0.0904335414639,-0.0682531013552,0.112600101412,0.00164461856716,-0.00280793584812,0.583234903259,0.812297025937
1385568454210513277,566960,1385568454210513277,/world,vicon/Archie/Archie,0.0904030853411,-0.0682667201748,0.112604642946,0.00165932852017,-0.00285118984629,0.58324688087,0.812288245206
1385568454220454569,566961,1385568454220454569,/world,vicon/Archie/Archie,0.0904603976106,-0.0682470298347,0.112624773564,0.00168968838733,-0.00289712370722,0.58317291733,0.812341123002
1385568454230530811,566962,1385568454230530811,/world,vicon/Archie/Archie,0.0904017365752,-0.0682795803789,0.11254772197,0.00180666101083,-0.00312890743682,0.583216275244,0.812308883495
1385568454240448768,566963,1385568454240448768,/world,vicon/Archie/Archie,0.090352959994,-0.0682770105666,0.112548736211,0.00179774457715,-0.00313835990367,0.583239801992,0.812291974713
1385568454250416242,566964,1385568454250416242,/world,vicon/Archie/Archie,0.0904290090346,-0.0682495953882,0.112598554548,0.00161563713073,-0.0028175179257,0.583249579149,0.812286513326
1385568454260514013,566965,1385568454260514013,/world,vicon/Archie/Archie,0.0903621906234,-0.0682833664858,0.112554645362,0.00179858770709,-0.00310185955229,0.583241858091,0.812290636731
1385568454270371609,566966,1385568454270371609,/world,vicon/Archie/Archie,0.0903590325059,-0.0682783234689,0.112547764352,0.00179288866777,-0.00311680424483,0.583225983851,0.812301989929
1385568454280464855,566967,1385568454280464855,/world,vicon/Archie/Archie,0.0904559955028,-0.0682421287201,0.112625702331,0.00169774449228,-0.00290078153539,0.583174373604,0.812340047703
1385568454290576800,566968,1385568454290576800,/world,vicon/Archie/Archie,0.090401849191,-0.0682570454509,0.112605148076,0.00164373372413,-0.00284800059411,0.583250828455,0.812285453605
1385568454300372016,566969,1385568454300372016,/world,vicon/Archie/Archie,0.0903578989834,-0.0682796299029,0.112544495145,0.00179682845052,-0.00312772645931,0.583238549695,0.812292916924
1385568454310455928,566970,1385568454310455928,/world,vicon/Archie/Archie,0.0903620110515,-0.0682789545436,0.112553267003,0.00181298723508,-0.00313810187013,0.583220129495,0.812306066668
1385568454320434732,566971,1385568454320434732,/world,vicon/Archie/Archie,0.0903658164945,-0.0682840316286,0.112552098076,0.00180774752146,-0.00313527309014,0.583219295568,0.812306688012
1385568454330384876,566972,1385568454330384876,/world,vicon/Archie/Archie,0.0904172918694,-0.0682660840366,0.112557696768,0.0018312802661,-0.00315588676321,0.583160183456,0.812348993489
1385568454340338316,566973,1385568454340338316,/world,vicon/Archie/Archie,0.090394624716,-0.0682664686967,0.112556807098,0.0019037488998,-0.00304852538946,0.583163473306,0.812346875192
1385568454350385471,566974,1385568454350385471,/world,vicon/Archie/Archie,0.0904525531509,-0.0682535500563,0.11262497591,0.00172557656258,-0.00290104977409,0.583165296542,0.812346504396
1385568454360419481,566975,1385568454360419481,/world,vicon/Archie/Archie,0.0904496965163,-0.0682510435182,0.112617339933,0.00172126238982,-0.00291143773807,0.583191130979,0.8123279298
1385568454370339988,566976,1385568454370339988,/world,vicon/Archie/Archie,0.0904590522037,-0.0682611897803,0.112617266103,0.00171345554541,-0.0028952174204,0.583181666459,0.812334799016
1385568454380455977,566977,1385568454380455977,/world,vicon/Archie/Archie,0.0904397108357,-0.0682485441289,0.112603465393,0.00169031361202,-0.00287201892662,0.583181034666,0.812335383418
1385568454390451545,566978,1385568454390451545,/world,vicon/Archie/Archie,0.0903252797841,-0.0682770322947,0.112538961317,0.00181852472027,-0.00316584068431,0.583237761666,0.812293286805
1385568454400446203,566979,1385568454400446203,/world,vicon/Archie/Archie,0.0903432002688,-0.0682766305386,0.112540776813,0.00179805027305,-0.00309398628363,0.583225096903,0.812302702573
1385568454410435154,566980,1385568454410435154,/world,vicon/Archie/Archie,0.0904482015471,-0.068264734044,0.112559830292,0.00185293612633,-0.00315073817909,0.583140478853,0.81236310933
1385568454420580660,566981,1385568454420580660,/world,vicon/Archie/Archie,0.0903887290182,-0.068266342635,0.112602428621,0.00165882934611,-0.00287545310753,0.583254136265,0.812282951061
1385568454430491817,566982,1385568454430491817,/world,vicon/Archie/Archie,0.0904556770189,-0.068265322167,0.112632418893,0.00171768711275,-0.0028922007013,0.583182487481,0.812334211407
1385568454440456283,566983,1385568454440456283,/world,vicon/Archie/Archie,0.0903994069501,-0.0682584529177,0.112597889888,0.00163573277854,-0.00282380032021,0.583253708279,0.812283486419
1385568454450335955,566984,1385568454450335955,/world,vicon/Archie/Archie,0.0904355507647,-0.0682584593457,0.112602532125,0.00163869662292,-0.00284206840447,0.583244187116,0.812290253245
1385568454460499024,566985,1385568454460499024,/world,vicon/Archie/Archie,0.0903903777908,-0.0682658346428,0.112603892889,0.00165978759719,-0.00284812559445,0.583261577961,0.812277701873
1385568454470412519,566986,1385568454470412519,/world,vicon/Archie/Archie,0.0903906987822,-0.0682648200011,0.112599724506,0.00163002000876,-0.00284154596631,0.583252987445,0.812283953607
1385568454480391042,566987,1385568454480391042,/world,vicon/Archie/Archie,0.0903497449528,-0.0682738463252,0.112549944271,0.00180516282395,-0.00314110579087,0.583238626147,0.812292791924
1385568454490430623,566988,1385568454490430623,/world,vicon/Archie/Archie,0.0903587634744,-0.0682827984455,0.112549682711,0.00180854515658,-0.00313293589857,0.583223415213,0.812303737418
1385568454500398461,566989,1385568454500398461,/world,vicon/Archie/Archie,0.0903547209031,-0.0682922105227,0.112549318463,0.00180947116948,-0.00314056972367,0.583221788085,0.812304874132
1385568454510405755,566990,1385568454510405755,/world,vicon/Archie/Archie,0.0903918295176,-0.0682695528957,0.112618172842,0.00163222617996,-0.00283218586143,0.583252569674,0.812284281843
1385568454520406579,566991,1385568454520406579,/world,vicon/Archie/Archie,0.090405457412,-0.0682621151054,0.112604400308,0.00163355355,-0.00286023840219,0.583252853294,0.812283977229
1385568454530386947,566992,1385568454530386947,/world,vicon/Archie/Archie,0.0903865028858,-0.0682681793892,0.112606585626,0.00164600560457,-0.0028538826326,0.583260348848,0.812278592283
1385568454540678078,566993,1385568454540678078,/world,vicon/Archie/Archie,0.0903948881441,-0.0682609877019,0.112609313701,0.00167475323845,-0.00286201873472,0.583257788326,0.812280343482
