%time,field.linear.x,field.linear.y,field.linear.z,field.angular.x,field.angular.y,field.angular.z
1385568454389063079,0.0,0.0,0.0,0.0,0.0,0.0
1385568454389181504,0.0904397108357,0.0682485441289,-0.112603465393,-0.000603624160147,0.00663765161484,-1.24528815991
1385568454399075278,0.0903252797841,0.0682770322947,-0.112538961317,-0.000738544379379,0.00726451073965,-1.24543010349
1385568454409139066,0.0903432002688,0.0682766305386,-0.112540776813,-0.000687876216877,0.00712390318549,-1.24539831241
1385568454419243164,0.0904482015471,0.068264734044,-0.112559830292,-0.000664149684163,0.00728019535743,-1.24519034466
1385568454429211408,0.0903887290182,0.068266342635,-0.112602428621,-0.000659376681122,0.0066064492831,-1.24546825779
1385568454439134134,0.0904556770189,0.068265322167,-0.112632418893,-0.000582702707127,0.0067023674183,-1.24529183671
1385568454449088312,0.0903994069501,0.0682584529177,-0.112597889888,-0.000636640041747,0.00649559283347,-1.24546682759
1385568454459200540,0.0904355507647,0.0682584593457,-0.112602532125,-0.000653059127443,0.00652873586801,-1.24544353017
1385568454469117803,0.0903903777908,0.0682658346428,-0.112603892889,-0.000626001070179,0.00656316560916,-1.24548634694
1385568454479183398,0.0903906987822,0.0682648200011,-0.112599724506,-0.000666616361924,0.00651775861007,-1.2454652163
1385568454489145804,0.0903497449528,0.0682738463252,-0.112549944271,-0.000731406021028,0.00720873899065,-1.24543203888
1385568454499333706,0.0903587634744,0.0682827984455,-0.112549682711,-0.00071624579214,0.00719942503751,-1.24539450128
1385568454509203697,0.0903547209031,0.0682922105227,-0.112549318463,-0.000723631765468,0.00721290875311,-1.24539056333
1385568454519127146,0.0903918295176,0.0682695528957,-0.112618172842,-0.000652109865887,0.0065051262236,-1.2454641033
1385568454529186675,0.090405457412,0.0682621151054,-0.112604400308,-0.000682680376507,0.00655224807176,-1.24546503492
1385568454539226854,0.0903865028858,0.0682681793892,-0.112606585626,-0.000655097056092,0.00655644211442,-1.24548340474
1385568454549146532,0.0903948881441,0.0682609877019,-0.112609313701,-0.000617864672556,0.00660319684704,-1.24547709453
1385568454559074022,0.0903748880097,0.0682608021473,-0.112614164528,-0.000674041456383,0.00660204310198,-1.24552675367
1385568454569296807,0.0904074937161,0.0682457859568,-0.112604842367,-0.000635806276256,0.00646969854297,-1.24544160592
1385568454579249887,0.0903352526046,0.0682702507553,-0.112541427481,-0.00073161957736,0.00717227010547,-1.24541191725
1385568454589057811,0.0903752831209,0.0682534005418,-0.112614843665,-0.000629307325398,0.00656851443154,-1.24546204512
1385568454599194047,0.0903374288907,0.0682738830855,-0.112561763411,-0.000727969341585,0.00719182695151,-1.24543592223
1385568454609177226,0.0903705259986,0.0682576652681,-0.112619364731,-0.000657537771029,0.00661504636824,-1.24547311726
1385568454619126429,0.0903763742974,0.0682538036503,-0.112613623178,-0.000641517303421,0.00653884780864,-1.24546525847
1385568454629332267,0.0903713753212,0.0682618786237,-0.112550784341,-0.000517368393858,0.00714550904012,-1.24526930866
1385568454639148091,0.0904456186635,0.06824883157,-0.112622684878,-0.000624323647847,0.00663307340093,-1.24530347109
1385568454649088079,0.0904275683688,0.0682293457377,-0.112644500629,-0.000918233257097,0.00684425926165,-1.24571494469
1385568454659051178,0.0903471536882,0.0682868450481,-0.112563943418,-0.000734591480171,0.00723562802203,-1.24538882693
1385568454669043131,0.0903799400776,0.0682623655429,-0.112621380133,-0.000607179290483,0.00656990683588,-1.24546962028
1385568454679251876,0.0903827648666,0.0682631355206,-0.112605067626,-0.000626754395503,0.00653028042269,-1.24546384237
1385568454689085547,0.0904041391724,0.068271603431,-0.112567851237,-0.000668292490975,0.00719398535479,-1.2452177966
1385568454699417916,0.090448573782,0.0682614331623,-0.11262712378,-0.000620382043308,0.00663718152549,-1.24526629801
1385568454709190660,0.0904571570124,0.0682563476467,-0.112631996212,-0.000585509033177,0.00671133309044,-1.2452321082
1385568454719237398,0.0903880089109,0.0682735050544,-0.112613110893,-0.000629670026763,0.00652596728702,-1.24546420359
1385568454729161239,0.0903540342347,0.0682960888281,-0.112570226775,-0.000737169594285,0.00724594239473,-1.24538769324
1385568454739914002,0.090391016136,0.0682749227419,-0.112621890157,-0.000613944970386,0.00652029461386,-1.24546732912
1385568454749140932,0.0903939259138,0.0682727154064,-0.112616278975,-0.000657713297718,0.00663006686472,-1.24543965955
1385568454759035796,0.0903957231884,0.0682758825965,-0.11261022653,-0.00063660146342,0.00658222365888,-1.24545878928
1385568454769052431,0.0903883090634,0.0682732344888,-0.112611582833,-0.000643460705428,0.00657196447894,-1.2454333155
1385568454779042097,0.0903462857755,0.0682903128191,-0.112551810166,-0.000717755969208,0.00714397691584,-1.24539567829
1385568454789027691,0.0903176309572,0.0682796060066,-0.112533975605,-0.000494286491349,0.00701805480413,-1.2454212052
1385568454799075928,0.0903950223993,0.0682688935923,-0.112611051941,-0.00064869488394,0.00654487082244,-1.24543348136
1385568454809082026,0.0903856636273,0.0682715477941,-0.112618593429,-0.000626450252156,0.0066312362667,-1.24543868082
1385568454819058895,0.0904201401638,0.0682898566443,-0.112572367448,-0.000700954032668,0.00731571677607,-1.24521105014
1385568454829003271,0.0903954716199,0.0682701551732,-0.112610486663,-0.000656794343556,0.00650724328027,-1.24544112234
1385568454839039315,0.0903919970205,0.0682800184434,-0.112616136294,-0.000662302340889,0.00664266501754,-1.24546319123
1385568454849121698,0.0903548441686,0.0683007900538,-0.112564953688,-0.000721637362292,0.00721163599791,-1.24540645139
1385568454859028381,0.0904555726148,0.0682629905947,-0.112633057391,-0.000591369296991,0.0066012035477,-1.24527577256
1385568454869054928,0.0904545112306,0.0682680795573,-0.112643346412,-0.000594771747189,0.00664439625563,-1.24527141523
1385568454879166731,0.0903978748273,0.0682780942341,-0.112623308582,-0.000629510478475,0.00656828852725,-1.24544415714
1385568454889058142,0.0903890359204,0.0682756918924,-0.11262294283,-0.000655611136915,0.0066308181684,-1.24544545331
1385568454899056053,0.0904520292071,0.0682643084982,-0.112640412681,-0.000621815271154,0.00661370970964,-1.24527387314
1385568454909100570,0.0903727216904,0.0682103099219,-0.112643404117,-0.000601338214331,0.00637377310556,-1.24545365369
1385568454919039850,0.0904495919953,0.0682132911412,-0.112668756632,-0.000608989204684,0.00646402805406,-1.24512540978
1385568454929042262,0.0903766778224,0.0682259526378,-0.11263462753,-0.000643202579056,0.00640984820402,-1.24514068272
1385568454939154370,0.0903900341117,0.0682238977983,-0.112631726088,-0.000738322284782,0.00633355374309,-1.24564703593
1385568454949074645,0.0904118955638,0.0682327705062,-0.112642482019,-0.000680268349972,0.00645568176003,-1.24554481918
1385568454959029643,0.0904074322885,0.0682288946611,-0.112641287265,-0.00068860615478,0.00633227224585,-1.24540565827
1385568454969026049,0.0904358721429,0.0681668908077,-0.112685913148,-0.000443125550369,0.00647821340229,-1.24487375853
1385568454979029099,0.0903749862196,0.06823100993,-0.112607815003,-0.000752368110536,0.0062311085507,-1.24563389813
1385568454989024760,0.0904639111906,0.0682150263664,-0.112646930624,-0.000662861212783,0.0066270455991,-1.24507839605
1385568454999076548,0.0904112095138,0.0681644660929,-0.112677499592,-0.000624953651739,0.00652507443473,-1.24545038191
1385568455009099287,0.090304642356,0.0682594770622,-0.112677731061,-9.99316161875e-05,0.00610933623189,-1.24608343304
1385568455019131655,0.0903146351099,0.0682555929886,-0.112674016759,-3.65073756304e-05,0.00628309511226,-1.24607570739
1385568455029138573,0.0903279723299,0.0682757570142,-0.112639573022,-7.31878314565e-05,0.00700674131171,-1.24541336164
1385568455039183411,0.0904056393921,0.0682431920582,-0.112652674579,-0.000635512893142,0.00628112687238,-1.24519909286
1385568455049223694,0.0903855038451,0.0682745943521,-0.112671875407,-0.000544047872977,0.00627398475927,-1.24580086464
1385568455059077607,0.0903714069799,0.0682854780892,-0.112623746192,-0.000753164310156,0.00714720437313,-1.24556617661
1385568455069087646,0.0902957700267,0.0682779306552,-0.112558405685,-0.000687726430682,0.00740765483513,-1.24521922782
1385568455079049174,0.0903905645937,0.0682409441742,-0.112654257098,-0.000685069448293,0.0062180459163,-1.2456176135
1385568455089071492,0.0904038690233,0.06831261385,-0.112636165978,-0.000712550503804,0.00651243948178,-1.24584278464
1385568455099272469,0.0904563252873,0.06825464163,-0.11266613653,-0.000548249361516,0.0064841444403,-1.24528222752
1385568455109192236,0.090448519842,0.0682674932632,-0.112608294286,-0.000588055646479,0.00694555341107,-1.24524706309
1385568455119071322,0.0903980389916,0.068236520312,-0.112686066382,-0.000456215773336,0.00640954868117,-1.24595164358
1385568455129178257,0.0903462535118,0.0681408071671,-0.112662524422,-0.000130126897764,0.00636302493074,-1.24522195471
1385568455139151615,0.0903426389746,0.0682817731786,-0.112702015962,-0.000201783848441,0.00648568480053,-1.2455930446
1385568455149082441,0.0903417166377,0.068255496174,-0.112612945169,-0.000624845662935,0.00681877772184,-1.24541530522
1385568455159059368,0.0903515959929,0.0683292014803,-0.112592459566,-0.000754530710988,0.00716713333262,-1.24587708044
1385568455169047227,0.0903842032239,0.0682580522215,-0.112653161058,-0.000610355908684,0.0063870507034,-1.24549417321
1385568455179246147,0.0903472561447,0.0682806903954,-0.112592832697,-0.00068430592957,0.00681034019636,-1.24530470155
1385568455189110163,0.0904124904025,0.0682552294579,-0.112630257044,-0.000948358345079,0.00707530511518,-1.24588978122
1385568455199118073,0.0903153713853,0.0681911701291,-0.112606645982,-0.000295456843879,0.00699088803936,-1.24528878907
1385568455209168947,0.0902950131652,0.0682749978565,-0.112572133268,-0.000657741083245,0.00730372434299,-1.2453175034
1385568455219146188,0.090391912063,0.0682622531688,-0.112659387606,-0.000552512632525,0.00631555939455,-1.24557299941
1385568455229153841,0.0903822744317,0.0682495119448,-0.112617375625,-0.00037330555616,0.00615357764496,-1.2457029621
1385568455239154301,0.0904117153243,0.0682569600937,-0.112649508932,-0.000608118619373,0.00629170365246,-1.24559152138
1385568455249153482,0.0903416546099,0.068240433768,-0.112696505469,-0.00014109042357,0.00630341094004,-1.2454838692
1385568455259105543,0.0903478104403,0.0682737723846,-0.112709166453,-0.000245977514939,0.00634201651955,-1.24580679397
1385568455269056696,0.0903974473699,0.0682465279269,-0.112639342502,-0.000566308459999,0.00630685160273,-1.2456804214
1385568455279152223,0.0904451153017,0.0682632278711,-0.112667366862,-0.00051172763738,0.00636159417464,-1.24540731986
1385568455289066649,0.0903682859763,0.068244294788,-0.112633442563,-0.000407359551788,0.0061937519025,-1.2456504055
1385568455299086926,0.090347453699,0.0682121230745,-0.112629062768,-0.000540769723921,0.00685412779676,-1.24526317724
1385568455309147331,0.0903872706883,0.0682689820073,-0.112657594915,-0.000606309271193,0.00637013700957,-1.24561822995
1385568455319079870,0.090389356494,0.0682611489837,-0.112649196122,-0.0005498635298,0.00633172529427,-1.24548450761
1385568455329087685,0.0904025391901,0.0682237943298,-0.11265488207,-0.000601212691587,0.00638231505162,-1.24591765169
1385568455339157194,0.0903731098886,0.0682342228242,-0.112605694182,-0.000655851580429,0.00695008271577,-1.24521358971
1385568455349115310,0.0903874454907,0.0682642784719,-0.112643923015,-0.000589826938815,0.00632287089501,-1.2455741071
1385568455359128708,0.0904581203117,0.0682453125546,-0.112649074152,-0.000561662480236,0.00634794100641,-1.24553583089
1385568455369052704,0.0903654654878,0.0682441709841,-0.112611046116,-0.000361684471019,0.00616575686707,-1.245607196
1385568455379026455,0.0903409569177,0.0682887390497,-0.112625560706,-0.000307826374681,0.00621802127322,-1.24580552299
1385568455389108362,0.0903803267107,0.0682481717432,-0.112634694597,-0.00058355508749,0.00635899230496,-1.24556360525
1385568455399087244,0.0904190539112,0.0682540060588,-0.112659783648,-0.000661554001703,0.00636238219963,-1.24572950092
1385568455409049842,0.0903782105454,0.0682318059348,-0.112600934507,-0.000754384219782,0.0068374478042,-1.24506738772
1385568455419049332,0.090386687536,0.0682526781017,-0.112640720138,-0.000625024007426,0.00629791621682,-1.24574498067
1385568455429139558,0.0904037560776,0.0682628528481,-0.112673732354,-0.000690158465245,0.00643420924446,-1.24583490856
1385568455439067252,0.0903652622478,0.0682508344864,-0.112654091001,-0.000591182486177,0.0062948999308,-1.24551386852
1385568455449071582,0.0903960405681,0.0682851214314,-0.112647606905,-0.000595618742837,0.00622354738984,-1.2455407242
1385568455459055293,0.0905062088575,0.0682172611967,-0.112736493078,-0.00107943710327,0.00679694058094,-1.24598073482
1385568455469041871,0.0903949563945,0.0682961324124,-0.112651848265,-0.000672810055365,0.00644828217835,-1.24577079271
1385568455479160191,0.0904026722972,0.068263234981,-0.112689366238,-0.000741267788679,0.00625372469562,-1.24552821302
1385568455489821177,0.0903996793798,0.0683037364416,-0.112680932053,-0.000768686250568,0.00644451218635,-1.24582982999
1385568455499187238,0.090301723861,0.0682586363299,-0.112732175182,-0.000439190291017,0.00687159297972,-1.2457584494
1385568455509178162,0.0904348689361,0.0682843557874,-0.112679928735,-0.000735984205481,0.00713911491374,-1.24489526778
1385568455519212161,0.0903745992273,0.0682366693398,-0.112660995854,-0.000239201592006,0.00626325354518,-1.24587287824
1385568455529073978,0.090392676096,0.068269047931,-0.11270425239,-0.000277553573495,0.00642352488719,-1.24606114352
1385568455539069875,0.0904473760679,0.0682413633795,-0.112668623077,-0.000377048257006,0.00718038523984,-1.24522336021
1385568455549178808,0.0903342257041,0.068268522459,-0.112728705191,0.000281088766654,0.00606064065764,-1.24563055544
1385568455559097740,0.090332387534,0.0682424912293,-0.112696332393,-0.000488443793485,0.00660826838733,-1.24616282509
1385568455569025629,0.0903375477818,0.0683123291931,-0.112684304374,-0.000759302890399,0.00718157958448,-1.24536434959
1385568455579032007,0.0903699719621,0.0683126436282,-0.112661478265,-0.00049343614407,0.00629913303053,-1.24549235668
1385568455589055059,0.0903360469898,0.0682609389389,-0.112621380536,-0.000870662550636,0.00672454340792,-1.24596110881
1385568455599152525,0.0904434282826,0.0682826695732,-0.112705325577,-0.000657817597604,0.00660854864971,-1.24509244983
1385568455609060169,0.0903963545136,0.0682883095387,-0.112725693369,-0.000914682308632,0.00643633246189,-1.24561695246
1385568455619146600,0.0902915259137,0.0682399611956,-0.112637626748,-0.000288531358755,0.00655061920616,-1.24589620597
1385568455629240812,0.0904713156706,0.0682990019223,-0.112617702975,-0.00116492608616,0.00684138309816,-1.24472286788
1385568455639119106,0.0903806161789,0.0682824035589,-0.112728662212,-0.000769250802805,0.00636003492295,-1.24574627073
1385568455649125500,0.0903255093574,0.068277989671,-0.11264515605,-0.000448530078368,0.0062656420203,-1.24583853037
1385568455659201222,0.0903261305794,0.0683066168476,-0.112746968267,-0.000261679913275,0.00723312848134,-1.24495741954
1385568455669036147,0.0903639322848,0.0682876566243,-0.112723248033,-0.000779007740903,0.0064472061835,-1.24590780776
1385568455679163590,0.0903198608875,0.0683600116915,-0.11261338244,-0.00103462648111,0.00706452670027,-1.24547345935
1385568455689127450,0.0904004631735,0.0682810517427,-0.112665062949,-0.000618455504723,0.00607324826627,-1.2450917094
1385568455699152350,0.0903155021112,0.0682067023463,-0.112680616674,-0.000862531862385,0.00693824485773,-1.24561448194
1385568455709131143,0.0903111954451,0.0683143938822,-0.112661941913,-0.00071298371368,0.00706358182996,-1.24509498643
1385568455719133572,0.0903324888398,0.0682772055659,-0.112631408679,-0.000222132325564,0.00609014707641,-1.24521133573
1385568455729053376,0.0903746815095,0.0682899619716,-0.112649013579,-0.00055330450031,0.00616842682531,-1.24624968964
1385568455739113114,0.0902946735367,0.0683207805687,-0.112633162693,-0.000747197809352,0.00708255028261,-1.24513731684
1385568455749131476,0.0903677093116,0.0683516622209,-0.112700421808,-0.0010612979633,0.00660272898582,-1.24535467782
1385568455759177315,0.0903561879914,0.0682035096885,-0.11268974019,-0.000678771671173,0.00627452384188,-1.24602302142
1385568455769088183,0.0902898472963,0.0683626876558,-0.112673997919,-0.000488858820493,0.00700709938976,-1.24507141616
1385568455779149244,0.090350750833,0.06830710046,-0.11269399713,-0.000761408536952,0.00642270740734,-1.24548069332
1385568455789134809,0.0902457266059,0.0682665845271,-0.112602596196,-0.00042552094369,0.0066149197565,-1.24557136942
1385568455799159340,0.0904537164118,0.0682770980054,-0.112747603579,-0.00129156866148,0.00675111171748,-1.24525848777
1385568455809270347,0.0904106888471,0.0682760552878,-0.112747929338,-0.000637698251339,0.00652987222306,-1.24546804162
1385568455819981821,0.0903302610433,0.068300228751,-0.112666645201,-0.000880375019862,0.00702633356105,-1.24497284559
1385568455829071178,0.0903601691194,0.0683018849778,-0.112666452178,-0.000445405767198,0.00672382715893,-1.24471033895
1385568455839092701,0.0903070393653,0.0682891415817,-0.112746803195,-0.000337221772027,0.00629368230934,-1.24609308137
1385568455849118374,0.0903195524088,0.0683520662863,-0.112645898073,-0.000559835820787,0.00689188079112,-1.24509362726
1385568455859075605,0.0902552605943,0.0683084830733,-0.112629485652,-0.000363969151119,0.00686227243022,-1.2449738413
1385568455869042091,0.0902698560319,0.0682950721872,-0.112704458897,-0.000838158615155,0.00662087404108,-1.24575650036
1385568455879028520,0.0902713993954,0.0682609485614,-0.112631205958,-0.000914953950772,0.00712903908325,-1.24452178675
1385568455889042945,0.0903870979373,0.0683065695298,-0.112658574232,-0.00110833562281,0.00664345529444,-1.24498824784
1385568455899141810,0.0902680643291,0.0682757218548,-0.112580764776,-0.00063155301315,0.00658851205281,-1.24560676116
1385568455909156779,0.0902244878635,0.068345772903,-0.112626944446,-0.00104610340747,0.00746894443693,-1.24450893816
1385568455919085385,0.0903438193747,0.0683333615282,-0.112629852898,-0.00118226981261,0.00706488462292,-1.2451802553
1385568455929032263,0.0902368590221,0.0683128933963,-0.112628994182,-0.000843286301753,0.00687310518304,-1.24524019864
1385568455939064915,0.0902649338013,0.0683196075926,-0.112630285051,-0.000531783630583,0.00623988620173,-1.24454285548
1385568455949051110,0.0902236611893,0.0683446494774,-0.112672261857,-0.000516166470396,0.00687332368869,-1.2455823883
1385568455959023721,0.0902580240483,0.0683198466034,-0.112607292669,-0.000230846794355,0.0068181447424,-1.24482210471
1385568455969072546,0.0903165765407,0.0683106055784,-0.112676121517,-0.000145432000509,0.00632574086864,-1.24487734822
1385568455979152211,0.0903066761959,0.0682605853185,-0.112693138285,-0.00100459623761,0.00684902306975,-1.24595679045
1385568455989060165,0.09024784397,0.0683979394109,-0.112696440543,-0.000649689444656,0.00636500646569,-1.24494973842
1385568455999114944,0.0903065379432,0.0683745936328,-0.11268742282,-0.00125408749018,0.00636003532801,-1.24538311398
1385568456009106946,0.0903503887618,0.0683018579995,-0.112775634384,-0.00144173716091,0.0059992912934,-1.24732570227
1385568456019162384,0.0903971150616,0.0683716648395,-0.112770475177,-0.000928122766825,0.00664731757538,-1.24590615956
1385568456029050880,0.0903822311498,0.0683045457565,-0.112623227454,-0.000489003384901,0.00668580644587,-1.24573875091
1385568456039122355,0.0903531749831,0.068297522015,-0.112482112378,0.000859146113356,0.00720555601179,-1.24530225912
1385568456049208348,0.0903595205347,0.0683671205556,-0.112822589786,0.00140319186055,0.00599740043731,-1.24605001996
1385568456059052709,0.0903801903982,0.0683153400682,-0.112928193402,0.0011080045252,0.00622692889383,-1.24592869174
1385568456069046765,0.0903110965732,0.0683220167091,-0.112664214496,0.00075554635117,0.00721783827885,-1.24586303623
1385568456079177046,0.0903325061506,0.0683435026271,-0.112495453088,0.000885280929453,0.00630587343794,-1.24559564755
1385568456089089077,0.0903333010422,0.0682831431895,-0.112633742329,0.000303831087228,0.00653131190265,-1.2460075596
1385568456099097485,0.0902951913803,0.0683319117428,-0.11289303543,0.000692604866172,0.00602034144628,-1.24646885563
1385568456109168493,0.0902211172287,0.0682926839659,-0.112766406164,0.00164828755064,0.00682590525321,-1.24690163166
1385568456119175002,0.0903729496439,0.0684440381961,-0.112560419957,0.000749854737555,0.00645576724507,-1.24711861826
1385568456129139298,0.0902893880307,0.0683160774008,-0.112635938644,0.000744942244188,0.00594172220199,-1.24698779114
1385568456139160321,0.0902398153134,0.0683184618297,-0.112780940461,-1.01037314456e-05,0.00623706405814,-1.24687237744
1385568456149167409,0.0902338401169,0.0682965821767,-0.112813422621,-0.000150749498275,0.00647860738258,-1.24724013437
1385568456159092308,0.0903171017247,0.0683208704944,-0.112694509004,0.000188059962044,0.00619282044862,-1.24733963397
1385568456169076187,0.0903090169998,0.0683628282717,-0.112636924453,0.000500010878093,0.00614669302918,-1.24713204792
1385568456179088270,0.0901446861845,0.068224128471,-0.11274838733,0.00124969493273,0.00615758582984,-1.24723520545
1385568456189055883,0.0901593433682,0.0684238399374,-0.112875494627,0.000666474020731,0.00618603110521,-1.24774970324
1385568456199153896,0.0902039774052,0.0683220090233,-0.112784062806,0.000660052060414,0.006296893608,-1.24775059022
1385568456209169056,0.0901689956492,0.068480679881,-0.112647315591,0.000801030621427,0.00635809561067,-1.24773655641
1385568456219104603,0.0901234654281,0.0684012381185,-0.112645902229,0.00110486838086,0.00623299138916,-1.24816343045
1385568456229102279,0.0901166090558,0.0683947860726,-0.112800994447,0.000692054965338,0.00644166910531,-1.24766036976
1385568456239183438,0.0900831622351,0.0684728456363,-0.11282846894,0.00067195832045,0.00630383496773,-1.24888626585
1385568456249129376,0.0899756002963,0.0683800678513,-0.11268377514,-0.000304337734673,0.0054206399261,-1.24834128542
1385568456259066316,0.0899663723733,0.0684892011761,-0.112753317864,-0.000168011800675,0.00578861631677,-1.24851138261
1385568456269076355,0.0901149638586,0.0684945815407,-0.112814361928,0.000245309488199,0.00641444881841,-1.2496584674
1385568456279124932,0.0900166940287,0.0684785132046,-0.112821438052,0.00112862339031,0.00636018943745,-1.24844599857
1385568456289051955,0.0899756332816,0.0685376819197,-0.112822590038,0.0013243049181,0.00690077152515,-1.25032366208
1385568456299094501,0.0899409873804,0.0685416773329,-0.112678321865,0.0012979011435,0.00625282358931,-1.24946562735
1385568456309067842,0.0899798949653,0.0684690848532,-0.112808219204,0.000193808188302,0.00739729461916,-1.24988947543
1385568456319075792,0.0899223461643,0.0685051389745,-0.112926458675,0.00030499965654,0.00724234709607,-1.25039053474
1385568456329151521,0.0898449337097,0.0686215846374,-0.112812220907,0.000327505228895,0.00781723306727,-1.24993686953
1385568456339159956,0.0898811024986,0.0684890572974,-0.112685836755,0.00085977946404,0.00685065002488,-1.25115842006
1385568456349133528,0.0897504315142,0.0684637973178,-0.112814431223,-0.000133249435209,0.00537283923665,-1.24949173033
1385568456359060549,0.0896265143387,0.0685278954452,-0.112920423284,-0.000120374473356,0.00645382964223,-1.25084526691
1385568456369075818,0.0896261307552,0.068397789514,-0.112921831586,-2.87215997678e-05,0.00584987213894,-1.25081573007
1385568456379153363,0.0897554605613,0.0686006531921,-0.112922865059,0.00125166035298,0.00797304933703,-1.25146163952
1385568456389051195,0.0897384631716,0.0685266467914,-0.112778495349,0.000956035534725,0.00706948643204,-1.25153622207
1385568456399103458,0.089715563724,0.0685532487666,-0.112866587938,0.000502444853605,0.00704532764615,-1.25190558061
1385568456409106890,0.0896704391441,0.0685693418374,-0.112972640952,-4.10376745423e-05,0.0079464002743,-1.25163800506
1385568456419053445,0.0896153150365,0.0685806373855,-0.113001938135,-0.000254571615383,0.00824384819245,-1.25254557288
1385568456429120186,0.0895032976536,0.0686029690499,-0.112806635106,0.000365989636313,0.00789336732146,-1.25204060911
1385568456439093254,0.0895186278297,0.0684961698068,-0.112676895219,0.000298507259871,0.007614099132,-1.25234838759
1385568456449055104,0.0896071495305,0.0686421460756,-0.112831983429,0.00019330317609,0.00778184966635,-1.25267329325
1385568456459053993,0.0894499814317,0.068638444105,-0.113081190753,0.000996726236363,0.00832580237534,-1.25309253455
1385568456469026916,0.0894484755355,0.0687164372801,-0.113024257254,0.00146082169197,0.00697652966177,-1.25307034706
1385568456479234603,0.0894419614927,0.0687135242162,-0.112851260711,0.00173327312536,0.00790819865558,-1.25287514749
1385568456489102503,0.0893287673221,0.0688216497731,-0.112913704094,0.00171743549605,0.00897889152247,-1.25324188641
1385568456499142947,0.0892612630072,0.0687687607931,-0.112929498435,0.00154176841393,0.00721669769255,-1.25397716217
1385568456509232784,0.0892151462636,0.0688137508691,-0.112937525446,0.00152211131522,0.00757973995862,-1.25374233191
1385568456519056409,0.089228402657,0.0688597463405,-0.11288255259,0.00186087489195,0.00780419209011,-1.25440424518
1385568456529207505,0.0891776729063,0.068904686098,-0.112875017768,0.00187498888396,0.00812080959003,-1.2544803642
1385568456539091436,0.089202723665,0.0688763924695,-0.112904903316,0.00143459487306,0.00676854895965,-1.25459295659
1385568456549083637,0.0890896609457,0.0688996446422,-0.112850423016,0.00170637401935,0.00593423628686,-1.25517483978
1385568456559056279,0.089067896055,0.0688393169887,-0.112778350115,0.00199624150586,0.00635524363269,-1.25490017351
1385568456569055490,0.0889200733554,0.0689704177956,-0.112785639719,0.00211489804752,0.00657177583861,-1.25566110087
1385568456579135612,0.0889885062419,0.0688471906878,-0.112932723188,0.00106135133597,0.00725465839291,-1.25612887937
1385568456589052904,0.0888848914543,0.0689694773292,-0.112965958251,0.00104507375687,0.00714119942936,-1.25727699616
1385568456599041777,0.0888019599195,0.0688298667156,-0.112936750147,0.00131187005361,0.00766940628073,-1.25810786106
1385568456609176574,0.0886382075353,0.068872324472,-0.112899754376,0.00216786051551,0.00776782185281,-1.25837653192
1385568456619145823,0.0884986161045,0.0688139398224,-0.112964307243,0.00315324575734,0.00718519732416,-1.25936320316
1385568456629191429,0.0884668845928,0.0688434234948,-0.112980636543,0.00310423940195,0.00586294780352,-1.25937031272
1385568456639168420,0.088252915227,0.0688115896372,-0.112989165055,0.00377678281205,0.0059517610123,-1.260700331
1385568456649148750,0.0881073167986,0.0688517204949,-0.112816593766,0.00345590990016,0.00733090080577,-1.25997374484
1385568456659061742,0.0879268389128,0.0687723682973,-0.112750117686,0.00291564497183,0.00711774559556,-1.26137505447
1385568456669085281,0.087836331386,0.0687707261702,-0.11291277965,0.00193801333297,0.0066818399652,-1.26093681763
1385568456679138135,0.0876540256267,0.0687658771447,-0.113152167119,0.0020601184123,0.00634743223901,-1.26304401775
1385568456689089302,0.0874681504298,0.0687041082545,-0.11319612323,0.00189917078023,0.00616116573508,-1.26246925973
1385568456699117417,0.0872770723599,0.0687111554359,-0.112827033421,0.00339843501928,0.00780408125787,-1.26412033961
1385568456709047211,0.0872661194348,0.0686807721957,-0.112717052994,0.00336023698994,0.00699154457809,-1.26364477778
1385568456719049800,0.0870579507296,0.068575513769,-0.113019167187,0.00329220957237,0.00612462669542,-1.2650006445
1385568456729213313,0.0870166799837,0.0686767273051,-0.113147220714,0.00286123689616,0.0066378741799,-1.26483891941
1385568456739072973,0.0869206341661,0.0685517822599,-0.112985369697,0.00363238478711,0.00806292407655,-1.26636249016
1385568456749049141,0.0868121836368,0.0686369564176,-0.112854856552,0.00409801425438,0.00692855839003,-1.26705878793
1385568456759110607,0.0866660124877,0.0684907385486,-0.112892612066,0.00327052601729,0.00622829912826,-1.26826113685
1385568456769066176,0.0865634076852,0.0686557289218,-0.113031220862,0.00264334443169,0.00658308520941,-1.26878125715
1385568456779100619,0.0863095351296,0.0686808932284,-0.113067030336,0.00138204535028,0.00831743580028,-1.26952383483
1385568456789056146,0.0862217074556,0.0687742145226,-0.113280316056,0.000781679173836,0.00711718206329,-1.27085296031
1385568456799127723,0.0860514377762,0.0687613638781,-0.113275331638,0.000818465173644,0.00681474982733,-1.27225825346
1385568456809125036,0.0858289371406,0.0687803253992,-0.112848067183,0.000912426838511,0.00595030422105,-1.27374512789
1385568456819114607,0.085647257566,0.0690520508267,-0.112723102812,0.00128658004124,0.00743874189462,-1.27462898267
1385568456829337650,0.0855485183117,0.0691893165842,-0.113047915214,0.00141565882415,0.00881456742804,-1.27611113595
1385568456839080079,0.0852788497547,0.0691704859346,-0.113392933178,0.0015760328082,0.00508954743767,-1.27707610044
1385568456849055578,0.0850109217234,0.0692754865063,-0.113330505938,0.00151731992961,0.00330967972185,-1.27832177069
1385568456859117261,0.0847108721218,0.0693500286364,-0.113109754187,0.000761873213788,0.00352057409321,-1.27993820669
1385568456869117058,0.0845420971238,0.0696869263292,-0.113337088227,0.000832276786799,0.00322077922584,-1.28213708229
1385568456879128431,0.0843666723639,0.0698174113121,-0.113416635479,0.0014591907105,0.00404327441384,-1.28376028591
1385568456889061421,0.0839914174226,0.0702216694384,-0.11349097999,0.00172850932455,0.00698151508476,-1.28658772739
1385568456899106612,0.0838196938108,0.0704514586272,-0.112958544315,0.00214925730043,0.00409003863283,-1.28762625488
1385568456909033813,0.0834931502752,0.0707400395153,-0.11295359642,0.00148871968655,0.00496146457452,-1.28907065668
1385568456919039397,0.0832746378306,0.0710844804079,-0.113229972844,0.00183107352735,0.00500838123899,-1.29113925451
1385568456929025310,0.0830391970815,0.071366794356,-0.113223257707,0.000581308188295,0.00697726126546,-1.2918777963
1385568456939042359,0.0826826323796,0.0717339823761,-0.112931263786,-0.000590516215695,0.00714706822303,-1.29375069561
1385568456949164473,0.0824567487239,0.072183740146,-0.112899873424,-0.00111868355524,0.00560510326812,-1.29551881718
1385568456959048701,0.0822290796212,0.072494871136,-0.113184698126,-0.0013520503415,0.00550665791869,-1.29624977331
1385568456969111255,0.0819487729893,0.0728126312404,-0.112885491944,-0.00100243383634,0.00549142070214,-1.29719620743
1385568456979043518,0.0819208592168,0.0731571920841,-0.113172734974,-0.000353733622089,0.00469466303802,-1.29796447462
1385568456989031954,0.0817030431607,0.0736123395951,-0.113251880047,0.000400507546714,0.00420293942864,-1.29857294064
1385568456999132485,0.0815436331133,0.0740543779912,-0.113354013543,0.000518287626669,0.002483348592,-1.30073380994
1385568457009124071,0.0813254392578,0.0744174607756,-0.113363139234,0.00100142117427,0.000240703929087,-1.3019222746
1385568457019033071,0.0811282658257,0.0748417905808,-0.113521632279,0.00100895882797,0.000199306988673,-1.30419202769
1385568457029050333,0.0809618171917,0.0752481043627,-0.113892908855,0.00078155920546,-0.00120391922569,-1.30518978029
1385568457039067028,0.0807790305119,0.075603598333,-0.114235435931,0.000716301208176,-0.00303750526485,-1.30659965726
1385568457049026385,0.080589558952,0.076057344004,-0.114419556166,0.000954977816585,-0.00528520170953,-1.30789238828
1385568457059064672,0.0804671200514,0.0763721023408,-0.114521509653,0.000603973605594,-0.00791796818396,-1.3093623437
1385568457069041172,0.0803579668618,0.0767298753055,-0.114893582127,0.000337912625978,-0.0102074773675,-1.31110431742
1385568457079029842,0.0801164911595,0.0770681530816,-0.115268617055,4.3357071224e-05,-0.0136336948341,-1.3130939341
1385568457089085252,0.0800324894525,0.0775374345833,-0.115910354489,1.5093045372e-05,-0.0152004028923,-1.31503468893
1385568457099041174,0.0797288119665,0.0778324096068,-0.116220372479,-0.000101083088753,-0.0171045006737,-1.31643945754
1385568457109035939,0.0795493872385,0.0781730448847,-0.116787086934,0.000170924572826,-0.0201752480692,-1.3188457846
1385568457119028253,0.0794068948821,0.078570865156,-0.117516555771,0.00243328698139,-0.0232037400592,-1.3203665405
1385568457129048998,0.079226808345,0.0787739142344,-0.118098376209,0.00272488956451,-0.027055143569,-1.32242361823
1385568457139049724,0.0789728720219,0.0791223631928,-0.118750608473,0.00428362514628,-0.0304003658173,-1.32474499567
1385568457149029835,0.078838241112,0.0794119621289,-0.119451480006,0.00549458041863,-0.033401726572,-1.32644938784
1385568457159058252,0.0784538098798,0.0797438937371,-0.120400675879,0.00588278793148,-0.0370095769068,-1.32880687068
1385568457169036396,0.0780934708879,0.0800731207346,-0.121438979818,0.00742594071129,-0.0389283662492,-1.33033103041
1385568457179028521,0.0779774254988,0.0804513918821,-0.122386082275,0.00852121423106,-0.0430008784466,-1.33176259152
1385568457189042120,0.0777142858593,0.0806162700091,-0.123554806033,0.00918976514162,-0.0466664022681,-1.33380846179
1385568457199043917,0.0775771084665,0.0809642072787,-0.1248390152,0.00989616126598,-0.0483294876048,-1.33493650645
1385568457209038674,0.0773633192962,0.08118782968,-0.126379184378,0.00971085438247,-0.0510885772648,-1.33623818978
1385568457219022573,0.0773017523136,0.0814521155563,-0.127809796153,0.0101938987581,-0.0520689214401,-1.33791400201
1385568457229045441,0.0770736916168,0.0817701401466,-0.12926052449,0.0110847239002,-0.0533846511247,-1.33959670085
1385568457239057988,0.0769619392783,0.081995091839,-0.131226064461,0.0113429734635,-0.0555060487238,-1.34153773394
1385568457249025393,0.076890441348,0.082292511282,-0.133235394448,0.0109676003673,-0.0575500101101,-1.34321129837
1385568457259044352,0.0766677871534,0.082488081867,-0.135195146176,0.00983117194446,-0.059550456614,-1.34440171363
1385568457269033816,0.0767025798065,0.0826989141569,-0.136867380903,0.0078588185296,-0.0595356744354,-1.34574979585
1385568457279033006,0.0766793527323,0.0828994462468,-0.139169229135,0.00677257618478,-0.0607029846444,-1.34675393868
1385568457289050650,0.0766052430413,0.082945271046,-0.14159890709,0.00503398793594,-0.0632078617117,-1.34722253477
1385568457299038809,0.0764543724629,0.0831400182766,-0.144071439483,0.00481850234858,-0.0632614006844,-1.34864031471
1385568457309042188,0.0765202849838,0.0831590750893,-0.146246099648,0.00325371779557,-0.0638970848156,-1.34942883738
1385568457319040282,0.0764969350103,0.0833397898152,-0.148618709139,0.00264338390051,-0.0638665445697,-1.35012940824
1385568457329024896,0.0764356607084,0.0831980614768,-0.151383969337,0.000300353735315,-0.0642496565933,-1.35122099393
1385568457339094929,0.0765525291461,0.0832058319138,-0.154291326219,-0.000854606667207,-0.0658983315327,-1.35242934202
1385568457349047210,0.0765897072737,0.0830885903786,-0.156865554653,-0.00142390234003,-0.067636312135,-1.3540392847
1385568457359081270,0.076703427238,0.0828753039674,-0.159798044908,-0.0019778159701,-0.0684018446482,-1.35640291701
1385568457369060766,0.0767470554307,0.0825786904311,-0.162617195413,-0.00215514295657,-0.0697410280735,-1.35826309016
1385568457379073553,0.0767598033052,0.0822833592691,-0.16586858365,-0.00236138609524,-0.0703272960767,-1.36050536413
1385568457389046300,0.0769446969896,0.081882051072,-0.169186870049,-0.00198401213942,-0.0695224811549,-1.3627639063
1385568457399059265,0.0768791547315,0.0813576748351,-0.172050071964,-0.00187262912237,-0.0704710941763,-1.36491114384
1385568457409060398,0.0769387566413,0.0807403773042,-0.175290744569,-0.002270021882,-0.0692468619426,-1.36645065208
1385568457419042221,0.0771163907598,0.0800638593355,-0.178689811935,-0.00327667809016,-0.069591612707,-1.36764238026
1385568457429078540,0.0771286761219,0.0793701397651,-0.182422684093,-0.00189907828672,-0.0687721818542,-1.36941346794
1385568457439152314,0.0773281775725,0.0785948544356,-0.185550396688,-0.00149465237547,-0.0693102898864,-1.37074046185
1385568457449128345,0.0775666639947,0.0776892433267,-0.188908924145,0.000705146359773,-0.0689836009675,-1.37207312204
1385568457459099806,0.077568193403,0.0767374395724,-0.192677593995,0.00200609317714,-0.0690628113154,-1.3737554906
1385568457469066369,0.0780018648289,0.0756442515594,-0.196432534735,0.00462470534157,-0.0693012588885,-1.37502062654
1385568457479159986,0.0782813838796,0.0745020465235,-0.19982518059,0.00587974748812,-0.0680798518729,-1.37713407623
1385568457489068617,0.0785321020226,0.0732824056185,-0.203399807175,0.00716483082158,-0.0684518035397,-1.37840582569
1385568457499083561,0.078740272608,0.0720147566966,-0.20739346241,0.0101439147219,-0.0676917031442,-1.37954938806
1385568457509062303,0.0789733603006,0.0706727428906,-0.211106980176,0.0102074360571,-0.0669849742365,-1.38097999919
1385568457519063619,0.0792712268299,0.0692387986636,-0.214812816204,0.0105083412841,-0.0650197659471,-1.38155154399
1385568457529126735,0.0795631537071,0.0678373113324,-0.218559120847,0.0111605843252,-0.0636836931925,-1.38372413407
1385568457539085692,0.0797165669624,0.0662884146512,-0.222513235957,0.0105744318393,-0.0626570098757,-1.38467562628
1385568457549025257,0.0801891185636,0.064604510567,-0.226512409686,0.00981334913945,-0.0607343669489,-1.38624227492
1385568457559118209,0.0806093383886,0.0629402018237,-0.230426912388,0.0102579958056,-0.0584532344366,-1.38782800429
1385568457569103644,0.0807507202256,0.0613448596985,-0.234436481182,0.0109998806531,-0.0568206793216,-1.38906360032
1385568457579154272,0.0812410957718,0.0594195406512,-0.238357913388,0.0111377592349,-0.0561635560287,-1.39058978206
1385568457589072953,0.0814578990091,0.0575610429953,-0.24263095398,0.0116822369562,-0.054836460018,-1.39223201696
1385568457599086857,0.0819166021358,0.0557239064554,-0.246754276622,0.0131824269274,-0.0534769361403,-1.39276572839
1385568457609195813,0.082199793483,0.0537377213238,-0.250638401958,0.0135740577002,-0.0523112435185,-1.39439727098
1385568457619104920,0.0827661945931,0.0517199615643,-0.254935676902,0.014578155933,-0.0517022904571,-1.39542792252
1385568457629032229,0.0830222954755,0.0496851899397,-0.259270240483,0.0155702914926,-0.0510626965233,-1.3963944621
1385568457639139807,0.0836231448922,0.0475408040635,-0.263644074002,0.0164378290245,-0.0511501645092,-1.39739842608
1385568457649114544,0.0839956040803,0.0453230851113,-0.267813455071,0.0166108417461,-0.0493720473723,-1.39806559813
1385568457659062308,0.0846664339003,0.0430757793458,-0.272272381032,0.0182830266902,-0.0502760154506,-1.39969074528
1385568457669069626,0.0852242352931,0.0407491568341,-0.276941114817,0.0204508815622,-0.0497338868006,-1.40097152103
1385568457679134442,0.0860141378447,0.0383876277865,-0.281477099599,0.022001741792,-0.0496511449206,-1.40076614249
1385568457689058888,0.0864961733979,0.0360002253995,-0.285963024703,0.0233414785302,-0.0497703394929,-1.40254565609
1385568457699093235,0.0871287672771,0.0336391091686,-0.290508508173,0.025020413298,-0.0495690027677,-1.40307889324
1385568457709069673,0.0877639598286,0.0310146130679,-0.295413250325,0.0260049678738,-0.0487646664711,-1.40419997969
1385568457719036382,0.0884311592291,0.0286980007521,-0.300071236105,0.0262415290491,-0.0486322839876,-1.40511192687
1385568457729073161,0.0891794555914,0.0260422993197,-0.30490113815,0.0263446290087,-0.047583302841,-1.4061647986
1385568457739157542,0.089782876861,0.0235092318886,-0.309747876305,0.0267137492953,-0.0459210786755,-1.407402421
1385568457749060946,0.0905527462049,0.020926860308,-0.314789958769,0.0273728165525,-0.0457970630586,-1.40759794376
1385568457759026770,0.0911546332712,0.0183568909373,-0.319758328007,0.0268270019969,-0.0443403255847,-1.40857356102
1385568457769043046,0.0921534398963,0.0156021621161,-0.324783667957,0.0260055983013,-0.0433015718778,-1.40879771274
1385568457779036292,0.0927482294175,0.0128445153252,-0.329814594529,0.0257861931205,-0.0429988685169,-1.40948998548
1385568457789041684,0.093561007807,0.0101072679455,-0.334913994407,0.0247834567193,-0.0421331789682,-1.41013288496
1385568457799067991,0.0944785026611,0.00748988016513,-0.340045608248,0.0245108440363,-0.0413493189578,-1.41066801834
1385568457809057370,0.0953206857406,0.00476107998583,-0.345349454834,0.0242419615287,-0.039799204007,-1.41163787087
1385568457819064557,0.0962577883549,0.00193296997576,-0.350637442333,0.0235631637948,-0.038279896108,-1.41184524951
1385568457829170094,0.0971919981339,-0.000857162838934,-0.355913681855,0.0226348798081,-0.0370233737607,-1.41215874584
1385568457839163209,0.0981128960523,-0.00369155784313,-0.361325117548,0.0208426299959,-0.0347629247423,-1.41270872665
1385568457849045171,0.0990732191362,-0.00647790717584,-0.366621026635,0.0207804435376,-0.0335167184441,-1.4130337956
1385568457859028128,0.0998522596118,-0.00932751373451,-0.372024502436,0.0205242391748,-0.0314167543035,-1.41364961666
1385568457869370361,0.101044468674,-0.012246403567,-0.377490809532,0.0187441615723,-0.0291099332447,-1.41375747479
1385568457879159177,0.101936485814,-0.0151232959667,-0.383037320209,0.0186984488491,-0.0274851038518,-1.41417344434
1385568457889081584,0.102834964255,-0.0180986391951,-0.388681242299,0.0182309711133,-0.0252070648988,-1.41453379558
1385568457899086204,0.103920562303,-0.0210730296167,-0.394430475321,0.0167786093298,-0.0235753885764,-1.41532855087
1385568457909065102,0.105029820042,-0.0239361704588,-0.400620307454,0.0159088477692,-0.0200425421081,-1.41602941607
1385568457919155919,0.106091146117,-0.0269325170302,-0.406278306038,0.0151350918222,-0.0200127505346,-1.41656244216
1385568457929230519,0.107108585952,-0.0299381779532,-0.411856386756,0.0143295411783,-0.0193299095362,-1.41668954575
1385568457939175746,0.108157525988,-0.0329214794627,-0.417413928896,0.0133313290862,-0.0165666919514,-1.41725423738
1385568457949133444,0.109143079354,-0.0360070555177,-0.422809587383,0.0123311278176,-0.0150202072028,-1.41768307009
1385568457959116494,0.110268819583,-0.0388858768887,-0.428018691781,0.0112458548652,-0.0133013146367,-1.41795803088
1385568457969079643,0.111213000748,-0.041959091597,-0.433243879997,0.0104388152305,-0.0119903201404,-1.41891563938
1385568457979205457,0.112210716757,-0.0449485660333,-0.438130029225,0.0103768150222,-0.0106257092889,-1.41857637006
1385568457989065233,0.11350943474,-0.047847499328,-0.443020532693,0.00922506720773,-0.00878255623802,-1.41959879764
1385568457999175034,0.114490330301,-0.0509974034619,-0.44785821766,0.00894674977557,-0.00853447021858,-1.41959888405
1385568458009170304,0.115576888138,-0.0540146282235,-0.452335220089,0.00786686032444,-0.00788229895071,-1.41961826985
1385568458019087290,0.116436432311,-0.0570048906428,-0.456619121067,0.00863064635923,-0.00790371492089,-1.42002211527
1385568458029147517,0.11759493948,-0.0601708231784,-0.460932930484,0.00757530188955,-0.00676103880598,-1.4203988644
1385568458039108482,0.118527580377,-0.0631821874801,-0.46515408003,0.00787300365577,-0.00688775631694,-1.42154738295
1385568458049216926,0.119558085477,-0.0661199794664,-0.469208670201,0.00728561133335,-0.00647836971551,-1.42170414667
1385568458059104545,0.120873372357,-0.0691844718984,-0.473026883852,0.00655534272277,-0.00611870305328,-1.42252834202
1385568458069062196,0.121737372966,-0.0723304596924,-0.47668634717,0.00632188235813,-0.00626637388084,-1.42262976525
1385568458079061953,0.122885809932,-0.075303855992,-0.480304492609,0.00641694784777,-0.00649300595412,-1.42250611607
1385568458089109678,0.12387229556,-0.0784537658373,-0.48370086569,0.00522125960602,-0.00679637743391,-1.4226562247
1385568458099102331,0.124959454464,-0.0815015929034,-0.487047033449,0.00510208380264,-0.00691931940725,-1.42274259066
1385568458109505074,0.125899396972,-0.0845297447487,-0.490096649267,0.00552143668748,-0.00727583081727,-1.42320969048
1385568458119137561,0.127019325333,-0.0875356818507,-0.493105882768,0.00485483917115,-0.00725626305903,-1.42344814897
1385568458129147218,0.128218006926,-0.0905945812572,-0.495872509047,0.00364518629214,-0.00740466047452,-1.42404793294
1385568458139112230,0.129140167504,-0.093669844639,-0.498555391876,0.00372143921164,-0.00760360820227,-1.42392193177
1385568458149111996,0.130302058361,-0.0967057355079,-0.501066154487,0.00310037901485,-0.00774423601452,-1.42458295935
1385568458159059100,0.131215311718,-0.0997150123281,-0.503418025678,0.0041079391527,-0.00721543983157,-1.42455267622
1385568458169125996,0.132251498021,-0.102803463612,-0.505694836072,0.00358750125246,-0.00724911015874,-1.42528385579
1385568458179139903,0.133368249891,-0.105872445426,-0.507702491649,0.00381053071868,-0.00708384318027,-1.42572435847
1385568458189049928,0.134400116282,-0.108888637876,-0.509620241557,0.00405181485592,-0.00658623621113,-1.42557941944
1385568458199167983,0.135454534114,-0.111978052973,-0.511425276228,0.00412626496316,-0.00627045192262,-1.42635549745
1385568458209198062,0.136608786986,-0.114901123866,-0.512946720314,0.00475893504039,-0.00659152273858,-1.42567907295
1385568458219097169,0.137713447988,-0.117984852413,-0.514550776893,0.00465182443669,-0.00609815368919,-1.42610605634
1385568458229292351,0.138590582325,-0.120924345543,-0.515783044068,0.00483365889003,-0.0057634895042,-1.42658406896
1385568458239151541,0.139747309562,-0.123974579729,-0.517224786069,0.00589664475853,-0.00487891197579,-1.42666327083
1385568458249103051,0.140776922775,-0.126983732335,-0.518190007484,0.00550994463215,-0.00492375496247,-1.42750212379
1385568458259186700,0.14189994601,-0.130048217119,-0.519325261729,0.00609485063344,-0.0040100601575,-1.42763791525
1385568458269114191,0.143048455437,-0.133041007916,-0.520146117704,0.00778066571456,-0.0037553963609,-1.42759202425
1385568458279147118,0.144038972735,-0.136018416981,-0.520917955306,0.00809657627903,-0.0025668998456,-1.42783589825
1385568458289046166,0.145101731845,-0.139012134153,-0.521608015614,0.00951764481032,-0.00287126560321,-1.42787465466
1385568458299076975,0.146225075181,-0.141959338875,-0.522089231466,0.00921305018515,-0.00223655923784,-1.42832396465
1385568458309479936,0.147273187978,-0.144925715216,-0.522679832066,0.0107641872726,-0.00146901521311,-1.42853361324
1385568458319130620,0.148244688259,-0.147909727477,-0.522743783118,0.0106926630163,-0.00147696815794,-1.42834248249
1385568458329137433,0.149372984154,-0.150892743784,-0.523005320726,0.0109553176895,-0.00141547191854,-1.42841010688
1385568458339196243,0.150523705261,-0.153734596964,-0.523135204445,0.0104111782853,-0.000390625164092,-1.42913542649
1385568458349145479,0.151570326235,-0.156826128959,-0.523084720899,0.00987572252502,-0.000258052812864,-1.42873297158
1385568458359061419,0.152678613341,-0.159739117393,-0.522982949178,0.00987399672134,0.00028039681804,-1.42909407606
1385568458369116235,0.153673285685,-0.162672937295,-0.522874493517,0.0102520424654,0.000689163305203,-1.4289268492
1385568458379132102,0.154815118711,-0.165525463589,-0.52247246333,0.0097818334424,0.00085593998442,-1.42893665974
1385568458389056427,0.155804071826,-0.168508213319,-0.522024970522,0.00908381563887,0.00179441149906,-1.42960582329
1385568458399149634,0.157027183247,-0.17136106386,-0.521636619025,0.00937835350352,0.00195928003515,-1.42904423189
1385568458409107349,0.158038845739,-0.174297793861,-0.52098829142,0.00867231837418,0.00269791343852,-1.42920737427
1385568458419217435,0.159063361151,-0.1771623155,-0.52037354474,0.00842347237474,0.00395789236023,-1.4293383351
1385568458429213660,0.160205371666,-0.180061444443,-0.519614859509,0.00830640541359,0.00466394439474,-1.42891015805
1385568458439232919,0.161375516336,-0.182868218676,-0.518729223992,0.00736615113362,0.00638849080967,-1.42980464309
1385568458449026310,0.162400637051,-0.185661562769,-0.517888398401,0.00782025912724,0.00676894379343,-1.42932833487
1385568458459193828,0.163636385091,-0.188590397296,-0.516926281429,0.00713207078385,0.00832159486782,-1.42975697853
1385568458469055337,0.164639905191,-0.191380605692,-0.515960139645,0.00662558335838,0.00918115293221,-1.42968056681
1385568458479027696,0.1655705385,-0.194134878866,-0.514688104741,0.00621618866369,0.010750316763,-1.42967000227
1385568458489027974,0.166857018214,-0.196875030986,-0.51378716489,0.00531799977754,0.0122715051598,-1.43008645393
1385568458499211528,0.16781408947,-0.199667876052,-0.512504117149,0.00528791451954,0.0131805479502,-1.42936930037
1385568458509128582,0.169054804221,-0.202347352478,-0.511061795398,0.00410757244306,0.0140817011152,-1.42953539686
1385568458519142237,0.170205991543,-0.205074600806,-0.509895637832,0.00410954551401,0.0159139438295,-1.42931278023
1385568458529195580,0.171230213916,-0.207787416864,-0.508380634773,0.00421549254281,0.01540647722,-1.42925465576
1385568458539158343,0.172335489935,-0.210509702999,-0.506956057398,0.00427477166786,0.0174537977315,-1.42873207331
1385568458549127525,0.173466910358,-0.213225855747,-0.505359965473,0.00411664229617,0.0164737615507,-1.42903061305
1385568458559049988,0.174654671918,-0.215785110102,-0.503734897582,0.00521259751,0.0170197648909,-1.42842887171
1385568458569093428,0.175929057205,-0.21828479352,-0.502363865166,0.0052411203223,0.0192129369772,-1.42766670378
1385568458579142757,0.176894171411,-0.221097027833,-0.500627547194,0.00529118570251,0.0181348784019,-1.42816715016
1385568458589056932,0.178121724569,-0.223565031318,-0.498904848654,0.00508195220561,0.0191150775829,-1.42814875623
1385568458599153174,0.179305488134,-0.226197471459,-0.49718398787,0.00512310869849,0.0197832356553,-1.42794095783
1385568458609152603,0.180438551747,-0.228726676842,-0.49548676632,0.00530768133139,0.0199524275337,-1.42798020363
1385568458619131234,0.181526929549,-0.231222227338,-0.493714609541,0.00612295664418,0.0197644326236,-1.42748106715
1385568458629145683,0.182590025189,-0.233818728685,-0.4917908175,0.00568954769239,0.0196486490059,-1.42748111737
1385568458639151909,0.183881478281,-0.236284744423,-0.490011855478,0.00605341279231,0.0197455037647,-1.42711079892
1385568458649078193,0.184941843834,-0.238679282707,-0.488359159387,0.00771169764417,0.0209690365594,-1.42647855502
1385568458659053002,0.186183162014,-0.241036085073,-0.486335360609,0.00754116473027,0.0193268173774,-1.42629224526
1385568458669073676,0.187281440542,-0.243625293906,-0.484347487707,0.00752028547324,0.0191724691707,-1.42607867164
1385568458679138660,0.188601394893,-0.245772802464,-0.482591535875,0.0085807951034,0.0195673221174,-1.42565075887
1385568458689050520,0.189707004353,-0.248179413597,-0.480736973309,0.00910542675433,0.0191101351663,-1.42581297166
1385568458699062724,0.190833353037,-0.250548852926,-0.478687287252,0.00923323430135,0.0182723740406,-1.42506267732
1385568458709101519,0.192259023182,-0.252823456276,-0.476899008311,0.00961640763847,0.018723773229,-1.42497083992
1385568458719086119,0.193372672289,-0.255162686726,-0.475043254169,0.0099307509752,0.0186630271753,-1.42486082216
1385568458729150916,0.194633827633,-0.257325243273,-0.47305389214,0.00994278482613,0.0181642961637,-1.42405536157
1385568458739164887,0.195695476118,-0.259739029124,-0.471210844353,0.0104520358352,0.0174871642678,-1.4239640683
1385568458749123429,0.196949120734,-0.261760780242,-0.469296612575,0.0103720226325,0.0182150457934,-1.42361431012
1385568458759057682,0.198324441416,-0.263907823807,-0.46744167221,0.0108901428618,0.0177112147277,-1.42371779215
1385568458769067452,0.199401469561,-0.266147048118,-0.46548988212,0.0105777084373,0.0169655362574,-1.42356247401
1385568458779133028,0.200765790735,-0.268273293083,-0.463603728117,0.0107148080847,0.0167306136526,-1.42369791747
1385568458789042992,0.201893620632,-0.270333400889,-0.461699473841,0.011166150002,0.0160883308897,-1.42305205098
1385568458799162898,0.203126508104,-0.272384162079,-0.459937822489,0.010628367292,0.0166071278905,-1.42249993739
1385568458809152035,0.204593718326,-0.27451459991,-0.458049200013,0.00961271423208,0.0159896490721,-1.42220089793
1385568458819122182,0.205516216835,-0.27661077101,-0.456097514391,0.00965710992809,0.0157660537539,-1.42169458782
1385568458829146587,0.206842492151,-0.278591445776,-0.454517533339,0.0101353802485,0.0143739266502,-1.4216864758
1385568458839157428,0.208256869682,-0.280640435005,-0.452640532095,0.00968252101479,0.0140466565159,-1.42170027538
1385568458849109407,0.209503500959,-0.282536470136,-0.451005477222,0.0103931393709,0.0142335432622,-1.42131639299
1385568458859063593,0.21077353836,-0.284538722001,-0.449180566348,0.0107816465667,0.0132114833643,-1.42072212804
1385568458869079074,0.21200890094,-0.286435271775,-0.447426131181,0.0107775989036,0.012945081699,-1.42004080945
1385568458879134168,0.213279989515,-0.288391922529,-0.445870022995,0.00986051601537,0.0130522336974,-1.41987650401
1385568458889058673,0.214519225341,-0.290133925226,-0.444095002721,0.00947054708178,0.0127296325694,-1.4198342677
1385568458899156942,0.215810547633,-0.292117795518,-0.442598561099,0.00796894935214,0.0135458079877,-1.41965381076
1385568458909136596,0.217019038796,-0.293983162604,-0.440989013568,0.00746873399804,0.0136007307187,-1.41907226052
1385568458919110950,0.218306610684,-0.29564867615,-0.439316162593,0.00635533690518,0.0139916849956,-1.41882114967
1385568458929136987,0.219527361353,-0.297552030367,-0.437915521614,0.00679081873179,0.0139547748349,-1.4179753541
1385568458939191421,0.220763576286,-0.299354858269,-0.436383850317,0.00684165400546,0.015073951284,-1.41761336687
1385568458949071845,0.22209095909,-0.301127082939,-0.435018840948,0.00684627448691,0.0154300493873,-1.41772419718
1385568458959052602,0.223406645302,-0.302799445648,-0.433621036269,0.00686778139379,0.0161828564694,-1.41649950879
1385568458969097684,0.224573049901,-0.304388143891,-0.43232277567,0.00607081402353,0.0179512820912,-1.41643063325
1385568458979156515,0.225936302398,-0.306162399847,-0.431094593624,0.00462151629769,0.0177935279192,-1.41575090196
1385568458989071847,0.227129405568,-0.307766548857,-0.429736620227,0.00338643735415,0.0186633892345,-1.41545709967
1385568458999081367,0.228327165242,-0.30950754273,-0.428602817542,0.0018324983559,0.0187079476105,-1.4156407996
1385568459009099171,0.229369262685,-0.311384978099,-0.427493568742,-0.000494941635907,0.0162172698816,-1.41482379646
1385568459019108547,0.23066790519,-0.312764982769,-0.426178464135,-0.000825829327552,0.0174787606029,-1.41408825344
1385568459029138656,0.231981552682,-0.314506005254,-0.425311918078,-0.00131018083162,0.0180871321326,-1.4138145967
1385568459039161121,0.233144545902,-0.316098932307,-0.424035620128,-0.00251184709475,0.017752820755,-1.41305112826
1385568459049199488,0.23448790755,-0.317624858215,-0.423109438088,-0.00285534432684,0.0172625647011,-1.4127949044
1385568459059060088,0.235579968728,-0.319168047004,-0.422089756921,-0.00310565888847,0.0171101141227,-1.41213630794
1385568459069087703,0.236787128676,-0.320722017455,-0.421097477495,-0.0028447204887,0.0164176830797,-1.41167063103
1385568459079208305,0.238082449136,-0.322055156691,-0.420142917511,-0.00196374408262,0.0183295443123,-1.41178498807
1385568459089066717,0.239235227655,-0.323676474234,-0.419233511455,-0.00341731056149,0.0177961138894,-1.41148813489
1385568459099262598,0.240432937041,-0.325058891087,-0.418455224225,-0.00289045198066,0.0178010925055,-1.41078580579
1385568459109189689,0.241488820951,-0.326513498728,-0.417757150319,-0.00253111400763,0.0175561232028,-1.41040721524
1385568459119127370,0.242721283091,-0.327982712995,-0.416991984173,-0.00435055662495,0.0187258419769,-1.41006654916
1385568459129152509,0.243895235666,-0.329240297099,-0.416535806843,-0.00354134638926,0.0205130978532,-1.41003637928
1385568459139170217,0.244876093032,-0.330653331621,-0.41589770041,-0.00327078309611,0.0209046222301,-1.40983470561
1385568459149179187,0.245989927856,-0.33188496723,-0.415373430147,-0.00301875939871,0.0217266739709,-1.40916253247
1385568459159092367,0.247105532663,-0.333054456512,-0.414986678966,-0.00335492829596,0.0245634631208,-1.40880391724
1385568459169091636,0.248088441842,-0.334440792911,-0.414461004852,-0.00425283713518,0.0236059226452,-1.40824809906
1385568459179136676,0.249181164338,-0.335787414921,-0.414157440517,-0.0045585920609,0.0253027155744,-1.40753582766
1385568459189074490,0.250259834847,-0.337024800358,-0.413763981131,-0.00477494426785,0.0255276490048,-1.40689430754
1385568459199088559,0.251179211988,-0.338290676295,-0.413503144985,-0.00581966745997,0.0267922860001,-1.40635894575
1385568459209079393,0.252350382753,-0.339490951888,-0.413338263938,-0.00709780243435,0.0277004540656,-1.40618095831
1385568459219034320,0.253221847273,-0.340692539378,-0.413152581343,-0.00742433546066,0.027807908211,-1.40614286202
1385568459229136814,0.254317506172,-0.341999675113,-0.412956675532,-0.00851991042478,0.0280729225396,-1.40542515773
1385568459239101789,0.255080867135,-0.343150866828,-0.412888366335,-0.0100001314557,0.0253157522162,-1.4052387609
1385568459249043997,0.256040760646,-0.344260631375,-0.41268638585,-0.00942869259533,0.0273516548175,-1.40445577386
1385568459259055646,0.256984744779,-0.345436594786,-0.412516174276,-0.010193497973,0.0262447149069,-1.40437197379
1385568459269060323,0.257938292454,-0.34646919166,-0.412516703514,-0.0103279729218,0.0264756909587,-1.40446052346
1385568459279179870,0.258896528188,-0.347616445333,-0.412479801696,-0.0104593922168,0.024573609975,-1.40382411175
1385568459289065070,0.259651112024,-0.34882136636,-0.412583284779,-0.0112882815164,0.0230755558854,-1.40396566899
1385568459299395499,0.260494581774,-0.349794304153,-0.412513917926,-0.0113190097406,0.022457601295,-1.40294182442
1385568459309091342,0.261273446892,-0.350796018801,-0.412684099619,-0.0111636134858,0.0214585613794,-1.4029510221
1385568459319057504,0.26221636723,-0.351690390758,-0.412786720861,-0.0118730901505,0.0210878910835,-1.40228223947
1385568459329128860,0.263166632907,-0.352859831767,-0.41276566797,-0.0121932573843,0.021410901059,-1.40176481732
1385568459339079555,0.263922157001,-0.353634179294,-0.412919072076,-0.011767274393,0.0207116917961,-1.40182849898
1385568459349143433,0.264571564712,-0.354760455458,-0.413082482061,-0.0127677489483,0.0201151393586,-1.40173728999
1385568459359069747,0.265518671252,-0.355599200716,-0.413224080043,-0.012962066668,0.0200280859753,-1.40142398538
1385568459369084573,0.266014921544,-0.356603794707,-0.413435866188,-0.0125308524716,0.0182445923629,-1.40071313655
1385568459379130330,0.266813062202,-0.357361527072,-0.413879421169,-0.0121046730702,0.0180490798267,-1.40047553122
1385568459389206412,0.267517938285,-0.358342639534,-0.414113224486,-0.0120115547638,0.0182863523588,-1.39998479425
1385568459399184495,0.2681846426,-0.35913683592,-0.414498832581,-0.0120294812981,0.0174269946741,-1.39944595512
1385568459409215143,0.268823232856,-0.36004764202,-0.414890777154,-0.012265347472,0.0175650480317,-1.39861910897
1385568459419199909,0.26944058274,-0.360816734751,-0.415359631589,-0.0127586484254,0.0180257506355,-1.39875513411
1385568459429150966,0.270127964034,-0.361634974804,-0.41580038192,-0.0123801252157,0.0173284212016,-1.39878671318
1385568459439072744,0.270683466571,-0.362490581429,-0.416136652075,-0.0132440908784,0.0170127555522,-1.39818274995
1385568459449109503,0.271363497569,-0.363443798791,-0.416684409364,-0.0126997011817,0.0156126398103,-1.39706223488
1385568459459060396,0.271930824853,-0.364297439213,-0.41711216177,-0.0125645285353,0.0147629083229,-1.39711632548
1385568459469060131,0.272637637366,-0.364958290047,-0.417611135355,-0.012734538153,0.0148435292139,-1.39637801257
1385568459479144661,0.273185036227,-0.365767061485,-0.418141702028,-0.0126320691802,0.0140924457744,-1.39656309141
1385568459489053557,0.273749104728,-0.366458404903,-0.419032022132,-0.01150765045,0.0155426333356,-1.39637438855
1385568459499074990,0.274395871552,-0.367253719357,-0.419448013682,-0.0105271745018,0.0126743370278,-1.39561159605
