%time,field.linear.x,field.linear.y,field.linear.z,field.angular.x,field.angular.y,field.angular.z
1385574688178637982,-0.0,0.0,0.0,1.0,0.0,0.0
1385574688369081264,-0.0,0.0,8.91641425752e-08,1.0,0.0,0.214575754209
1385574688568693830,0.443672953966,-0.683291640785,-0.0139359764648,1.0,0.0,0.0658535475482
1385574688768600251,0.134828510856,-0.206929016733,-0.00433543608328,1.0,0.0,0.0977918984348
1385574688968556624,0.321221178081,-0.49351640281,-0.00140402257558,1.0,0.0,0.0572342117199
1385574689168602269,0.0259159534399,-0.0391498102381,0.0070289410911,1.0,0.0,0.0615545686127
1385574689368575061,0.127304421949,-0.194954976639,0.0147854995041,1.0,0.0,0.0508686513356
1385574689568672440,-0.063108902302,0.0987019232866,0.0237502824057,1.0,0.0,0.0510894819573
1385574689768615741,0.0411966849915,-0.0630673011093,0.0336276373095,1.0,0.0,0.0481422474292
1385574689968601002,-0.0518338719791,0.0805666659779,0.0435866988441,1.0,0.0,0.0478803572019
1385574690168597373,0.0507606206361,-0.076598857392,0.0547093764673,1.0,0.0,0.0470594642589
1385574690368569142,0.00326501926457,-0.00316548228443,0.0653342771059,1.0,0.0,0.0470042024301
1385574690568626176,0.078327988513,-0.116886495139,0.0766826648909,1.0,0.0,0.0468961959076
1385574690769985902,0.0254563806035,-0.068480161971,0.0869307427607,1.0,0.0,0.044079147578
1385574690968840022,0.0561436211443,-0.141854360046,0.0975682004561,1.0,0.0,0.038794854175
1385574691168604217,0.0162231234456,-0.0884573140632,0.11031780849,1.0,0.0,0.0337924843009
1385574691368575603,0.0225716542834,-0.112302162761,0.133525479441,1.0,0.0,0.0267162331093
1385574691568779597,0.0140276949667,-0.0568597129806,0.135845197161,1.0,0.0,0.0224649847948
1385574691768703261,0.0246590662957,-0.0674586431911,0.129318298365,1.0,0.0,0.0184012712056
1385574691968673462,0.0192539621271,-0.0175202810766,0.119897466132,1.0,0.0,0.015159686962
1385574692168660381,0.0238352981183,-0.0252470986929,0.105666024618,1.0,0.0,0.0123535536104
1385574692368715594,0.0147974642825,0.00973359276186,0.105961168754,1.0,0.0,0.00993586694049
1385574692568630677,0.014913501569,-0.00244293049304,0.108764986155,1.0,0.0,0.00774130059357
1385574692768553758,0.0071026622074,0.0161008046327,0.118631773463,1.0,0.0,0.00591808899084
1385574692968751551,0.00544574167894,-0.00294974313343,0.127165217569,1.0,0.0,0.00404265382751
1385574693168638140,0.00245786549455,0.00699894322261,0.138775263318,1.0,0.0,0.00247257594036
1385574693368766571,-0.00285462341598,-0.0125246634783,0.147253821199,1.0,0.0,0.00130996842164
1385574693568650206,0.00163860156432,-0.00234115648812,0.148791523884,1.0,0.0,0.000308919507963
1385574693768638325,-0.00757740292925,-0.0184735838549,0.148532849859,1.0,0.0,-0.000814729354285
1385574693968619407,-0.00137699683838,-0.0103153071628,0.145027967158,1.0,0.0,-0.0018162325849
1385574694168838722,-0.0073994302325,-0.02066931883,0.140503925599,1.0,0.0,-0.00283182990051
1385574694368668667,-0.000795227402211,-0.013059486586,0.135134418173,1.0,0.0,-0.00365768985379
1385574694568621910,-0.00420622122981,-0.0190942580849,0.129296221939,1.0,0.0,-0.00454877517756
1385574694768582458,-0.000378782661459,-0.0106530109921,0.123913061039,1.0,0.0,-0.0052417015158
1385574694968850258,-0.000614846892797,-0.0131903500832,0.117452707566,1.0,0.0,-0.00574151701857
1385574695168763039,0.00156735274846,-0.00547568159817,0.111228583916,1.0,0.0,-0.00610130115756
1385574695368639399,0.000944201597187,-0.00600519895053,0.1047919721,1.0,0.0,-0.00659620401346
1385574695568624282,0.00243656433299,-0.00048607803715,0.0982512152797,1.0,0.0,-0.00677347276041
1385574695768685095,0.000631096192557,-0.00103079797487,0.0919459618961,1.0,0.0,-0.00672762642396
1385574695968606911,0.00106611573602,0.00280657278322,0.0857707763832,1.0,0.0,-0.00671818688771
1385574696168740415,-0.0016255541699,0.00081800686218,0.0797670008441,1.0,0.0,-0.00666366119372
1385574696368661349,-0.00179096314046,0.00219196212432,0.0738304285602,1.0,0.0,-0.00635277331484
1385574696568680213,-0.00458089502605,4.58310088964e-05,0.0683989861818,1.0,0.0,-0.00601154318339
1385574696768601250,-0.00536531187264,0.000511568541258,0.0632474540222,1.0,0.0,-0.00537044112366
1385574696968834577,-0.00749931230068,-0.00107836691754,0.0585185509587,1.0,0.0,-0.00501964927534
1385574697168628140,-0.00806660802954,0.000129136058267,0.0546261486887,1.0,0.0,-0.00437945819226
1385574697368609697,-0.0089468807123,-0.000308681727921,0.0506983591363,1.0,0.0,-0.00377033749978
1385574697568844502,-0.00894113183896,0.00129400329609,0.047147271168,1.0,0.0,-0.00336890245791
1385574697768654752,-0.00914146868287,0.00133392388273,0.0438905024439,1.0,0.0,-0.00331515920162
1385574697968584409,-0.00839435292479,0.00248787037577,0.0408747615756,1.0,0.0,-0.00318248887187
1385574698168611394,-0.00805186070719,0.00191122905567,0.0383736403179,1.0,0.0,-0.00304437398268
1385574698368832963,-0.00763438791556,0.00218039038149,0.0361561299953,1.0,0.0,-0.00301895745188
1385574698568793305,-0.00742203224818,0.000994056803539,0.0340374486177,1.0,0.0,-0.00274578557063
1385574698768720783,-0.00750647916738,0.000553744673002,0.032433950995,1.0,0.0,-0.00264992605506
1385574698968581878,-0.00775850251809,-0.000652082429178,0.0307263222274,1.0,0.0,-0.00259479131307
1385574699168667296,-0.00776215521539,-0.000849277406194,0.0294116463298,1.0,0.0,-0.00248009445924
1385574699368801303,-0.00782181565599,-0.00138972388916,0.0281524123467,1.0,0.0,-0.00246240322276
1385574699568638006,-0.00796770332625,-0.00118173447825,0.0269226567967,1.0,0.0,-0.00254504857256
1385574699768709843,-0.00858441123902,-0.000365043206089,0.0259773174059,1.0,0.0,-0.00278326769023
1385574699968616430,-0.00918952953777,0.0011963730599,0.0251258903393,1.0,0.0,-0.00326364170589
1385574700168629041,-0.0100740850334,0.00371404783093,0.0243884142839,1.0,0.0,-0.00367948962258
1385574700368634050,-0.0106513874408,0.00673105134411,0.0240208078402,1.0,0.0,-0.00442813115823
1385574700568664127,-0.011256495702,0.00914127909728,0.0234068801497,1.0,0.0,-0.00489099389714
1385574700768614354,-0.0112930497078,0.0112149851157,0.0227049852984,1.0,0.0,-0.00545462520461
1385574700968721735,-0.011180897909,0.012336097789,0.0221861276585,1.0,0.0,-0.00599749600308
1385574701168790256,-0.0109448539186,0.0123947185103,0.0218133806539,1.0,0.0,-0.00617154006305
1385574701368634676,-0.0107564501465,0.0124508212485,0.0212295969403,1.0,0.0,-0.00637172854899
1385574701568715282,-0.0108021878724,0.011556955845,0.0206876855661,1.0,0.0,-0.00643287206469
1385574701768683287,-0.0107342009423,0.0111574646617,0.0200186148723,1.0,0.0,-0.00634969386936
1385574701968710539,-0.0104621541171,0.0097705157383,0.0189913578491,1.0,0.0,-0.00614319439921
1385574702168683648,-0.00984076079986,0.00886316226402,0.0178569935115,1.0,0.0,-0.00602907152636
1385574702368641457,-0.00926842314572,0.00768910627998,0.0169685954797,1.0,0.0,-0.00564622566191
1385574702568642603,-0.00896421526772,0.00642455493528,0.0160753781992,1.0,0.0,-0.00508270388084
1385574702768629213,-0.00862142270675,0.00469330039358,0.0148325078208,1.0,0.0,-0.00449533249681
1385574702969750966,-0.00873210409139,0.00277048401019,0.0134239927023,1.0,0.0,-0.00391886427522
1385574703168597836,-0.00896099886711,0.00063527392893,0.0122328500459,1.0,0.0,-0.0032493909529
1385574703368784470,-0.00963128134727,-0.000859681842273,0.0111507321091,1.0,0.0,-0.00269255868788
1385574703568644871,-0.0108170892971,-0.00157203598325,0.0102558628117,1.0,0.0,-0.00190500263967
1385574703768698064,-0.0120216674442,-0.0013251263137,0.00962457767624,1.0,0.0,-0.00120078266928
1385574703968641116,-0.0127862303623,-0.000220006515099,0.00903615332924,1.0,0.0,-0.000710264366699
1385574704168521016,-0.0131038409911,0.00151826636213,0.00833244617978,1.0,0.0,-9.72306874777e-05
1385574704368818091,-0.0127630937674,0.0037580167609,0.0075531002605,1.0,0.0,0.000517439678605
1385574704568637714,-0.012137250343,0.00623881362778,0.00699800819664,1.0,0.0,0.00108533670834
1385574704768578819,-0.0111647644681,0.00843037500386,0.00628385536109,1.0,0.0,0.00140180536529
1385574704968774797,-0.0101198294147,0.00979758213468,0.00557172194592,1.0,0.0,0.0015580390744
1385574705168588873,-0.00971999149074,0.0105004253271,0.00479440706258,1.0,0.0,0.00174144616732
1385574705368624982,-0.00934708817736,0.0102345617204,0.00414824364675,1.0,0.0,0.0015615634481
1385574705568672745,-0.0093693580884,0.00958729248215,0.00368325620677,1.0,0.0,0.00143842491854
1385574705768546234,-0.0094547502917,0.00828579181241,0.00334585915777,1.0,0.0,0.00124155926057
1385574705968575750,-0.00961431391524,0.00722245679952,0.00300907807994,1.0,0.0,0.00111365548202
1385574706168582963,-0.00945629067173,0.00608624344745,0.00307416762423,1.0,0.0,0.000890409482764
1385574706368618892,-0.0087972035249,0.00562304514797,0.00311769355989,1.0,0.0,0.000494198803769
1385574706568574005,-0.00790848953727,0.00490522231178,0.00336995739494,1.0,0.0,0.000166897431989
1385574706768579764,-0.00691095846359,0.00459198886515,0.00365820817766,1.0,0.0,-0.000319510263024
1385574706968611677,-0.00607743688648,0.00388029612383,0.00424179956468,1.0,0.0,-0.000704117317081
1385574707168761354,-0.00537603050327,0.00392145618051,0.00453599109046,1.0,0.0,-0.00114001784891
1385574707368590438,-0.00473927151852,0.00383990019897,0.0046117726273,1.0,0.0,-0.00139129972911
1385574707568616341,-0.00438966424393,0.00453901911796,0.00455626355145,1.0,0.0,-0.00164455629094
1385574707768588009,-0.00440778708605,0.00497023904975,0.00470561618303,1.0,0.0,-0.00175914919786
1385574707968629084,-0.00487749243686,0.00594715498195,0.00488339433034,1.0,0.0,-0.00184164665162
1385574708168602166,-0.00541683264334,0.00635047795724,0.0051908815148,1.0,0.0,-0.00191505125815
1385574708368653686,-0.00561800686127,0.00676196375016,0.00566129135416,1.0,0.0,-0.00206122702784
1385574708568689215,-0.00527880994691,0.00682781016185,0.00575223424146,1.0,0.0,-0.00229460973642
1385574708768675802,-0.00493268338352,0.00690992387684,0.00574319894407,1.0,0.0,-0.00269915723858
1385574708968640159,-0.00462865167522,0.00686208684064,0.00582189209839,1.0,0.0,-0.00305622459359
1385574709168691422,-0.00453376128372,0.00691521430833,0.00592846179013,1.0,0.0,-0.00307236163238
1385574709368597672,-0.00418048292096,0.00691244607283,0.00570828804042,1.0,0.0,-0.00311927657357
1385574709568628850,-0.00384800394017,0.00723260208647,0.00549636375888,1.0,0.0,-0.0031040598511
1385574709768656409,-0.00357849759613,0.00785011054358,0.00521438655805,1.0,0.0,-0.00294728216053
1385574709968591748,-0.00350178444685,0.00849062880405,0.00488208569656,1.0,0.0,-0.00288421327717
1385574710168590410,-0.00364894519761,0.00911437880629,0.00456207863483,1.0,0.0,-0.0026956491281
1385574710368586557,-0.00398610598514,0.00920291268995,0.00423811593685,1.0,0.0,-0.00250278739741
1385574710568737007,-0.00436766785314,0.00866150030786,0.00399435738866,1.0,0.0,-0.00229327785093
1385574710768573066,-0.00504443977695,0.00758556058225,0.00377377805857,1.0,0.0,-0.00204846375303
1385574710968761420,-0.00588561003252,0.00596618266417,0.00392059484105,1.0,0.0,-0.00158100992063
1385574711168618963,-0.0069769695286,0.00443232626063,0.00417471547061,1.0,0.0,-0.000928662599184
1385574711368635931,-0.00766586850995,0.00267958441316,0.00439965596271,1.0,0.0,-0.000535696424073
1385574711568610678,-0.00813112938867,0.00167255618493,0.00441767932025,1.0,0.0,6.19679347228e-05
1385574711768664780,-0.00810067029464,0.000676003684944,0.00437386553318,1.0,0.0,0.000662009839914
1385574711968650808,-0.00781420395017,0.000256014410513,0.00435378625746,1.0,0.0,0.00148347845766
1385574712168656944,-0.00694685114736,0.00020270264925,0.00405730780081,1.0,0.0,0.00241411646762
1385574712368779772,-0.00580919915748,0.00035254117158,0.00395720129555,1.0,0.0,0.00322064122621
1385574712568741462,-0.00450516174705,0.000579258699006,0.00359996857699,1.0,0.0,0.0040244931912
1385574712768604636,-0.00331752356281,0.00078925697079,0.00345437869495,1.0,0.0,0.00477331323474
1385574712968733349,-0.00301764889267,0.00151219699405,0.0034143011632,1.0,0.0,0.00564879992113
1385574713168755710,-0.0030804081003,0.00212021830416,0.00340559140106,1.0,0.0,0.00647471714049
1385574713368627179,-0.00410418484601,0.00295759479227,0.00316310041767,1.0,0.0,0.00721590876084
1385574713568659418,-0.00556375310181,0.00398395203775,0.00288816447129,1.0,0.0,0.00781395761466
1385574713768606517,-0.00719549446398,0.00527141880772,0.00278991451792,1.0,0.0,0.00839722734757
1385574713968573909,-0.0085563811568,0.00619614124286,0.00258101508674,1.0,0.0,0.00913055136772
1385574714168620625,-0.00939355151927,0.00683734246721,0.00249975088281,1.0,0.0,0.00983778586408
1385574714368570914,-0.00964569955991,0.00697270450038,0.00234252916575,1.0,0.0,0.0105697480953
1385574714568760686,-0.00924568107706,0.00691224673834,0.00216118575084,1.0,0.0,0.0111846082732
1385574714768678622,-0.00805211898283,0.00648805107766,0.00191208223158,1.0,0.0,0.0118449384678
1385574714968607707,-0.00603229394279,0.00638884682936,0.00164338919946,1.0,0.0,0.0124055438179
1385574715168590921,-0.00384146690325,0.00673362264381,0.00125302217442,1.0,0.0,0.0129172078918
1385574715368650614,-0.00194395226831,0.00735803693581,0.000848687857085,1.0,0.0,0.0132325707155
1385574715568556929,-0.000301646796694,0.00812876765962,0.000623500378355,1.0,0.0,0.0134065670924
1385574715768661605,0.000663026910262,0.00824247231536,0.000495807512659,1.0,0.0,0.0134783298333
1385574715968646856,0.000736788076469,0.00845284852454,0.000227261752434,1.0,0.0,0.0137242830718
1385574716168620808,-0.000198538013843,0.00771994575325,-0.000287829501141,1.0,0.0,0.0140641073889
1385574716368778978,-0.00183491626978,0.00698227836432,-0.000754109369836,1.0,0.0,0.0144719948137
1385574716568950284,-0.00336487308455,0.00520897425357,-0.00116136594624,1.0,0.0,0.0146733784762
1385574716768900840,-0.00470378238269,0.00366782286531,-0.00164411564177,1.0,0.0,0.0149876759705
1385574716968623811,-0.00485630785323,0.00236427052559,-0.00197344772496,1.0,0.0,0.0149094957443
1385574717168612550,-0.00455576058834,0.00183222702461,-0.00200897187029,1.0,0.0,0.0151693359462
1385574717368630669,-0.00339591733338,0.00145074707691,-0.0020350084115,1.0,0.0,0.0152531699443
1385574717568610858,-0.00240089785332,0.00101127257102,-0.00216126820184,1.0,0.0,0.0156523708486
1385574717768616757,-0.00129758992765,0.000673685191088,-0.00218472355572,1.0,0.0,0.0159664921634
1385574717968662706,-0.000757737933907,0.000485517899061,-0.0025694760501,1.0,0.0,0.0162069501314
1385574718168685590,-0.000428560374065,0.00108502223992,-0.00261008868647,1.0,0.0,0.0165473280818
1385574718368720268,-0.000650616611628,0.00181979790419,-0.00278387467453,1.0,0.0,0.0170435928034
1385574718568727869,-0.000968886502382,0.00261659895119,-0.00285573228491,1.0,0.0,0.017344111217
1385574718768750468,-0.00195152963636,0.00324041620482,-0.00279863844694,1.0,0.0,0.0175982650408
1385574718968660140,-0.00307305301956,0.00390153046107,-0.00266014225418,1.0,0.0,0.0179431413163
1385574719168950457,-0.00405020272573,0.00372236163317,-0.00238320027852,1.0,0.0,0.0183729496146
1385574719368674340,-0.0049993141586,0.00311241430984,-0.00205320718448,1.0,0.0,0.0188315752154
1385574719568763495,-0.00569631719843,0.00198563454839,-0.00171595240245,1.0,0.0,0.019212793986
1385574719768709711,-0.00613499195468,0.00103197190577,-0.00135668657817,1.0,0.0,0.0196061456118
1385574719968741612,-0.00594221686566,0.000709311170928,-0.00112605761362,1.0,0.0,0.0199673984058
1385574720168596982,-0.00529056783126,0.0012520467657,-0.000799387591039,1.0,0.0,0.0202473621502
1385574720368620356,-0.00432664611381,0.00310244834764,-0.000415923340525,1.0,0.0,0.0204543160961
1385574720568732555,-0.00381535058187,0.0054075085455,-0.000100272920838,1.0,0.0,0.0207718468082
1385574720768604884,-0.00426755039661,0.00771994760055,-4.8836054742e-06,1.0,0.0,0.0211838966523
1385574720968681039,-0.00540795368291,0.00925520493212,0.000191908055373,1.0,0.0,0.0216024166758
1385574721168605745,-0.00703603074984,0.00983586835202,0.00035232210804,1.0,0.0,0.0219783569261
1385574721368669324,-0.00842423854884,0.0095985805832,0.000333555046971,1.0,0.0,0.021888857767
1385574721568680220,-0.00970205799856,0.00899817899051,0.000399767600308,1.0,0.0,0.021687213457
1385574721768637585,-0.01056560494,0.00846442952182,0.00061500561597,1.0,0.0,0.0216124717453
1385574721968688637,-0.0113113740338,0.0072039873297,0.000777117961828,1.0,0.0,0.0217472100393
1385574722168948303,-0.0110684973315,0.00617430084884,0.00113290488237,1.0,0.0,0.0218318623552
1385574722368673463,-0.0106114452671,0.00418020495778,0.00151919624585,1.0,0.0,0.0218028858165
1385574722568654506,-0.00944698525299,0.00230795742249,0.00179939958977,1.0,0.0,0.0218194392743
1385574722768792865,-0.00801696559937,0.000991432635434,0.00227224718487,1.0,0.0,0.0219278904558
1385574722968717893,-0.00644007848199,0.000430293949647,0.0026560078976,1.0,0.0,0.0220154268298
1385574723168581386,-0.00501074684849,0.000951658462068,0.00309951616738,1.0,0.0,0.0220333643581
1385574723368537226,-0.00418408690687,0.00233715052848,0.00313641887255,1.0,0.0,0.0220071665468
1385574723568741902,-0.0040686455379,0.00401282147773,0.00293952151216,1.0,0.0,0.0218080578595
1385574723768536983,-0.00468826113809,0.00551407615862,0.00262729080385,1.0,0.0,0.0216993831521
1385574723968529636,-0.00562459641219,0.00687518572476,0.00207420367818,1.0,0.0,0.02155130498
1385574724168643155,-0.00709739389501,0.00743457248258,0.00156604037689,1.0,0.0,0.0214195144575
1385574724368604752,-0.00856297207425,0.00776117660284,0.00103443251783,1.0,0.0,0.0211854074936
1385574724568556592,-0.00972539321115,0.00747355131962,0.000729308049402,1.0,0.0,0.020836711498
1385574724768702356,-0.0100530995884,0.00686973932203,0.000653246307158,1.0,0.0,0.0204706782135
1385574724968641095,-0.00965253558389,0.0060858154051,0.000702232294452,1.0,0.0,0.0199695097527
1385574725168613504,-0.00851749227607,0.00556980369383,0.00086599252684,1.0,0.0,0.0195759954107
1385574725368894280,-0.00735092404921,0.00492176038104,0.00109931722678,1.0,0.0,0.0192858850357
1385574725568632264,-0.00625636038798,0.00430673017871,0.00101726561666,1.0,0.0,0.0190195512632
1385574725768708636,-0.0053852699151,0.00417519464373,0.0010424427409,1.0,0.0,0.0185577600536
1385574725968758701,-0.00461268762816,0.00406451788287,0.000736258156091,1.0,0.0,0.0181257214143
1385574726168577655,-0.00438143412404,0.00446197593396,0.000500041736186,1.0,0.0,0.0174893331183
1385574726368725085,-0.00403213383399,0.00475774682476,0.000140660517743,1.0,0.0,0.0167954789024
1385574726568767986,-0.0046998050584,0.00494058471384,-8.35044219942e-05,1.0,0.0,0.0160557907567
1385574726768555041,-0.00536792198724,0.00451676597675,-0.000557573023623,1.0,0.0,0.0152093467446
1385574726968591807,-0.0065432854887,0.00386289496973,-0.00088808596433,1.0,0.0,0.0145698526232
1385574727168669535,-0.00722993957728,0.00328750062105,-0.0012213881433,1.0,0.0,0.0136741169599
1385574727368628494,-0.00778534969402,0.00226653618322,-0.00173462065349,1.0,0.0,0.0129758665821
1385574727568571826,-0.00747399745443,0.00187475886294,-0.00225002731424,1.0,0.0,0.0122301462299
1385574727768680591,-0.00656424526879,0.00185640280499,-0.00256273176133,1.0,0.0,0.0115491604155
1385574727968577477,-0.00531582206161,0.00206372014828,-0.00272295061754,1.0,0.0,0.0107662925429
1385574728168954134,-0.00447785675771,0.00185087968452,-0.00281087066647,1.0,0.0,0.0101074015097
1385574728369985174,-0.00359067377475,0.00167327817058,-0.00257749594917,1.0,0.0,0.0096917969425
1385574728568579386,-0.00269193680119,0.00147476448831,-0.00234990911533,1.0,0.0,0.00922964149134
1385574728768628530,-0.00209215387538,0.00138536774873,-0.00218406920136,1.0,0.0,0.00883748416071
1385574728968658986,-0.00224245880859,0.0012455430478,-0.00175258197472,1.0,0.0,0.00847407991036
1385574729168693263,-0.00332668831264,0.000464275439128,-0.00135383205186,1.0,0.0,0.00823428935156
1385574729368733529,-0.00434849781284,-0.000179230235169,-0.000917636852721,1.0,0.0,0.0079223710816
1385574729568635703,-0.00606381164185,-0.00129060708768,-0.000634499961647,1.0,0.0,0.00766546831719
1385574729768627843,-0.0071466530338,-0.00120801651895,-4.70128211898e-05,1.0,0.0,0.00720658644642
1385574729968609710,-0.00838001987915,-0.00141237835779,0.000538797216903,1.0,0.0,0.0069944546583
1385574730168609991,-0.00850257962748,-0.000785289460195,0.00116147232964,1.0,0.0,0.00659848012549
1385574730368583308,-0.00912826578004,-0.000663438126144,0.00142184250686,1.0,0.0,0.00632925598433
1385574730568598900,-0.00874961338312,0.000279636176473,0.00162650507376,1.0,0.0,0.00602054939423
1385574730768646315,-0.0094813988572,0.00102876427717,0.00162502128254,1.0,0.0,0.00581828003741
1385574730968626548,-0.00903367592132,0.0029924588157,0.00165461332843,1.0,0.0,0.0055007865628
1385574731168664823,-0.00852720419758,0.00480343761531,0.00170196424692,1.0,0.0,0.00525507694658
1385574731368711434,-0.00758046726848,0.00677009981257,0.00164659864389,1.0,0.0,0.00499387745123
1385574731568678234,-0.00673037901935,0.00840085768111,0.00145002468306,1.0,0.0,0.00468782963726
1385574731768580819,-0.00606632026892,0.00907391293314,0.00133168141831,1.0,0.0,0.00454223361525
1385574731968718367,-0.00548037254177,0.0093239099877,0.00119012898858,1.0,0.0,0.00436787365063
1385574732168623573,-0.00530800287157,0.0085450250983,0.00113821431006,1.0,0.0,0.00436605730312
1385574732368697507,-0.0058510411761,0.00723857388912,0.000881959584142,1.0,0.0,0.00458745108001
1385574732568618182,-0.00646692917718,0.005860098434,0.000351584943266,1.0,0.0,0.00490707534289
1385574732768705767,-0.00728977175536,0.00513028770653,-0.000337344466822,1.0,0.0,0.00532141564742
1385574732968712638,-0.0080405541077,0.00515253751208,-0.000604418452064,1.0,0.0,0.00586251343677
1385574733168774099,-0.00913727480492,0.00567182554872,-0.000649594166093,1.0,0.0,0.00624532302162
1385574733368648019,-0.0107562933186,0.00631728584549,-0.000491115174875,1.0,0.0,0.006824064115
1385574733568745984,-0.01263254439,0.00725383724258,-0.000269027765192,1.0,0.0,0.00752595379077
1385574733768624360,-0.0140053787182,0.00805949585869,-0.000157607412883,1.0,0.0,0.00778671351812
1385574733968590336,-0.015022507462,0.00895216315269,5.41591704641e-05,1.0,0.0,0.0081495886928
1385574734168723135,-0.0148534107496,0.0102406405476,0.000273541637583,1.0,0.0,0.0083124207643
1385574734368622181,-0.0139698366638,0.0115410654372,0.000861297733741,1.0,0.0,0.00840049495965
1385574734568993692,-0.0125601786873,0.0120718651469,0.0015763072759,1.0,0.0,0.00852181963038
1385574734768692838,-0.010170098912,0.0127212153302,0.00201407005148,1.0,0.0,0.00842578373992
1385574734968626420,-0.00732971573234,0.0128451265759,0.00246208440622,1.0,0.0,0.00823960794272
1385574735168596803,-0.00465144778486,0.0130174581151,0.00277941067748,1.0,0.0,0.00809998586905
1385574735368625260,-0.0029608080123,0.0118558373809,0.00302546255861,1.0,0.0,0.00803748835281
1385574735568694458,-0.00157474295145,0.0109771004524,0.00314611093587,1.0,0.0,0.00798044646827
1385574735768847270,-0.00187826136115,0.00922752108852,0.00338010531844,1.0,0.0,0.00824817202366
1385574735968573218,-0.00284622861479,0.00873596035154,0.00347755287684,1.0,0.0,0.00832148841946
1385574736168621599,-0.00479613334791,0.008546720629,0.0037609489133,1.0,0.0,0.00835047288504
1385574736368622621,-0.00647315046457,0.00972553240565,0.00404850979691,1.0,0.0,0.00848003817203
1385574736568658651,-0.00837100809208,0.0106215927155,0.00417891859627,1.0,0.0,0.00865755556331
1385574736768762125,-0.00962115299439,0.0116407769513,0.00441495241824,1.0,0.0,0.00896734035346
1385574736968653795,-0.0102883326925,0.0120152788438,0.00414021702738,1.0,0.0,0.00922538164406
1385574737168752524,-0.00982291040277,0.0122675497674,0.00368539067533,1.0,0.0,0.00913243567438
1385574737368664535,-0.00927654958511,0.0112889596156,0.00297430095235,1.0,0.0,0.00921596799487
1385574737568627299,-0.00757080427804,0.0105721261714,0.00219804760909,1.0,0.0,0.00910538122873
1385574737768712951,-0.00586990821007,0.0092082255676,0.00143851452365,1.0,0.0,0.00880179162954
1385574737968634422,-0.00392781084597,0.00827313997668,0.001050374986,1.0,0.0,0.00839090266589
1385574738168672716,-0.0028932167048,0.00723084952154,0.000353859412359,1.0,0.0,0.00804277336862
1385574738368643643,-0.00237440127579,0.00630502193034,0.000243805557204,1.0,0.0,0.00771510778879
1385574738568586889,-0.00328559237084,0.00577500770655,-8.80311228369e-05,1.0,0.0,0.00751357947841
1385574738768644338,-0.00495360466828,0.00535068929723,9.13877255698e-05,1.0,0.0,0.00759628351828
1385574738968614429,-0.00722992212077,0.00530052536206,0.000450738540596,1.0,0.0,0.00789815843497
1385574739168629913,-0.00958181215655,0.00492215316434,0.000639500138284,1.0,0.0,0.00852595022016
1385574739368666987,-0.0113527127428,0.00427171125063,0.000819587899107,1.0,0.0,0.00934159058725
1385574739568643365,-0.012881227665,0.00219266435834,0.000488152100875,1.0,0.0,0.0103597287737
1385574739768628297,-0.0134269310644,6.10329154367e-05,0.000345253066891,1.0,0.0,0.011167819689
1385574739968641497,-0.0134965082895,-0.00341437415933,-6.04596169424e-06,1.0,0.0,0.0117500512739
1385574740168795662,-0.0130308102695,-0.00638571390842,4.2739208089e-05,1.0,0.0,0.0120170609955
1385574740368618444,-0.0124876738257,-0.00922142255642,0.000112212620069,1.0,0.0,0.0126158163918
1385574740568644238,-0.0124731932364,-0.00988587550815,9.23343892313e-05,1.0,0.0,0.0131826100589
1385574740768754477,-0.0130356240467,-0.010456170385,-0.000225415203637,1.0,0.0,0.0140219709021
1385574740968634049,-0.0140070814559,-0.00928739776465,-0.000527553934562,1.0,0.0,0.0147354266684
1385574741168619624,-0.0146203393246,-0.00793661610998,-0.000729202359279,1.0,0.0,0.0153012228921
1385574741368732293,-0.0149062210888,-0.00581374043295,-0.00124661460782,1.0,0.0,0.0159001955776
1385574741568639594,-0.0148420917173,-0.00404140866879,-0.0014785353406,1.0,0.0,0.0162883457233
1385574741768666189,-0.0142503417118,-0.00231514200398,-0.00184855087506,1.0,0.0,0.0169102486603
1385574741968660315,-0.0135757108413,-0.00113147822205,-0.00215501523114,1.0,0.0,0.0175125262321
1385574742168734531,-0.0130902129505,-0.000355538095665,-0.00228507401401,1.0,0.0,0.0181091141675
1385574742368629050,-0.0126120827777,-0.000106201147156,-0.00241884419002,1.0,0.0,0.0185623584029
1385574742568822449,-0.0128294248869,-5.12516886135e-05,-0.00256521144138,1.0,0.0,0.0190522206011
1385574742768700260,-0.013176113545,-0.000198736637414,-0.00250751643292,1.0,0.0,0.0195230125315
1385574742968831189,-0.0144157746601,-0.000773298805119,-0.00228262593288,1.0,0.0,0.0202011238534
1385574743168646788,-0.0154295548451,-0.00160896636489,-0.00206679226492,1.0,0.0,0.0210278853442
1385574743368621357,-0.0166441487017,-0.00217946028571,-0.00156135015856,1.0,0.0,0.0218771413701
1385574743568769108,-0.0172412108525,-0.00298422798824,-0.000667693772079,1.0,0.0,0.0228246529628
1385574743768773978,-0.0176001463137,-0.00317157894869,-0.00013801158787,1.0,0.0,0.0236979393559
1385574743968675835,-0.0171545397735,-0.00274830076335,0.000204397856785,1.0,0.0,0.02451447736
1385574744168766479,-0.0165603745337,-0.00219733176201,0.000819384547029,1.0,0.0,0.0251923740087
1385574744368625982,-0.0149020443139,-0.00237008919184,0.000870237505913,1.0,0.0,0.0256503584932
1385574744568830597,-0.0129337182622,-0.00353161250234,0.000997505344515,1.0,0.0,0.0261495923226
1385574744768628284,-0.0103031868294,-0.00509300979028,0.000732143071303,1.0,0.0,0.0265081919121
1385574744968648525,-0.00810372312146,-0.00753709964596,0.00035315750393,1.0,0.0,0.0268059166882
1385574745168604382,-0.00651424112336,-0.0104539830179,2.37974407137e-05,1.0,0.0,0.0272369697752
1385574745368573486,-0.00605375947573,-0.0128198906082,-0.000252335729502,1.0,0.0,0.0274495710888
1385574745568598150,-0.00664445461026,-0.0148342617757,-0.000739632713169,1.0,0.0,0.0275396821567
1385574745768612539,-0.0082369146987,-0.0158153234497,-0.00109395503991,1.0,0.0,0.0274797472742
1385574745968724354,-0.0103760233817,-0.0169230067268,-0.00145066783689,1.0,0.0,0.0275035860678
1385574746168810560,-0.0130290410634,-0.0167589171918,-0.00126377179715,1.0,0.0,0.0275046411909
1385574746368654949,-0.0151257002626,-0.016511677725,-0.00072065501097,1.0,0.0,0.0275918300557
1385574746568623944,-0.0166052925917,-0.0145506708375,-0.000527437062624,1.0,0.0,0.0275546031906
1385574746768797383,-0.0167946260669,-0.0122390246875,-9.17839200015e-05,1.0,0.0,0.0275072597359
1385574746968625305,-0.0160353222812,-0.00860728257173,0.00023031686906,1.0,0.0,0.0272823631021
1385574747168660408,-0.0142354611999,-0.00469152864993,0.000643806028073,1.0,0.0,0.0269659755302
1385574747368589140,-0.0122894015452,-0.000165961946346,0.000935886032474,1.0,0.0,0.0265099246898
1385574747569286711,-0.0106702942527,0.0027363997814,0.00131804006422,1.0,0.0,0.0262514018031
1385574747768792499,-0.0103577915662,0.00477130609201,0.00145990139953,1.0,0.0,0.026154552222
1385574747968690123,-0.0110143376149,0.00531696089189,0.00171980167174,1.0,0.0,0.0259188806197
1385574748168595834,-0.0125296014044,0.00433845325609,0.00146720738955,1.0,0.0,0.0257882062774
1385574748368633942,-0.0142307085587,0.00235674835599,0.00160248038287,1.0,0.0,0.0257382585308
1385574748568613586,-0.0162348884723,0.000345838325483,0.00123582065812,1.0,0.0,0.0255043017071
1385574748768615928,-0.0179460299014,-0.00187699976941,0.00117290061293,1.0,0.0,0.0254538787901
1385574748968621599,-0.0192400716517,-0.00330234690847,0.00130856928321,1.0,0.0,0.0254258014593
1385574749168771062,-0.0197768483317,-0.00420997943081,0.00107275554353,1.0,0.0,0.025240745681
1385574749368647448,-0.0194896223843,-0.00441486729074,0.00082495753918,1.0,0.0,0.025178265591
1385574749568668793,-0.0194177157604,-0.00400213927468,0.000385964283912,1.0,0.0,0.025071616317
1385574749768618264,-0.0193588928888,-0.00393807400124,0.000291160630636,1.0,0.0,0.0250278710496
1385574749968622413,-0.019204642986,-0.00385966979528,-0.000238799479729,1.0,0.0,0.0248343229441
1385574750168622851,-0.0185652598596,-0.00405265018048,-0.000622224001454,1.0,0.0,0.0245637098651
1385574750368635873,-0.0173595686954,-0.0034732716694,-0.0013013303524,1.0,0.0,0.0243114158873
1385574750568662407,-0.015881318402,-0.00241453867229,-0.0021229877969,1.0,0.0,0.0238506376784
1385574750768675275,-0.0146737522658,-0.00150132863388,-0.00293540186526,1.0,0.0,0.0237407380916
1385574750968619082,-0.0139844722716,-0.000484734975081,-0.00361995394692,1.0,0.0,0.0236250882806
1385574751168633029,-0.0137086819358,-0.000390594865088,-0.00444599628283,1.0,0.0,0.0236953158735
1385574751368623065,-0.0136465049734,-0.0012950954922,-0.00536036540158,1.0,0.0,0.0235698533578
1385574751568576459,-0.0139988807838,-0.00303937636927,-0.00559039817689,1.0,0.0,0.0234266210543
1385574751768783879,-0.0145521487645,-0.00517651298927,-0.00588786388862,1.0,0.0,0.0231643776556
1385574751968597113,-0.0154738530663,-0.00774306220512,-0.00585724342226,1.0,0.0,0.022659934496
1385574752168616475,-0.0165826821551,-0.00982759065256,-0.00566391625078,1.0,0.0,0.022097419936
1385574752368629008,-0.0179354644815,-0.0115802851928,-0.00516565415129,1.0,0.0,0.021413866773
1385574752568557676,-0.0189453750993,-0.0123908610924,-0.00494912681126,1.0,0.0,0.0206592283095
1385574752768563066,-0.019938867448,-0.0127098487349,-0.00447958163912,1.0,0.0,0.0198286450165
1385574752970294673,-0.0207414981625,-0.0121538788082,-0.00375246456287,1.0,0.0,0.0189166523587
1385574753168664391,-0.0209119880826,-0.0114451583494,-0.00283203503945,1.0,0.0,0.0181946534219
1385574753368696486,-0.020700865633,-0.0106072387767,-0.0018881915924,1.0,0.0,0.0172134863796
1385574753568739640,-0.0195072692811,-0.0101499397865,-0.000851721126705,1.0,0.0,0.0162870510042
1385574753768667876,-0.0178213071888,-0.0100991465736,-0.000309195735885,1.0,0.0,0.0153567228616
1385574753968713505,-0.0161443784471,-0.0105418873482,0.000214307102507,1.0,0.0,0.0145140792894
1385574754168628166,-0.0147844119887,-0.0109165548582,0.000973568594685,1.0,0.0,0.0136297929335
1385574754368656720,-0.0143436544822,-0.0109601177797,0.00144558227068,1.0,0.0,0.0127462435372
1385574754568631580,-0.0140139365283,-0.0106570337095,0.00188846932018,1.0,0.0,0.011912627494
1385574754768618242,-0.0143938624696,-0.00943024284091,0.00211053369862,1.0,0.0,0.0110832590204
1385574754968611458,-0.0148041372631,-0.00754708012942,0.00195348326526,1.0,0.0,0.0101405483964
1385574755168674767,-0.0157955999382,-0.00635807927412,0.00183020184901,1.0,0.0,0.00936550345117
1385574755368685525,-0.0166259300036,-0.00435650775436,0.00165116492892,1.0,0.0,0.00858818260004
1385574755568618994,-0.0175406379117,-0.00333021159909,0.00158046840089,1.0,0.0,0.00780183174078
1385574755768615811,-0.0176904301318,-0.00216472927475,0.0015637395237,1.0,0.0,0.0070086438259
1385574755968731455,-0.0174017025801,-0.00218219121176,0.00134669201794,1.0,0.0,0.00638695885557
1385574756168725651,-0.0163368906118,-0.00188808442284,0.00126227156761,1.0,0.0,0.00566696331545
1385574756368668474,-0.0154076530809,-0.00263227073496,0.00124084962292,1.0,0.0,0.00533193168199
1385574756568737179,-0.0146128732735,-0.00234885044035,0.00100012868382,1.0,0.0,0.00498719298462
1385574756768682167,-0.0145332196667,-0.00195211523076,0.000667288549884,1.0,0.0,0.00484697842338
1385574756968695872,-0.0149748670372,-0.000920882367444,0.000437247529898,1.0,0.0,0.0047253810591
1385574757168626338,-0.0157662645252,-0.000272350201101,0.000262058423859,1.0,0.0,0.00470190563145
1385574757368632260,-0.0165264903706,8.64431615445e-05,0.000210932651726,1.0,0.0,0.00483849923666
1385574757568606647,-0.0173906799363,-0.000308738782561,4.71291823461e-05,1.0,0.0,0.00505764430163
1385574757768601970,-0.0187039661993,-0.000863251993822,0.000151685387432,1.0,0.0,0.00521080685705
1385574757968627298,-0.0197242675296,-0.00203669044153,2.38496530368e-05,1.0,0.0,0.00527572544868
1385574758168760618,-0.0208300551466,-0.00334796928,-0.000346060335546,1.0,0.0,0.00543400288769
1385574758368693081,-0.0212726555953,-0.00399583396156,-0.000522576772137,1.0,0.0,0.00544887281184
1385574758568744938,-0.0218140243728,-0.00413750622116,-0.000547693008615,1.0,0.0,0.00562341947439
1385574758768628824,-0.0218874158551,-0.00304097957784,-0.000303775777326,1.0,0.0,0.00569967938663
1385574758968603034,-0.0217629786178,-0.00120827066843,0.000153022698987,1.0,0.0,0.00563823336277
1385574759168753610,-0.0211003748237,0.000825669235136,0.000323707904908,1.0,0.0,0.00564717705709
1385574759368671661,-0.0205039167024,0.00293737061773,0.000252755971267,1.0,0.0,0.00548733191567
1385574759568586528,-0.0199922258854,0.00365991923831,0.000558609266114,1.0,0.0,0.00540787958981
1385574759768681866,-0.0197362544364,0.00421990962382,0.000902238421828,1.0,0.0,0.00513440305248
1385574759968631543,-0.0193524591689,0.00362390635791,0.00121342012335,1.0,0.0,0.00502771110702
1385574760168589728,-0.0193052376169,0.00377398829281,0.00157889360586,1.0,0.0,0.00489709981126
1385574760368742336,-0.0191482567074,0.00316859087975,0.00222275952947,1.0,0.0,0.00505156134138
1385574760568622504,-0.0189519736392,0.00349952600686,0.00271199766351,1.0,0.0,0.00504436058968
1385574760768704890,-0.0183734616685,0.00285958934364,0.00299635690511,1.0,0.0,0.00521795985913
1385574760968688488,-0.0177079267425,0.00252897112559,0.00299744476896,1.0,0.0,0.00524921668491
1385574761168764367,-0.0168462803312,0.00133029023748,0.00276754301313,1.0,0.0,0.00550838834904
1385574761368613214,-0.0161456206215,0.000727747448118,0.00244018790622,1.0,0.0,0.00568709180501
1385574761568571931,-0.0158450096564,-0.000484395702072,0.00232913391962,1.0,0.0,0.00585045197352
1385574761768577790,-0.0159546968047,-0.000982527858315,0.00233002615516,1.0,0.0,0.00622266421265
1385574761968605476,-0.016545302099,-0.00120929082333,0.00238531078331,1.0,0.0,0.00641640887967
1385574762168618980,-0.017419004577,-0.000756843349253,0.00227326266985,1.0,0.0,0.00684818404278
1385574762368599070,-0.018430018194,0.000372730183354,0.00228434121724,1.0,0.0,0.00719311694408
1385574762568600631,-0.0194332196968,0.00141265164196,0.00220611303755,1.0,0.0,0.00755608277931
1385574762768765158,-0.0204791520375,0.00276133323611,0.00230496357491,1.0,0.0,0.00779871437419
1385574762968604651,-0.021263570365,0.00344498775338,0.00206445712394,1.0,0.0,0.00822747706333
1385574763168622621,-0.0215140457289,0.00407815279154,0.00202538183501,1.0,0.0,0.00876530876609
1385574763368649946,-0.0211204908436,0.00394561252588,0.0013905601276,1.0,0.0,0.00918314191438
1385574763568588080,-0.0204173980141,0.00387475449634,0.00127946784348,1.0,0.0,0.00945330525813
1385574763768578403,-0.0199846196419,0.00347370819677,0.000785371473433,1.0,0.0,0.00981319613232
1385574763968745612,-0.0199295564218,0.00345579235379,0.000478244105138,1.0,0.0,0.0100845194891
1385574764168750980,-0.0199814170212,0.00307331085797,-7.85071722839e-05,1.0,0.0,0.0104695549167
1385574764368746058,-0.0207780313988,0.00328874144488,5.05187241412e-05,1.0,0.0,0.0108785880983
1385574764568613110,-0.0213785250549,0.00350381559733,-6.968331974e-05,1.0,0.0,0.0114266572465
1385574764768682423,-0.0226627219584,0.0036731615945,7.61202407698e-05,1.0,0.0,0.0123270325851
1385574764968656273,-0.0228717956814,0.00432687094267,7.07245986411e-05,1.0,0.0,0.0130898939167
1385574765168630478,-0.0234063512054,0.00421153798863,0.000140778996097,1.0,0.0,0.0140761443463
1385574765368629929,-0.0230972133212,0.0051401175286,0.000629508347691,1.0,0.0,0.0148692482312
1385574765568701611,-0.0237158970964,0.00497911170054,0.00135675325296,1.0,0.0,0.0156801348707
1385574765768613292,-0.0236938597121,0.00640648610786,0.00235603672589,1.0,0.0,0.016342397528
1385574765968644689,-0.024512045353,0.00640801017098,0.00287384304884,1.0,0.0,0.0172413116488
1385574766168686335,-0.0245352912182,0.00808927940894,0.00336211692851,1.0,0.0,0.0180617887956
1385574766368543709,-0.0247765897879,0.00846114250171,0.0038685829788,1.0,0.0,0.0188090348725
1385574766568712616,-0.0242831069432,0.00961527583352,0.00414249446025,1.0,0.0,0.0195160307981
1385574766768648612,-0.0233775003548,0.00998062870303,0.00429385330958,1.0,0.0,0.0201579455246
1385574766968597768,-0.0221120394241,0.0104406192012,0.00399813499228,1.0,0.0,0.0209172800153
1385574767168621567,-0.0209445985344,0.00991632125035,0.0041013146248,1.0,0.0,0.0218933506821
1385574767368624114,-0.0202811255875,0.00998533920078,0.0036538445118,1.0,0.0,0.0228546283047
1385574767568607962,-0.0201811735538,0.00923046474468,0.00341262767056,1.0,0.0,0.023953592045
1385574767768636929,-0.0204186503242,0.00898341205482,0.00288228968009,1.0,0.0,0.0250451977861
1385574767968635784,-0.0207053762236,0.00785842003269,0.00240444998175,1.0,0.0,0.0260562913146
1385574768168587677,-0.0204280881295,0.00700422140271,0.00165191628449,1.0,0.0,0.0269018264744
1385574768368709729,-0.0201899899156,0.0049392797692,0.000984730311416,1.0,0.0,0.0276292613549
1385574768568665391,-0.0194396403498,0.00271278338141,0.000143517784427,1.0,0.0,0.0282756162413
1385574768768645994,-0.0185277981682,0.000147878270296,-0.000781532812122,1.0,0.0,0.0288668844866
1385574768968609760,-0.017300222974,-0.00110128397009,-0.00164317517837,1.0,0.0,0.0292264753547
1385574769168567219,-0.0168664515505,-0.00219499813879,-0.00216901372124,1.0,0.0,0.0296816240833
1385574769368571047,-0.0163961293655,-0.00191915938289,-0.00255445228951,1.0,0.0,0.0299882931907
1385574769568607091,-0.0162309254916,-0.00136394523814,-0.00262832031276,1.0,0.0,0.0301959794627
1385574769768540079,-0.0157219438352,-0.000778160886038,-0.00299863090125,1.0,0.0,0.030336759129
1385574769968661992,-0.0151873121933,-0.000130130625711,-0.00281522423422,1.0,0.0,0.0305509732163
1385574770168625014,-0.0142247984271,0.000213005634651,-0.00269143635671,1.0,0.0,0.0307251353909
1385574770368551766,-0.0127267077433,0.000266773932679,-0.00278681085281,1.0,0.0,0.0309381659124
1385574770568556088,-0.0108146685941,-0.00110928098501,-0.0028338187787,1.0,0.0,0.0312021230702
1385574770768769581,-0.00888526894113,-0.00267705535848,-0.00335030012981,1.0,0.0,0.0311249495348
1385574770968623878,-0.00738170566964,-0.00525839934696,-0.00345383543962,1.0,0.0,0.0309995344847
1385574771168626124,-0.00656331885556,-0.00761069569321,-0.00383013652951,1.0,0.0,0.0307916010327
1385574771368722585,-0.00640255976207,-0.00992117922115,-0.00394689942979,1.0,0.0,0.0304525696648
1385574771568675927,-0.00702051197138,-0.01083527182,-0.00363271297276,1.0,0.0,0.0298605807721
1385574771768675132,-0.00850200106708,-0.0111541969962,-0.00341454047276,1.0,0.0,0.0292988742415
1385574771968671532,-0.0104834599675,-0.0101024106902,-0.00329067816339,1.0,0.0,0.0286632244447
1385574772168656552,-0.0130199202976,-0.00822495186018,-0.00311259400548,1.0,0.0,0.0279726511467
1385574772368614591,-0.0149601264379,-0.00496031295889,-0.00301226685952,1.0,0.0,0.0272931236973
1385574772571133833,-0.0159806944915,-0.00167013203799,-0.0027527249503,1.0,0.0,0.0267908394993
1385574772768740044,-0.0156575676819,0.00119785521246,-0.00258450576916,1.0,0.0,0.0263693210003
1385574772968670996,-0.0146884023194,0.00290749056251,-0.00240715519446,1.0,0.0,0.0260765840851
1385574773168703593,-0.0130943265056,0.00380047162081,-0.00180997646422,1.0,0.0,0.0258322241089
1385574773368683110,-0.0111161980276,0.00305994512876,-0.00117793859849,1.0,0.0,0.0259487247962
1385574773568685964,-0.0088781525682,0.00185863327304,-0.000541540060233,1.0,0.0,0.0261766004108
1385574773768570514,-0.00686369527042,-0.000650083343452,0.000291126430124,1.0,0.0,0.0264691998155
1385574773968672722,-0.00535164387417,-0.00377841752434,0.000836900701938,1.0,0.0,0.0269440407983
1385574774168762154,-0.00426208940995,-0.00741833751267,0.00139088465562,1.0,0.0,0.0274597209239
1385574774368605834,-0.00386017782318,-0.0104921382973,0.0014153204408,1.0,0.0,0.0278274425035
1385574774568722847,-0.0035897976061,-0.0137190892974,0.0013490904204,1.0,0.0,0.0284274262766
1385574774768780044,-0.0039112351209,-0.0156602816631,0.00111990747396,1.0,0.0,0.0286282550065
1385574774968712951,-0.00444892395042,-0.0173522207157,0.000928007753606,1.0,0.0,0.0288663570033
1385574775168556421,-0.00547920511778,-0.0167609256094,0.00102192922442,1.0,0.0,0.0286516806733
1385574775368668058,-0.00654408771449,-0.0160033125229,0.00107320013137,1.0,0.0,0.0286059854762
1385574775568638265,-0.00811757121277,-0.0136240267171,0.00130841309158,1.0,0.0,0.0282122100516
1385574775768681225,-0.00945609792983,-0.0111966469224,0.00155779147709,1.0,0.0,0.0278454011781
1385574775968714203,-0.0109072629701,-0.00799274008133,0.00174824393267,1.0,0.0,0.0273192805402
1385574776168667945,-0.0116548527661,-0.00513050506773,0.00142919236025,1.0,0.0,0.0268540845947
1385574776368699811,-0.012165195901,-0.00225619248877,0.00104784613688,1.0,0.0,0.0263834293093
1385574776568627128,-0.0119238779499,-0.000465469643219,0.000686173848859,1.0,0.0,0.0257428872045
1385574776768811744,-0.0110971364276,-0.000309178962514,0.000193041574743,1.0,0.0,0.025337938449
1385574776968566018,-0.0101334933458,-0.00142174557795,-0.000287318692845,1.0,0.0,0.0248493833212
1385574777168584009,-0.00922619505982,-0.00386343357184,-0.000819184509801,1.0,0.0,0.0244740106693
1385574777368753758,-0.00851918917618,-0.00660427998714,-0.00133535632335,1.0,0.0,0.0242606046427
1385574777568671374,-0.00838016652761,-0.00952629354547,-0.00171500099123,1.0,0.0,0.024097916131
1385574777768638312,-0.00865504191623,-0.0120433521107,-0.00245191301433,1.0,0.0,0.0238707196111
1385574777968879451,-0.00943364176834,-0.0140492253233,-0.00274525196598,1.0,0.0,0.0237770717841
1385574778168687374,-0.0107700564016,-0.0147706881695,-0.00270206410001,1.0,0.0,0.0234385312667
1385574778368617731,-0.0125284812855,-0.0142321114683,-0.00251508535094,1.0,0.0,0.0232480628701
1385574778568688816,-0.0143752297698,-0.0125394375547,-0.00197379841641,1.0,0.0,0.023237886665
1385574778768802844,-0.0161955000668,-0.010307069701,-0.0016195715344,1.0,0.0,0.0231218396526
1385574778968743962,-0.0174524955872,-0.00850271330121,-0.00109325648174,1.0,0.0,0.0231542498958
1385574779168745281,-0.018497586939,-0.00704349094192,-0.000451475256624,1.0,0.0,0.0232637791407
1385574779368621761,-0.018080503941,-0.00642428505337,0.000431103316094,1.0,0.0,0.0235712998088
1385574779568602591,-0.0170814714964,-0.00635463076262,0.00129484488874,1.0,0.0,0.0240067445761
1385574779768622124,-0.0151651584978,-0.00697569091867,0.00207173692322,1.0,0.0,0.0245908029004
1385574779968613237,-0.0130245954399,-0.00779877541904,0.00268823460257,1.0,0.0,0.0250973329339
1385574780168604643,-0.0107850580846,-0.00894078319496,0.00287738547593,1.0,0.0,0.0255445304479
1385574780368648437,-0.00881414419538,-0.00929822326297,0.00281900415341,1.0,0.0,0.0258427202215
1385574780568555472,-0.00738583018528,-0.00951475477803,0.00257902588224,1.0,0.0,0.0259372853556
1385574780768614338,-0.0068854782364,-0.00919777975607,0.00239942664103,1.0,0.0,0.025921438441
1385574780968630014,-0.00748549132405,-0.00877001043993,0.00244420422449,1.0,0.0,0.0257127454274
1385574781168613706,-0.00882820647451,-0.00774249488606,0.00250440577289,1.0,0.0,0.0252935207037
1385574781368681863,-0.0111147047182,-0.00725749453043,0.00288267883559,1.0,0.0,0.0248716761421
1385574781568788778,-0.0139680056057,-0.00604889470827,0.00337962397168,1.0,0.0,0.0243048864534
1385574781768615837,-0.0172084376058,-0.00503268667445,0.00399513419982,1.0,0.0,0.0236907738401
1385574781968625234,-0.01997709946,-0.00340134159965,0.00468012833805,1.0,0.0,0.0230330929297
1385574782168575890,-0.0216974384632,-0.00138576818591,0.00490992291483,1.0,0.0,0.0226171917261
1385574782368632747,-0.0217261849429,0.0011551079051,0.00520457495285,1.0,0.0,0.022002372715
1385574782568635522,-0.0205508549585,0.00238873315491,0.00525298268568,1.0,0.0,0.0215344754352
1385574782768614675,-0.0176512793762,0.00305289909079,0.00538554356022,1.0,0.0,0.021198170394
1385574782968621832,-0.0148417755874,0.00220960318978,0.00477729903506,1.0,0.0,0.0208849976243
1385574783168763258,-0.0111121791702,0.00107011265037,0.00417747863728,1.0,0.0,0.0209593452968
1385574783368615237,-0.00892803354445,-0.000750724130621,0.00330983591288,1.0,0.0,0.0209668627053
1385574783568640990,-0.00690606813663,-0.00228870265144,0.0026423375133,1.0,0.0,0.0213367024642
1385574783768605646,-0.00688529031521,-0.00350203033016,0.00221365311652,1.0,0.0,0.0216756783442
1385574783968632848,-0.00696136583436,-0.00398348034045,0.00168244963634,1.0,0.0,0.0220092140861
1385574784168667393,-0.00856625876435,-0.0047965679784,0.00120904657773,1.0,0.0,0.0223727287066
1385574784368573928,-0.00978037265557,-0.00446982940811,0.000911704922071,1.0,0.0,0.0226141468056
1385574784568614681,-0.0112265873059,-0.00486223026169,0.000662000598185,1.0,0.0,0.0229536313553
1385574784768688219,-0.011464271063,-0.00452325435425,0.000464418947785,1.0,0.0,0.02334807437
1385574784968765464,-0.0109767647508,-0.00478115043516,0.000421556549928,1.0,0.0,0.0237241356915
1385574785168648400,-0.00963530904305,-0.00428746418228,0.000303011289802,1.0,0.0,0.0241463124895
1385574785368703673,-0.00816699155763,-0.00340077511115,0.000465268390593,1.0,0.0,0.0243646039019
1385574785568694615,-0.00650186318085,-0.002331326869,0.000352416048627,1.0,0.0,0.0246857623417
1385574785768582581,-0.00462458442253,-0.000982299861563,-0.000193055346586,1.0,0.0,0.0248253216891
1385574785968626025,-0.0038290555894,-0.000458532542833,-0.000610156628241,1.0,0.0,0.0247991558291
1385574786168768432,-0.00353969509403,-0.00057246804259,-0.00140590607586,1.0,0.0,0.0246287981747
1385574786368668313,-0.00414235002004,-0.00154731501281,-0.00212851935265,1.0,0.0,0.0245274406096
1385574786568715720,-0.00459649470007,-0.00243798817167,-0.00295111972664,1.0,0.0,0.0244206011924
1385574786768644395,-0.00527303705645,-0.00298003152939,-0.00382690329471,1.0,0.0,0.0241028229753
1385574786968624939,-0.00550505819831,-0.00299529953919,-0.00468559021034,1.0,0.0,0.0238265292393
1385574787168654357,-0.00623471328409,-0.00258889361929,-0.00545561772836,1.0,0.0,0.023470699939
1385574787368630237,-0.00631777036344,-0.00180471887666,-0.0061232140555,1.0,0.0,0.0232362081662
1385574787569077933,-0.00582318416018,-0.000946671587814,-0.0068307561031,1.0,0.0,0.0230364610641
1385574787768580074,-0.00516688115797,-0.000193242203525,-0.00717424377716,1.0,0.0,0.0228392071985
1385574787968785282,-0.00417591205825,0.000484655553335,-0.00710692535717,1.0,0.0,0.022778315806
1385574788168656515,-0.00386188532089,0.000512935500647,-0.00665883241714,1.0,0.0,0.0227194956412
1385574788368613721,-0.00367536688966,0.000344972507886,-0.00589982506753,1.0,0.0,0.0228143369176
1385574788568615370,-0.00451309834372,0.00019719510583,-0.00506510563281,1.0,0.0,0.0229869338299
1385574788768608175,-0.00548092071614,0.000500310065689,-0.00432045833273,1.0,0.0,0.0232419017182
1385574788968752437,-0.0072247535639,0.000536503998989,-0.00353562448228,1.0,0.0,0.02347671758
1385574789168637840,-0.00905684405029,0.00121700963789,-0.00268872403455,1.0,0.0,0.0240323398341
1385574789368645496,-0.011290265836,0.00179972345771,-0.00197416882528,1.0,0.0,0.0243931225512
1385574789568627798,-0.0130291562266,0.00256862906746,-0.00136446543721,1.0,0.0,0.0250268659043
1385574789768642566,-0.0144787498314,0.00323424575777,-0.0011022343277,1.0,0.0,0.0254162163767
1385574789968560077,-0.0145068462252,0.00373291453688,-0.00120645780817,1.0,0.0,0.0259385629963
1385574790168603130,-0.0136704813897,0.00366110470369,-0.00131796514106,1.0,0.0,0.0263545268249
1385574790368643186,-0.0121533385364,0.00295581782463,-0.00155798109955,1.0,0.0,0.0268070916435
1385574790568680776,-0.00977032180905,0.00192840982467,-0.00174930159207,1.0,0.0,0.0271986164907
1385574790768766943,-0.00762169393723,0.000443935055326,-0.00198064905845,1.0,0.0,0.0276553014089
1385574790968690698,-0.00536122375046,-0.00159926757397,-0.00210092073452,1.0,0.0,0.0282180471065
1385574791168643488,-0.0041510395983,-0.00316936773087,-0.00241869288743,1.0,0.0,0.0287690866731
1385574791368596489,-0.00317715969639,-0.00485025223941,-0.00260210342589,1.0,0.0,0.0293902289691
1385574791568638502,-0.00349070237017,-0.00553909866861,-0.00285880162732,1.0,0.0,0.0301481787659
1385574791768584158,-0.00397667304364,-0.00493575596045,-0.00299870775661,1.0,0.0,0.0306816709906
1385574791968737405,-0.00525847109837,-0.00438426366287,-0.0030500050741,1.0,0.0,0.0313649943337
1385574792168645827,-0.00648655046036,-0.00335145122474,-0.0030137574824,1.0,0.0,0.0319674072656
1385574792368570320,-0.00737228073825,-0.00254720934201,-0.00284244437216,1.0,0.0,0.0326563356286
1385574792568908388,-0.00756601041455,-0.000990949537063,-0.00242569284766,1.0,0.0,0.0331676132546
1385574792768788547,-0.00665154794387,0.000433180136199,-0.00183126457389,1.0,0.0,0.0338602186732
1385574792968677140,-0.0052367865877,0.00242042590547,-0.00114087399079,1.0,0.0,0.0345724300061
1385574793168549202,-0.00318117099422,0.00412937189329,-5.39811068939e-05,1.0,0.0,0.0352422076212
1385574793368546311,-0.000948594749626,0.00598711864633,0.00120881594242,1.0,0.0,0.0361561923718
1385574793568965750,0.000600592513793,0.00652424331236,0.00202924346053,1.0,0.0,0.0367651982916
1385574793768650765,0.00167286464845,0.006794186711,0.00268832842091,1.0,0.0,0.0373743621371
1385574793968657268,0.00104418300754,0.00572273561995,0.0032916283558,1.0,0.0,0.0379411399489
1385574794168871860,-0.000477282127183,0.00428593532893,0.00374131832229,1.0,0.0,0.0382830188483
1385574794368808872,-0.00325950484258,0.00249727207788,0.00438723889608,1.0,0.0,0.038543844844
1385574794568790519,-0.00673540949754,0.00134148924327,0.00482945169869,1.0,0.0,0.0387039340545
1385574794768649342,-0.0100212250724,0.000417683201129,0.00522818892947,1.0,0.0,0.0388699784123
1385574794968575451,-0.0126477005978,0.000336176013468,0.00512904850243,1.0,0.0,0.0389928804556
1385574795168751502,-0.0143973814897,0.000806811931236,0.00469953647169,1.0,0.0,0.0390764541646
1385574795368716652,-0.0151495054467,0.00200553846638,0.00431236138609,1.0,0.0,0.0391520243453
1385574795568656393,-0.0146003684028,0.00289088847572,0.00396294325997,1.0,0.0,0.0392296257174
1385574795768845582,-0.0122171941096,0.00368656549143,0.00369587700617,1.0,0.0,0.0394318297154
1385574795968837528,-0.00915224676702,0.0046446353978,0.00330461973285,1.0,0.0,0.0395418832668
1385574796168706784,-0.00527056514829,0.00503781506966,0.00318434282898,1.0,0.0,0.039717043204
1385574796368888458,-0.00171293536806,0.00561094684199,0.00289747251067,1.0,0.0,0.0397130680509
1385574796568705865,0.000379082586265,0.00371196208876,0.00252214160452,1.0,0.0,0.0398688893319
1385574796768719172,0.00137999313168,0.00131441223159,0.00207196282706,1.0,0.0,0.0400901237246
1385574796968630906,0.000598056202565,-0.00256111497644,0.00166244405729,1.0,0.0,0.0402310289275
1385574797168663318,-0.00103934964506,-0.00579356910926,0.00133969098175,1.0,0.0,0.0404016253906
1385574797368627502,-0.003410442761,-0.00818619345763,0.00110536117213,1.0,0.0,0.0403944230296
1385574797568762744,-0.00538179695101,-0.00816794094959,0.00074317280776,1.0,0.0,0.0405767422379
1385574797768766376,-0.00706491947255,-0.00530418359257,0.000399187968044,1.0,0.0,0.0406227021657
1385574797968606837,-0.00784634029724,-0.000993377992985,0.000276331751395,1.0,0.0,0.0408246012779
1385574798168662568,-0.00776980874529,0.00511928347402,0.000118380930037,1.0,0.0,0.0406728224124
1385574798368618699,-0.00642399543476,0.0107067680078,0.00012318768995,1.0,0.0,0.0406231379666
1385574798568790303,-0.00413105365341,0.0162800442848,0.00015348610091,1.0,0.0,0.0406875192747
1385574798768697357,-0.00210586086432,0.0185099253316,0.000208673075173,1.0,0.0,0.0407117799588
1385574798968579838,0.000742418646918,0.0204996655194,0.00016503019894,1.0,0.0,0.0408623340735
1385574799168655491,0.00311418764881,0.0198485432601,5.75209691255e-05,1.0,0.0,0.0407417445305
1385574799368779768,0.00533698534833,0.0194997522513,0.000159960912307,1.0,0.0,0.0409631635221
1385574799568620923,0.00690882362451,0.0171836622357,0.000104155739747,1.0,0.0,0.0411937854006
1385574799768666535,0.00791439636008,0.0155475301,-0.000278667477585,1.0,0.0,0.041520206886
1385574799968649787,0.00753412493111,0.0136196035822,-0.000465402671885,1.0,0.0,0.0419295054677
1385574800168583233,0.00571969108828,0.0134598274749,-0.00042671343842,1.0,0.0,0.0425141851629
1385574800368666617,0.00288535366631,0.0143203664838,-0.000279627260837,1.0,0.0,0.0431897053668
1385574800568614923,-0.000254325992673,0.0176663108721,1.80894905012e-05,1.0,0.0,0.0439964495043
1385574800768889108,-0.00258154633517,0.0217789188347,0.000544160651184,1.0,0.0,0.044935714212
1385574800968816056,-0.00392042441921,0.0265421535296,0.00107380086451,1.0,0.0,0.046141532405
1385574801168764944,-0.00356132011546,0.0300929300394,0.00181366377987,1.0,0.0,0.0473090788552
1385574801368666611,-0.00297322462734,0.0315309182384,0.00197038541107,1.0,0.0,0.0488297371665
1385574801568782667,-0.00126103472888,0.0300493203274,0.00209904343266,1.0,0.0,0.0502803417296
1385574801768616888,0.000422631731351,0.0255741690563,0.00146564380938,1.0,0.0,0.0517865119527
1385574801968602228,0.00240791016341,0.0192729075015,0.000958436891307,1.0,0.0,0.0531074695613
1385574802168581364,0.00317038229958,0.0117375925904,0.000380219469589,1.0,0.0,0.0543040092141
1385574802368597087,0.00354306299156,0.00513628628077,5.16899138446e-05,1.0,0.0,0.05566067734
1385574802568657419,0.0031782477708,-2.42006467219e-05,0.000203387656475,1.0,0.0,0.0568557292074
1385574802768690274,0.00168131036417,-0.00263093081879,0.000338405267611,1.0,0.0,0.058008463346
1385574802968725398,-0.00028393448324,-0.00285903808701,0.000421761134191,1.0,0.0,0.0590285201318
1385574803168690859,-0.00215810018592,-0.000645880196924,0.000120662115166,1.0,0.0,0.0599468599895
1385574803368727137,-0.00438359944694,0.00299414693449,-8.98604210191e-05,1.0,0.0,0.0608580877205
1385574803568813395,-0.00580214619955,0.00735393626722,-2.74294965673e-05,1.0,0.0,0.0617299680683
1385574803768648613,-0.0063138456445,0.0112262987345,-0.000179853474879,1.0,0.0,0.0622613988302
1385574803968872738,-0.00595731232046,0.0143402246178,-8.79861016928e-06,1.0,0.0,0.0631552006339
1385574804168839672,-0.00471034548681,0.0162137250102,0.000187864787046,1.0,0.0,0.063931301965
1385574804368606009,-0.00305138179742,0.0168882820929,0.000616007977588,1.0,0.0,0.0646933953966
1385574804568722980,-0.00137829483424,0.0160979296217,0.00113676577902,1.0,0.0,0.0656717037347
1385574804768617852,8.85220856634e-05,0.0144901694139,0.00145283804206,1.0,0.0,0.0665196751395
1385574804968780218,0.000960941610464,0.0119326973864,0.00135029965839,1.0,0.0,0.0673868104447
1385574805168558840,0.000798683274207,0.00962684353921,0.00130797004618,1.0,0.0,0.0681792262993
1385574805368755579,0.000100587164729,0.00824795017563,0.00103902600774,1.0,0.0,0.0689151127453
1385574805568691618,-0.00159529699811,0.00828515103604,0.000817397690522,1.0,0.0,0.0694431077313
1385574805768738230,-0.00332103225495,0.0106460728229,0.00062483107723,1.0,0.0,0.0699430536398
1385574805968868483,-0.00502299341436,0.0144894032089,0.000283398102631,1.0,0.0,0.0703708209853
1385574806168607054,-0.00540868784011,0.0192912546442,-0.000218627584219,1.0,0.0,0.0706429555203
1385574806368651299,-0.00530507847831,0.023662844456,-0.00059754845728,1.0,0.0,0.0711500257311
1385574806568650467,-0.00410829067623,0.0266617567921,-0.000930820281236,1.0,0.0,0.0713806009071
1385574806768621210,-0.00350412537358,0.0274540712214,-0.00132595097662,1.0,0.0,0.07157413285
1385574806968617145,-0.00229911061636,0.0273660929925,-0.00131681119122,1.0,0.0,0.0716840066794
1385574807168576029,-0.0017379320812,0.0256375610234,-0.00117336034712,1.0,0.0,0.0719499394804
1385574807368691470,-0.000852909150586,0.023265198554,-0.000990318994558,1.0,0.0,0.0720364859548
1385574807568622348,-0.000386487057191,0.0199286788668,-0.00110081724683,1.0,0.0,0.0720556224635
1385574807768743818,-0.000447216919511,0.0165831087565,-0.00144492604445,1.0,0.0,0.0721648629801
1385574807968617521,-0.0011850059504,0.0134141200704,-0.00219093400572,1.0,0.0,0.0723670425445
1385574808168621101,-0.00199449279305,0.011561754873,-0.00248914690212,1.0,0.0,0.0724267575655
1385574808368609484,-0.00340794505116,0.0112939186771,-0.00277178167277,1.0,0.0,0.0725435324981
1385574808568579187,-0.00460081388361,0.0124311524709,-0.00269579432848,1.0,0.0,0.0725419648832
1385574808768697556,-0.0061435766101,0.0146334876239,-0.0022892513054,1.0,0.0,0.0727635983094
1385574808968615669,-0.00721554426281,0.0172031268666,-0.00196346953173,1.0,0.0,0.0727765621975
1385574809168768367,-0.00879538461186,0.0198098282698,-0.00156370753362,1.0,0.0,0.0726025053334
1385574809368645156,-0.0104590110922,0.0222142618683,-0.000989968559131,1.0,0.0,0.0726642410446
1385574809568598712,-0.0118207441402,0.0239235320741,-0.000646155537936,1.0,0.0,0.0723377374723
1385574809768726038,-0.012272343249,0.0245759279481,-0.000458173271328,1.0,0.0,0.0718432473695
1385574809968614947,-0.0117046401685,0.0241314446477,-0.00071208266841,1.0,0.0,0.0711849036482
1385574810168709942,-0.0103777712137,0.0227359788879,-0.000960911967035,1.0,0.0,0.0706955093057
1385574810368551188,-0.00796041967639,0.0206280720333,-0.00135060760489,1.0,0.0,0.0701471942443
1385574810568585307,-0.00607466775779,0.017593547919,-0.00239199329497,1.0,0.0,0.0696454960615
1385574810768580925,-0.00412429120306,0.0149465766877,-0.00285410850585,1.0,0.0,0.0690118237724
1385574810968605501,-0.00251207634125,0.0126363936634,-0.00312323028801,1.0,0.0,0.0683836003064
1385574811168610055,-0.000717437010563,0.0112368751771,-0.00368256938378,1.0,0.0,0.0677030615255
1385574811368652900,-0.000167227274211,0.0106101178277,-0.00381636428718,1.0,0.0,0.0671739719484
1385574811568618845,-0.000187416984922,0.0108836840533,-0.00408132697527,1.0,0.0,0.0667204114528
1385574811768633621,-0.00113853435221,0.0119225485679,-0.00407721901836,1.0,0.0,0.0664368645214
1385574811968774901,-0.00161324611961,0.013104147216,-0.00414119407794,1.0,0.0,0.0662002047391
1385574812168614254,-0.00220286321611,0.0137742713077,-0.00410752713366,1.0,0.0,0.0661612740287
1385574812368700010,-0.00172511537132,0.0132859284199,-0.00452906528493,1.0,0.0,0.0663227725943
