%time,field.header.seq,field.header.stamp,field.header.frame_id,field.child_frame_id,field.transform.translation.x,field.transform.translation.y,field.transform.translation.z,field.transform.rotation.x,field.transform.rotation.y,field.transform.rotation.z,field.transform.rotation.w
1385574684045745946,1177450,1385574684045745946,/world,vicon/Archie/Archie,-1.26575762366,-0.507997942892,0.110257116121,0.00592531508241,-0.00172848947819,0.634899721405,0.772569897631
1385574684055750770,1177451,1385574684055750770,/world,vicon/Archie/Archie,-1.26575950845,-0.508055775388,0.110271740833,0.00599632582415,-0.00178891364591,0.634921989607,0.772550911577
1385574684065732429,1177452,1385574684065732429,/world,vicon/Archie/Archie,-1.26576471195,-0.508047558814,0.110275180067,0.0059886225208,-0.00179075054151,0.634921742761,0.772551169945
1385574684075730903,1177453,1385574684075730903,/world,vicon/Archie/Archie,-1.26576521535,-0.508051280931,0.11027286058,0.00596809487795,-0.00176748850725,0.634910085366,0.772560962856
1385574684085697107,1177454,1385574684085697107,/world,vicon/Archie/Archie,-1.26574879331,-0.507981954152,0.110236425718,0.00591662483002,-0.00172977423695,0.634890055454,0.772577904756
1385574684095845027,1177455,1385574684095845027,/world,vicon/Archie/Archie,-1.26579580487,-0.508073822774,0.110316159204,0.00612499400448,-0.00193064108251,0.634948211315,0.772528009862
1385574684105713203,1177456,1385574684105713203,/world,vicon/Archie/Archie,-1.26577082556,-0.508071538943,0.110290936906,0.00611458655176,-0.00192323765558,0.634953032443,0.772524148218
1385574684115699675,1177457,1385574684115699675,/world,vicon/Archie/Archie,-1.2657658861,-0.508070376634,0.110286985303,0.00611735855724,-0.00191894730266,0.634944195238,0.772531400332
1385574684125804921,1177458,1385574684125804921,/world,vicon/Archie/Archie,-1.26578612387,-0.508080363459,0.110314766737,0.00612788293275,-0.00193606313854,0.634956948252,0.772520792326
1385574684135816702,1177459,1385574684135816702,/world,vicon/Archie/Archie,-1.26575485656,-0.508061790969,0.110273553096,0.00600350880374,-0.00179523437279,0.634908846023,0.772561643015
1385574684145757910,1177460,1385574684145757910,/world,vicon/Archie/Archie,-1.26576946294,-0.508069593022,0.110284870894,0.00612189689776,-0.00192870285548,0.634952042403,0.772524890429
1385574684155809522,1177461,1385574684155809522,/world,vicon/Archie/Archie,-1.26574242956,-0.508048725649,0.110250944546,0.00595800362375,-0.0017674869885,0.634912003775,0.772559464149
1385574684165553699,1177462,1385574684165553699,/world,vicon/Archie/Archie,-1.26577715035,-0.508066906567,0.110294983227,0.0061264199904,-0.00193577660233,0.634949966375,0.772526543199
1385574684175813299,1177463,1385574684175813299,/world,vicon/Archie/Archie,-1.26576933859,-0.508048019391,0.110273510862,0.00599948449856,-0.00179276595578,0.634918215695,0.772553979703
1385574684185691181,1177464,1385574684185691181,/world,vicon/Archie/Archie,-1.26574475791,-0.508040649896,0.110253557335,0.00598392944425,-0.00178378348515,0.634908820237,0.772561842631
1385574684195863460,1177465,1385574684195863460,/world,vicon/Archie/Archie,-1.26576080704,-0.508058201318,0.11027986302,0.00599720546916,-0.00179824838659,0.634919682067,0.772552779526
1385574684205656378,1177466,1385574684205656378,/world,vicon/Archie/Archie,-1.26577285263,-0.50807303108,0.110298406137,0.0061231372052,-0.001937684222,0.634953519853,0.772523643779
1385574684215671409,1177467,1385574684215671409,/world,vicon/Archie/Archie,-1.26575090241,-0.508043704252,0.110253758311,0.00597536065875,-0.00176458556412,0.634915278133,0.772556645752
1385574684225766526,1177468,1385574684225766526,/world,vicon/Archie/Archie,-1.26578832977,-0.508080869855,0.110318385788,0.00614345331691,-0.00195268878597,0.634957296657,0.772520340451
1385574684235737709,1177469,1385574684235737709,/world,vicon/Archie/Archie,-1.26576492398,-0.508046839867,0.110268039649,0.00597507330045,-0.00177977694095,0.634926948877,0.772547021535
1385574684245761233,1177470,1385574684245761233,/world,vicon/Archie/Archie,-1.26576243418,-0.508052113486,0.110278726621,0.00602024683909,-0.00180273106917,0.634920988249,0.772551516386
1385574684255759029,1177471,1385574684255759029,/world,vicon/Archie/Archie,-1.26576206616,-0.508070485911,0.110291922848,0.00613811165993,-0.00194037817183,0.634941515484,0.772533384672
1385574684265760692,1177472,1385574684265760692,/world,vicon/Archie/Archie,-1.26578661849,-0.508077465852,0.110312131859,0.00614518865807,-0.00191673329064,0.634957916057,0.772519907592
1385574684275809996,1177473,1385574684275809996,/world,vicon/Archie/Archie,-1.26575159499,-0.508041925862,0.110246229554,0.0059639942246,-0.00176903224966,0.634919213541,0.772553489135
1385574684285713774,1177474,1385574684285713774,/world,vicon/Archie/Archie,-1.26576270641,-0.508052951938,0.110277313358,0.00597645459342,-0.00178217821568,0.63491375079,0.772557852131
1385574684295736507,1177475,1385574684295736507,/world,vicon/Archie/Archie,-1.26577965195,-0.508074797757,0.110297696851,0.00612704244405,-0.00193211039838,0.634953116916,0.772523957958
1385574684305830698,1177476,1385574684305830698,/world,vicon/Archie/Archie,-1.26573878737,-0.508042866689,0.110252636142,0.00595649920027,-0.00177544465985,0.634906664358,0.772563845561
1385574684315651855,1177477,1385574684315651855,/world,vicon/Archie/Archie,-1.26574862232,-0.50804589688,0.110244174546,0.00597042283569,-0.00178973091928,0.634907334287,0.77256315456
1385574684325852644,1177478,1385574684325852644,/world,vicon/Archie/Archie,-1.26576071659,-0.508057137417,0.110270543588,0.00597489571682,-0.00177477247218,0.634911321342,0.772559877832
1385574684335919984,1177479,1385574684335919984,/world,vicon/Archie/Archie,-1.26574703987,-0.508047070406,0.110251685253,0.00596280851445,-0.00177923434992,0.634914666366,0.772557211909
1385574684345822985,1177480,1385574684345822985,/world,vicon/Archie/Archie,-1.26576278365,-0.508054925945,0.110275232895,0.00597913461861,-0.00178556306681,0.634911659886,0.772559541948
1385574684356403739,1177481,1385574684356403739,/world,vicon/Archie/Archie,-1.26575354947,-0.508052705638,0.110265860964,0.00599526213013,-0.00179885294567,0.634916996171,0.772555000588
1385574684365928913,1177482,1385574684365928913,/world,vicon/Archie/Archie,-1.26576455205,-0.508057450072,0.110274655103,0.0059964350619,-0.00179156624659,0.634929132063,0.77254503449
1385574684375738374,1177483,1385574684375738374,/world,vicon/Archie/Archie,-1.26577832378,-0.508077202249,0.110297409355,0.00612963859772,-0.00192442004609,0.634946951448,0.77252902404
1385574684385812271,1177484,1385574684385812271,/world,vicon/Archie/Archie,-1.26578699171,-0.508077243064,0.110313877149,0.00614008624356,-0.00193790901458,0.634955718182,0.77252170183
1385574684395874989,1177485,1385574684395874989,/world,vicon/Archie/Archie,-1.26576242799,-0.508046930743,0.110275676325,0.0060013176685,-0.00178704104993,0.634919725609,0.772552737814
1385574684405732630,1177486,1385574684405732630,/world,vicon/Archie/Archie,-1.26578675828,-0.508084670206,0.110314393694,0.00612939249587,-0.00193451094499,0.634966222669,0.772513161237
1385574684415897895,1177487,1385574684415897895,/world,vicon/Archie/Archie,-1.26577460965,-0.508070069874,0.110296277031,0.0060986920378,-0.00192872487979,0.634952651355,0.772524573404
1385574684425883796,1177488,1385574684425883796,/world,vicon/Archie/Archie,-1.26574962284,-0.507980752665,0.110232597406,0.00590909201807,-0.0017173025245,0.634897658374,0.772571742231
1385574684435800276,1177489,1385574684435800276,/world,vicon/Archie/Archie,-1.26579506591,-0.508075411803,0.110317713945,0.00615424548063,-0.00194144101758,0.634957130964,0.772520419088
1385574684445929401,1177490,1385574684445929401,/world,vicon/Archie/Archie,-1.26577925421,-0.508068456346,0.110288592476,0.00610942822709,-0.00191661524139,0.634952630496,0.772524535856
1385574684455877550,1177491,1385574684455877550,/world,vicon/Archie/Archie,-1.26576281981,-0.508057052675,0.110276890302,0.00598442437893,-0.00179137447555,0.634922394618,0.772550665299
1385574684465644517,1177492,1385574684465644517,/world,vicon/Archie/Archie,-1.26577646616,-0.50806772313,0.110289299327,0.00609874970686,-0.00190438102007,0.634955179627,0.772522555301
1385574684475864102,1177493,1385574684475864102,/world,vicon/Archie/Archie,-1.26575170113,-0.508042106906,0.110253276937,0.00597057940646,-0.00175961732694,0.6349132137,0.772558390672
1385574684486251604,1177494,1385574684486251604,/world,vicon/Archie/Archie,-1.26575254267,-0.508052253393,0.110271737052,0.00597028359329,-0.00178923040864,0.634920249935,0.772552542285
1385574684495744285,1177495,1385574684495744285,/world,vicon/Archie/Archie,-1.26577586009,-0.508064345234,0.110290961531,0.00611389839948,-0.00190060178718,0.634947095953,0.772529088967
1385574684505725051,1177496,1385574684505725051,/world,vicon/Archie/Archie,-1.26577306904,-0.50806916726,0.11029365256,0.00611949125095,-0.00192155290864,0.634948028876,0.772528226079
1385574684515692522,1177497,1385574684515692522,/world,vicon/Archie/Archie,-1.26577953688,-0.508073030267,0.110296413268,0.00610038685293,-0.00192767678784,0.634944896226,0.772530936662
1385574684525816152,1177498,1385574684525816152,/world,vicon/Archie/Archie,-1.26573941947,-0.508050658657,0.110247827963,0.00599360690157,-0.00180324055857,0.634913031248,0.772558261719
1385574684535763184,1177499,1385574684535763184,/world,vicon/Archie/Archie,-1.2657776885,-0.508072620774,0.11029276079,0.00612302260116,-0.00192013990624,0.634953080695,0.772524049446
1385574684545870828,1177500,1385574684545870828,/world,vicon/Archie/Archie,-1.26574240649,-0.508045846703,0.11025229991,0.00594597969019,-0.00176874427429,0.634900683155,0.772568857383
1385574684555911523,1177501,1385574684555911523,/world,vicon/Archie/Archie,-1.26577877372,-0.508069909216,0.110295667057,0.00614034613026,-0.0019302931634,0.634951648118,0.772525064105
1385574684565735680,1177502,1385574684565735680,/world,vicon/Archie/Archie,-1.26575378342,-0.508046698362,0.110255001611,0.00597178405881,-0.00177100863356,0.634919971832,0.772552801233
1385574684576115717,1177503,1385574684576115717,/world,vicon/Archie/Archie,-1.26575726581,-0.508046628257,0.110267438128,0.00597503119173,-0.00178470259831,0.634919955408,0.77255275811
1385574684585975136,1177504,1385574684585975136,/world,vicon/Archie/Archie,-1.26579147279,-0.508078320837,0.110314509378,0.00614494075919,-0.00192436510082,0.634962091317,0.772516458797
1385574684595791991,1177505,1385574684595791991,/world,vicon/Archie/Archie,-1.26575595886,-0.507975675738,0.110236465517,0.00591682034461,-0.00172374835767,0.634897020076,0.772572193278
1385574684605763614,1177506,1385574684605763614,/world,vicon/Archie/Archie,-1.26574864369,-0.508048634477,0.110253176685,0.00597487542154,-0.00176796091727,0.634921099193,0.772551857792
1385574684615749795,1177507,1385574684615749795,/world,vicon/Archie/Archie,-1.26574620679,-0.508047585391,0.110245944862,0.00595229798055,-0.00175292813087,0.634909939,0.772561238188
1385574684625762797,1177508,1385574684625762797,/world,vicon/Archie/Archie,-1.26577951051,-0.508002909308,0.110275221525,0.00605791648724,-0.00188599437454,0.634940367365,0.772535096007
1385574684636419222,1177509,1385574684636419222,/world,vicon/Archie/Archie,-1.26577000605,-0.508070845744,0.110294500008,0.00610213895459,-0.00190825381422,0.634938464325,0.772536257394
1385574684645889492,1177510,1385574684645889492,/world,vicon/Archie/Archie,-1.26574937248,-0.508045356719,0.110249412434,0.00596120722559,-0.00177386816091,0.634917942412,0.772554544226
1385574684655777675,1177511,1385574684655777675,/world,vicon/Archie/Archie,-1.26575077419,-0.508043137919,0.110250087232,0.00596402761595,-0.0017700202093,0.634906736672,0.772563740497
1385574684665772641,1177512,1385574684665772641,/world,vicon/Archie/Archie,-1.26574912818,-0.50804132208,0.11024991812,0.00594958105492,-0.0017664706396,0.634906448956,0.772564096461
1385574684675879280,1177513,1385574684675879280,/world,vicon/Archie/Archie,-1.26576001042,-0.50805779175,0.110267039069,0.00596804904705,-0.00175899395225,0.634918089021,0.772554404922
1385574684685882391,1177514,1385574684685882391,/world,vicon/Archie/Archie,-1.26577682707,-0.508069318321,0.110291300788,0.00611603401068,-0.00192912574508,0.634945550431,0.772530271633
1385574684695850136,1177515,1385574684695850136,/world,vicon/Archie/Archie,-1.26576024999,-0.508059007845,0.110270425677,0.00597500378951,-0.00177244157905,0.63491828407,0.77255416013
1385574684705821109,1177516,1385574684705821109,/world,vicon/Archie/Archie,-1.26578343068,-0.508065964339,0.11029370794,0.00614159866461,-0.00193566725841,0.634955453289,0.77252191315
1385574684715943079,1177517,1385574684715943079,/world,vicon/Archie/Archie,-1.26575141053,-0.508034349307,0.110247079703,0.00595723529757,-0.00175190622806,0.634917103635,0.77255531432
1385574684730192417,1177518,1385574684730192417,/world,vicon/Archie/Archie,-1.26574861835,-0.508038658614,0.110253795567,0.00595861344042,-0.00176267406579,0.634905162804,0.772565092501
1385574684736022334,1177519,1385574684736022334,/world,vicon/Archie/Archie,-1.26574548068,-0.508046397463,0.110249304916,0.00596297193546,-0.00176984359801,0.634910446832,0.77256069996
1385574684745897195,1177520,1385574684745897195,/world,vicon/Archie/Archie,-1.2657743334,-0.508068773793,0.110290457713,0.00612197208763,-0.00192063113787,0.634952236807,0.772524750159
1385574684755823623,1177521,1385574684755823623,/world,vicon/Archie/Archie,-1.26578530038,-0.508076583751,0.110312180328,0.00613335787792,-0.0019323487859,0.634952628662,0.772524308553
1385574684766191980,1177522,1385574684766191980,/world,vicon/Archie/Archie,-1.26577607578,-0.508066207514,0.110291988827,0.00610757920565,-0.00191739426305,0.634950357938,0.772526416396
1385574684775908575,1177523,1385574684775908575,/world,vicon/Archie/Archie,-1.26579668393,-0.508013901767,0.110302512459,0.00607676746588,-0.00187993572728,0.634939367294,0.772535784672
1385574684786058341,1177524,1385574684786058341,/world,vicon/Archie/Archie,-1.26575101687,-0.508047277969,0.110250222597,0.00596184848692,-0.001767394675,0.634911622666,0.772559747905
1385574684795757043,1177525,1385574684795757043,/world,vicon/Archie/Archie,-1.2657466118,-0.508045888753,0.110248460773,0.00596941703725,-0.00176203444994,0.634909798535,0.772561200824
1385574684805977629,1177526,1385574684805977629,/world,vicon/Archie/Archie,-1.26577210553,-0.508069349436,0.110293560624,0.00611589740613,-0.00193169017706,0.634941415325,0.772533664947
1385574684815794864,1177527,1385574684815794864,/world,vicon/Archie/Archie,-1.26576285704,-0.508058747878,0.110275902194,0.00597390907084,-0.00178980059559,0.634915733352,0.772556224858
1385574684825776545,1177528,1385574684825776545,/world,vicon/Archie/Archie,-1.26577989732,-0.508069616238,0.110296514341,0.00612266237128,-0.00192381557634,0.634948410848,0.772527881374
1385574684835941657,1177529,1385574684835941657,/world,vicon/Archie/Archie,-1.26577945245,-0.508074169454,0.110295572155,0.00612719129239,-0.00191152892667,0.634947980202,0.772528229919
1385574684845789492,1177530,1385574684845789492,/world,vicon/Archie/Archie,-1.26575829704,-0.508046286038,0.110270129108,0.00598853071656,-0.00178281957861,0.634912332857,0.772558922439
1385574684856302411,1177531,1385574684856302411,/world,vicon/Archie/Archie,-1.26574330885,-0.508040114647,0.110248042602,0.0059573271575,-0.00177512132077,0.634918051129,0.772554481928
1385574684865669902,1177532,1385574684865669902,/world,vicon/Archie/Archie,-1.26577838148,-0.508063299891,0.110292725342,0.00611163884534,-0.00191492113517,0.634944696292,0.772531043777
1385574684875856749,1177533,1385574684875856749,/world,vicon/Archie/Archie,-1.26574730949,-0.50804840275,0.110252537039,0.0059770723332,-0.00177739310544,0.634912448617,0.772558928543
1385574684885801553,1177534,1385574684885801553,/world,vicon/Archie/Archie,-1.26576275514,-0.508050448753,0.110265884203,0.00599420664584,-0.00177566606265,0.634920298474,0.772552348442
1385574684895780577,1177535,1385574684895780577,/world,vicon/Archie/Archie,-1.26578446612,-0.508079542969,0.110318340887,0.00613615518072,-0.00194592971093,0.634956821605,0.772520805968
1385574684905900020,1177536,1385574684905900020,/world,vicon/Archie/Archie,-1.2657461624,-0.507985821281,0.110240016994,0.00591887137781,-0.00173982373594,0.634891886998,0.77257635985
1385574684915644105,1177537,1385574684915644105,/world,vicon/Archie/Archie,-1.26575160196,-0.507980257176,0.110237550376,0.00592064133308,-0.00170710301487,0.634897189858,0.772572061438
1385574684926205095,1177538,1385574684926205095,/world,vicon/Archie/Archie,-1.26576265493,-0.508057486966,0.110270604872,0.00596692385986,-0.00177101831978,0.634914542648,0.772557300689
1385574684935656540,1177539,1385574684935656540,/world,vicon/Archie/Archie,-1.26576636527,-0.508054746283,0.110280978279,0.00600505634323,-0.00179805465372,0.634916657509,0.772555204704
1385574684945811851,1177540,1385574684945811851,/world,vicon/Archie/Archie,-1.26576156476,-0.508049005755,0.110273500421,0.00598014331242,-0.0017811766427,0.634923517521,0.772549799168
1385574684955757125,1177541,1385574684955757125,/world,vicon/Archie/Archie,-1.26575485154,-0.508052200155,0.110273933889,0.00602376042006,-0.00182693961724,0.634910434012,0.772560106001
1385574684965678516,1177542,1385574684965678516,/world,vicon/Archie/Archie,-1.26579409957,-0.508078642523,0.110322652023,0.00616190178665,-0.00196637483965,0.634953854455,0.77252298804
1385574684976160871,1177543,1385574684976160871,/world,vicon/Archie/Archie,-1.26575119015,-0.508041999042,0.110250279207,0.00595345230001,-0.00176261901562,0.634912622857,0.772559001577
1385574684985827489,1177544,1385574684985827489,/world,vicon/Archie/Archie,-1.26577920687,-0.508007027918,0.110278194538,0.00606005243547,-0.00186730058944,0.634937403986,0.772537560234
1385574684995796096,1177545,1385574684995796096,/world,vicon/Archie/Archie,-1.26574939896,-0.508046192914,0.110247113715,0.00596033688644,-0.00178171135142,0.634903587385,0.772566330236
1385574685005795528,1177546,1385574685005795528,/world,vicon/Archie/Archie,-1.26575019642,-0.508043894726,0.110256823972,0.00599142472727,-0.00179238009616,0.634912566833,0.772558685591
1385574685015760644,1177547,1385574685015760644,/world,vicon/Archie/Archie,-1.26577673766,-0.508074066803,0.110293245719,0.00612837479778,-0.00192655060957,0.634955114588,0.772522319343
1385574685025878786,1177548,1385574685025878786,/world,vicon/Archie/Archie,-1.26576248008,-0.508049865933,0.110275637569,0.00597752404614,-0.00177239148074,0.634913066693,0.772558428585
1385574685035890071,1177549,1385574685035890071,/world,vicon/Archie/Archie,-1.26579558219,-0.508012174,0.110304886588,0.00607912117599,-0.00189722937715,0.634939716888,0.772535436549
1385574685045812520,1177550,1385574685045812520,/world,vicon/Archie/Archie,-1.26574082865,-0.508045088375,0.110254149374,0.00595382306469,-0.00177801674003,0.634902910434,0.772566945299
1385574685055869631,1177551,1385574685055869631,/world,vicon/Archie/Archie,-1.26576379057,-0.508050359082,0.110273141095,0.00598658204034,-0.00179619359517,0.634912262491,0.772558964392
1385574685066587362,1177552,1385574685066587362,/world,vicon/Archie/Archie,-1.26574341174,-0.508042742035,0.110247904581,0.00595256936092,-0.0017667762365,0.634909630591,0.77256145801
1385574685075851537,1177553,1385574685075851537,/world,vicon/Archie/Archie,-1.26574643313,-0.508038075904,0.110256910292,0.00598045458604,-0.00179111888423,0.634911016503,0.77256004762
1385574685085816097,1177554,1385574685085816097,/world,vicon/Archie/Archie,-1.26575954469,-0.508054116549,0.110273016012,0.00598661286846,-0.00177702825906,0.634916485347,0.772555537985
1385574685095832558,1177555,1385574685095832558,/world,vicon/Archie/Archie,-1.26575000027,-0.508044252229,0.110255709809,0.00598701975342,-0.00179582170002,0.634910518557,0.772560395079
1385574685105727217,1177556,1385574685105727217,/world,vicon/Archie/Archie,-1.26574830035,-0.508050820491,0.110247692094,0.00596097965967,-0.00175031575188,0.634913566515,0.772558195977
1385574685115665693,1177557,1385574685115665693,/world,vicon/Archie/Archie,-1.26574281428,-0.508042833654,0.110250525138,0.00596448311643,-0.00178113189319,0.634912982431,0.772558578524
1385574685125774350,1177558,1385574685125774350,/world,vicon/Archie/Archie,-1.26574805308,-0.508053287634,0.110251050348,0.00596244196976,-0.00176262266204,0.63492302709,0.772550381605
1385574685135902730,1177559,1385574685135902730,/world,vicon/Archie/Archie,-1.26578973862,-0.508078155292,0.110321292,0.00615782954035,-0.00194941255933,0.63494882048,0.772527201008
1385574685145929379,1177560,1385574685145929379,/world,vicon/Archie/Archie,-1.26574822487,-0.508040420625,0.110250501207,0.00596088722891,-0.00176659290472,0.634909568981,0.772561444928
1385574685155714514,1177561,1385574685155714514,/world,vicon/Archie/Archie,-1.2657766249,-0.508016223119,0.110279201249,0.00605634136717,-0.00187661214713,0.63494368158,0.772532407267
1385574685165727925,1177562,1385574685165727925,/world,vicon/Archie/Archie,-1.26576603062,-0.507990503413,0.110259915354,0.00592603476567,-0.00173466475059,0.634897060576,0.772572064938
1385574685175887385,1177563,1385574685175887385,/world,vicon/Archie/Archie,-1.26575648745,-0.508055019944,0.110268596341,0.00597467255209,-0.00177451003693,0.634910617424,0.77256045866
1385574685185840991,1177564,1385574685185840991,/world,vicon/Archie/Archie,-1.26576511091,-0.508052660746,0.110272934407,0.00596904746285,-0.00177407615157,0.634917571128,0.772554788347
1385574685195727987,1177565,1385574685195727987,/world,vicon/Archie/Archie,-1.26577201993,-0.508067208345,0.110289999844,0.00610334588624,-0.0019052256389,0.634947640101,0.77252871378
1385574685205806915,1177566,1385574685205806915,/world,vicon/Archie/Archie,-1.26576052679,-0.508045253095,0.110272064066,0.00597682248403,-0.00178469661323,0.634917418028,0.772554829598
1385574685215683121,1177567,1385574685215683121,/world,vicon/Archie/Archie,-1.26576524164,-0.508053414258,0.110277495077,0.00601134900671,-0.00181329356551,0.634915213216,0.772556307123
1385574685225784137,1177568,1385574685225784137,/world,vicon/Archie/Archie,-1.26574636192,-0.508041020455,0.11024939256,0.00598012713096,-0.00176534352852,0.634913754141,0.772557859609
1385574685235849682,1177569,1385574685235849682,/world,vicon/Archie/Archie,-1.26575983367,-0.507989688444,0.11025408805,0.0059198883316,-0.00172597011083,0.634899811855,0.772569870533
1385574685245889483,1177570,1385574685245889483,/world,vicon/Archie/Archie,-1.26576027709,-0.508052381342,0.110275309759,0.00597522500407,-0.00178395142444,0.634915344687,0.772556547629
1385574685256405901,1177571,1385574685256405901,/world,vicon/Archie/Archie,-1.26574813404,-0.508050416246,0.110256557431,0.00597431175233,-0.00177511157776,0.63491611489,0.772555942072
1385574685265919905,1177572,1385574685265919905,/world,vicon/Archie/Archie,-1.26575819356,-0.508055279342,0.110270783265,0.00597598032443,-0.00177463686473,0.634912319177,0.772559049704
1385574685275787912,1177573,1385574685275787912,/world,vicon/Archie/Archie,-1.2657431786,-0.508041857923,0.110242002872,0.00595007820165,-0.00174604279718,0.634916023079,0.772556270793
1385574685285897986,1177574,1385574685285897986,/world,vicon/Archie/Archie,-1.26579112337,-0.508078705644,0.110317845223,0.00614683327805,-0.00193262426269,0.63496371777,0.772515086273
1385574685295894445,1177575,1385574685295894445,/world,vicon/Archie/Archie,-1.26575795561,-0.508051384807,0.110270706966,0.00597684043788,-0.00177705844035,0.634915543735,0.772556387434
1385574685305776660,1177576,1385574685305776660,/world,vicon/Archie/Archie,-1.2657512676,-0.508038372462,0.110247053687,0.00595701201736,-0.00177847764211,0.634909329068,0.772561644717
1385574685316725129,1177577,1385574685316725129,/world,vicon/Archie/Archie,-1.26575633366,-0.508049058383,0.110272152025,0.00599547451491,-0.00179336441591,0.634924002796,0.772549253319
1385574685325842292,1177578,1385574685325842292,/world,vicon/Archie/Archie,-1.26575279669,-0.508039503045,0.110252394002,0.00598665705854,-0.00179929898349,0.63490085757,0.772568329352
1385574685335793193,1177579,1385574685335793193,/world,vicon/Archie/Archie,-1.26577603425,-0.508066791312,0.110295619833,0.00613603783443,-0.00194428432976,0.634951872414,0.772524878898
1385574685345842472,1177580,1385574685345842472,/world,vicon/Archie/Archie,-1.26575995055,-0.508049906688,0.110269501317,0.00597676415671,-0.00176622525709,0.634914258404,0.772557469198
1385574685355738723,1177581,1385574685355738723,/world,vicon/Archie/Archie,-1.26575455513,-0.508049722417,0.11025014882,0.00595630156812,-0.00176233356162,0.634913775404,0.772558033066
1385574685365725541,1177582,1385574685365725541,/world,vicon/Archie/Archie,-1.26577721416,-0.508005626292,0.110282043024,0.00606429187869,-0.00188403223288,0.634936541646,0.772538195087
1385574685375941969,1177583,1385574685375941969,/world,vicon/Archie/Archie,-1.26574673105,-0.508041917022,0.110244043293,0.00595030375851,-0.00175107082842,0.634904448488,0.772565769968
1385574685386435686,1177584,1385574685386435686,/world,vicon/Archie/Archie,-1.2657502558,-0.508037080304,0.110257964441,0.00599209314079,-0.00177268179172,0.63491999969,0.772552617245
1385574685395967793,1177585,1385574685395967793,/world,vicon/Archie/Archie,-1.26578137942,-0.508067206597,0.110293797627,0.00612217846981,-0.0019109893465,0.634957481789,0.772520461458
1385574685405827248,1177586,1385574685405827248,/world,vicon/Archie/Archie,-1.26578893714,-0.508074600919,0.110319446582,0.00612641982656,-0.00194833507523,0.634952494959,0.772524433345
1385574685415899713,1177587,1385574685415899713,/world,vicon/Archie/Archie,-1.26577596981,-0.508065194696,0.110291628813,0.00610094411054,-0.00191576569897,0.634939851017,0.772535108531
1385574685427938887,1177588,1385574685427938887,/world,vicon/Archie/Archie,-1.26573941725,-0.508040358376,0.110250042693,0.00597523046407,-0.00178761247363,0.63492137645,0.772551581961
1385574685435783724,1177589,1385574685435783724,/world,vicon/Archie/Archie,-1.26580193543,-0.508009840784,0.110301417878,0.00607222704739,-0.00187769597489,0.634929144429,0.772544227777
1385574685445880667,1177590,1385574685445880667,/world,vicon/Archie/Archie,-1.26576125081,-0.508053914779,0.110278135008,0.00599269655904,-0.0017923741986,0.634919259442,0.772553175498
1385574685455772065,1177591,1385574685455772065,/world,vicon/Archie/Archie,-1.26576126556,-0.50805314451,0.110271665798,0.0059876611095,-0.0017868286573,0.634912468467,0.772558808469
1385574685465703427,1177592,1385574685465703427,/world,vicon/Archie/Archie,-1.26574703696,-0.508044283522,0.110261459417,0.00598122305977,-0.00178735836919,0.634903126812,0.772566534277
1385574685475864686,1177593,1385574685475864686,/world,vicon/Archie/Archie,-1.26578631407,-0.508082793871,0.110314301282,0.00612858290004,-0.00193396807243,0.634960929791,0.772517519463
1385574685485920661,1177594,1385574685485920661,/world,vicon/Archie/Archie,-1.2657484411,-0.508041771528,0.110251119422,0.00596712562282,-0.00177143117916,0.634916959198,0.772555312173
1385574685495848587,1177595,1385574685495848587,/world,vicon/Archie/Archie,-1.26576024501,-0.508054293376,0.110269816987,0.00598700828337,-0.00178224602076,0.634917759624,0.772554475649
1385574685505783071,1177596,1385574685505783071,/world,vicon/Archie/Archie,-1.2657755294,-0.508070905989,0.110293834735,0.00611157494853,-0.00191701914914,0.634951312405,0.772525601235
1385574685515790114,1177597,1385574685515790114,/world,vicon/Archie/Archie,-1.26575002826,-0.508044367547,0.11025217563,0.0059630681464,-0.00176873477394,0.634911605073,0.772559749883
1385574685525832605,1177598,1385574685525832605,/world,vicon/Archie/Archie,-1.26573757113,-0.508047837155,0.110246689362,0.00593546893609,-0.00175028140145,0.634906300285,0.772564364039
1385574685535939375,1177599,1385574685535939375,/world,vicon/Archie/Archie,-1.26575019531,-0.50804530455,0.11025162154,0.0059548721781,-0.00177263583898,0.634913584148,0.772558177695
1385574685545844157,1177600,1385574685545844157,/world,vicon/Archie/Archie,-1.2657495533,-0.508040068487,0.110248927905,0.00596719070469,-0.00178719476936,0.63490756525,0.772562995592
1385574685555724671,1177601,1385574685555724671,/world,vicon/Archie/Archie,-1.26578069018,-0.508067047809,0.110292210207,0.00613963634035,-0.00192056873094,0.634953184996,0.772523830794
1385574685565773108,1177602,1385574685565773108,/world,vicon/Archie/Archie,-1.26575684005,-0.508062892272,0.11027309748,0.0059916772586,-0.0017919787177,0.634922991106,0.772550117455
1385574685575734328,1177603,1385574685575734328,/world,vicon/Archie/Archie,-1.26578020581,-0.508061463321,0.110294512162,0.00611344685611,-0.00192635715873,0.634950456621,0.772526266578
1385574685585896947,1177604,1385574685585896947,/world,vicon/Archie/Archie,-1.26576112171,-0.508051823887,0.110273395498,0.00598570398002,-0.00178252927341,0.63491121962,0.772559859906
1385574685596152727,1177605,1385574685596152727,/world,vicon/Archie/Archie,-1.26577133677,-0.508068608867,0.110290500368,0.00613044114275,-0.0019324558822,0.634950745572,0.772525879181
1385574685605855167,1177606,1385574685605855167,/world,vicon/Archie/Archie,-1.26575234878,-0.508038438586,0.110249726681,0.00596037788553,-0.00177045360443,0.634913278188,0.77255839169
1385574685615730573,1177607,1385574685615730573,/world,vicon/Archie/Archie,-1.26579430657,-0.508072327692,0.110314971724,0.00613826781814,-0.00193466714369,0.634955665327,0.772521767849
1385574685625916964,1177608,1385574685625916964,/world,vicon/Archie/Archie,-1.265769974,-0.508053470682,0.110276508831,0.00598625471717,-0.00178266134828,0.634918129391,0.77255417664
1385574685635778620,1177609,1385574685635778620,/world,vicon/Archie/Archie,-1.26575671533,-0.508059747339,0.110272144553,0.00599069341685,-0.00178021018771,0.634921571958,0.772551318623
1385574685645703342,1177610,1385574685645703342,/world,vicon/Archie/Archie,-1.26577036313,-0.508050349342,0.110278458851,0.00598713617369,-0.00179198615639,0.634921694686,0.77255121811
1385574685655723545,1177611,1385574685655723545,/world,vicon/Archie/Archie,-1.26579406826,-0.508077479438,0.110315550165,0.00614785036834,-0.00193581174712,0.634957560922,0.772520130739
1385574685665775326,1177612,1385574685665775326,/world,vicon/Archie/Archie,-1.26577949668,-0.508068675127,0.110295604006,0.00611136954296,-0.00192315775481,0.634953892139,0.772523467271
1385574685675861428,1177613,1385574685675861428,/world,vicon/Archie/Archie,-1.26574960451,-0.508046232504,0.110251042412,0.00597328163565,-0.00177975378951,0.634915846104,0.772556160256
1385574685685779041,1177614,1385574685685779041,/world,vicon/Archie/Archie,-1.26574877939,-0.508042465204,0.110250336776,0.00595821228678,-0.00175803171025,0.634912009533,0.772559479381
1385574685695825650,1177615,1385574685695825650,/world,vicon/Archie/Archie,-1.26576285831,-0.508055030698,0.110274278446,0.00598770073117,-0.00178836576743,0.634922221741,0.772550788963
1385574685705717540,1177616,1385574685705717540,/world,vicon/Archie/Archie,-1.26574064683,-0.508047038609,0.110249294495,0.00599137258316,-0.00179406858314,0.634917444753,0.772554673224
1385574685715626804,1177617,1385574685715626804,/world,vicon/Archie/Archie,-1.26577498729,-0.508003123747,0.110269922008,0.00606545709491,-0.00185658293292,0.634935892412,0.772538785988
1385574685725941347,1177618,1385574685725941347,/world,vicon/Archie/Archie,-1.26576927147,-0.508054316297,0.110273944418,0.00597907218189,-0.00178501082976,0.634914754562,0.772557000403
1385574685735842787,1177619,1385574685735842787,/world,vicon/Archie/Archie,-1.2657407542,-0.508041457696,0.110246194161,0.0059512918427,-0.0017524707005,0.634909437035,0.772561659504
1385574685745777956,1177620,1385574685745777956,/world,vicon/Archie/Archie,-1.26577296633,-0.508070302808,0.110291805658,0.00613620656906,-0.00194970596863,0.634947717663,0.772528278738
1385574685756223153,1177621,1385574685756223153,/world,vicon/Archie/Archie,-1.26575580772,-0.50804391132,0.110251528769,0.00597242238316,-0.0017612137529,0.634914058218,0.772557678736
1385574685765670332,1177622,1385574685765670332,/world,vicon/Archie/Archie,-1.26574706375,-0.508041273098,0.110246514626,0.00595419273011,-0.00176384056969,0.634910827604,0.772560468472
1385574685775731929,1177623,1385574685775731929,/world,vicon/Archie/Archie,-1.26577358047,-0.508066522059,0.110290322369,0.00612477099362,-0.00192358003518,0.634948421253,0.772527856694
1385574685785848066,1177624,1385574685785848066,/world,vicon/Archie/Archie,-1.26575443119,-0.508055018287,0.110277585921,0.00599870900094,-0.00178323135078,0.634916110873,0.772555737621
1385574685795777040,1177625,1385574685795777040,/world,vicon/Archie/Archie,-1.26577426509,-0.508072037011,0.110295079963,0.00610959349254,-0.00193166129477,0.634950887795,0.772525929429
1385574685805670122,1177626,1385574685805670122,/world,vicon/Archie/Archie,-1.26577367919,-0.508063282285,0.110294997326,0.00612179272078,-0.00193131301782,0.634952737376,0.772524313522
1385574685815747887,1177627,1385574685815747887,/world,vicon/Archie/Archie,-1.26575615294,-0.508043827123,0.110258198509,0.00596994224026,-0.00174929539843,0.634910170901,0.772560919696
1385574685825817097,1177628,1385574685825817097,/world,vicon/Archie/Archie,-1.26574990895,-0.508041424888,0.110249542846,0.00597619588503,-0.00177881835598,0.634907953397,0.77256262633
1385574685835886220,1177629,1385574685835886220,/world,vicon/Archie/Archie,-1.26576447572,-0.50805487352,0.110279735883,0.00597949918242,-0.00179467008003,0.634926573003,0.772547261754
1385574685845764265,1177630,1385574685845764265,/world,vicon/Archie/Archie,-1.26574704091,-0.508039997725,0.110255230205,0.00596666627665,-0.00176330748428,0.634912756048,0.772558788603
1385574685855842578,1177631,1385574685855842578,/world,vicon/Archie/Archie,-1.2657727318,-0.508069175943,0.110290991855,0.00613151095966,-0.00192086734122,0.634947630418,0.772528459973
1385574685865717487,1177632,1385574685865717487,/world,vicon/Archie/Archie,-1.26574194635,-0.508045996706,0.110247947945,0.00596129703004,-0.00176693211768,0.634905495807,0.772564788404
1385574685875834074,1177633,1385574685875834074,/world,vicon/Archie/Archie,-1.26574750684,-0.508042917457,0.11024631649,0.00596350511875,-0.0017667212135,0.634914616472,0.772557276254
1385574685885808041,1177634,1385574685885808041,/world,vicon/Archie/Archie,-1.2657759749,-0.508071694145,0.110288960527,0.00612989553454,-0.0019214251351,0.634953639,0.772523532863
1385574685895827517,1177635,1385574685895827517,/world,vicon/Archie/Archie,-1.2657550733,-0.50805946898,0.110268914777,0.00597727968077,-0.00178341359962,0.634912978091,0.772558477926
1385574685905727760,1177636,1385574685905727760,/world,vicon/Archie/Archie,-1.26576760156,-0.508068962493,0.110288702386,0.00613409949076,-0.00193151880827,0.634943864121,0.772531508402
1385574685915665243,1177637,1385574685915665243,/world,vicon/Archie/Archie,-1.26578386656,-0.50806605634,0.110291830913,0.0061173506062,-0.00191320378839,0.634952082159,0.772524932306
1385574685925874109,1177638,1385574685925874109,/world,vicon/Archie/Archie,-1.26575817171,-0.508048199769,0.110270386666,0.00598889153027,-0.00177362667992,0.634914880865,0.772556846765
1385574685935770781,1177639,1385574685935770781,/world,vicon/Archie/Archie,-1.2657782819,-0.508063236698,0.110291290271,0.00611663797669,-0.00191588044673,0.634953118581,0.77252407946
1385574685945884359,1177640,1385574685945884359,/world,vicon/Archie/Archie,-1.2657487926,-0.508039035113,0.110247913587,0.00597359890334,-0.00176821313219,0.634908221259,0.772562450625
1385574685955819212,1177641,1385574685955819212,/world,vicon/Archie/Archie,-1.26574463597,-0.50803580087,0.110245851576,0.00594755743616,-0.00176588373121,0.634912024581,0.772559531206
1385574685965653681,1177642,1385574685965653681,/world,vicon/Archie/Archie,-1.26576882596,-0.508073064093,0.110289784483,0.00611920365926,-0.00194433758396,0.634954142241,0.772523146675
1385574685975825250,1177643,1385574685975825250,/world,vicon/Archie/Archie,-1.26574075877,-0.508048466143,0.110248955811,0.00596336783045,-0.00177462644698,0.634909680286,0.7725613159
1385574685985903976,1177644,1385574685985903976,/world,vicon/Archie/Archie,-1.26575600886,-0.508049810301,0.110276000308,0.00600104779048,-0.0017913897085,0.634915246429,0.772556411015
1385574685995758424,1177645,1385574685995758424,/world,vicon/Archie/Archie,-1.26576282347,-0.508047365827,0.110268808899,0.00599011231463,-0.00178966350767,0.634920624872,0.772552079649
1385574686005807011,1177646,1385574686005807011,/world,vicon/Archie/Archie,-1.26577518105,-0.508065972501,0.110298199146,0.00612028373945,-0.00192478375118,0.634941440015,0.772533627156
1385574686015684322,1177647,1385574686015684322,/world,vicon/Archie/Archie,-1.26578616516,-0.508060464736,0.110286442034,0.00612076570547,-0.00193113724756,0.634943604952,0.772531828125
1385574686025833716,1177648,1385574686025833716,/world,vicon/Archie/Archie,-1.26574837896,-0.508042179864,0.110249484605,0.00597331476204,-0.00177674607517,0.634911597498,0.772559658568
1385574686035896383,1177649,1385574686035896383,/world,vicon/Archie/Archie,-1.26575647527,-0.508052728857,0.110269346701,0.00598585037907,-0.00177986781851,0.634913084556,0.772558332247
1385574686045731838,1177650,1385574686045731838,/world,vicon/Archie/Archie,-1.26577564991,-0.508070424915,0.110292261271,0.0061191496119,-0.00192739626073,0.634947534333,0.772528620697
1385574686055786869,1177651,1385574686055786869,/world,vicon/Archie/Archie,-1.26575131138,-0.508046717823,0.110249762822,0.0059564970332,-0.00176273060383,0.634917080599,0.772555314322
1385574686065673511,1177652,1385574686065673511,/world,vicon/Archie/Archie,-1.26574679074,-0.508044630266,0.110247808911,0.00595178564725,-0.00175846685313,0.634910742302,0.772560569374
1385574686075848370,1177653,1385574686075848370,/world,vicon/Archie/Archie,-1.26574564716,-0.50804070087,0.110249987159,0.00596721048525,-0.00177842243122,0.634908948062,0.772561879258
1385574686085814018,1177654,1385574686085814018,/world,vicon/Archie/Archie,-1.26574888452,-0.508049891153,0.110257128792,0.00597614206583,-0.00176184025494,0.634914284313,0.77255746273
1385574686095763837,1177655,1385574686095763837,/world,vicon/Archie/Archie,-1.26574952556,-0.508048472086,0.110248299248,0.0059881659518,-0.00179415220581,0.634919523904,0.772552989155
1385574686105867488,1177656,1385574686105867488,/world,vicon/Archie/Archie,-1.26577504619,-0.508069957726,0.110293231513,0.00610569104554,-0.00189885884524,0.63494959439,0.772527104674
1385574686115723675,1177657,1385574686115723675,/world,vicon/Archie/Archie,-1.26578548926,-0.508072993361,0.110294087538,0.00613201043272,-0.00191538714905,0.63495692361,0.77252083137
1385574686125892699,1177658,1385574686125892699,/world,vicon/Archie/Archie,-1.26575965487,-0.50804959994,0.110271989825,0.00598597188591,-0.00177653606852,0.634909039166,0.772561663588
1385574686135829829,1177659,1385574686135829829,/world,vicon/Archie/Archie,-1.26574606201,-0.508042486807,0.110249520706,0.00595979747278,-0.00177184866818,0.634913426415,0.772558271152
1385574686145889512,1177660,1385574686145889512,/world,vicon/Archie/Archie,-1.26574985319,-0.508041246487,0.110248367431,0.00596541549709,-0.00178222032251,0.634920846381,0.772552105906
1385574686155750269,1177661,1385574686155750269,/world,vicon/Archie/Archie,-1.26574253206,-0.508042398025,0.110245543756,0.0059626381916,-0.00176651012046,0.634903957195,0.772566043472
1385574686165761633,1177662,1385574686165761633,/world,vicon/Archie/Archie,-1.26578995522,-0.508076350007,0.110315371934,0.00613114721699,-0.00193274522517,0.63495385317,0.77252331866
1385574686175895989,1177663,1385574686175895989,/world,vicon/Archie/Archie,-1.26576210711,-0.508055805914,0.110273187638,0.00599709266361,-0.00179225337428,0.634921050988,0.772551669288
1385574686185849664,1177664,1385574686185849664,/world,vicon/Archie/Archie,-1.26574367522,-0.508043998014,0.110244067654,0.00595248752459,-0.00175678794437,0.63491098192,0.772560370861
1385574686195833766,1177665,1385574686195833766,/world,vicon/Archie/Archie,-1.26575880135,-0.508054757068,0.110271361382,0.00598470396357,-0.00178304096678,0.63491223764,0.772559029834
1385574686205743134,1177666,1385574686205743134,/world,vicon/Archie/Archie,-1.26575676797,-0.507977345869,0.110235915497,0.00591076200858,-0.00172494501362,0.63489982041,0.77256993567
1385574686216323240,1177667,1385574686216323240,/world,vicon/Archie/Archie,-1.26575304691,-0.508039688081,0.110252724338,0.00596362505888,-0.00177392644132,0.634916223244,0.772555938313
1385574686225837399,1177668,1385574686225837399,/world,vicon/Archie/Archie,-1.26574898295,-0.508038000994,0.110250153651,0.00596172191174,-0.00176960668188,0.634908711049,0.772562136659
1385574686235794464,1177669,1385574686235794464,/world,vicon/Archie/Archie,-1.26574915496,-0.508039491296,0.110252804381,0.00596543309802,-0.00177139398247,0.634905184516,0.772565002084
1385574686245834694,1177670,1385574686245834694,/world,vicon/Archie/Archie,-1.2657647486,-0.50805353175,0.110280711466,0.00598394629271,-0.00178162005323,0.634933068927,0.772541918733
1385574686255854968,1177671,1385574686255854968,/world,vicon/Archie/Archie,-1.26577384675,-0.508069808991,0.110285328644,0.00610362674349,-0.00191233445879,0.634952049493,0.77252506986
1385574686266008752,1177672,1385574686266008752,/world,vicon/Archie/Archie,-1.26575229969,-0.50804284035,0.110253374037,0.00597517142806,-0.00176729065381,0.634916920707,0.772555291103
1385574686275869593,1177673,1385574686275869593,/world,vicon/Archie/Archie,-1.26573850727,-0.508043226513,0.110247592548,0.0059651243154,-0.00178012087838,0.63490916483,0.772561713312
1385574686285795724,1177674,1385574686285795724,/world,vicon/Archie/Archie,-1.26577279671,-0.508072553785,0.110289198893,0.00612456755894,-0.0019306423023,0.634951707335,0.772525139814
1385574686295890838,1177675,1385574686295890838,/world,vicon/Archie/Archie,-1.26576254085,-0.508043201202,0.110278486755,0.00598443057623,-0.00179363876382,0.634913254479,0.77255817175
1385574686305812775,1177676,1385574686305812775,/world,vicon/Archie/Archie,-1.26574926559,-0.50803799454,0.110251084797,0.00597053914199,-0.00177095030778,0.634905132598,0.772565006325
1385574686315653418,1177677,1385574686315653418,/world,vicon/Archie/Archie,-1.26574902936,-0.5080438931,0.110253561255,0.00596751769897,-0.00177536335755,0.634913468673,0.772558168758
1385574686325856016,1177678,1385574686325856016,/world,vicon/Archie/Archie,-1.26576248037,-0.507989119908,0.11026151385,0.00591734095652,-0.00172216888413,0.634895747376,0.772573238712
1385574686335890043,1177679,1385574686335890043,/world,vicon/Archie/Archie,-1.2657588648,-0.508038251197,0.110255029293,0.00598503171267,-0.00177590310711,0.634913817235,0.772557745575
1385574686345750340,1177680,1385574686345750340,/world,vicon/Archie/Archie,-1.26578738888,-0.508077676894,0.110315161446,0.00612625448074,-0.00192928627702,0.634951146127,0.772525591092
1385574686355806043,1177681,1385574686355806043,/world,vicon/Archie/Archie,-1.26578670967,-0.508072054313,0.110316605727,0.00612483591877,-0.00193649438462,0.634953273413,0.77252383585
1385574686365662568,1177682,1385574686365662568,/world,vicon/Archie/Archie,-1.26577167741,-0.508077089382,0.110292475478,0.00612892228717,-0.00193160896649,0.634961558268,0.772517006104
1385574686375935554,1177683,1385574686375935554,/world,vicon/Archie/Archie,-1.26574686502,-0.508047767472,0.110251884834,0.0059926141264,-0.00177829312483,0.634913586127,0.772557871231
1385574686385826184,1177684,1385574686385826184,/world,vicon/Archie/Archie,-1.26575102092,-0.508044112458,0.110253522395,0.00596942996526,-0.00178660405447,0.634904146388,0.772565789335
1385574686395736173,1177685,1385574686395736173,/world,vicon/Archie/Archie,-1.26574848387,-0.508041859752,0.110250904295,0.00595370113405,-0.00174738420357,0.634910399172,0.772560861754
1385574686405807866,1177686,1385574686405807866,/world,vicon/Archie/Archie,-1.26574389946,-0.508043770196,0.110246375092,0.00598196819924,-0.0017827849153,0.634916231476,0.772555769341
1385574686415664343,1177687,1385574686415664343,/world,vicon/Archie/Archie,-1.26574436811,-0.508043876001,0.11025453939,0.00596730341908,-0.00177306134533,0.634901012581,0.772568412354
1385574686425806163,1177688,1385574686425806163,/world,vicon/Archie/Archie,-1.26575507501,-0.50797768175,0.110238979269,0.00593115913485,-0.00173170689909,0.634895121281,0.772573625952
1385574686435879990,1177689,1385574686435879990,/world,vicon/Archie/Archie,-1.26575249379,-0.508042613127,0.1102525325,0.00595961948147,-0.00176773880131,0.634914630023,0.772557292774
1385574686445968042,1177690,1385574686445968042,/world,vicon/Archie/Archie,-1.26579334479,-0.508076165513,0.11031618018,0.00614183839062,-0.00192790988365,0.634961011346,0.7725173623
1385574686455791313,1177691,1385574686455791313,/world,vicon/Archie/Archie,-1.2657917927,-0.50807872401,0.110309954333,0.00613334514137,-0.00192534300852,0.634957536693,0.772520292114
1385574686465648725,1177692,1385574686465648725,/world,vicon/Archie/Archie,-1.26578555482,-0.508077359597,0.11031863001,0.00615070510103,-0.00195053993509,0.634963023777,0.77251558085
1385574686475882309,1177693,1385574686475882309,/world,vicon/Archie/Archie,-1.26574098889,-0.507983035729,0.11022940818,0.00593746537701,-0.00175038679552,0.634890741147,0.772577134956
1385574686485924540,1177694,1385574686485924540,/world,vicon/Archie/Archie,-1.26577867135,-0.508067352099,0.110297268023,0.00612705589308,-0.00194201689947,0.63494638932,0.77252946251
1385574686495808151,1177695,1385574686495808151,/world,vicon/Archie/Archie,-1.26575842539,-0.508050381064,0.110273390185,0.00598994531025,-0.00177455258977,0.63491685357,0.772555215224
1385574686505819202,1177696,1385574686505819202,/world,vicon/Archie/Archie,-1.26577356072,-0.508074527468,0.110295912997,0.00611740628461,-0.00193231297344,0.634950224886,0.772526410826
1385574686515777375,1177697,1385574686515777375,/world,vicon/Archie/Archie,-1.26578537502,-0.508083343645,0.110313144271,0.00613776146582,-0.00193968298738,0.634959157151,0.772518889261
1385574686525828214,1177698,1385574686525828214,/world,vicon/Archie/Archie,-1.26575753971,-0.508060203528,0.110272013567,0.00597377432512,-0.00177517387508,0.63492090854,0.772552006454
1385574686535867525,1177699,1385574686535867525,/world,vicon/Archie/Archie,-1.26574951761,-0.508051255852,0.110264609212,0.00597210117316,-0.00174816191653,0.634912535359,0.772558962398
1385574686545720431,1177700,1385574686545720431,/world,vicon/Archie/Archie,-1.26577134682,-0.508069108986,0.110293895897,0.00611822541019,-0.0019288217482,0.634948553845,0.772527786513
1385574686555749979,1177701,1385574686555749979,/world,vicon/Archie/Archie,-1.26577642794,-0.50807195074,0.110294945162,0.00612550069673,-0.0019330252912,0.634957806934,0.772520113051
1385574686565728622,1177702,1385574686565728622,/world,vicon/Archie/Archie,-1.26576089876,-0.508052212473,0.11027189629,0.00597761185939,-0.00179672628625,0.634913836714,0.772557738865
1385574686575815050,1177703,1385574686575815050,/world,vicon/Archie/Archie,-1.26575092182,-0.508043202205,0.110254300584,0.00596635447816,-0.00176425125586,0.63492165806,0.772551472821
1385574686585757767,1177704,1385574686585757767,/world,vicon/Archie/Archie,-1.26578052442,-0.508066196661,0.110293166922,0.00612306624079,-0.00191939089912,0.634950410572,0.772526245582
1385574686595830508,1177705,1385574686595830508,/world,vicon/Archie/Archie,-1.26576080585,-0.508053859185,0.110272400741,0.0059902302292,-0.0017669737275,0.634919874019,0.772552748051
1385574686605790577,1177706,1385574686605790577,/world,vicon/Archie/Archie,-1.26576298347,-0.508055326973,0.110275600123,0.00600557527567,-0.00178453446622,0.634914956739,0.772556629777
1385574686615653385,1177707,1385574686615653385,/world,vicon/Archie/Archie,-1.26574732693,-0.508048687657,0.110249358282,0.00597209046702,-0.0017636471111,0.634913467685,0.77255816107
1385574686625910195,1177708,1385574686625910195,/world,vicon/Archie/Archie,-1.26576678754,-0.508055359951,0.110278196273,0.00599584597679,-0.00180685900693,0.634914680353,0.772556880601
1385574686635809719,1177709,1385574686635809719,/world,vicon/Archie/Archie,-1.26575187539,-0.507982773655,0.110235137199,0.00591763293906,-0.0017380562899,0.634894288281,0.77257439997
1385574686645717219,1177710,1385574686645717219,/world,vicon/Archie/Archie,-1.26575358128,-0.507978094383,0.110235765015,0.00594455243541,-0.00173148349577,0.634907408627,0.772563425702
1385574686655829506,1177711,1385574686655829506,/world,vicon/Archie/Archie,-1.26578026847,-0.508066205774,0.110293972363,0.00612466536155,-0.0019120130645,0.634949511915,0.772526989819
1385574686665828243,1177712,1385574686665828243,/world,vicon/Archie/Archie,-1.26576325689,-0.508050404676,0.110270792902,0.0059689693346,-0.00177443457893,0.63491764079,0.772554730877
1385574686675778141,1177713,1385574686675778141,/world,vicon/Archie/Archie,-1.26574545296,-0.508049451493,0.110253062303,0.00595969499275,-0.00177976537961,0.63491209217,0.772559350268
1385574686685786653,1177714,1385574686685786653,/world,vicon/Archie/Archie,-1.26574658088,-0.508049540304,0.110249326566,0.00596258763385,-0.00177401715158,0.634911591613,0.772559752541
1385574686695720837,1177715,1385574686695720837,/world,vicon/Archie/Archie,-1.26578887034,-0.508071610016,0.110298098238,0.00610863181178,-0.00191444874802,0.63495224681,0.772524862884
1385574686705803281,1177716,1385574686705803281,/world,vicon/Archie/Archie,-1.26578529443,-0.5080652835,0.110299916479,0.00610223922839,-0.00192591937619,0.634947897027,0.77252846004
1385574686715688227,1177717,1385574686715688227,/world,vicon/Archie/Archie,-1.26577478191,-0.508071771501,0.110286675456,0.00610671784645,-0.00191500747387,0.63494795012,0.772528408139
1385574686725799423,1177718,1385574686725799423,/world,vicon/Archie/Archie,-1.26577627239,-0.508002952808,0.110278303572,0.00606126069023,-0.00187562338821,0.634943633668,0.772532410466
1385574686735905164,1177719,1385574686735905164,/world,vicon/Archie/Archie,-1.26574650135,-0.50804345784,0.110251361758,0.00594725893478,-0.00176720347162,0.634909851571,0.772561316325
1385574686745867211,1177720,1385574686745867211,/world,vicon/Archie/Archie,-1.26577587278,-0.508075608077,0.110308802732,0.00613043798646,-0.00193755353896,0.634960452987,0.772517887663
1385574686755795593,1177721,1385574686755795593,/world,vicon/Archie/Archie,-1.26577673389,-0.508072968514,0.110291703939,0.00611002724955,-0.00191788057893,0.634957660666,0.772520393558
1385574686765740458,1177722,1385574686765740458,/world,vicon/Archie/Archie,-1.26575212967,-0.508040954332,0.110252004124,0.00595285709763,-0.00175559032268,0.634906701137,0.77256388878
1385574686775878975,1177723,1385574686775878975,/world,vicon/Archie/Archie,-1.26575733356,-0.508051076984,0.110270955974,0.00598714520126,-0.00178054792678,0.634912332483,0.772558938724
1385574686785769258,1177724,1385574686785769258,/world,vicon/Archie/Archie,-1.26575728015,-0.507979463282,0.110238109975,0.00592648973888,-0.00173224281763,0.63489982237,0.772569797241
1385574686795860773,1177725,1385574686795860773,/world,vicon/Archie/Archie,-1.26574293515,-0.50804759842,0.110252090418,0.00595006490599,-0.00177612302348,0.634902368987,0.772567423575
1385574686805863551,1177726,1385574686805863551,/world,vicon/Archie/Archie,-1.26579114827,-0.508080475345,0.110315271156,0.00612754793653,-0.00193805408921,0.634955209983,0.772522218722
1385574686815661868,1177727,1385574686815661868,/world,vicon/Archie/Archie,-1.26578142371,-0.508008973919,0.110282292372,0.00607501388229,-0.00186722353052,0.634943805929,0.772532181204
1385574686825866768,1177728,1385574686825866768,/world,vicon/Archie/Archie,-1.26574429913,-0.5080478513,0.110252937539,0.00597641003629,-0.00180103663555,0.634903443037,0.772566279881
1385574686835875824,1177729,1385574686835875824,/world,vicon/Archie/Archie,-1.26574918863,-0.508045875891,0.110253132183,0.00597313271462,-0.00176033601443,0.634909116966,0.772561736107
1385574686845743236,1177730,1385574686845743236,/world,vicon/Archie/Archie,-1.26574557996,-0.507979971976,0.110232853293,0.00588790302222,-0.00171488876379,0.634893537074,0.772575296224
1385574686855869833,1177731,1385574686855869833,/world,vicon/Archie/Archie,-1.26579357853,-0.508074615971,0.110308593998,0.0061506855506,-0.00193977758315,0.634962678177,0.772515892168
1385574686865701770,1177732,1385574686865701770,/world,vicon/Archie/Archie,-1.26574371324,-0.508044514656,0.110251485637,0.00597190524147,-0.00178428316546,0.634914324765,0.77255741074
1385574686875845170,1177733,1385574686875845170,/world,vicon/Archie/Archie,-1.26578731586,-0.508082527529,0.110315336576,0.00613788567282,-0.00194648724052,0.634962462565,0.772516154317
1385574686885869783,1177734,1385574686885869783,/world,vicon/Archie/Archie,-1.26575929526,-0.508059552941,0.110269426182,0.00599173102038,-0.00178997074316,0.634925412493,0.772548131662
1385574686895757347,1177735,1385574686895757347,/world,vicon/Archie/Archie,-1.26574397074,-0.508050212264,0.110248960806,0.00595854651668,-0.00176924913536,0.63491769848,0.772554775817
1385574686905794495,1177736,1385574686905794495,/world,vicon/Archie/Archie,-1.26578799509,-0.508067725795,0.110298071102,0.00610360238947,-0.00191533529502,0.634944116231,0.772531583038
1385574686915726050,1177737,1385574686915726050,/world,vicon/Archie/Archie,-1.265748755,-0.507981152451,0.110235853548,0.00590908355204,-0.00172210184558,0.634894248182,0.772574534088
1385574686925852364,1177738,1385574686925852364,/world,vicon/Archie/Archie,-1.26578274143,-0.50807507344,0.11031374502,0.0061412449677,-0.00194510565333,0.634954943215,0.772522311497
1385574686935935230,1177739,1385574686935935230,/world,vicon/Archie/Archie,-1.26574237955,-0.508041815312,0.110251136502,0.00595821654802,-0.0018009374284,0.634901883321,0.772567702428
1385574686945791875,1177740,1385574686945791875,/world,vicon/Archie/Archie,-1.26575816121,-0.508054759201,0.11027468246,0.00598293435639,-0.00179092311209,0.634927423627,0.772546544758
1385574686955762921,1177741,1385574686955762921,/world,vicon/Archie/Archie,-1.26576530265,-0.507987191705,0.110254536493,0.00594036416596,-0.00173328710443,0.634909578408,0.7725616707
1385574686965905470,1177742,1385574686965905470,/world,vicon/Archie/Archie,-1.2657645549,-0.508048495787,0.110274092834,0.0059820411015,-0.00176849757648,0.634916202577,0.772555825365
1385574686975784511,1177743,1385574686975784511,/world,vicon/Archie/Archie,-1.26575080778,-0.508043901388,0.110254041718,0.00596176694711,-0.00177610664014,0.634909924258,0.772561124351
1385574686985780536,1177744,1385574686985780536,/world,vicon/Archie/Archie,-1.26578234591,-0.508066729953,0.110292631669,0.00611352845629,-0.00191379468127,0.634947786372,0.772528491864
1385574686996522872,1177745,1385574686996522872,/world,vicon/Archie/Archie,-1.26574838045,-0.508049231157,0.110249354576,0.00595497620204,-0.00174330152154,0.634913622652,0.772558212
1385574687005903938,1177746,1385574687005903938,/world,vicon/Archie/Archie,-1.2657600547,-0.508054398936,0.110275620239,0.00598025503652,-0.00176895224702,0.634917804988,0.772554521226
1385574687015681101,1177747,1385574687015681101,/world,vicon/Archie/Archie,-1.26577798928,-0.508077537194,0.110297195368,0.00611160564987,-0.00190235641241,0.634956443754,0.772521419672
1385574687025887432,1177748,1385574687025887432,/world,vicon/Archie/Archie,-1.26576086114,-0.508054041727,0.110269785982,0.00597170284871,-0.0017823837427,0.634916182188,0.772555890191
1385574687035798635,1177749,1385574687035798635,/world,vicon/Archie/Archie,-1.26575161175,-0.508053804627,0.110274642499,0.00598114583324,-0.00177705267093,0.634902744014,0.772566873236
1385574687045742584,1177750,1385574687045742584,/world,vicon/Archie/Archie,-1.26577867759,-0.508069967058,0.110291954422,0.00613086835672,-0.00191409757079,0.634960448059,0.772517946772
1385574687055758521,1177751,1385574687055758521,/world,vicon/Archie/Archie,-1.26577098635,-0.508073886985,0.110293022337,0.00613626145342,-0.0019318962575,0.634951400259,0.772525296273
1385574687065725650,1177752,1385574687065725650,/world,vicon/Archie/Archie,-1.26574497705,-0.508045242475,0.110251916754,0.0059697034796,-0.00177406254898,0.634910759282,0.772560381517
1385574687075846094,1177753,1385574687075846094,/world,vicon/Archie/Archie,-1.26579824426,-0.508010107184,0.110300327653,0.0060782776372,-0.00187933891725,0.634943070615,0.772532730507
1385574687085979009,1177754,1385574687085979009,/world,vicon/Archie/Archie,-1.26575231827,-0.508039529849,0.110251832609,0.00594643152479,-0.00176916612091,0.634907068831,0.772563605118
1385574687095751001,1177755,1385574687095751001,/world,vicon/Archie/Archie,-1.26577935391,-0.508072566103,0.110293093102,0.00614155565492,-0.00193659634198,0.634956744016,0.77252085028
1385574687105884342,1177756,1385574687105884342,/world,vicon/Archie/Archie,-1.26575723423,-0.507994968906,0.110253750854,0.00592302817386,-0.00174044458688,0.634899757249,0.77256985887
1385574687115725067,1177757,1385574687115725067,/world,vicon/Archie/Archie,-1.26576518574,-0.508055464819,0.110273624291,0.00597328490447,-0.00175615780007,0.634915372557,0.772556603407
1385574687125765130,1177758,1385574687125765130,/world,vicon/Archie/Archie,-1.26575715217,-0.508055105375,0.110273774685,0.00599465181879,-0.00179442828886,0.63491492107,0.772556721011
1385574687136033609,1177759,1385574687136033609,/world,vicon/Archie/Archie,-1.26579944756,-0.508008392171,0.110303084598,0.00610953577784,-0.00190571904697,0.634940225336,0.772534757831
1385574687145779691,1177760,1385574687145779691,/world,vicon/Archie/Archie,-1.26578382357,-0.508082208565,0.110318075838,0.00614855041134,-0.00195101440444,0.634956487632,0.77252096909
1385574687156657349,1177761,1385574687156657349,/world,vicon/Archie/Archie,-1.26574681095,-0.508046479644,0.110248222714,0.00598113399289,-0.00177843542416,0.634914709953,0.772557036269
1385574687165688947,1177762,1385574687165688947,/world,vicon/Archie/Archie,-1.26577172463,-0.50806805622,0.110293330641,0.00611002660803,-0.00191529077569,0.634950351176,0.772526407818
1385574687175880679,1177763,1385574687175880679,/world,vicon/Archie/Archie,-1.26579639703,-0.508073513729,0.110318923854,0.00611893305365,-0.00193590637977,0.634947633188,0.772528519884
1385574687185836319,1177764,1385574687185836319,/world,vicon/Archie/Archie,-1.26579259936,-0.508077813858,0.110315821817,0.00612371497654,-0.0019303655145,0.634957403247,0.772520465661
1385574687195771073,1177765,1385574687195771073,/world,vicon/Archie/Archie,-1.2657631513,-0.508054639591,0.110269165478,0.00598089202032,-0.0017911343444,0.634915763427,0.772556143022
1385574687205766097,1177766,1385574687205766097,/world,vicon/Archie/Archie,-1.26576102512,-0.508051814217,0.110269999133,0.00598723684863,-0.00178043485215,0.63491882825,0.772553599811
1385574687215685518,1177767,1385574687215685518,/world,vicon/Archie/Archie,-1.26578558579,-0.508081822976,0.110318388123,0.0061510562588,-0.00194058057275,0.634961243434,0.772517066472
1385574687225901187,1177768,1385574687225901187,/world,vicon/Archie/Archie,-1.26575669476,-0.508047644474,0.110253108806,0.00596222348022,-0.00176254751482,0.634910650823,0.772560554772
1385574687235900545,1177769,1385574687235900545,/world,vicon/Archie/Archie,-1.26575619073,-0.508054907662,0.11026779459,0.00597274186355,-0.00177578870936,0.634919949208,0.772552801449
1385574687245762285,1177770,1385574687245762285,/world,vicon/Archie/Archie,-1.26575100139,-0.508044019047,0.110254067088,0.00597263803624,-0.00176530382603,0.634920342762,0.77255250284
1385574687255697653,1177771,1385574687255697653,/world,vicon/Archie/Archie,-1.26577711394,-0.508069649244,0.110303135683,0.00612132392004,-0.00194923793818,0.63493575711,0.772538228315
