%time,field.linear.x,field.linear.y,field.linear.z,field.angular.x,field.angular.y,field.angular.z
1385574688178402799,0.0,0.0,0.0,0.0,0.0,0.0
1385574688178463232,-1.26579261865,0.508079449733,-0.110311270578,0.00704841654015,0.0107955862464,-1.37590429866
1385574688188488368,-1.26575293326,0.508040360374,-0.11024942836,0.00697347876576,0.0102920574946,-1.37579050362
1385574688198514943,-1.26576055269,0.508053078044,-0.110277580979,0.00698518242632,0.0103680830098,-1.37579791243
1385574688208791012,-1.2657631236,0.508054323385,-0.11027121145,0.00701839509684,0.0103609369749,-1.37579990107
1385574688218543833,-1.26576602508,0.50805000761,-0.110268483108,0.00698595023986,0.0103378811279,-1.37580381713
1385574688228511153,-1.26574629979,0.508041447011,-0.110244758185,0.0069543264205,0.0103052263444,-1.37577463862
1385574688238621898,-1.26577390713,0.507988218647,-0.110259939456,0.00700361989317,0.0102633129557,-1.37575813468
1385574688248547645,-1.26575056175,0.508039589999,-0.110248719765,0.00694893855158,0.0102969678773,-1.37577497077
1385574688258524732,-1.26579156074,0.508076507104,-0.110306855007,0.00704212879139,0.0107663470665,-1.3759135676
1385574688268511917,-1.26577838024,0.508072939518,-0.110287112371,0.00699153111608,0.0107428125252,-1.37590282798
1385574688278622180,-1.26574952987,0.508048676763,-0.110248025707,0.00696663097417,0.0102846046786,-1.37579418021
1385574688288540665,-1.26577901202,0.508000239607,-0.110283278293,0.006983726128,0.0105909210258,-1.37582775758
1385574688298582782,-1.26577264324,0.508070470566,-0.110293018339,0.00700128220486,0.0107337411112,-1.37587355739
1385574688308615104,-1.26576731782,0.508054603779,-0.110277602428,0.00697696270377,0.0103606212506,-1.37579936772
1385574688318543056,-1.26574707437,0.508039957643,-0.110250298974,0.00696861334393,0.0102761935028,-1.37577654643
1385574688328522093,-1.26576292855,0.508050350315,-0.110275010884,0.00697823128888,0.0103381192359,-1.37576248827
1385574688338577130,-1.26577020756,0.508069546031,-0.110293508928,0.00699499381248,0.0107758725771,-1.37587791033
1385574688348521379,-1.26576462256,0.508049692216,-0.110279616923,0.00700979570153,0.0103894778047,-1.37581634212
1385574688358546578,-1.26578834655,0.508079882373,-0.110312316141,0.00702539727811,0.0107949932515,-1.37588836846
1385574688369085458,-1.26579407905,0.508079755719,-0.110315084893,0.00701692355096,0.0107785157404,-1.37588843916
1385574688378549385,-1.26576567829,0.508049615466,-0.110273545995,0.00700696776843,0.0103424344999,-1.37581854124
1385574688388519135,-1.26575602528,0.508041945137,-0.110256065624,0.00699635641068,0.0103059735577,-1.37579338819
1385574688398591034,-1.2657564921,0.508042401474,-0.110248542572,0.00696552835426,0.0103108991115,-1.375787304
1385574688408544087,-1.26575850849,0.508052773379,-0.110271296023,0.00695490766194,0.0102951620757,-1.37580057863
1385574688418604212,-1.26575700609,0.508054503522,-0.110271928144,0.00699608185813,0.010355470978,-1.37577685374
1385574688428582039,-1.26576974794,0.50807360253,-0.110291278481,0.00700800602505,0.0107453800978,-1.37587715107
1385574688438523573,-1.26578490382,0.508072989782,-0.11029816729,0.00704499419416,0.0107605597839,-1.37587716708
1385574688448521800,-1.26576171489,0.508049027511,-0.11026950696,0.00697553467212,0.0103427120159,-1.37580437348
1385574688458590432,-1.2657716064,0.508068539581,-0.110291223918,0.00703204232073,0.0107632458861,-1.37588713868
1385574688468520943,-1.26575748822,0.508056418659,-0.110273023241,0.00695607584983,0.0103176090557,-1.37580225117
1385574688478555715,-1.26575503481,0.508055834939,-0.110276448043,0.00696865316923,0.0103730332517,-1.37578392115
1385574688488611709,-1.26576175815,0.50805290292,-0.11027050608,0.00698931390971,0.0103034457657,-1.37580365271
1385574688498543856,-1.26576505482,0.508053309439,-0.110271855096,0.00699070149397,0.010338139683,-1.37580363603
1385574688508557434,-1.26574227859,0.50804321678,-0.110249452829,0.0069623056928,0.010374323459,-1.37580013834
1385574688518533916,-1.26575023637,0.508043604959,-0.110254884746,0.00696425286607,0.0103454017271,-1.37578284001
1385574688528564208,-1.2657900922,0.508066692145,-0.110312578672,0.00702180927009,0.0108032143991,-1.3759139439
1385574688538567142,-1.26578447447,0.508077961408,-0.110316353494,0.00700864291316,0.0107408639303,-1.3758895999
1385574688548521992,-1.26575288052,0.508043976861,-0.11025196817,0.00695996895692,0.010287824688,-1.37577546493
1385574688558520725,-1.26578768576,0.508072463936,-0.110309011541,0.00700249801327,0.0108180594442,-1.3758898152
1385574688568546393,-1.26574971959,0.50804150838,-0.110249186106,0.00697566495319,0.0103160614168,-1.37578544828
1385574688578548873,-1.26575912531,0.508056090404,-0.110272675843,0.00701204551428,0.0103542937737,-1.37580815679
1385574688588527208,-1.26579107985,0.508012895323,-0.110300512251,0.00703125250216,0.0106475438651,-1.37585991472
1385574688598588120,-1.26577493033,0.508070484342,-0.110294682635,0.00698885240984,0.0107129065638,-1.37585122447
1385574688608544225,-1.2657536377,0.508057029397,-0.110269659979,0.00697925627825,0.0103454722469,-1.37577536498
1385574688618659449,-1.26577901498,0.508069991649,-0.110299664907,0.00703054771041,0.0107670032143,-1.37589523775
1385574688628565624,-1.26576193534,0.508053819275,-0.110273992128,0.00698393112515,0.0103779260053,-1.37578972485
1385574688638530727,-1.26576084327,0.508050582568,-0.110272189688,0.0069959884647,0.0103373723411,-1.37578563798
1385574688648541858,-1.26575308746,0.508036252061,-0.110252640905,0.0069867889227,0.0103571930542,-1.37577588165
1385574688658518439,-1.265792404,0.508076097254,-0.110317510741,0.0070403849949,0.0108090448254,-1.37591811995
1385574688668525539,-1.26575028238,0.508043484176,-0.110248292062,0.00698948989813,0.0103751109982,-1.37576715814
1385574688678523735,-1.26573911797,0.507955154009,-0.110237182131,0.00705405270605,0.0101705326184,-1.37605324321
1385574688688701814,-1.26567729917,0.507914870231,-0.110240529034,0.00682408421468,0.0104004205757,-1.37598678994
1385574688698678173,-1.26569819608,0.507983837116,-0.110231727268,0.00701644340164,0.0105092817935,-1.37605850931
1385574688708633004,-1.26572989255,0.508002953848,-0.110237806324,0.007260865759,0.010290652826,-1.37537819199
1385574688718531925,-1.2657923361,0.508020405271,-0.110315055712,0.00730914685212,0.0106807466075,-1.37597961726
1385574688728538674,-1.26577766532,0.507975805175,-0.110235204671,0.00732650180667,0.0102588104202,-1.37580641119
1385574688738522072,-1.26578640865,0.507991780014,-0.110229164741,0.00735536258792,0.0104527555674,-1.37549211587
1385574688748531221,-1.26576125426,0.508000492284,-0.110245958493,0.00733733719417,0.0102914869246,-1.37576100962
1385574688758535363,-1.2657304319,0.507984784172,-0.110314446913,0.00742830711391,0.0105089172263,-1.37620001738
1385574688768616827,-1.26572980585,0.507941653428,-0.110316683447,0.00757325948669,0.0107433992005,-1.37543852488
1385574688778507239,-1.26579536169,0.507941211531,-0.110325752766,0.00781957424699,0.0110727725337,-1.37497000329
1385574688788515130,-1.26579200503,0.50790448244,-0.110281020247,0.00787109000039,0.01066320653,-1.37531559202
1385574688798515628,-1.26574879618,0.507933644861,-0.110257893696,0.00754937232965,0.0102082818913,-1.37601322772
1385574688808535319,-1.26575621045,0.507893198485,-0.110264674059,0.00747485640204,0.0104177551678,-1.37531279773
1385574688818523564,-1.26577517663,0.507921699819,-0.110247986641,0.00727426574384,0.010601718585,-1.37521615227
1385574688828530542,-1.26581262425,0.507911617682,-0.110261552586,0.00721494560473,0.0101798823911,-1.37611391394
1385574688838526333,-1.265461023,0.507921118754,-0.110494001838,0.00855684662183,0.0109951096076,-1.37544998099
1385574688848520208,-1.26544269496,0.507992598502,-0.110434758912,0.00849347929269,0.0116254683287,-1.37487451649
1385574688858504664,-1.26549204267,0.507935965933,-0.110509288381,0.00879242232983,0.0112413809393,-1.37522656613
1385574688868520584,-1.26544305403,0.507923484409,-0.110477926209,0.00878560361808,0.0112717913915,-1.37553727059
1385574688878529610,-1.26582206788,0.507928526674,-0.110267007085,0.0075914408572,0.010172245579,-1.37540797809
1385574688888496563,-1.26582239304,0.507915841947,-0.110312352605,0.00752914365191,0.0106124835627,-1.37547798132
1385574688898554121,-1.26581322544,0.507951497247,-0.110272833496,0.00727967169594,0.0108223360155,-1.37619569523
1385574688908528171,-1.26577942033,0.507927665398,-0.11030176079,0.00689368532377,0.0106447155295,-1.37587928793
1385574688918689922,-1.26578417899,0.507909230135,-0.110249812516,0.00724371657657,0.0104216347714,-1.37528010475
1385574688928510156,-1.26574368737,0.507974695478,-0.110181607385,0.00716881225631,0.0109976530882,-1.37567692255
1385574688938521635,-1.2657894982,0.507906384941,-0.110241974589,0.00739877391095,0.0103381993573,-1.37599872597
1385574688948505924,-1.26574524132,0.507862975848,-0.110286820276,0.00737886437976,0.0105939249128,-1.37589660751
1385574688958544332,-1.26582509576,0.507921848534,-0.110310991286,0.00760108993466,0.0105038156246,-1.37534017866
1385574688968632039,-1.26580874958,0.507911073847,-0.11025438761,0.00749978075836,0.0103296126165,-1.37580522362
1385574688978522656,-1.26579728802,0.507914902563,-0.110267775143,0.00728301219821,0.0104906149473,-1.37597362753
1385574688988509505,-1.2657712281,0.507986108314,-0.110223021546,0.00721873162275,0.0115736030724,-1.3757744683
1385574688998520096,-1.26579247905,0.507913635178,-0.110252520009,0.00738567036262,0.0103750447651,-1.37546208803
1385574689008512400,-1.26589407278,0.507960519531,-0.110363753404,0.0078503145357,0.0107871051511,-1.37585322639
1385574689018553279,-1.26578759824,0.507924992692,-0.110271836329,0.00736309366972,0.0105206404725,-1.37585029433
1385574689028515448,-1.26579926691,0.507926244879,-0.110272546845,0.00733478761208,0.0104960497126,-1.37552532088
1385574689038522812,-1.26579770532,0.507914785001,-0.1102664594,0.00737047711435,0.0104203746191,-1.37551498884
1385574689048514760,-1.2657898974,0.507909244104,-0.110285781303,0.00748220759493,0.0103506562704,-1.37586572587
1385574689058533399,-1.2657764103,0.507921577977,-0.110251158562,0.00728277697224,0.0104387901991,-1.37559885076
1385574689068524702,-1.26582086414,0.507931336568,-0.110268053023,0.00747730145649,0.0103970873065,-1.37554262294
1385574689078521371,-1.26572928519,0.507957199047,-0.110177225486,0.00724093643431,0.0110627900379,-1.37583492654
1385574689088525675,-1.26578568799,0.507909692584,-0.11025613316,0.00742446598471,0.010423165665,-1.37569238405
1385574689098522258,-1.26579015469,0.507919448169,-0.110270485007,0.00733718110893,0.0105026028027,-1.37572281624
1385574689108546440,-1.26581515803,0.50792505802,-0.110271880754,0.00739385912919,0.0105144591136,-1.37569476594
1385574689118574896,-1.26573825458,0.507961035881,-0.110178529434,0.00719554985618,0.0110999812976,-1.37565964992
1385574689128519649,-1.26581153634,0.507905965355,-0.110280824789,0.00750760902246,0.0105530234301,-1.37579252019
1385574689138508317,-1.26579252609,0.507922444334,-0.110275160888,0.00729557298174,0.0104119325064,-1.37566781789
1385574689148549028,-1.26578517311,0.507915723648,-0.110255648733,0.00732985732865,0.0104334308849,-1.3754702061
1385574689158514960,-1.26580168252,0.507909700724,-0.110247914658,0.00731177255101,0.0105423799793,-1.37551049819
1385574689168658549,-1.265813412,0.507943204189,-0.110228248901,0.00740547512525,0.0101916355439,-1.37593925954
1385574689178513200,-1.2657807568,0.507885222645,-0.110201647378,0.00771893769263,0.0102254775647,-1.37583158388
1385574689188510084,-1.26578748873,0.507911885354,-0.110270186695,0.00734947272331,0.0104628124982,-1.37516012697
1385574689198502129,-1.26589370961,0.507917598609,-0.110232943194,0.00769783970731,0.0109508389528,-1.3751805882
1385574689208499061,-1.26578099377,0.507920885024,-0.110220811699,0.00735151587259,0.0103919710691,-1.37607483458
1385574689218575124,-1.26573174931,0.507963584943,-0.110170358667,0.00715683166124,0.0111982523662,-1.37578445354
1385574689228511708,-1.26579938691,0.507926008008,-0.110295839582,0.00732701693586,0.0104720081776,-1.37534246341
1385574689238521791,-1.2657723171,0.507906123774,-0.11024261269,0.00740266219177,0.010091355106,-1.37583923866
1385574689248521471,-1.26578888397,0.507907992728,-0.110284139672,0.00736204329769,0.0104562236968,-1.37594341479
1385574689258543278,-1.26577621521,0.507929459306,-0.110301295013,0.00748505105042,0.0103742252217,-1.37503362709
1385574689268525315,-1.26577909142,0.507922616654,-0.110343189963,0.00752304733701,0.0103708393257,-1.37525928547
1385574689278531192,-1.26580501131,0.507896825237,-0.110319295877,0.00786670175572,0.0100832758292,-1.37635850507
1385574689288616420,-1.26576532184,0.507911176088,-0.110273055201,0.0073029273823,0.0103585009447,-1.37595158597
1385574689298594363,-1.26580116335,0.507931006158,-0.110283212568,0.00721526940537,0.0104669305943,-1.37476830511
1385574689308513430,-1.26584216991,0.507892752242,-0.110232147828,0.00723099559018,0.0111036469122,-1.37546310861
1385574689318536043,-1.26582264693,0.507958942787,-0.110351790096,0.00732581026384,0.0107545597518,-1.37651003954
1385574689328508823,-1.26580104506,0.507915978148,-0.110357296624,0.00751772488735,0.0103009000773,-1.37516757075
1385574689338520917,-1.26582074603,0.507914664153,-0.110391308025,0.00761632135026,0.0104644668211,-1.37530145802
1385574689348524964,-1.26583669164,0.507949150844,-0.110286952434,0.00722717927982,0.0101815075515,-1.37598963873
1385574689358525144,-1.26584496933,0.507959407141,-0.110305962236,0.00678655074511,0.0108878954397,-1.37541970881
1385574689368704005,-1.26578283015,0.507962548256,-0.110242818005,0.00639722038665,0.0111725586981,-1.37556569913
1385574689378516129,-1.26583620252,0.507945701236,-0.110399061559,0.00659564148818,0.0101990130519,-1.3757857661
1385574689388503224,-1.26582557147,0.50793044008,-0.110342470471,0.00653333542868,0.0103507107255,-1.37521244997
1385574689398525915,-1.26585225838,0.507992549497,-0.110286419104,0.00658794281739,0.0117025951068,-1.37610532311
1385574689408509980,-1.26582096785,0.507964888709,-0.110290863857,0.007071656242,0.0106054058324,-1.3757375814
1385574689418534015,-1.26583596428,0.5079679527,-0.110360243495,0.00725936504583,0.0102680748283,-1.37501001445
1385574689428491021,-1.26584501585,0.5079506965,-0.110396633335,0.00741198929959,0.010533978135,-1.37593906431
1385574689438516328,-1.26580065271,0.50796688522,-0.1103613348,0.00718216827773,0.0103846581056,-1.37558972088
1385574689448516990,-1.26583576536,0.5079631037,-0.110394066839,0.00748406711837,0.0113479015219,-1.37541697892
1385574689458523866,-1.26579678223,0.507930488401,-0.11033789935,0.00704115207413,0.0104350311444,-1.37585398772
1385574689468503904,-1.26580533848,0.507961540038,-0.110376831856,0.00710045487531,0.00989739090302,-1.37542551071
1385574689478572859,-1.26582626462,0.507964678162,-0.110389187284,0.00695098200567,0.0110369163662,-1.37559257391
1385574689488556057,-1.26580729433,0.507940142867,-0.110312769009,0.00699410303981,0.0109129426847,-1.3762186834
1385574689498530240,-1.26576012609,0.508037197574,-0.110244444109,0.0069144717652,0.010907320714,-1.37557175594
1385574689508513987,-1.2658132448,0.507940079067,-0.110367234755,0.00743913619374,0.0101350291733,-1.37554739739
1385574689518558390,-1.26580353879,0.507976105031,-0.110387626036,0.00731785506368,0.0103140051289,-1.37592832851
1385574689528494716,-1.26581383547,0.507976366371,-0.110355903745,0.00719114645867,0.0102348626147,-1.37538257281
1385574689538567647,-1.26577849739,0.50792320936,-0.110315522415,0.00717531690526,0.0103510432503,-1.37599717378
1385574689548527423,-1.26577370014,0.507980555436,-0.110352074563,0.00707595677238,0.0104081169885,-1.37612723117
1385574689558502616,-1.26580935518,0.507998077743,-0.110375149574,0.00711241287359,0.0105737391479,-1.37548994202
1385574689568676341,-1.26579244189,0.507948759648,-0.110324516104,0.00704680861348,0.010293767284,-1.3761689322
1385574689578518899,-1.26585726437,0.508012986205,-0.110281787397,0.00732680424058,0.0112748320861,-1.37625898212
1385574689588517116,-1.26583346534,0.50802976034,-0.11036427339,0.00752425659935,0.0105555268098,-1.37548439659
1385574689598627617,-1.26575775111,0.508048929923,-0.110314737639,0.00717302626125,0.011551829559,-1.37641239606
1385574689608501851,-1.26579769588,0.508058059852,-0.110389520966,0.00721640944745,0.0106134333341,-1.37599957083
1385574689618530298,-1.26579528048,0.50803272757,-0.110388904388,0.00717724726629,0.0108654421197,-1.3758331161
1385574689628519612,-1.26580750701,0.508002160415,-0.110385790332,0.00754554456116,0.0109251521319,-1.37643030231
1385574689638531910,-1.26578710365,0.508033953394,-0.110371863844,0.00766948130919,0.0101120115792,-1.37593108179
1385574689648533812,-1.26572365459,0.507960822351,-0.110307906378,0.00750239179438,0.0105809245257,-1.37588714016
1385574689658512315,-1.26579005009,0.508034958008,-0.110264966325,0.00702674275526,0.0103603629598,-1.37630146729
1385574689668521834,-1.26577506279,0.508090348493,-0.110256409237,0.00676450589376,0.011061383545,-1.37604261082
1385574689678545736,-1.26576522863,0.507975461229,-0.110300554846,0.00664980836345,0.0102022670979,-1.37592763295
1385574689688524309,-1.26579803382,0.508038388051,-0.110362830188,0.00669270140719,0.0106254587468,-1.37629864566
1385574689698498489,-1.26581108964,0.508039746498,-0.11035871301,0.00729547049853,0.0105915588267,-1.37583143768
1385574689708777181,-1.26579160728,0.507973271982,-0.110364043202,0.00778665200525,0.010813539155,-1.37621630319
1385574689718577380,-1.26572844604,0.507969713821,-0.11025177764,0.00807332683822,0.0101411471696,-1.37639094548
1385574689728535486,-1.26579667441,0.50806610519,-0.110350408101,0.00806037392548,0.0101991446383,-1.37562198767
1385574689738534681,-1.26576815007,0.508104805022,-0.110329592357,0.00773634949973,0.0115982851514,-1.37653709465
1385574689748492794,-1.2657495911,0.508068150425,-0.11028272892,0.00729695660293,0.010340945913,-1.37640775429
1385574689758510994,-1.26574926468,0.507947006994,-0.110272323509,0.0069497405083,0.0104058393412,-1.37581070465
1385574689768676238,-1.26575849173,0.508015817595,-0.110266176646,0.0067250695173,0.0102582616765,-1.37650200027
1385574689778532347,-1.26580138255,0.508040424177,-0.110345017173,0.00723525999376,0.0102131594672,-1.37641698285
1385574689788526828,-1.26574225722,0.508004809179,-0.110269208448,0.00765081105639,0.0106952425978,-1.376118529
1385574689798540254,-1.26576459859,0.508051498095,-0.110307364988,0.00764724263403,0.0105432939066,-1.37668984838
1385574689808541418,-1.26577200591,0.50814509364,-0.110323605006,0.00775609440172,0.0114288707882,-1.37672744126
1385574689818532300,-1.265774932,0.508011957544,-0.110371868006,0.00727509773117,0.0107310231874,-1.37640224499
1385574689828517292,-1.2657959862,0.508095559132,-0.110364233089,0.00688870246194,0.0106250147184,-1.37686240227
1385574689838521188,-1.26574727278,0.508027569429,-0.110318772778,0.00685797978081,0.0105110585929,-1.37664261256
1385574689848551703,-1.26569957998,0.508085393511,-0.110295347563,0.00721955873195,0.0110667432939,-1.37659733935
1385574689858603741,-1.26581193619,0.508100238925,-0.110379243719,0.00805962842259,0.010761532473,-1.37701735123
1385574689868529409,-1.26558273713,0.508128565632,-0.110473010885,0.00861493386758,0.0113542306312,-1.3756249828
1385574689878531293,-1.26559077825,0.50813861055,-0.110485463939,0.0084461353594,0.0111289970452,-1.37666859465
1385574689888518212,-1.26560699815,0.508138866418,-0.110533153758,0.00871162687964,0.0109954947436,-1.37701705032
1385574689898629934,-1.26551460403,0.508126023666,-0.1105293669,0.00906303287851,0.0114764958049,-1.37616189357
1385574689908563303,-1.26555532484,0.508141622455,-0.110519126832,0.00917905390026,0.0107871380207,-1.37686878263
1385574689918528247,-1.26553906432,0.508130651922,-0.110446839555,0.00898326853487,0.011249373221,-1.3762202787
1385574689928610935,-1.26553833666,0.508134739008,-0.110451971752,0.00870423148468,0.0108816589175,-1.37625437199
1385574689938527025,-1.26560029174,0.508142777615,-0.110534790152,0.00855047573573,0.0110231051833,-1.37696026328
1385574689948523998,-1.26555788891,0.508113814577,-0.110548112815,0.00898948166187,0.0110586419387,-1.37613862432
1385574689958578327,-1.26540820582,0.508126219987,-0.110643666879,0.0104937213666,0.0114108713113,-1.37623506857
1385574689968714738,-1.26537835385,0.508062706448,-0.110659934066,0.0108823938716,0.0114538290795,-1.37646703927
1385574689978524573,-1.26574312643,0.508159552576,-0.11041235473,0.00907573119133,0.0108602743388,-1.37623630744
1385574689988535968,-1.26572520614,0.50809860251,-0.110421337746,0.00859265452038,0.0103092143595,-1.37649506823
1385574689998516190,-1.265674598,0.508052387074,-0.110383843084,0.00872011588109,0.0103559615344,-1.37654693203
1385574690008532869,-1.26566213656,0.508187850556,-0.110271304126,0.00914091284494,0.0113826721183,-1.37646909983
1385574690018530016,-1.26563483017,0.508018900352,-0.110381676687,0.00950477788182,0.0108658801535,-1.37702314713
1385574690028515449,-1.2656926241,0.508122621628,-0.110443395004,0.00943579982193,0.0103462537556,-1.37633538091
1385574690038547785,-1.26571146563,0.508104612465,-0.110475638913,0.00928897139438,0.010840636358,-1.37616115046
1385574690048527603,-1.26571157434,0.508060869377,-0.110334790496,0.0095086091362,0.010000661784,-1.37675218487
1385574690058521108,-1.26571895552,0.508102708853,-0.110353355371,0.00965054252092,0.0105035602876,-1.37641090208
1385574690068538240,-1.26562117072,0.508111320618,-0.110308571454,0.00923730450958,0.0111787746386,-1.37660743942
1385574690078529355,-1.26566379302,0.508180594407,-0.110387963697,0.00895550081603,0.0111911667723,-1.37676291308
1385574690088510803,-1.265733442,0.508105380417,-0.110459458097,0.00963014712324,0.0106991465776,-1.37594611567
1385574690098590686,-1.26569652346,0.508070229296,-0.110355521928,0.00963355817711,0.0102316045223,-1.37678882441
1385574690108531750,-1.26574924623,0.508081015611,-0.110449031232,0.00967274596929,0.0106920905672,-1.3758945094
1385574690118538676,-1.26571930199,0.508065515051,-0.110474885942,0.00958491134924,0.0102360883834,-1.376096725
1385574690128542913,-1.26578963047,0.508061725793,-0.110373806194,0.0101040483014,0.0104904515145,-1.37662071247
1385574690138533387,-1.26577051979,0.508068663184,-0.110264702524,0.0104887258548,0.0101947836725,-1.37512518197
1385574690148528830,-1.26574046922,0.508069268054,-0.1102892907,0.0100011688182,0.011273188282,-1.37667262436
1385574690158519576,-1.26573448881,0.507945039865,-0.110463403592,0.00988685540415,0.00998149390004,-1.37535981513
1385574690168615953,-1.26578235117,0.50805444817,-0.110474516926,0.0103469089327,0.010108778438,-1.37579932305
1385574690178531286,-1.26578091861,0.507949671742,-0.110433151669,0.0108631669744,0.0103882204071,-1.37507601336
1385574690188502185,-1.26588469978,0.50806188359,-0.110464477771,0.0112024845592,0.0108398522164,-1.37471245217
1385574690198551646,-1.26582345683,0.507970900305,-0.110462284666,0.0108495372815,0.0105503639543,-1.37515401567
1385574690208524700,-1.26579194852,0.507966191546,-0.110386509026,0.0108303126107,0.0099638334691,-1.37412732939
1385574690218497857,-1.26583417081,0.508010288345,-0.110443323389,0.0105017798625,0.0107481346282,-1.3743515051
1385574690228503030,-1.26589376018,0.50794104972,-0.110441151853,0.010154733682,0.0109361927917,-1.37417027119
1385574690238495404,-1.26593703646,0.508046497585,-0.110436629234,0.0103387853046,0.010827365252,-1.37464047604
1385574690248491879,-1.26584775005,0.507913639,-0.110364066255,0.0106501368973,0.0106019108677,-1.37417031144
1385574690258567663,-1.26590818043,0.508060378079,-0.110416957244,0.0111926632314,0.0107261530521,-1.37457236997
1385574690268495730,-1.26585410138,0.507878924135,-0.110408053114,0.0107733828232,0.0103730960869,-1.37408799893
1385574690278500558,-1.2659565608,0.507922384234,-0.11046849108,0.010754765296,0.0101592398395,-1.37445937403
1385574690288513226,-1.26597393852,0.507846469937,-0.110381713626,0.010508928119,0.0102057699947,-1.37431131344
1385574690298649410,-1.26601554199,0.507873166856,-0.110364420994,0.0105173787873,0.0100837676091,-1.37398103369
1385574690308544524,-1.26604188136,0.507874210481,-0.110421829312,0.0108919972729,0.0103553088335,-1.37370495944
1385574690318634062,-1.26608370369,0.507879874885,-0.110484778208,0.0110926771207,0.0103360953031,-1.37366407519
1385574690328509414,-1.26615973634,0.507971374084,-0.110563064178,0.011384204501,0.0107196342145,-1.37344271832
1385574690338495791,-1.2661148799,0.507943368464,-0.110533953375,0.0113879996364,0.00979326203848,-1.37395252879
1385574690348593544,-1.26619945181,0.507996246713,-0.110430331854,0.0120702919585,0.0116883023641,-1.37423483834
1385574690358506918,-1.26615720243,0.507999334785,-0.110420625814,0.0124542905566,0.0111860436461,-1.37381008701
1385574690368502882,-1.26631001994,0.508008556057,-0.110388832515,0.0126869356087,0.0111756987786,-1.37499065462
1385574690378492456,-1.26630748207,0.507930301984,-0.110444407201,0.0123872530831,0.0101198697983,-1.37452095303
1385574690388542978,-1.26644569004,0.507904202271,-0.110394598122,0.0118283882031,0.00907977246247,-1.37629674442
1385574690398496839,-1.26653809961,0.507768791942,-0.11048843015,0.0107253048273,0.00978662782942,-1.37675324252
1385574690408497678,-1.26663571575,0.507817801117,-0.110466953203,0.00992164129738,0.00947207125146,-1.37808791616
1385574690418493110,-1.26664132801,0.507709657421,-0.110374801059,0.00961151179606,0.00982924396181,-1.37908217564
1385574690428495523,-1.26675684731,0.507786945338,-0.110211046211,0.00971526076253,0.01038047479,-1.37983814792
1385574690438514026,-1.26681120288,0.507676501301,-0.110303935345,0.010024272534,0.0100266819234,-1.38024581606
1385574690448493285,-1.26689657734,0.507724644047,-0.110413391581,0.00977380676197,0.0107486677812,-1.38126491212
1385574690458514698,-1.26694367684,0.507644954266,-0.110483121241,0.0100083201077,0.010114353918,-1.38116180217
1385574690468499612,-1.26711251837,0.507681472444,-0.11042883601,0.00973897119246,0.00939424723431,-1.3822650209
1385574690478508779,-1.2671179934,0.507616950538,-0.110360342297,0.00914325392123,0.0100561088856,-1.38345270138
1385574690488523203,-1.26724111745,0.507704240579,-0.110562926254,0.00840302143369,0.0105048693461,-1.38422482215
1385574690498618291,-1.26724392035,0.507667561494,-0.110551204464,0.00773922420332,0.0102909512696,-1.38586284362
1385574690508505894,-1.26727060899,0.507845409206,-0.110448062666,0.00744358393447,0.0106813190276,-1.38683498301
1385574690518633976,-1.26723100722,0.507843621395,-0.110471842954,0.00739094104332,0.0114221183148,-1.38772274403
1385574690528513640,-1.26727899453,0.507995753113,-0.110552727178,0.00775757781987,0.0115187469452,-1.38912983555
1385574690538492960,-1.26728083035,0.50800175747,-0.110473386117,0.00786188468953,0.0110269966548,-1.39055182118
1385574690548580919,-1.26710663813,0.508205114018,-0.110397936572,0.00870178651421,0.0110382570535,-1.3921070044
1385574690558493430,-1.26719437017,0.508271215876,-0.110432650241,0.00880612884013,0.0107112288234,-1.39383657668
1385574690568795853,-1.26730027022,0.508460553372,-0.110481089099,0.00880771293312,0.0102579236349,-1.39552014349
1385574690578610235,-1.26739566248,0.508695333518,-0.110522969178,0.00856690076606,0.0114752072156,-1.39716404146
1385574690588648888,-1.26762456586,0.508847213474,-0.110356112599,0.00751379223515,0.012336851462,-1.39852142768
1385574690598573024,-1.26769690538,0.509034447977,-0.11037238225,0.00734618769513,0.0105193665601,-1.40027488571
1385574690608729316,-1.26767446052,0.509267872115,-0.110328083285,0.00760653727382,0.010660601914,-1.40133528186
1385574690618510222,-1.26777533538,0.509544538884,-0.110380177413,0.00736183787266,0.0106735905793,-1.40376396012
1385574690628497335,-1.26789535407,0.50978368509,-0.110658774647,0.00686331347494,0.0108528545323,-1.40531541637
1385574690638508363,-1.26798609178,0.510003937891,-0.110582151372,0.00649348338491,0.0111007659917,-1.40719244757
1385574690648593333,-1.26798609178,0.510003937891,-0.110582151372,0.00649348338491,0.0111007659917,-1.40719244757
1385574690658529054,-1.26807755315,0.51050419992,-0.11031092166,0.00726633291706,0.0110074137707,-1.41077127607
1385574690668555408,-1.26826586597,0.510709638355,-0.11058969896,0.00640453514063,0.0108747251299,-1.41237919072
1385574690678612030,-1.2683604481,0.510978874158,-0.110944582677,0.00553094791125,0.0114872121841,-1.41437507616
1385574690688520795,-1.26849675793,0.511316536398,-0.110795935051,0.00454661875804,0.013502604817,-1.41548502136
1385574690698615657,-1.2689799741,0.511657755876,-0.110242430722,0.00376145611547,0.012686581339,-1.41812975712
1385574690708660356,-1.26904566838,0.511936520364,-0.110034792005,0.00419448812192,0.0115252421936,-1.41926873307
1385574690718528396,-1.26924774837,0.512182607241,-0.110255934438,0.00482154183923,0.00973114044534,-1.42148770267
1385574690728579591,-1.26927350134,0.512448887593,-0.110261364484,0.00535534593005,0.0117468828202,-1.42338404083
1385574690738617296,-1.26919280579,0.512736597857,-0.110787401334,0.00775262802405,0.0112354319039,-1.42514652828
1385574690748548991,-1.26940090319,0.513009420933,-0.110825658863,0.00733718154644,0.010879109845,-1.42676087577
1385574690758519212,-1.26954126233,0.513316231814,-0.110630250763,0.00643043247825,0.0106376120424,-1.42910213076
1385574690770024529,-1.26974350686,0.513664130183,-0.110533254618,0.00539990133688,0.0100017909106,-1.43024900668
1385574690778688476,-1.26995914173,0.514029578357,-0.110479735772,0.00389983641325,0.011281073829,-1.43190318003
1385574690788519761,-1.27012727247,0.514399791648,-0.110636409439,0.00360666365778,0.0136290258085,-1.43362778824
1385574690798724735,-1.2703983447,0.51480519159,-0.110718201262,0.00373563670909,0.01456575875,-1.43528827219
1385574690808589267,-1.2703431399,0.515178933191,-0.110534765941,0.00318153682668,0.0111226265116,-1.43732692592
1385574690818615914,-1.27085914156,0.515642631188,-0.110346616916,0.00221844374168,0.01018537521,-1.4386780183
1385574690828607039,-1.27092096167,0.516000875674,-0.11032501764,0.0019873915052,0.00985758666789,-1.44006818829
1385574690838537591,-1.27106366967,0.516495973588,-0.110458889799,0.00221965519819,0.00886578364719,-1.44175511242
1385574690848677849,-1.27113504062,0.516978903157,-0.110531377865,0.00177415094772,0.0103126227937,-1.44355305798
1385574690858505904,-1.27129816058,0.517500081057,-0.11059299835,0.00245043587946,0.0112741881411,-1.44497140159
1385574690868612959,-1.27099231642,0.518134508949,-0.11093711615,0.00512218051586,0.0111183210157,-1.44594815535
1385574690878769251,-1.27114536441,0.518671909617,-0.110934125533,0.0061664673456,0.0113279796282,-1.44658638924
1385574690888562713,-1.27110488911,0.519261565828,-0.111101173114,0.00686970700739,0.00992563988159,-1.44744561959
1385574690898627335,-1.27122212769,0.51992246625,-0.111086128958,0.00782260518982,0.00841371283085,-1.44852393005
1385574690908503256,-1.27127789283,0.520530406497,-0.111187203718,0.00792352191319,0.00929416335115,-1.44966068174
1385574690918534928,-1.27129519893,0.521186377084,-0.111431363067,0.00760013507324,0.00819199318478,-1.45019485431
1385574690928683376,-1.27144525517,0.522026151204,-0.111728522465,0.00745391912359,0.00492264872359,-1.45073339085
1385574690938543533,-1.27142243979,0.522759931543,-0.11182245001,0.00740495129413,0.00492948751273,-1.45196458633
1385574690950345943,-1.27150905898,0.523456920265,-0.111769967552,0.00855955239564,0.0032531778637,-1.45203138738
1385574690958521254,-1.27153093454,0.524239786261,-0.112429331586,0.00904325782265,0.00284652813058,-1.4530598699
1385574690968556978,-1.27161643422,0.525036171699,-0.11298162326,0.0103521162147,0.00208187209177,-1.45413795032
1385574690978647654,-1.27153191537,0.52584802847,-0.113111025788,0.0121485934831,-0.000744670577024,-1.45511431278
1385574690988528502,-1.27161757224,0.526687577877,-0.113422690912,0.0154615888109,-0.00229814320962,-1.45604253585
1385574690998596686,-1.27172141879,0.527470040806,-0.114007564956,0.0186380880469,-0.00379734851183,-1.45746835158
1385574691008490873,-1.27173739907,0.528435735012,-0.114857681614,0.0219749443557,-0.00481740651218,-1.45910791798
1385574691018581147,-1.27190239173,0.529141067925,-0.115444007408,0.026228928941,-0.00679962483287,-1.45996086585
1385574691028529410,-1.27176837484,0.530211518379,-0.116112071912,0.0302874182686,-0.00763910058011,-1.46198584539
1385574691038529428,-1.27188459059,0.531052808048,-0.116989904449,0.034809180781,-0.00904710941519,-1.46319537952
1385574691048597939,-1.27198762566,0.531951801677,-0.11827857201,0.0387812929792,-0.0100272543381,-1.46516697068
1385574691058514261,-1.27202992348,0.532804177325,-0.119427033147,0.0435131103745,-0.0130304032101,-1.46682725598
1385574691068648236,-1.27255368118,0.533791604576,-0.120225468933,0.0470525030299,-0.0151332989359,-1.46914863754
1385574691078574748,-1.27254344285,0.534600212793,-0.121581745936,0.0509272495891,-0.0161569191668,-1.47119809689
1385574691088486279,-1.27267307894,0.535455248235,-0.123180595191,0.0544405329622,-0.0187200454749,-1.47338573812
1385574691099839898,-1.27274140535,0.536346179115,-0.124853130538,0.057067071297,-0.0208628138728,-1.47560199314
1385574691108558393,-1.27284555329,0.537229455278,-0.126579530934,0.0585635475383,-0.022369409525,-1.47788904017
1385574691118604954,-1.27302693751,0.53809910867,-0.128215146852,0.059766768241,-0.0248545411938,-1.47940820113
1385574691128598574,-1.27308266274,0.539009743007,-0.130128483364,0.0605607759459,-0.02674173277,-1.48123037828
1385574691138564623,-1.27319531216,0.539901093757,-0.132433908177,0.0618958382929,-0.0284556325446,-1.48380363846
1385574691148625402,-1.27321859491,0.540856571555,-0.134894069981,0.0636480777048,-0.0297296571583,-1.48541146678
1385574691158550336,-1.27315699472,0.541747322519,-0.137186407434,0.0658954542388,-0.0313840980331,-1.48759870339
1385574691168506423,-1.27306635747,0.542656175627,-0.139262468162,0.0667030255816,-0.0333303291303,-1.48911675071
1385574691178543247,-1.27303610528,0.543532310428,-0.141922791688,0.067682782209,-0.0339716804296,-1.49038944494
1385574691188527623,-1.27281965872,0.544414584309,-0.144733187392,0.0680854775463,-0.0352895371048,-1.49146318344
1385574691198888138,-1.27262095897,0.545337723546,-0.147357662066,0.0692890474373,-0.0359667578427,-1.4924218864
1385574691208563204,-1.27228367737,0.546165916357,-0.149935094219,0.0690824905681,-0.0369533617953,-1.49293016333
1385574691218602248,-1.27171545904,0.547013535257,-0.152620113841,0.0698284204681,-0.0370076635868,-1.49350586451
1385574691228614127,-1.27140412582,0.54788595162,-0.15569587938,0.0726311888204,-0.0368778459549,-1.49397265987
1385574691238863836,-1.2706949618,0.54859579069,-0.158879749371,0.0746007135612,-0.0355390088893,-1.49371994816
1385574691248522561,-1.2700424202,0.549387412847,-0.161896144002,0.0774892294582,-0.0364900238732,-1.4945382128
1385574691258516057,-1.26930999374,0.550108085976,-0.164910764678,0.0796143465982,-0.0360460198948,-1.4947399488
1385574691268560993,-1.26845783012,0.550803202028,-0.168180043949,0.0809931187409,-0.0361242568403,-1.4953079477
1385574691278767575,-1.26759024946,0.551486121014,-0.171535278662,0.0817394131181,-0.0367783277489,-1.49658573922
1385574691288613249,-1.26668261051,0.551992928715,-0.174795908408,0.0808732764169,-0.0362205286873,-1.49737388497
1385574691298641676,-1.26577207628,0.552614143323,-0.178017846138,0.0803544190142,-0.0351163345491,-1.49844585573
1385574691308615429,-1.26480736701,0.553113804941,-0.18146743308,0.0797628126062,-0.0348113444228,-1.49893184566
1385574691318574184,-1.26359569738,0.553564218076,-0.185002832347,0.0799498278925,-0.0355383801464,-1.49914555445
1385574691328533840,-1.26264461621,0.554032218712,-0.188736100153,0.0817094073546,-0.035885804992,-1.49982787171
1385574691338480709,-1.26128808661,0.554381937263,-0.192349086551,0.082656684516,-0.0366054047612,-1.5004587759
1385574691348682004,-1.25999544999,0.554801152993,-0.195924473151,0.0844006374516,-0.0371217635135,-1.50121602379
1385574691358532468,-1.25870160343,0.555120839126,-0.199801881598,0.0860810285284,-0.0377490936438,-1.50158255874
1385574691368506803,-1.25712928989,0.555339992129,-0.203642815201,0.0861365153683,-0.0374604333959,-1.50174343134
1385574691378661631,-1.25571252466,0.555570425152,-0.207522809795,0.086494528586,-0.0361361497308,-1.50158344067
1385574691388525471,-1.25428029627,0.555810567654,-0.211335596626,0.0864794729816,-0.0358275484903,-1.50155380779
1385574691398600907,-1.25256152495,0.555937215288,-0.215297378571,0.0857803329088,-0.036195536433,-1.5020396061
1385574691408633499,-1.25106779776,0.556038554736,-0.219465271047,0.0848789590872,-0.0353671845408,-1.50322427037
1385574691418526876,-1.24934526455,0.556059136062,-0.223578791438,0.0836692416192,-0.0338349130478,-1.50415957031
1385574691428608748,-1.24768318091,0.556096763002,-0.227658776689,0.0817647965132,-0.0329758652163,-1.50539965016
1385574691438551517,-1.24586290269,0.556053111417,-0.231826575107,0.079660875569,-0.0327772598907,-1.50590551255
1385574691448705902,-1.24398811349,0.556009692954,-0.235998491608,0.0772477353128,-0.0320598774974,-1.50603068527
1385574691458527084,-1.2421584695,0.555967196015,-0.240260002168,0.0753459951324,-0.0304884135286,-1.50655829149
1385574691468508637,-1.24016646143,0.555850588736,-0.244457886829,0.0733240398633,-0.0297498930249,-1.50681447623
1385574691478573067,-1.23812330234,0.555733337149,-0.248624725307,0.072266801055,-0.0288616879129,-1.50726720515
1385574691488551079,-1.23610720681,0.555594689199,-0.252962884645,0.0712465851922,-0.0277657782289,-1.50814360399
1385574691498641027,-1.23378964346,0.555410860605,-0.257177086941,0.0692391366915,-0.0271849764922,-1.50811384397
1385574691508487847,-1.23161944252,0.555231926176,-0.261401871212,0.0692194035859,-0.0258986924585,-1.50897571893
1385574691518888729,-1.2293558461,0.554959612846,-0.265684036987,0.0688749448438,-0.0255843212366,-1.50922024992
1385574691528667087,-1.2269159715,0.554770324575,-0.269902488745,0.0690901251717,-0.0251132549085,-1.50934099965
1385574691538666127,-1.22465771534,0.554494778346,-0.274334422126,0.0696041240613,-0.0246380665751,-1.5103268522
1385574691548517850,-1.22215891935,0.554246033011,-0.278751852776,0.0695762969918,-0.0245729288742,-1.51115096686
1385574691558673426,-1.21973231506,0.553917532082,-0.283034283635,0.069798111292,-0.0234383530427,-1.51209116428
1385574691568799625,-1.21726349523,0.55375499267,-0.287485236034,0.0699740092453,-0.0227785880325,-1.51261349634
1385574691578572926,-1.21458192008,0.553432486976,-0.291897092897,0.0701363228606,-0.0211278727267,-1.51306304669
1385574691588568971,-1.21201241132,0.553115729433,-0.296290324675,0.0694967978736,-0.019680067258,-1.51374024867
1385574691598555647,-1.20945379577,0.552761685465,-0.300910147175,0.0697211908245,-0.0188973244721,-1.51391538074
1385574691608500898,-1.20668374263,0.552430404773,-0.3052572481,0.0694573241193,-0.0178356594214,-1.51466069734
1385574691618566279,-1.20404462847,0.552012878801,-0.30980239072,0.0693471772076,-0.0158895018579,-1.5155378815
1385574691628674721,-1.20117978415,0.551611324545,-0.314303120236,0.0682156964496,-0.0162343622577,-1.51617974421
1385574691638601917,-1.19847906774,0.551201057263,-0.318879455957,0.0682545568981,-0.0150291940546,-1.51691435326
1385574691648582925,-1.19571428822,0.550726702304,-0.323566554513,0.0676300500722,-0.0131057185739,-1.51803836659
1385574691659296372,-1.19259188058,0.550302809785,-0.328066718122,0.0664395311044,-0.013221516877,-1.51809862519
1385574691668591448,-1.18979989238,0.549814103051,-0.332691253816,0.0667552480164,-0.0121710459192,-1.5184393851
1385574691678614496,-1.18681450877,0.549314458475,-0.337269561917,0.0666340327035,-0.0116324359872,-1.51862661573
1385574691688571441,-1.18368447429,0.548802209917,-0.342022637394,0.0674396832753,-0.00981795353493,-1.51916119798
1385574691698699717,-1.18069054412,0.548370691882,-0.346595223532,0.0683725785758,-0.00960369063839,-1.51985167035
1385574691710513901,-1.17760900786,0.547822886213,-0.351324423397,0.0677086237815,-0.00828159870489,-1.52038847479
1385574691718599383,-1.17445332967,0.547305694388,-0.355888445775,0.067589407991,-0.00743631057875,-1.52115930162
1385574691729065357,-1.17131512494,0.546796305889,-0.360618971112,0.0668960799948,-0.00662193060179,-1.52170677433
1385574691738524288,-1.16794335903,0.546255765114,-0.365372531261,0.0666061798465,-0.00530128249138,-1.52254381225
1385574691748649082,-1.16480602638,0.545684818068,-0.370039511969,0.065863435656,-0.00296052633104,-1.52268909394
1385574691758608635,-1.16144696015,0.545109991736,-0.37490480965,0.0656816704633,-0.00280252611113,-1.52325446093
1385574691768804213,-1.15807413882,0.544681325757,-0.379816877577,0.0660079269596,-0.000932176030373,-1.52379534601
1385574691778639628,-1.15490224182,0.544094810495,-0.384796743262,0.0654389638949,0.000419692781113,-1.52387315641
1385574691788512645,-1.15142749594,0.543501999727,-0.389992126923,0.0645268631741,0.00067290731448,-1.52473046582
1385574691798495520,-1.14802772346,0.542969392185,-0.395081803033,0.0632150032624,0.00225008379071,-1.5247782982
1385574691808522498,-1.14476657831,0.542450972774,-0.399951317548,0.0620974708827,0.00403191158611,-1.52553217998
1385574691818645364,-1.14133136446,0.54190643165,-0.404552491218,0.0607959870415,0.00421594717766,-1.52606093284
1385574691828540537,-1.13797252449,0.541349856569,-0.409168842943,0.0592457785158,0.00581204040517,-1.52638188297
1385574691838567007,-1.13449996447,0.540768790757,-0.413816140859,0.0582809185799,0.00692813206151,-1.52757640179
1385574691848559849,-1.13099789213,0.540143325708,-0.418252265648,0.0571576449465,0.00814248769541,-1.52784711887
1385574691858539942,-1.12757236662,0.539664702395,-0.422336852512,0.0555065280486,0.00890490856776,-1.52785360654
1385574691868531076,-1.12406788454,0.539049277372,-0.426455127466,0.0537778100174,0.00956690452875,-1.52820201893
1385574691878583433,-1.1208017368,0.538533109588,-0.430540374909,0.0519571038688,0.0102961263169,-1.52878954925
1385574691888602802,-1.11715718502,0.537921100062,-0.434461044161,0.0496908853812,0.00998254993658,-1.52981655083
1385574691898559865,-1.11361732667,0.537290216334,-0.438109750002,0.0480227155861,0.00942911288202,-1.52993519091
1385574691908613533,-1.11005878468,0.536748747644,-0.441671580952,0.0466827316951,0.0103222159061,-1.53041099178
1385574691918917295,-1.10657281085,0.536235433929,-0.44519581463,0.0453099775071,0.0112364961533,-1.53106606054
1385574691928623861,-1.1030470657,0.535662663412,-0.448599699364,0.0435102362623,0.0112410515028,-1.5311431678
1385574691938544087,-1.09939121167,0.535106179084,-0.451696917699,0.0420816350135,0.0101546872666,-1.53166241725
1385574691948552115,-1.09580717592,0.534493061041,-0.454708409032,0.0405561186334,0.0106415813846,-1.53189083799
1385574691958553797,-1.09225580874,0.53390864445,-0.457771301298,0.0390570431824,0.0102084623844,-1.53242261185
1385574691968713593,-1.08876730439,0.533352892623,-0.460617330784,0.0380360144778,0.00933739133463,-1.53279741563
1385574691978547393,-1.0852333309,0.532822474023,-0.463268505959,0.0364552083544,0.0091042198191,-1.53299593174
1385574691988503860,-1.08155416714,0.532172109668,-0.465792136476,0.0347931674986,0.00853838224665,-1.53371564784
1385574691998589101,-1.0780806405,0.531568249955,-0.468207618792,0.0337124801101,0.00826073605774,-1.5337285911
1385574692008528758,-1.07455690994,0.531062755668,-0.470650532109,0.0330367275867,0.00825552838933,-1.53429306684
1385574692018661752,-1.0710517547,0.530489566512,-0.472739609427,0.0323672920025,0.00738281073743,-1.53494210008
1385574692028570723,-1.06741415389,0.529922140274,-0.474700436603,0.0317336271083,0.00774054635236,-1.53543804351
1385574692038545536,-1.06401171059,0.529355849358,-0.47675048053,0.0317685206968,0.00672834517551,-1.53568944329
1385574692048514720,-1.0602574666,0.528771689122,-0.478525818724,0.0314352792799,0.00660253307145,-1.53645307088
1385574692058622173,-1.0568144176,0.528164167799,-0.480291834369,0.0316676799245,0.00544373632389,-1.53683014186
1385574692068530580,-1.0532653807,0.527607856725,-0.481775486948,0.0312285595401,0.00398218658256,-1.5366171031
1385574692078630948,-1.0495359442,0.527023815544,-0.48326022278,0.0308499512653,0.00366281271122,-1.53751945651
1385574692088549540,-1.04627219038,0.526434576559,-0.484641934616,0.0307298888398,0.00394705008468,-1.53754035919
1385574692098619820,-1.04242870831,0.52582753126,-0.48590940385,0.0299254932271,0.00253471888942,-1.53824256761
1385574692108506967,-1.03910839379,0.525223502816,-0.487052709612,0.0297158092886,0.00183360159859,-1.53851694616
1385574692118525814,-1.03537992664,0.524616163309,-0.488093424886,0.0294091532394,0.0011831167612,-1.5391370308
1385574692128504984,-1.03189913317,0.523956647609,-0.489011167371,0.0294880391625,-0.000485756719051,-1.53950221683
1385574692138501094,-1.02845591965,0.523454735387,-0.48987315594,0.0293643366326,-0.00128138455406,-1.54002153289
1385574692148556767,-1.02481761679,0.522801583383,-0.490761048088,0.0296431902745,-0.00153504967115,-1.54073061345
1385574692158585452,-1.02153427968,0.522193493172,-0.491338395702,0.0292124653419,-0.00184763714221,-1.54070324861
1385574692168509819,-1.01780918385,0.521572997199,-0.491981942765,0.0287550943774,-0.00310026744884,-1.54108592533
1385574692178513467,-1.01450462856,0.520861901153,-0.492521057761,0.028482030799,-0.00329716142296,-1.54132725348
1385574692188519430,-1.01075863802,0.520184897824,-0.492785796048,0.0275728288913,-0.00428835693885,-1.54227286351
1385574692198496172,-1.00741755383,0.519559161441,-0.493091668876,0.0273147543897,-0.00489200906156,-1.54249275442
1385574692208536436,-1.00396159094,0.518943242344,-0.493272803179,0.0267019270942,-0.00557961605349,-1.54260940204
1385574692218589186,-1.00036751417,0.51825533242,-0.493439112733,0.0253831717725,-0.00579839693642,-1.54299686209
1385574692228509635,-0.997034831804,0.517562284195,-0.49344131625,0.0254258035717,-0.00613487255413,-1.54342279604
1385574692238500244,-0.993468381113,0.516851535086,-0.493365872107,0.0238226134412,-0.00616884977108,-1.54391608042
1385574692248531341,-0.990114100423,0.516168758605,-0.493323369395,0.0235314487811,-0.00638367293604,-1.54431283113
1385574692258537808,-0.986545223785,0.515411093014,-0.493077623966,0.0227590815669,-0.00704366306964,-1.5445737517
1385574692268504918,-0.983101422513,0.514732182292,-0.492774813623,0.022319944604,-0.00798065808012,-1.54511912702
1385574692278537601,-0.97975138445,0.513969561659,-0.492480433618,0.0220012872561,-0.00723880872865,-1.54523746389
1385574692288512103,-0.976100462631,0.513220550192,-0.492038160771,0.0212660550139,-0.00757995591219,-1.54611543891
1385574692298557206,-0.972772193597,0.51242837257,-0.491592300907,0.0218856372386,-0.00823822148988,-1.54604223903
1385574692308553161,-0.969249604506,0.511635720777,-0.491116527824,0.0212990993277,-0.00820562047827,-1.54682599777
1385574692318510502,-0.965874235768,0.510843705833,-0.490551586853,0.0215139615152,-0.00877568377683,-1.54729082966
1385574692328497317,-0.96249033702,0.510071078426,-0.489923059813,0.0208963371228,-0.00759576900677,-1.54760339203
1385574692338546960,-0.958965073703,0.509252052419,-0.489200964802,0.020980849682,-0.00927212135793,-1.54761833049
1385574692348501543,-0.955686530363,0.508377619862,-0.488516393102,0.0207339184186,-0.00951962503747,-1.54773256355
1385574692358494361,-0.952260088002,0.507452262403,-0.487784867352,0.0200001766398,-0.00832616511312,-1.54868193423
1385574692368512845,-0.948906653625,0.506632030306,-0.486943153708,0.0199220349681,-0.00987732592881,-1.54897779524
1385574692378539129,-0.945392635645,0.505838443129,-0.48595712898,0.0193963257534,-0.010525636906,-1.54837128125
1385574692388514024,-0.942048389464,0.505017772599,-0.485098429547,0.0189105616627,-0.0104789033805,-1.54883526567
1385574692398499367,-0.938706855198,0.504057589277,-0.484144302398,0.0185077503261,-0.0107955944588,-1.54855598758
1385574692408565550,-0.935214822866,0.503195081492,-0.483118274506,0.0183131919149,-0.0105842520831,-1.54929636089
1385574692418517095,-0.932054467595,0.502178512339,-0.482207979538,0.0183153648171,-0.010432971783,-1.55054854713
1385574692428528517,-0.928607219931,0.50124660586,-0.480984696071,0.0180452342961,-0.0105911160242,-1.55086228089
1385574692438508229,-0.925307120536,0.500275098753,-0.47991568516,0.0182829336621,-0.0105687335658,-1.5513547818
1385574692448577044,-0.92204366897,0.499363450361,-0.478831944925,0.0187182926731,-0.00982261198775,-1.55133203539
1385574692458542016,-0.918588817394,0.498409264653,-0.477610197735,0.0185973174982,-0.0103618254738,-1.5519836412
1385574692468596817,-0.915354425206,0.497404025863,-0.476419512547,0.0188862875754,-0.0103467212635,-1.55231009107
1385574692478582553,-0.911928843185,0.496440812105,-0.475068628253,0.018156868508,-0.0105597177037,-1.55277095948
1385574692488524752,-0.908681929459,0.495451849013,-0.473834984632,0.017840718494,-0.00957010449818,-1.55310285298
1385574692498529366,-0.905412655099,0.494454207658,-0.472470662456,0.0178305090135,-0.010543480982,-1.5531379493
1385574692508578270,-0.901973415968,0.493444667227,-0.471218715268,0.0181779342216,-0.00961028877513,-1.55386588433
1385574692518527687,-0.898743125059,0.492350600192,-0.469827397725,0.018662422775,-0.0104677518457,-1.55364911417
1385574692528530803,-0.895422111678,0.491334009794,-0.468496696975,0.018356834384,-0.00975559278618,-1.55404158789
1385574692538571813,-0.892268886857,0.490280302838,-0.467197436112,0.0189836467273,-0.00878269070324,-1.55447484641
1385574692548508629,-0.888905914254,0.489192854952,-0.465723814148,0.0191154554876,-0.00974915820326,-1.55446562097
1385574692558518700,-0.885531398401,0.488099643875,-0.464432633929,0.0193590530217,-0.00914310188883,-1.55524890307
1385574692568649043,-0.882331846988,0.487002870507,-0.46302846736,0.0195832670804,-0.0101815420134,-1.55512896786
1385574692578589689,-0.879103400912,0.485830357466,-0.461691415537,0.0192521449185,-0.00930336044161,-1.5556168531
1385574692588523364,-0.875970121837,0.484723889279,-0.460198817929,0.0190685784081,-0.00858354828575,-1.55606869827
1385574692598533560,-0.872732891659,0.483516760185,-0.458892960853,0.0184388727933,-0.00879534327937,-1.55612764648
1385574692608518625,-0.86942117498,0.482443896741,-0.457554033447,0.0181803462618,-0.0100668746951,-1.55710069099
1385574692618601995,-0.866300875587,0.481261816087,-0.456316312105,0.0177919477661,-0.0100862558917,-1.55736892039
1385574692628556268,-0.862960275219,0.480127012876,-0.454851954063,0.0166609750278,-0.0100047502799,-1.55757882197
1385574692638581926,-0.859886196567,0.478927313034,-0.453635263614,0.0168740998105,-0.0104301258092,-1.55858925572
1385574692648554548,-0.856649998158,0.477697655903,-0.452429882881,0.0163684825459,-0.010750073529,-1.55845490715
1385574692658532670,-0.853412152047,0.476481526252,-0.451173377713,0.015763192139,-0.0112165874924,-1.55908804468
1385574692668623829,-0.850461317143,0.475228373448,-0.450005962489,0.0154532577398,-0.0101277290089,-1.55947123858
1385574692678580880,-0.847182957496,0.473986045593,-0.44862852336,0.014202243734,-0.0110225946857,-1.55934819594
1385574692688529344,-0.844146699747,0.47280446909,-0.447470479922,0.0134035773658,-0.0108200165878,-1.56019240808
1385574692698631652,-0.840994910632,0.471556391637,-0.446220651713,0.0118023966357,-0.0108484953157,-1.55980480421
1385574692708559244,-0.837897778602,0.470302093832,-0.445106911703,0.0111189997946,-0.0107558526342,-1.5604414911
1385574692718542621,-0.8349093206,0.469020267988,-0.443899265925,0.00992192347598,-0.0101430141511,-1.56070557493
1385574692728569743,-0.831686563082,0.467785530567,-0.442642874083,0.00815030461676,-0.0095706148647,-1.56110284364
1385574692738539791,-0.82884052146,0.46650286722,-0.441548500634,0.00825704579878,-0.00914508927133,-1.56144202116
1385574692748519089,-0.825711047588,0.46527942812,-0.440418068552,0.00710478549643,-0.00725028900381,-1.56170636272
1385574692758545011,-0.822735390766,0.463901074015,-0.439309922401,0.00733717558953,-0.00706093466355,-1.56205547711
1385574692768720473,-0.819743364084,0.462582800022,-0.438089101571,0.00707853687073,-0.00548848601881,-1.56252408641
1385574692778592832,-0.816662440245,0.461387146665,-0.436954677178,0.00632800826781,-0.00414763841054,-1.56276497228
1385574692788543863,-0.813851692545,0.460120206784,-0.435815269892,0.00705069344123,-0.00298558202522,-1.56316004037
1385574692798614183,-0.810803268805,0.458788377734,-0.434611459404,0.00612127019201,-0.00205787507541,-1.56339917512
1385574692808600221,-0.807792777392,0.457470888652,-0.433618927219,0.00594242438573,0.00023996583442,-1.56377029944
1385574692818545231,-0.804987171988,0.456153754008,-0.432497759468,0.00550855361621,0.00151611712331,-1.56414341562
1385574692828536388,-0.802015058681,0.454965228202,-0.431406610583,0.00484509843638,0.00313939239113,-1.56420601086
1385574692838612061,-0.799009397118,0.453589657443,-0.43055383602,0.00590108705025,0.00441327748836,-1.56461133259
1385574692848526947,-0.796290245361,0.452282861856,-0.429496771628,0.00541339242142,0.00625862920113,-1.56539452006
1385574692858525295,-0.793285146917,0.450936149269,-0.42855467607,0.0054923066554,0.00653642348499,-1.56557282952
1385574692868582353,-0.790525249217,0.449652387492,-0.427494090488,0.00554384032521,0.00774825061756,-1.56594411117
1385574692878538045,-0.787689265016,0.44832908258,-0.426707038451,0.00601828963634,0.00913635093345,-1.56588856201
1385574692888519799,-0.784870994313,0.446940581111,-0.425811481454,0.00675192362179,0.0100055417364,-1.5659070345
1385574692898595463,-0.782041893082,0.445650668716,-0.425032862718,0.00762196561728,0.00965417364152,-1.56661576373
1385574692908523438,-0.779125031702,0.444358631086,-0.424401169332,0.00773248090977,0.0110166870117,-1.56699961795
1385574692918523507,-0.776374778251,0.443039799277,-0.423585675436,0.00760904643873,0.00977947523977,-1.56722898408
1385574692928526234,-0.773519326902,0.441663483921,-0.42286439403,0.00810072731351,0.00949314342067,-1.56745628129
1385574692938492208,-0.770773702624,0.440366085187,-0.422321540469,0.00843543537172,0.00841527413554,-1.56770403651
1385574692948498924,-0.768225320352,0.439040740626,-0.421703514108,0.00852792107958,0.00680042862993,-1.56799666085
1385574692958531074,-0.765409895589,0.437635990385,-0.421247535758,0.00781945090142,0.0059578956649,-1.56835820875
1385574692968505687,-0.762791723761,0.43626227032,-0.420696096305,0.00815494983991,0.00497888091799,-1.56831007159
1385574692978509212,-0.760089828312,0.434894962114,-0.420224582295,0.00811972084438,0.00356934878195,-1.56816608284
1385574692988495173,-0.757159016716,0.43356347598,-0.419902824858,0.00780574172533,0.00106769549346,-1.56857335137
1385574692998498506,-0.75455080828,0.432222218192,-0.419517413411,0.00818643241331,-0.000836889030736,-1.5688944121
1385574693008500755,-0.75184212448,0.430865434826,-0.419263796302,0.00827532924431,-0.00155403514993,-1.56905775178
1385574693018500684,-0.74915594606,0.429532435647,-0.419071749785,0.00891253299068,-0.00406809814362,-1.56922322543
1385574693028502616,-0.746636049494,0.428132311491,-0.418889392077,0.00931474870692,-0.00569983827336,-1.56953665733
1385574693038490134,-0.743881875334,0.426763492041,-0.418783518346,0.00902770926771,-0.00704686303814,-1.5696092887
1385574693048490471,-0.741317180382,0.425369482785,-0.418649987962,0.00887692142318,-0.0088329270978,-1.56960096243
1385574693058502433,-0.738819135572,0.424130487962,-0.418580561638,0.00779145044059,-0.00933670071339,-1.56959887529
1385574693068496968,-0.736150238899,0.422708270584,-0.418712295432,0.00633248179162,-0.00983337937634,-1.56965445409
1385574693078496067,-0.73364825525,0.42129189252,-0.418742771662,0.00489131839925,-0.0109403824128,-1.56965473359
1385574693088504087,-0.731025597961,0.419889437771,-0.418876893536,0.00312470409204,-0.0109896536969,-1.56987812019
1385574693098618624,-0.728601222171,0.418524377906,-0.418976963589,0.00151837677197,-0.0097900824282,-1.57013978778
1385574693108665033,-0.726083653958,0.417288151264,-0.419093985228,0.000284668139818,-0.00982066618359,-1.57046612865
1385574693118527313,-0.723483793519,0.415877027225,-0.419349951529,-0.000119524371642,-0.0105235318836,-1.57055467407
1385574693128501313,-0.721154169933,0.414459910188,-0.419421549886,-0.00115757384956,-0.00900122826987,-1.57031074107
1385574693138498687,-0.718670013879,0.413078914292,-0.419693899165,-0.00210672717736,-0.00858091958413,-1.57009217089
1385574693148510517,-0.716189001541,0.411689103029,-0.419927571565,-0.00272154755136,-0.007927225367,-1.57026998299
1385574693158500555,-0.713802998299,0.410305246987,-0.420072497521,-0.00354217446207,-0.00634884688114,-1.57051765667
1385574693168502718,-0.711350739415,0.408904296462,-0.420461365633,-0.00411735993251,-0.00484908735825,-1.57134065915
1385574693178832205,-0.709027286139,0.407544083267,-0.420611095387,-0.00509187526896,-0.00409042774711,-1.57171428295
1385574693188497791,-0.706669281252,0.406161752856,-0.420836638221,-0.00641070759442,-0.0027361741036,-1.57168805854
1385574693198523840,-0.704428211055,0.404726190413,-0.421202871284,-0.00688840689678,-0.000788092726824,-1.57165128225
1385574693208579562,-0.702217825384,0.403181821526,-0.421526742947,-0.00698264065249,0.00064515701407,-1.57129737101
1385574693218516608,-0.699906464752,0.401802819995,-0.421952122162,-0.00763510756908,0.00147916773221,-1.57141386225
1385574693228534149,-0.697554093806,0.400415463862,-0.422394119282,-0.00748551962476,0.00157392663882,-1.572053569
1385574693238493711,-0.695271362821,0.399079355657,-0.422776595743,-0.00698519070664,0.00234780073181,-1.57213463399
1385574693248511036,-0.692923023441,0.397624014829,-0.423316358454,-0.00618180480056,0.0023042109072,-1.57317595227
1385574693258492284,-0.690830422622,0.396154654186,-0.423698670774,-0.00478904897092,0.00395521462547,-1.57313685192
1385574693268496761,-0.688485005535,0.394784373457,-0.424252434704,-0.00441217579264,0.0044655740485,-1.57340919285
1385574693278503662,-0.686413165833,0.393347214714,-0.424928242091,-0.00331043725582,0.00524134368354,-1.57356631441
1385574693288531633,-0.684220198169,0.391981173374,-0.425350278946,-0.00320457219352,0.00593153609413,-1.57307007862
1385574693298599623,-0.682071599871,0.39059919535,-0.425929917026,-0.00234012118829,0.00657110661128,-1.57357764137
1385574693308545656,-0.679982694125,0.389150118467,-0.426636918867,-0.00225724110994,0.00710927185382,-1.57397198269
1385574693318554800,-0.677779923016,0.3877142245,-0.42735821391,-0.00208435698717,0.00801604193552,-1.57409474525
1385574693328499110,-0.675724058377,0.386296129942,-0.428072203629,-0.000885540484364,0.00820222744495,-1.57469094181
1385574693338594431,-0.673700194903,0.384896577824,-0.428745104772,0.000775733373167,0.00813610907957,-1.57457665891
1385574693348535991,-0.671584848212,0.383511291485,-0.429442617851,0.0013575393986,0.00867841910679,-1.57482038093
1385574693358669705,-0.669778152558,0.382050100409,-0.430165444554,0.002585605584,0.00839577795752,-1.57447875722
1385574693368507836,-0.667666871709,0.380629208501,-0.431056870112,0.00359401880456,0.00856524423033,-1.57434900716
1385574693378491744,-0.665611959878,0.379247005834,-0.431930602506,0.00457407127819,0.00782368923609,-1.57491122291
1385574693388488097,-0.663565541498,0.377910376947,-0.432776211712,0.00496758135376,0.00674330761814,-1.57543085054
1385574693398508932,-0.661547099439,0.376475386475,-0.43370237552,0.00526911965182,0.00598947336551,-1.57569826372
1385574693408494294,-0.659593591786,0.375138282808,-0.434676133582,0.00598945030911,0.00508186243837,-1.57623853717
1385574693418669562,-0.657710681359,0.373683601093,-0.435569738497,0.00675000844434,0.00510160738029,-1.57551085466
