%time,field.linear.x,field.linear.y,field.linear.z,field.angular.x,field.angular.y,field.angular.z
1385573547688027253,-0.0,0.0,0.0,1.0,0.0,0.0
1385573547777680437,-0.0,0.0,6.17481925346e-08,1.0,0.0,0.117951442068
1385573547877542166,-0.44678204465,0.0621284597433,-0.0133783748255,1.0,0.0,0.0671722514671
1385573547977680572,-0.392914730589,0.0546281687942,-0.0115590241077,1.0,0.0,0.0760152458069
1385573548077608177,-0.453890785523,0.0631389543321,-0.0107921213443,1.0,0.0,0.0713302807838
1385573548177771201,-0.429436123213,0.0596150219162,-0.0087457445251,1.0,0.0,0.0694470664576
1385573548278007370,-0.399503650266,0.0556381484152,-0.00680719756557,1.0,0.0,0.0670980039098
1385573548377618451,-0.346339748133,0.048245674637,-0.0039811140104,1.0,0.0,0.0656088749308
1385573548478789681,-0.286696504539,0.0402768830624,-0.000636777190241,1.0,0.0,0.0642744678207
1385573548577635851,-0.224589936454,0.0319217121073,0.00286467059736,1.0,0.0,0.0632351457335
1385573548677774708,-0.166210845438,0.0237369255928,0.00681080677615,1.0,0.0,0.062447683645
1385573548777563629,-0.115013784583,0.0166328388509,0.0110057900006,1.0,0.0,0.0618352256446
1385573548877674759,-0.0734413154874,0.0108869693134,0.0152202990305,1.0,0.0,0.0613496473779
1385573548977590824,-0.0423022396455,0.00646070410622,0.019988537971,1.0,0.0,0.0609622292298
1385573549077658568,-0.021677960323,0.00324813013055,0.0248870734223,1.0,0.0,0.0607274335761
1385573549177704096,-0.0107833858381,0.00212900928906,0.0293724080531,1.0,0.0,0.0604471766571
1385573549277701803,-0.00795201495804,0.00158174500872,0.0344253342818,1.0,0.0,0.0602622880204
1385573549377543816,-0.0116035398272,0.00186564763469,0.0396609034133,1.0,0.0,0.0601440266609
1385573549477819834,-0.0198887075093,0.00371911288073,0.0446710321024,1.0,0.0,0.0599380786163
1385573549577665119,-0.031021371445,0.00540041439134,0.0499566573257,1.0,0.0,0.0597798353065
1385573549677649616,-0.0433857853003,0.00791588752085,0.0553876295074,1.0,0.0,0.0595532083861
1385573549777642692,-0.0557851146953,0.00982750744175,0.0608414332892,1.0,0.0,0.0593721965868
1385573549877602382,-0.0673362989115,0.0120524052996,0.0661176493519,1.0,0.0,0.0590961342128
1385573549977714918,-0.0769800600197,0.0143640057072,0.071647887777,1.0,0.0,0.0587545818083
1385573550077642971,-0.0842468217606,0.0188008010748,0.0771982381287,1.0,0.0,0.0579228040372
1385573550177664988,-0.0892106724721,0.0241990080029,0.0823946821167,1.0,0.0,0.0565283907094
1385573550277710675,-0.0906216801689,0.0311747331226,0.0884316962702,1.0,0.0,0.0543402243168
1385573550377631652,-0.090230338056,0.0384958898685,0.0937505177891,1.0,0.0,0.0514996990514
1385573550477687260,-0.087144020591,0.0448943605024,0.099692663156,1.0,0.0,0.0482836757937
1385573550577682869,-0.082616644047,0.0520314748857,0.105094569658,1.0,0.0,0.0445080557543
1385573550677599004,-0.077426229376,0.0538070025216,0.110654429214,1.0,0.0,0.0411516187514
1385573550777638458,-0.0729345264111,0.0558978325046,0.11317212927,1.0,0.0,0.0382662076133
1385573550877658892,-0.0686602064366,0.0549384412299,0.112877465118,1.0,0.0,0.0357573606696
1385573550977966457,-0.0637967788371,0.0518576309004,0.112146716117,1.0,0.0,0.0334225267134
1385573551077813408,-0.0586584579714,0.0476270693125,0.111810161314,1.0,0.0,0.0313027009087
1385573551177776099,-0.0556011218856,0.0426616410204,0.109645650322,1.0,0.0,0.0295613320095
1385573551277685135,-0.052564774476,0.0386718580947,0.107163928738,1.0,0.0,0.0279453403985
1385573551377620195,-0.05055697738,0.0345511169318,0.104239066577,1.0,0.0,0.0263912357915
1385573551477845126,-0.050777399303,0.0308798266571,0.0989582875565,1.0,0.0,0.0248255822457
1385573551577941640,-0.0519477312765,0.0273575824723,0.0943895822622,1.0,0.0,0.0233805179479
1385573551677648763,-0.0544062363949,0.0239109293552,0.09079725974,1.0,0.0,0.0220423927511
1385573551777770636,-0.0574537007687,0.0212699346133,0.0889481203949,1.0,0.0,0.0207525548569
1385573551877690463,-0.060892495664,0.0192048434197,0.089322582261,1.0,0.0,0.0194846481575
1385573551977588085,-0.0642119427099,0.0174710584023,0.0926381054717,1.0,0.0,0.0182730700786
1385573552077680176,-0.0674332801524,0.0166485416297,0.0977031911333,1.0,0.0,0.0170740609067
1385573552177630542,-0.070763818173,0.0159480745824,0.10380307997,1.0,0.0,0.0159010728359
1385573552277610773,-0.0750314347135,0.0142758379619,0.110023808136,1.0,0.0,0.0147449476938
1385573552377657063,-0.0784035709192,0.0135955664035,0.11687105274,1.0,0.0,0.0137028630779
1385573552477656649,-0.0814063813489,0.0129003385854,0.124120469838,1.0,0.0,0.0127945211508
1385573552577604031,-0.0831423946835,0.0121261251822,0.131871342815,1.0,0.0,0.0119286764719
1385573552677578612,-0.0849408476163,0.0134469377557,0.138522362307,1.0,0.0,0.0109790053594
1385573552777611635,-0.087768737651,0.0123420938118,0.144017115746,1.0,0.0,0.0102101701158
1385573552877571427,-0.0880614392002,0.0116870399471,0.14789778565,1.0,0.0,0.00935882987236
1385573552977581504,-0.0873146578538,0.0119832819557,0.151369280524,1.0,0.0,0.00860509286145
1385573553077595878,-0.0862590457025,0.0119960331081,0.153913730585,1.0,0.0,0.00789652731518
1385573553177613695,-0.0859622869066,0.0112042001477,0.155104594769,1.0,0.0,0.00737324082718
1385573553277585356,-0.0848971699409,0.0132260809086,0.155183683472,1.0,0.0,0.00677010608666
1385573553377629156,-0.0833451948544,0.0130112980399,0.155062558063,1.0,0.0,0.00613024894981
1385573553477558193,-0.0822251620204,0.011707158755,0.154133221786,1.0,0.0,0.00560931025068
1385573553577589291,-0.0812931126594,0.0106125310876,0.152218863343,1.0,0.0,0.00520713847848
1385573553677766938,-0.0799573771334,0.00950482852754,0.150054900798,1.0,0.0,0.00476960255263
1385573553777507591,-0.0787833843069,0.00894821983584,0.147441136239,1.0,0.0,0.00437087734934
1385573553878013460,-0.0782450777368,0.0084352898871,0.143962962523,1.0,0.0,0.0039713249771
1385573553977641032,-0.0785000378175,0.00768799162459,0.139746169433,1.0,0.0,0.0035706275511
1385573554077705618,-0.0789814010257,0.00628003414123,0.135560306834,1.0,0.0,0.00323299457507
1385573554177709115,-0.0794596857558,0.00563396611374,0.131738954204,1.0,0.0,0.00282561036673
1385573554277650089,-0.0805737967529,0.00420318092388,0.127895862865,1.0,0.0,0.00245522240586
1385573554377657056,-0.0816508602036,0.00420679260963,0.124328591427,1.0,0.0,0.0019424277398
1385573554477889559,-0.0834883785465,0.00315359491817,0.120641102773,1.0,0.0,0.00156121861951
1385573554577597791,-0.0851963885589,0.0026159620749,0.117382845756,1.0,0.0,0.0011479351825
1385573554677621352,-0.0874074303522,0.00139302923639,0.113957406209,1.0,0.0,0.00086383448472
1385573554777510971,-0.0893005015531,0.00113523804449,0.110750536136,1.0,0.0,0.000587538761411
1385573554877588484,-0.0914719211799,0.000102831225572,0.107315447781,1.0,0.0,0.000374462663029
1385573554977655025,-0.0931651651071,-0.000693043327799,0.104142327833,1.0,0.0,0.000204790187012
1385573555077610929,-0.0942044587984,-0.00067996549805,0.101272211919,1.0,0.0,-4.22030380762e-05
1385573555177701901,-0.0951260766069,-0.000601402423259,0.0979824608138,1.0,0.0,-0.000258217209327
1385573555277576156,-0.095331328629,-0.00116325259659,0.0950564199042,1.0,0.0,-0.000421723880835
1385573555377849256,-0.0953714139003,-0.000995323262303,0.0915820162728,1.0,0.0,-0.000625847308134
1385573555477785000,-0.0948897268037,-0.00117089103146,0.0882084848179,1.0,0.0,-0.000825194025994
1385573555577668461,-0.0941627654626,-0.00147694958713,0.0847710914354,1.0,0.0,-0.000975018194873
1385573555677648706,-0.0928977678091,-0.00102455224715,0.0815731722142,1.0,0.0,-0.00122557647587
1385573555777674280,-0.0916400896867,-0.00182618660654,0.078420967274,1.0,0.0,-0.00134776496591
1385573555877692994,-0.0900748211426,-0.0021552211664,0.0755724983721,1.0,0.0,-0.00145219781965
1385573555977788114,-0.0885072436128,-0.00332368213009,0.0730465272435,1.0,0.0,-0.00146732670067
1385573556077636857,-0.0869481946113,-0.00389794349561,0.0704478440126,1.0,0.0,-0.00148962046962
1385573556177636307,-0.0857537172771,-0.0045847171083,0.0673186694588,1.0,0.0,-0.001501301355
1385573556277655320,-0.0842796619547,-0.00500673408675,0.0649611474435,1.0,0.0,-0.00153686526644
1385573556377574266,-0.0828653193792,-0.00563345427373,0.0630923423611,1.0,0.0,-0.00157777333538
1385573556477594277,-0.0815980637499,-0.00592905461335,0.0610224749531,1.0,0.0,-0.00163249459589
1385573556577689876,-0.0805587815193,-0.0064450524485,0.0588425301811,1.0,0.0,-0.00165126956795
1385573556677631020,-0.0795252793359,-0.00594568986926,0.0567603680899,1.0,0.0,-0.00183465643174
1385573556777565825,-0.078660538455,-0.00636850095203,0.0548813221063,1.0,0.0,-0.00195129062754
1385573556877711289,-0.0778803645265,-0.00690599759423,0.053141861182,1.0,0.0,-0.00199704913191
1385573556977726836,-0.0770773401273,-0.00705614285281,0.0518760001211,1.0,0.0,-0.00210704359165
1385573557077617859,-0.0763525477854,-0.00731917386392,0.0504297621103,1.0,0.0,-0.00221079942328
1385573557177622553,-0.0756754125494,-0.00737039708715,0.0490952484556,1.0,0.0,-0.0023086586877
1385573557277586873,-0.0749898953443,-0.00734476746065,0.0477601176332,1.0,0.0,-0.00240992719511
1385573557377676918,-0.0742457075904,-0.00720187899309,0.046556129121,1.0,0.0,-0.00253609022399
1385573557477854839,-0.0734691327968,-0.00741316154692,0.0453694506226,1.0,0.0,-0.00261038919274
1385573557577644092,-0.0726369435142,-0.00785097117075,0.0444117587551,1.0,0.0,-0.00261816969329
1385573557677739457,-0.0718938622257,-0.00805126716444,0.043031999399,1.0,0.0,-0.00263539751398
1385573557777557933,-0.0710690812422,-0.00775557022255,0.0420906178452,1.0,0.0,-0.0027348165617
1385573557877641068,-0.0701604407601,-0.00768316300037,0.0415155525481,1.0,0.0,-0.00283181860465
1385573557977732796,-0.0692808606422,-0.00835462010636,0.040681940174,1.0,0.0,-0.002811643786
1385573558077581783,-0.0682949465901,-0.00798508269205,0.0401093763788,1.0,0.0,-0.00293022815491
1385573558178263833,-0.0674880941559,-0.00805711750079,0.0391137266125,1.0,0.0,-0.00302236819153
1385573558277720624,-0.0663682417067,-0.0082984712126,0.038718925545,1.0,0.0,-0.00308675485065
1385573558377847837,-0.0653832025383,-0.00806807829111,0.0378863130821,1.0,0.0,-0.00323572485222
1385573558477614508,-0.0643828337615,-0.00862876098238,0.0369245614814,1.0,0.0,-0.00329844256465
1385573558577651286,-0.0633992505942,-0.00937956580625,0.0360598345881,1.0,0.0,-0.00328268722015
1385573558677630696,-0.0622572859957,-0.0100681368853,0.0357692631458,1.0,0.0,-0.00326876552958
1385573558777649128,-0.0613165328518,-0.0102615337789,0.0350890326145,1.0,0.0,-0.00333369506873
1385573558877806600,-0.060158963532,-0.0108135611058,0.0349481899633,1.0,0.0,-0.00336909348257
1385573558977611983,-0.0590120578647,-0.0112411261754,0.0345700346905,1.0,0.0,-0.00340615136634
1385573559077573285,-0.0579223784594,-0.0119626512986,0.0340333894658,1.0,0.0,-0.00339371993366
1385573559177563661,-0.0568111530142,-0.0125141544681,0.0331134911065,1.0,0.0,-0.00335753558446
1385573559277593506,-0.0557821828603,-0.0133170061564,0.0323737621353,1.0,0.0,-0.00325077447064
1385573559377644131,-0.054685272717,-0.013947008143,0.0315273262066,1.0,0.0,-0.00309894064107
1385573559477620750,-0.0537378945838,-0.0139771748036,0.030823243058,1.0,0.0,-0.00304810477841
1385573559577603325,-0.0527921769492,-0.0137399539126,0.0302411505194,1.0,0.0,-0.00301894622035
1385573559677866688,-0.051961533426,-0.0137131962217,0.0297380650176,1.0,0.0,-0.00292466511845
1385573559777594627,-0.051326298689,-0.0131334519916,0.0288780401975,1.0,0.0,-0.0029018876363
1385573559877727893,-0.0504944207467,-0.0125745286307,0.0282109837503,1.0,0.0,-0.00286973198047
1385573559977536557,-0.050030879267,-0.0121154837978,0.0273581899829,1.0,0.0,-0.00279861712705
1385573560078578230,-0.0494512877073,-0.0117828678842,0.0265356272606,1.0,0.0,-0.00265825604533
1385573560177540020,-0.048957804661,-0.011309895157,0.0259272403182,1.0,0.0,-0.00249048935312
1385573560277602482,-0.0483857993346,-0.0106226682711,0.0257178132111,1.0,0.0,-0.00234615763293
1385573560377606151,-0.0478677675741,-0.00944928117965,0.0252285639885,1.0,0.0,-0.00228234601426
1385573560477673069,-0.0473331470699,-0.00886349334621,0.0245548719449,1.0,0.0,-0.00215928848843
1385573560577626692,-0.0467250150984,-0.00811037416939,0.0236331232362,1.0,0.0,-0.00202873114656
1385573560677735174,-0.0459841660514,-0.00736668088462,0.0231042936365,1.0,0.0,-0.00194023273524
1385573560777789788,-0.0453326652574,-0.00672955641164,0.0225759049682,1.0,0.0,-0.0018592289905
1385573560877591037,-0.0445041786179,-0.00690945134507,0.0220309055912,1.0,0.0,-0.00163873766842
1385573560977760693,-0.0436671289912,-0.00638846437699,0.0215579857831,1.0,0.0,-0.00149448540871
1385573561077543201,-0.0427894118301,-0.00625127948136,0.020775499041,1.0,0.0,-0.00132690145004
1385573561177587412,-0.0418769436769,-0.00578334003121,0.0200558924601,1.0,0.0,-0.00122639590345
1385573561277659880,-0.0409209026582,-0.00554216697601,0.0192072847851,1.0,0.0,-0.00107368625976
1385573561377847463,-0.0399647814307,-0.00486589686009,0.0185522139512,1.0,0.0,-0.00102601584367
1385573561477583020,-0.0389529312919,-0.00462020053894,0.0181039067157,1.0,0.0,-0.000921502417004
1385573561577511543,-0.0379038033554,-0.00409828177245,0.017618257692,1.0,0.0,-0.000865966377242
1385573561678200262,-0.036921750784,-0.004205794152,0.0171976667337,1.0,0.0,-0.000699112926025
1385573561777550612,-0.0359473792538,-0.00328843742204,0.0165714401824,1.0,0.0,-0.000732119438195
1385573561877592299,-0.034945535253,-0.00308950301587,0.0162775584572,1.0,0.0,-0.000684867588915
1385573561977521399,-0.0338798803179,-0.00264780014989,0.0159826303002,1.0,0.0,-0.000661499001896
1385573562077646081,-0.0328965768591,-0.00215077505438,0.0153943736757,1.0,0.0,-0.000665365756501
1385573562177650896,-0.0320111962664,-0.00162208775896,0.0148968522799,1.0,0.0,-0.000703177908232
1385573562277619714,-0.031166417342,-0.00128130867531,0.0144790151124,1.0,0.0,-0.00076205692387
1385573562377642587,-0.0304309681611,-0.00155832440805,0.013828947737,1.0,0.0,-0.000661565700583
1385573562477578182,-0.0298570343043,-0.00146452894271,0.0134443823722,1.0,0.0,-0.000649826221377
1385573562577650883,-0.0295113504668,-0.00181581133075,0.0129883050663,1.0,0.0,-0.000562042874557
1385573562677709489,-0.029240978708,-0.00194849841264,0.0124622434375,1.0,0.0,-0.000543002327233
1385573562777572013,-0.0290533184681,-0.00190068608293,0.0122749608539,1.0,0.0,-0.00061155447529
1385573562877783529,-0.0289390619878,-0.00242770098939,0.0117393049467,1.0,0.0,-0.000580893606459
1385573562977546928,-0.0288552259547,-0.00227078977502,0.0114500460019,1.0,0.0,-0.000696363661138
1385573563077973830,-0.0287446221255,-0.00276249331527,0.0111768106138,1.0,0.0,-0.000752997675381
1385573563177715193,-0.0285112054636,-0.00331440970214,0.0106933228038,1.0,0.0,-0.000742275893709
1385573563277673639,-0.0283453548701,-0.00381878215152,0.0103217481028,1.0,0.0,-0.000738690455982
1385573563377760516,-0.02802516093,-0.00416582484362,0.0100427138155,1.0,0.0,-0.000775799835771
1385573563477678823,-0.0277025116828,-0.00474087692456,0.0100165979081,1.0,0.0,-0.000772471346947
1385573563577571406,-0.0272604797132,-0.00515282821681,0.0099116379807,1.0,0.0,-0.000764131442476
1385573563677630884,-0.0266916436901,-0.00538496174501,0.00977165063101,1.0,0.0,-0.000768879698963
1385573563777586425,-0.0260914577792,-0.00502748222574,0.00952572472535,1.0,0.0,-0.000924710014504
1385573563877550780,-0.0253623468413,-0.00488757593268,0.00914456213505,1.0,0.0,-0.00101097048035
1385573563977610420,-0.0245417918447,-0.00436579008154,0.00880845123115,1.0,0.0,-0.00111715535601
1385573564077636533,-0.0237331235787,-0.00347410794186,0.00837355833998,1.0,0.0,-0.00134897618225
1385573564177552721,-0.0227346714409,-0.00293088476128,0.00791235768987,1.0,0.0,-0.00144635644345
1385573564277585154,-0.0218185886236,-0.00198467397677,0.00732785569605,1.0,0.0,-0.00163160777475
1385573564377728854,-0.0209165632589,-0.0012357715391,0.00694296836253,1.0,0.0,-0.00181148459537
1385573564477552924,-0.020039469599,-0.00032799514297,0.00659636541819,1.0,0.0,-0.00206931825886
1385573564577631582,-0.0191559393959,0.000163057283233,0.00627210655934,1.0,0.0,-0.00227752773018
1385573564677655966,-0.0185263770408,0.000644173725194,0.00603864650694,1.0,0.0,-0.00258477654869
1385573564777541234,-0.0178793148883,0.000706366604628,0.00560384573895,1.0,0.0,-0.00282546907393
1385573564877628725,-0.0174362240375,0.000938846701369,0.00525920948196,1.0,0.0,-0.00319012483059
1385573564977589553,-0.0170920889678,0.000533502170593,0.00503250311352,1.0,0.0,-0.00344213146557
1385573565077748948,-0.0168374487595,0.000412093808768,0.00463385158536,1.0,0.0,-0.00379482834412
1385573565177680119,-0.0168160561333,-0.000375120719052,0.00445463990299,1.0,0.0,-0.00400497443797
1385573565277644423,-0.0169140966938,-0.00107909106469,0.00436778326059,1.0,0.0,-0.00419697659182
1385573565377686693,-0.0172840619286,-0.00161391436797,0.00412562916361,1.0,0.0,-0.00449320891463
1385573565477588188,-0.0176420805438,-0.00200053184293,0.00429029487257,1.0,0.0,-0.00483104236776
1385573565577643011,-0.018203041905,-0.00246427071113,0.0041822235054,1.0,0.0,-0.00516426401637
1385573565677625783,-0.0187937295435,-0.00294878075002,0.00416622835796,1.0,0.0,-0.00546383769101
1385573565777652594,-0.0193316651263,-0.00329281535904,0.00415205688228,1.0,0.0,-0.00575372119708
1385573565877666082,-0.0199581814452,-0.00380551513491,0.00393119939238,1.0,0.0,-0.00592595766286
1385573565977747136,-0.0203577224584,-0.00369669735327,0.00387966122056,1.0,0.0,-0.00626440883187
1385573566077696767,-0.0205950303494,-0.00397772337632,0.00374139558778,1.0,0.0,-0.00648206411114
1385573566177666464,-0.0207764931534,-0.00392324068109,0.0037102190442,1.0,0.0,-0.00674171992302
1385573566277558396,-0.0208181441831,-0.00417492841186,0.00349666768955,1.0,0.0,-0.00690736640005
1385573566377607570,-0.0208409785493,-0.00423131687704,0.00363566413494,1.0,0.0,-0.0070623837993
1385573566477590849,-0.0208198728975,-0.00414019207664,0.00374756960453,1.0,0.0,-0.00727103445879
1385573566577646638,-0.020868393342,-0.00391228690246,0.00396506397852,1.0,0.0,-0.00754541023008
1385573566677656307,-0.0208515291734,-0.00398070829279,0.00414943021167,1.0,0.0,-0.00767017086443
1385573566777567082,-0.0208829204262,-0.00383025483017,0.00435092246753,1.0,0.0,-0.00776873962891
1385573566877562838,-0.0207880762174,-0.00366299418252,0.00452857869455,1.0,0.0,-0.00792235685264
1385573566978012863,-0.0206119081694,-0.00339824770225,0.00457933290231,1.0,0.0,-0.00803391286038
1385573567077769297,-0.0204607699186,-0.00299783440894,0.00457556035857,1.0,0.0,-0.00821991217848
1385573567177776784,-0.0202601558625,-0.00287409818472,0.00428598646144,1.0,0.0,-0.00827810826722
1385573567277911603,-0.0200693644916,-0.0023538920497,0.00431952920926,1.0,0.0,-0.00841522381893
1385573567378471460,-0.0200153983269,-0.00225271372332,0.00413236288248,1.0,0.0,-0.00847844764766
1385573567477743401,-0.0200948979978,-0.00235647898771,0.00377077716105,1.0,0.0,-0.00846213474463
1385573567577599838,-0.0203395801303,-0.00247171187556,0.00360263892259,1.0,0.0,-0.00847325248392
1385573567677639846,-0.0207388118365,-0.00297202553383,0.00345986902309,1.0,0.0,-0.00838366721392
1385573567777763421,-0.0213382327426,-0.0033439272196,0.00319208434752,1.0,0.0,-0.00832553385091
1385573567877598404,-0.0220311050878,-0.00386439847771,0.00310081817331,1.0,0.0,-0.00819611846467
1385573567977631722,-0.022842174101,-0.00422393263188,0.00299875587604,1.0,0.0,-0.00811672989463
1385573568077640968,-0.0237152309876,-0.00460000781481,0.00294820776697,1.0,0.0,-0.00805364991267
1385573568177637961,-0.0247317070858,-0.00515958292663,0.00290673785261,1.0,0.0,-0.00784709808568
1385573568277667888,-0.0257788485928,-0.0055970068291,0.00289547888806,1.0,0.0,-0.00755771946335
1385573568377726217,-0.0268542725668,-0.00585723552717,0.00289267486683,1.0,0.0,-0.0072634333024
1385573568477673681,-0.0279311370323,-0.00618001877066,0.00293004216426,1.0,0.0,-0.00688135843591
1385573568577602034,-0.0288453136738,-0.00643230060957,0.00290660840565,1.0,0.0,-0.00643262000492
1385573568677704182,-0.0296901125379,-0.00656419185501,0.00301663793542,1.0,0.0,-0.00597150497113
1385573568777616510,-0.0303899289813,-0.00632198368052,0.00304345934081,1.0,0.0,-0.0056417911601
1385573568877640347,-0.0307383689611,-0.00616911179433,0.00311158996027,1.0,0.0,-0.00532418411385
1385573568977576121,-0.0307836339017,-0.0060557264508,0.00311130616726,1.0,0.0,-0.00492118787032
1385573569078118323,-0.0305323845289,-0.00551272699544,0.00298173811567,1.0,0.0,-0.0046552833513
1385573569177647778,-0.0301378776856,-0.00508794075943,0.00270729914785,1.0,0.0,-0.00440270732322
1385573569277659207,-0.0293915143592,-0.00467368338333,0.00265170274931,1.0,0.0,-0.00405036062054
1385573569377672728,-0.0286890747185,-0.00412686837507,0.00246916946092,1.0,0.0,-0.00377755466288
1385573569478096041,-0.0279506562709,-0.00377297230566,0.00252387634094,1.0,0.0,-0.00344886661261
1385573569577592369,-0.0273763167785,-0.00328325026982,0.00244580862474,1.0,0.0,-0.00319146832742
1385573569677705136,-0.0268527762457,-0.00257680673554,0.00239658822373,1.0,0.0,-0.00304967138992
1385573569777864457,-0.0263905523307,-0.00197949206355,0.00229480092626,1.0,0.0,-0.00289054302918
1385573569877596534,-0.025939485182,-0.00139820776523,0.00222277498536,1.0,0.0,-0.00274337903827
1385573569977728091,-0.0256780002035,-0.000939002260186,0.00208000003695,1.0,0.0,-0.00254565291523
1385573570077632130,-0.0255289116545,-0.000521545606089,0.00192133431466,1.0,0.0,-0.00231807034987
1385573570178222566,-0.0256158581536,0.000146730794377,0.00178595741417,1.0,0.0,-0.00224953522187
1385573570277652216,-0.0258486216968,0.000645600348094,0.00167709155783,1.0,0.0,-0.00215113592475
1385573570377747028,-0.0261599670464,0.000916049006823,0.00159012240525,1.0,0.0,-0.00197916544796
1385573570477682885,-0.0265886363015,0.00165948149113,0.00141540443313,1.0,0.0,-0.00197774438418
1385573570577636461,-0.0271407962587,0.00181135531171,0.00125832947342,1.0,0.0,-0.00185127539478
1385573570677581734,-0.0277292065632,0.00218771256996,0.00111789969982,1.0,0.0,-0.00182737667085
1385573570777756428,-0.0282235188715,0.00223626360942,0.00098364309944,1.0,0.0,-0.00173560228932
1385573570878209831,-0.0287937980208,0.00224400799392,0.000792751919404,1.0,0.0,-0.00166176386891
1385573570977663362,-0.0291907067584,0.00209676255815,0.000706943073774,1.0,0.0,-0.00155882522668
1385573571077740490,-0.0295168123974,0.00184862697086,0.00074033751389,1.0,0.0,-0.00145427197009
1385573571177652270,-0.0297495371192,0.00174109946985,0.000783685015355,1.0,0.0,-0.00143642534412
1385573571277600282,-0.0297972096685,0.00138026076644,0.000846855731725,1.0,0.0,-0.00131609503621
1385573571377605422,-0.0297303860732,0.00113070171235,0.000841250426553,1.0,0.0,-0.00127025099225
1385573571477858350,-0.029518642009,0.000902664382082,0.000858390090166,1.0,0.0,-0.00120514218149
1385573571577748702,-0.0292372188715,0.000560598173426,0.000894522193193,1.0,0.0,-0.00116998492376
1385573571677616373,-0.0288584775054,0.000287215797638,0.000920181277192,1.0,0.0,-0.0010567305601
1385573571777713471,-0.0284512352985,-0.000106293538347,0.000949456365054,1.0,0.0,-0.000847668635878
1385573571877646700,-0.028164400842,-0.000198476119347,0.000872705135779,1.0,0.0,-0.000696102714485
1385573571977618150,-0.0279469998215,-0.000459650986805,0.000972003087138,1.0,0.0,-0.00048540365319
1385573572077669205,-0.0278744542816,-0.000519736065594,0.000907080296834,1.0,0.0,-0.000320982722544
1385573572177622183,-0.0278813205322,-0.000572512630683,0.00100412679533,1.0,0.0,-0.000148250245276
1385573572277680961,-0.0279081413517,-0.000758887721427,0.000964080558642,1.0,0.0,6.97135811682e-05
1385573572377540021,-0.0279548657029,-0.000772015519528,0.00103509570317,1.0,0.0,0.000247386306632
1385573572477623024,-0.0280397130845,-0.000727251904917,0.000911356245304,1.0,0.0,0.000441994858631
1385573572577664903,-0.0281083149632,-0.000631925489174,0.0010467935311,1.0,0.0,0.000602098455493
1385573572677643449,-0.028159269049,-0.000410066420887,0.00118222825113,1.0,0.0,0.000783232577416
1385573572777595714,-0.0281651571068,-0.000296838710276,0.00137854268254,1.0,0.0,0.000998314134107
1385573572877654283,-0.0281226482711,-6.21953236747e-05,0.00147360495157,1.0,0.0,0.00124936247086
1385573572977673311,-0.0279617072366,0.00030512879387,0.00162545376105,1.0,0.0,0.00148690852298
1385573573077575350,-0.0277222589268,0.000869750199567,0.00176099007339,1.0,0.0,0.00169576800532
1385573573177708077,-0.0273507631193,0.0016464196696,0.00184955450774,1.0,0.0,0.00184248996738
1385573573277707025,-0.0268732879067,0.00242733322853,0.00189791800075,1.0,0.0,0.00196502298601
1385573573378167334,-0.0263403066043,0.00300893279894,0.00187377852069,1.0,0.0,0.00218838776577
1385573573477614371,-0.0257636892688,0.00372121183078,0.00189231869877,1.0,0.0,0.00233624275971
1385573573578258468,-0.0253019644794,0.0041509904987,0.00190410378203,1.0,0.0,0.00253306376271
1385573573677712729,-0.024762780366,0.00454209316137,0.0018573398055,1.0,0.0,0.0026862898706
1385573573777636905,-0.0242811921105,0.00492791875016,0.00186511591354,1.0,0.0,0.00279600078182
1385573573878742763,-0.0238420210185,0.00527921209297,0.00181569314651,1.0,0.0,0.00284471318146
1385573573977554339,-0.023443647143,0.00544748944418,0.00195893681187,1.0,0.0,0.00292460551854
1385573574077676042,-0.0232589472891,0.00527895917503,0.00180697329672,1.0,0.0,0.00309441925473
1385573574177654125,-0.0230529454814,0.00530474503009,0.00167817063949,1.0,0.0,0.00315043054504
1385573574277759663,-0.0228407722688,0.00529441542666,0.00157594613474,1.0,0.0,0.0031571702339
1385573574377774078,-0.0227350662976,0.00521963145237,0.00148450056245,1.0,0.0,0.00310210525951
1385573574477585939,-0.0225317422887,0.00503819010593,0.00141325142385,1.0,0.0,0.00304613922744
1385573574577615113,-0.0224005558881,0.0048392290499,0.00133421369029,1.0,0.0,0.00302102127251
1385573574677832629,-0.0222576526935,0.00463627910442,0.00131253902277,1.0,0.0,0.003014793033
1385573574777629087,-0.0221291889004,0.00463028913776,0.00125117548039,1.0,0.0,0.00288570165989
1385573574877589927,-0.0221430577569,0.00459034699001,0.00126977981652,1.0,0.0,0.00275276542243
1385573574977652538,-0.0220398140763,0.00448973869562,0.00146310326823,1.0,0.0,0.00264672372784
1385573575077561088,-0.022089266013,0.00434155788392,0.00156105862195,1.0,0.0,0.00259727531202
1385573575177605684,-0.0219954347752,0.00423781981438,0.00156267290244,1.0,0.0,0.0025334275909
1385573575277630538,-0.0218590853848,0.00392561632424,0.00157826014008,1.0,0.0,0.00252354823546
1385573575377728590,-0.0217086920896,0.00396569691128,0.00148554676553,1.0,0.0,0.00242102035683
1385573575477607043,-0.0214329700938,0.00360686201013,0.00133975001801,1.0,0.0,0.00246344593182
1385573575577565077,-0.0212768129768,0.00347608861883,0.00118969404184,1.0,0.0,0.00250818072062
1385573575677616190,-0.0210631497914,0.00347258904097,0.00105147157108,1.0,0.0,0.00251837651415
1385573575777681948,-0.0209166768256,0.00328578678783,0.000771383921602,1.0,0.0,0.00267426145027
1385573575877662775,-0.0208925246599,0.00360425430348,0.000609267345591,1.0,0.0,0.00265491425603
1385573575977557294,-0.0208907293678,0.00376373992053,0.00047077871923,1.0,0.0,0.00265029718813
1385573576077570771,-0.0208870949007,0.00411332541101,0.000393322270523,1.0,0.0,0.00262780178404
1385573576177637583,-0.0209477910399,0.00437738180687,0.000460321936717,1.0,0.0,0.00265180590827
1385573576277548162,-0.0209353989618,0.00479801843148,0.00056417803784,1.0,0.0,0.00262629941035
1385573576377607316,-0.0208620267495,0.00519046801351,0.000545631639791,1.0,0.0,0.00258919128488
1385573576477578438,-0.0208146548714,0.00541296827862,0.000690757288909,1.0,0.0,0.00261141078621
1385573576577576375,-0.0206679151306,0.00569265486704,0.000773384413226,1.0,0.0,0.00260572870029
1385573576677642282,-0.0204389385906,0.00567630166379,0.000890423013842,1.0,0.0,0.00270224864512
1385573576777602407,-0.0202003173058,0.00577201183771,0.000953349144245,1.0,0.0,0.002727002607
1385573576877595091,-0.0198482660232,0.00569604608734,0.00091326497366,1.0,0.0,0.00279069867473
1385573576977741783,-0.0195210168653,0.00559079459408,0.00086547801854,1.0,0.0,0.00284956899098
1385573577077653082,-0.0192148977522,0.00550829666632,0.000748209471941,1.0,0.0,0.00292076055444
1385573577178114609,-0.0189198394446,0.00546251125698,0.000733227309391,1.0,0.0,0.00294572497808
1385573577277537466,-0.0187234868123,0.00515205621832,0.000598431231665,1.0,0.0,0.00312771886532
1385573577377745719,-0.018674132007,0.00511793409111,0.000396378992234,1.0,0.0,0.00331062506515
1385573577477695867,-0.0186977257422,0.00509447396222,0.000133020914573,1.0,0.0,0.00346395708682
1385573577577664373,-0.0189427019319,0.00494400431323,-0.000117089100306,1.0,0.0,0.00375263743284
1385573577677655730,-0.0191691964635,0.00494550392499,-0.000236511690506,1.0,0.0,0.00394787037078
1385573577777560503,-0.0195237485502,0.00482289257702,-0.00020208461534,1.0,0.0,0.00417284151825
1385573577877649387,-0.0197563878336,0.00492736809026,-7.96323320344e-05,1.0,0.0,0.00430580398226
1385573577978012072,-0.0198928891782,0.00483212831015,-1.80673291185e-05,1.0,0.0,0.00447103135546
1385573578077672653,-0.0198963276025,0.00481575116377,0.000184738758641,1.0,0.0,0.00462776940269
1385573578177666772,-0.0197710939134,0.00476168361994,0.000480704253124,1.0,0.0,0.00478448461438
1385573578277687161,-0.0195730196896,0.00469021266979,0.000770410751164,1.0,0.0,0.00493440298659
1385573578377663803,-0.0193290948448,0.00457576075629,0.000881662082021,1.0,0.0,0.00511330865631
1385573578477592963,-0.0191094168886,0.0045288645981,0.00100957856246,1.0,0.0,0.00528889423103
1385573578577635177,-0.0189372478025,0.00431310175144,0.00119881618574,1.0,0.0,0.00549117592644
1385573578677551145,-0.0188771224605,0.00398988197254,0.00137377791874,1.0,0.0,0.00579650283966
1385573578777683105,-0.0187870349236,0.00402977792958,0.00140094167375,1.0,0.0,0.00579525414138
1385573578877640102,-0.018860673398,0.00368070862704,0.00134359430096,1.0,0.0,0.0059795638606
1385573578977626686,-0.0189592207222,0.00351891363967,0.00144247166097,1.0,0.0,0.00604672005632
1385573579077592697,-0.0190557718224,0.00338489050703,0.001536418437,1.0,0.0,0.00608808904236
1385573579177717972,-0.0192141944306,0.00332936138997,0.00168151338449,1.0,0.0,0.00614753543437
1385573579277702318,-0.0193571459892,0.00343649198988,0.00178913203571,1.0,0.0,0.00617937372409
1385573579378467984,-0.0194145651612,0.00372911961407,0.00197081467384,1.0,0.0,0.00619638981664
1385573579477787004,-0.0195693231933,0.0039078830888,0.00208411387877,1.0,0.0,0.00626849282668
1385573579578237396,-0.0196647845868,0.0043654718551,0.00215900720624,1.0,0.0,0.00622966179933
1385573579677742289,-0.0197729245273,0.00475950801234,0.00225132294042,1.0,0.0,0.00617401783351
1385573579777647045,-0.019942412018,0.00529720950378,0.00223213987505,1.0,0.0,0.0061204252019
1385573579878049056,-0.0201077401732,0.00558663155202,0.00232061494307,1.0,0.0,0.00613621360046
1385573579977585422,-0.0202523584272,0.00625827361087,0.00225712050743,1.0,0.0,0.00607042727075
1385573580077641836,-0.0202873768129,0.00672340476612,0.00224988387396,1.0,0.0,0.00601888600111
1385573580177642057,-0.0203149410176,0.00721383732301,0.00207120398307,1.0,0.0,0.00596683438066
1385573580277941165,-0.0202580247369,0.00756981503861,0.00182897410839,1.0,0.0,0.00588995267744
1385573580377959939,-0.0201160257194,0.00794933647345,0.00162437457438,1.0,0.0,0.00575485692657
1385573580477792612,-0.0199891406917,0.0081586988531,0.00128772470557,1.0,0.0,0.00567128496242
1385573580577884487,-0.0198468687173,0.00842251950515,0.00108161417364,1.0,0.0,0.00552903289584
1385573580677561776,-0.0197606100179,0.00866709693143,0.000830961283053,1.0,0.0,0.00537634941588
1385573580777555941,-0.0197390976189,0.00863842306854,0.000587058157778,1.0,0.0,0.00533460970688
1385573580877609735,-0.0196825443962,0.00861297178606,0.000603476900475,1.0,0.0,0.00529148237815
1385573580977532095,-0.0197962355098,0.00848923485253,0.000467193717594,1.0,0.0,0.00529479657582
1385573581077582325,-0.0197901499069,0.00846575762928,0.000538059849445,1.0,0.0,0.00517936193767
1385573581177591761,-0.0197888636533,0.00841623130213,0.000602667994958,1.0,0.0,0.00506183718114
1385573581277663132,-0.0198011623235,0.00835529532289,0.000661832819188,1.0,0.0,0.00492851054413
1385573581377558280,-0.0198158561543,0.00836537543203,0.00066552484122,1.0,0.0,0.00483638514003
1385573581477682075,-0.019749428585,0.00835473620308,0.000689308489228,1.0,0.0,0.00474870803716
1385573581577716383,-0.0198180744417,0.0083502733783,0.000714230521365,1.0,0.0,0.00475291279512
1385573581677650002,-0.0197849111885,0.00844299194066,0.000598233336602,1.0,0.0,0.00477214040329
1385573581777606205,-0.0197891627082,0.00854375383423,0.000484064829143,1.0,0.0,0.00479351150382
1385573581877567755,-0.0197300551123,0.00848994754922,0.000401546517437,1.0,0.0,0.00495561761227
1385573581977578709,-0.0196998543098,0.00842157405612,0.000286231598907,1.0,0.0,0.00514583575582
1385573582077753765,-0.0195938902924,0.00836989444731,0.000228945978738,1.0,0.0,0.00536044449945
1385573582177539260,-0.0194770681083,0.00850587962739,0.000205190087372,1.0,0.0,0.00551196506754
1385573582277622682,-0.0191638616756,0.00860826235271,0.000191770736231,1.0,0.0,0.00565555366663
1385573582377626823,-0.0189248646061,0.00876387738592,0.000193378146316,1.0,0.0,0.0058100418549
1385573582477605643,-0.0185937110573,0.00893588024424,0.000123017887773,1.0,0.0,0.00594465334582
1385573582577649783,-0.018322668827,0.00903437391182,4.86135619896e-05,1.0,0.0,0.00611224158089
1385573582677609086,-0.0180840942295,0.0090675676764,-9.1259619049e-05,1.0,0.0,0.0063059525052
1385573582777560038,-0.017977966402,0.00898016229626,-0.000260734706227,1.0,0.0,0.0065120162477
1385573582877610261,-0.0178495383344,0.00899918518015,-0.00041590934499,1.0,0.0,0.00674616323058
1385573582977605344,-0.017903997426,0.00904271400329,-0.000551119396615,1.0,0.0,0.00697680014719
1385573583077529625,-0.017779347725,0.00940654567406,-0.000740518422258,1.0,0.0,0.00710464834619
1385573583177549557,-0.0177577283883,0.00957844107949,-0.000777030221156,1.0,0.0,0.0071953407804
1385573583277566108,-0.0176677527127,0.00983504664736,-0.000813127893772,1.0,0.0,0.00729449461908
1385573583377706959,-0.0176035432448,0.0100646349104,-0.00091272505386,1.0,0.0,0.007365497524
1385573583477708163,-0.0176643281189,0.0101738056127,-0.00109420177575,1.0,0.0,0.00753496903347
1385573583577586681,-0.0177123902375,0.0102830895235,-0.00125716133883,1.0,0.0,0.00765990805334
1385573583677553066,-0.0179049710518,0.0099944444809,-0.00128799469206,1.0,0.0,0.00793753820516
1385573583777530149,-0.0180101477997,0.00997300412054,-0.00134581430188,1.0,0.0,0.00807651494212
1385573583877570512,-0.0180823968784,0.00981751446667,-0.00148202783696,1.0,0.0,0.00819160941681
1385573583977645455,-0.0181926106587,0.00948824497023,-0.00155177981892,1.0,0.0,0.0083238254118
1385573584077619127,-0.0182784832806,0.00887186419304,-0.00165064017081,1.0,0.0,0.00850972733871
1385573584177753771,-0.0179956136955,0.00862325121247,-0.00166513187538,1.0,0.0,0.00859011171566
1385573584277766774,-0.0177860803312,0.00818412480648,-0.00170068545388,1.0,0.0,0.00869374600172
1385573584377761115,-0.0174066125023,0.00774065676719,-0.00175859125884,1.0,0.0,0.00877307671844
1385573584477659155,-0.0170505164452,0.00722157500763,-0.00180481501637,1.0,0.0,0.00891055471413
1385573584577599297,-0.0166703411316,0.00674789262834,-0.00190871223576,1.0,0.0,0.00903872775916
1385573584677727393,-0.016236091602,0.00636803087352,-0.00191043738304,1.0,0.0,0.00913349184898
1385573584777627941,-0.0159191938555,0.00596592829354,-0.00185209075897,1.0,0.0,0.00930032496867
1385573584877677566,-0.0156252146166,0.00581941736385,-0.00173012578148,1.0,0.0,0.00946368949418
1385573584977576007,-0.0153749656281,0.00572900044651,-0.00167049920761,1.0,0.0,0.00965101816846
1385573585078058398,-0.0151492826282,0.0057239396117,-0.00166871090444,1.0,0.0,0.0098066111116
1385573585177663568,-0.0149947207807,0.00580029731568,-0.00161738724781,1.0,0.0,0.00996404505972
1385573585277771866,-0.0147131919253,0.00600708637973,-0.00152413007719,1.0,0.0,0.0100607694091
1385573585377583756,-0.0145963341618,0.00604110910071,-0.00145512194068,1.0,0.0,0.01019481279
1385573585477620460,-0.0145340905156,0.00592775179147,-0.00152380757044,1.0,0.0,0.0103248329483
1385573585577667875,-0.0143942862503,0.00582333327539,-0.00155812316063,1.0,0.0,0.010406754405
1385573585677628349,-0.0143565151044,0.00530719247454,-0.00152563657728,1.0,0.0,0.0106042299936
1385573585777656647,-0.0142656804968,0.00493679099276,-0.00181436958954,1.0,0.0,0.0107027688281
1385573585877705105,-0.0142075892593,0.00438967944918,-0.00188654948892,1.0,0.0,0.0108010087915
1385573585977621882,-0.0141349385612,0.00388130693705,-0.00198559989924,1.0,0.0,0.0108607083855
1385573586077675772,-0.0139580064032,0.00331966544066,-0.0020559628364,1.0,0.0,0.0109434704266
1385573586177544068,-0.0137211857029,0.00281663526463,-0.00215620669316,1.0,0.0,0.0109701466981
1385573586277760648,-0.0135042690334,0.00241763743728,-0.0020642329032,1.0,0.0,0.0109638718129
1385573586377783015,-0.0132968729926,0.00201583802253,-0.00207189017776,1.0,0.0,0.0109681806638
1385573586477922187,-0.0131273007113,0.00169951338455,-0.0019844180027,1.0,0.0,0.0109362898623
1385573586577981251,-0.0130375503682,0.00135777085797,-0.00173422749421,1.0,0.0,0.0109717093828
1385573586677726701,-0.0130126691045,0.00104890262808,-0.00161852210405,1.0,0.0,0.0109755235231
1385573586778048876,-0.0128993041682,0.000809059037343,-0.00124111672384,1.0,0.0,0.0110086734042
1385573586878268914,-0.0130204945022,0.000564878758514,-0.0010334946978,1.0,0.0,0.0110512527065
1385573586977630318,-0.0130414698047,0.000341208264298,-0.000686933320252,1.0,0.0,0.0111497331992
1385573587077585991,-0.0131343478434,0.000279188081655,-0.000440407653435,1.0,0.0,0.0111664709548
1385573587177709854,-0.0132602954834,0.000210955153794,-0.000236847333633,1.0,0.0,0.0112103708208
1385573587277684582,-0.0135686381085,0.000189378003532,-1.46232483277e-05,1.0,0.0,0.0112153337371
1385573587377701446,-0.0139171892058,0.000213617209588,0.000155992991399,1.0,0.0,0.011242628206
1385573587477706555,-0.014283831164,0.000278201090823,0.000342934448296,1.0,0.0,0.0112839283028
1385573587577541889,-0.0146680559821,0.000423610869615,0.000405562042289,1.0,0.0,0.0112653285948
1385573587677741002,-0.0150319509197,0.00041466824175,0.000423291520076,1.0,0.0,0.0113150928434
1385573587777679972,-0.0153201869665,0.00055538445754,0.000380254793892,1.0,0.0,0.0112404405206
1385573587877530968,-0.0156702659497,0.000368313509469,0.000298304203421,1.0,0.0,0.0112251123633
1385573587977603782,-0.0158177474561,0.000568742299411,0.000277012378721,1.0,0.0,0.0110873663576
1385573588077967186,-0.0160069782442,0.000364784036374,0.000273694907598,1.0,0.0,0.0109922241704
1385573588177677316,-0.0162727915679,0.00022355618292,0.00027851897005,1.0,0.0,0.010886604409
1385573588277596154,-0.0163266815572,0.000122146330867,0.000306849857058,1.0,0.0,0.0107784938793
1385573588377751319,-0.0164579353404,2.97894739709e-06,0.000309571540818,1.0,0.0,0.01068520549
1385573588477680512,-0.0163095663458,7.62386403061e-05,0.000275714059692,1.0,0.0,0.0105384690412
1385573588577667232,-0.0161999167801,0.000103485609658,0.000252984537566,1.0,0.0,0.010398028996
1385573588677546455,-0.0161386665444,8.24547726074e-05,0.000197898633427,1.0,0.0,0.0102640850781
1385573588777527960,-0.0159025535809,0.000188161415434,0.000196295266885,1.0,0.0,0.0100478291711
1385573588877562600,-0.0158436736049,8.95959997822e-05,4.30980408054e-05,1.0,0.0,0.00994938661381
1385573588977746772,-0.0157675033341,8.83429282824e-05,-4.99141397341e-05,1.0,0.0,0.00978479493482
1385573589077661482,-0.0158652749014,-0.000140287282968,-0.000127042143789,1.0,0.0,0.00968364927308
1385573589177657283,-0.0159122666061,-2.14709049608e-05,-4.85236168246e-05,1.0,0.0,0.00935291822743
1385573589277660502,-0.016051399567,-0.00010253489012,0.00010948140755,1.0,0.0,0.00913178326671
1385573589377600245,-0.0161912550946,-0.000130637652832,0.000303280710923,1.0,0.0,0.00887559511501
1385573589477566219,-0.0162670884236,-6.32275145333e-05,0.000545654005166,1.0,0.0,0.00866302317277
1385573589577709795,-0.0163188527318,0.0001475712723,0.00079074376412,1.0,0.0,0.00844694455766
1385573589677544480,-0.0163291861186,0.000518774207468,0.00115441566456,1.0,0.0,0.00825069631614
1385573589777624506,-0.0162747639634,0.00113576384924,0.0015700658539,1.0,0.0,0.00798381145232
1385573589877708740,-0.0160139195893,0.00168772602275,0.00187121149702,1.0,0.0,0.00775020550604
1385573589977691230,-0.0157731237913,0.00240453308463,0.0020106461326,1.0,0.0,0.0075354165839
1385573590077700718,-0.0154863701011,0.00295785963511,0.00212646804289,1.0,0.0,0.00738451209618
1385573590177575955,-0.0152731996203,0.00366815127132,0.00203264375884,1.0,0.0,0.00717609778216
1385573590277657788,-0.0148649874231,0.0042952527041,0.00189034023947,1.0,0.0,0.00703950752608
1385573590377664522,-0.0145922505361,0.00478863751614,0.0016358984712,1.0,0.0,0.00682067136811
1385573590477679874,-0.0143560550321,0.0051762835054,0.00134258787435,1.0,0.0,0.00660564344779
1385573590577713390,-0.014202204913,0.00559589228523,0.00111204498522,1.0,0.0,0.00633462058865
1385573590677679013,-0.0141500081738,0.00580656476628,0.00105796939142,1.0,0.0,0.00603652661987
1385573590777586332,-0.0141368066888,0.00577447312657,0.00108600676249,1.0,0.0,0.00586702650812
1385573590877709149,-0.0140571470462,0.00579001889401,0.00115869953544,1.0,0.0,0.00560644315264
1385573590977539900,-0.0139944211043,0.00544996434257,0.00125140009677,1.0,0.0,0.00543454318845
1385573591077637075,-0.0138565231829,0.00528109263796,0.00131920862203,1.0,0.0,0.00523160478139
1385573591177588704,-0.0136896622091,0.00485254927644,0.00143740051165,1.0,0.0,0.00508205734407
1385573591277677696,-0.0136236839201,0.00443077270464,0.0017386735086,1.0,0.0,0.00497345487668
1385573591377584422,-0.0135264683031,0.0040967205229,0.00197591081289,1.0,0.0,0.004821732916
1385573591477677817,-0.0135224118381,0.00376706271582,0.00206744373139,1.0,0.0,0.00466359691743
1385573591577700095,-0.0136500493441,0.00353275480087,0.0021152906533,1.0,0.0,0.004540384361
1385573591677712789,-0.0138701572734,0.00342378673093,0.00220921326778,1.0,0.0,0.004498085823
1385573591777646637,-0.0141746874027,0.00354410079315,0.00218883250575,1.0,0.0,0.00443448054046
1385573591877736868,-0.0145139013303,0.00369159405359,0.00204657026012,1.0,0.0,0.00446441973483
1385573591977842021,-0.0149221158425,0.00391466057154,0.00177857242624,1.0,0.0,0.00442146107296
1385573592077616983,-0.0152608820419,0.00438140213131,0.00148877769068,1.0,0.0,0.00436596689892
1385573592177669354,-0.0156321435488,0.00479427185541,0.00116645742811,1.0,0.0,0.00431894307724
1385573592278361750,-0.0159337764748,0.00538210574303,0.000849345887401,1.0,0.0,0.00421490284688
1385573592377926723,-0.0163484885131,0.00585511835264,0.000554938331629,1.0,0.0,0.00420602169481
1385573592477596538,-0.0166131023596,0.00646127041661,0.000420760521279,1.0,0.0,0.0040958776493
1385573592577669572,-0.0169890943519,0.00704257377115,0.000267886933555,1.0,0.0,0.00401928095178
1385573592677575839,-0.0172728386822,0.00743088929556,0.00014258339577,1.0,0.0,0.00393985860781
1385573592777734475,-0.0174916944098,0.00775482150577,6.81312669076e-05,1.0,0.0,0.00386184590278
1385573592877710489,-0.0176639758469,0.00787036239758,-0.000114397027997,1.0,0.0,0.00380550936452
1385573592977740722,-0.0177127394486,0.00798163800301,-0.000256986760396,1.0,0.0,0.0036972478842
1385573593077741995,-0.0176746717442,0.00806236498118,-0.000377942997246,1.0,0.0,0.00351701150802
1385573593177651658,-0.0176546956603,0.00790241377417,-0.000510755416928,1.0,0.0,0.00345393416411
1385573593277690592,-0.0176324165346,0.00787108694352,-0.000513545311912,1.0,0.0,0.00338569459925
1385573593377563651,-0.0175161715722,0.00766021394259,-0.000553485155187,1.0,0.0,0.0032763130127
1385573593477584458,-0.0173760996763,0.00718767368941,-0.000736004496113,1.0,0.0,0.00323965463297
1385573593577580844,-0.0172557364335,0.00668451347072,-0.000940962849678,1.0,0.0,0.00316369173602
1385573593677593636,-0.0170488609247,0.00617098449657,-0.00112153087572,1.0,0.0,0.0029835922392
1385573593777675416,-0.0170310605865,0.00528545565911,-0.00126626865043,1.0,0.0,0.00297977714847
1385573593877610010,-0.0169322409766,0.00455735396284,-0.00115961380059,1.0,0.0,0.0029111716312
1385573593978160455,-0.0168014097727,0.00371896987492,-0.00101566149473,1.0,0.0,0.00287835996566
1385573594077782069,-0.016534056313,0.0028287987483,-0.000843434663013,1.0,0.0,0.00283520060815
1385573594177744024,-0.016130254409,0.00182788509314,-0.000715271577652,1.0,0.0,0.0028705043967
1385573594277711049,-0.0155429470457,0.000922001088931,-0.000653595154935,1.0,0.0,0.00285071143993
1385573594377676635,-0.0148672735379,-1.90155199824e-05,-0.000628804694931,1.0,0.0,0.0028681710534
1385573594477631290,-0.0140763048726,-0.000800458572489,-0.000581409596077,1.0,0.0,0.00288112296603
1385573594577631222,-0.0132384100094,-0.00153086270331,-0.000520196818085,1.0,0.0,0.0028961003014
1385573594677620188,-0.0123989960965,-0.00217736953212,-0.000526181155628,1.0,0.0,0.00288985527646
1385573594777668320,-0.0116340128653,-0.00285787703488,-0.000452857050394,1.0,0.0,0.0029275521241
1385573594877758907,-0.0109426813771,-0.00340714560741,-0.000384912266357,1.0,0.0,0.00286249558254
1385573594977700901,-0.0105140939003,-0.00402896931313,-0.000286996087838,1.0,0.0,0.00297584692577
1385573595077615475,-0.010227998671,-0.00437267324471,-0.000238513668833,1.0,0.0,0.00303692397646
1385573595177567044,-0.0102746952432,-0.00466840391396,-0.000131770977358,1.0,0.0,0.00308869827651
1385573595277546026,-0.0105510338638,-0.00490550204657,0.000113689233575,1.0,0.0,0.00319395281514
1385573595377572294,-0.0109033504684,-0.0049012642179,0.000385848819891,1.0,0.0,0.0032323606579
1385573595477757806,-0.0114906400191,-0.00469743731138,0.000543045316114,1.0,0.0,0.00323976326106
1385573595577669083,-0.0118630100549,-0.00450228391823,0.000932115217228,1.0,0.0,0.00335807752964
1385573595677655301,-0.0122952924644,-0.00396339703559,0.0012434281534,1.0,0.0,0.00344972233385
1385573595777697891,-0.0125759416164,-0.00331606018676,0.00149863541176,1.0,0.0,0.00356176092475
1385573595877722229,-0.0126895560583,-0.00264357702283,0.00173354845423,1.0,0.0,0.00366583808481
1385573595977666668,-0.0126879737355,-0.00166574040726,0.00198431970436,1.0,0.0,0.00371450065817
1385573596077726223,-0.0125977766483,-0.000773089427889,0.0021877677939,1.0,0.0,0.00380123523564
1385573596177738083,-0.0124887423311,0.000221079156015,0.00246007497414,1.0,0.0,0.00381383856983
1385573596277572108,-0.0123216204448,0.00136729794418,0.00274824729637,1.0,0.0,0.0036982671189
1385573596377639278,-0.0123212606022,0.0022735036747,0.00298591069187,1.0,0.0,0.00381863967356
1385573596477579457,-0.0121941469225,0.00337551509242,0.00317706015039,1.0,0.0,0.00374953978852
1385573596577739213,-0.0121976442801,0.00441559103428,0.00326453322093,1.0,0.0,0.00374348437727
1385573596677713388,-0.012121240772,0.00533598126695,0.00344823756766,1.0,0.0,0.00372271567857
1385573596777749978,-0.0120978227769,0.00619816573443,0.00356201198934,1.0,0.0,0.00368694368193
1385573596877661567,-0.0120440992288,0.00683830443365,0.00370400285402,1.0,0.0,0.00371622431185
1385573596977576757,-0.0119983815157,0.00744769502659,0.00385249924465,1.0,0.0,0.00376940555218
1385573597077570905,-0.011880641291,0.00781883227757,0.00397496995848,1.0,0.0,0.00380378332049
1385573597177712645,-0.0118697476756,0.00804981802783,0.00404759505155,1.0,0.0,0.00386002743935
1385573597277607492,-0.0117862168469,0.00798890400014,0.00409743197193,1.0,0.0,0.00390020284861
1385573597377558154,-0.0116326417037,0.00789746388317,0.00410953464474,1.0,0.0,0.00379167902084
1385573597477724332,-0.0115088740421,0.00748204648229,0.00410617997006,1.0,0.0,0.00378037523744
1385573597577642916,-0.0113034453149,0.00702817068375,0.00395089072756,1.0,0.0,0.00362774360709
1385573597677661711,-0.0111816570585,0.00635052503014,0.00378890414587,1.0,0.0,0.00354199004603
1385573597777733647,-0.0110921255824,0.00548076092431,0.00363242807377,1.0,0.0,0.00351292541696
1385573597877670261,-0.0110798834959,0.00466472591693,0.00332359125778,1.0,0.0,0.00342015468986
1385573597977963351,-0.0111033893148,0.00363999403925,0.00291568525784,1.0,0.0,0.00348997128126
1385573598077572147,-0.0111423808125,0.00272955532254,0.00255214643849,1.0,0.0,0.00354124211204
1385573598177934301,-0.0112394322386,0.00198238950131,0.00222810304576,1.0,0.0,0.00363272167196
1385573598277666414,-0.0113747441566,0.00142056936444,0.00200419872175,1.0,0.0,0.00368783437054
1385573598378487538,-0.01151043634,0.000938714230086,0.00187478832635,1.0,0.0,0.00381340090735
1385573598477657061,-0.0116081677343,0.00062692185563,0.0017995701724,1.0,0.0,0.00395070910382
1385573598579338919,-0.0116040124741,0.000451445581432,0.00167754817228,1.0,0.0,0.00410986173768
1385573598678789232,-0.0115393072387,0.000347753506667,0.00145793690129,1.0,0.0,0.00421163337531
1385573598777871015,-0.0113862088383,0.000415885274597,0.00108088288356,1.0,0.0,0.00430034225227
1385573598877986770,-0.011217931537,0.000558685281957,0.000734010743473,1.0,0.0,0.00445080954867
1385573598977750194,-0.0110869327279,0.000819074871849,0.000315615143547,1.0,0.0,0.00458118118113
1385573599077650842,-0.0110325523136,0.00136143460871,-0.000174915408289,1.0,0.0,0.00465076532465
1385573599177917606,-0.0112198588572,0.0017092746308,-0.0006509636677,1.0,0.0,0.004792716187
1385573599277824186,-0.0116044887216,0.00210333920436,-0.00112567004509,1.0,0.0,0.00497852097346
1385573599377733784,-0.0122066486435,0.00239248137362,-0.00156162187282,1.0,0.0,0.00520945795597
1385573599477679830,-0.0131068801891,0.0027524679553,-0.00195214006752,1.0,0.0,0.00543840403304
1385573599577562084,-0.0141399754532,0.00316270703424,-0.00239185409261,1.0,0.0,0.00573056712456
1385573599677784144,-0.0153529838907,0.00364104743326,-0.00270891951582,1.0,0.0,0.0060229928269
1385573599777632198,-0.0165246247659,0.004206192379,-0.00301411217512,1.0,0.0,0.00628266703416
1385573599877600858,-0.0176909110544,0.00485263828485,-0.00319942364658,1.0,0.0,0.00656980413362
1385573599977706897,-0.0187393906411,0.00549275098878,-0.00341146331514,1.0,0.0,0.0069854808894
1385573600077598386,-0.0196697967163,0.00620119320724,-0.00365360088895,1.0,0.0,0.00732064968217
1385573600177701364,-0.0205794840187,0.00666553106459,-0.00376884546374,1.0,0.0,0.00784840503863
1385573600277667703,-0.0212205120111,0.00715153809994,-0.00385189936273,1.0,0.0,0.00843127034617
1385573600377564398,-0.0217486170465,0.00769706115842,-0.00390570371303,1.0,0.0,0.00896773411167
1385573600477599433,-0.0221880233493,0.00776842126173,-0.00404424180248,1.0,0.0,0.00969064062119
1385573600577550574,-0.0223357131397,0.00782385438093,-0.00423000485136,1.0,0.0,0.0103850699833
1385573600677566037,-0.0222465768564,0.00773126974293,-0.00432867976635,1.0,0.0,0.0110592449531
1385573600777927663,-0.0219195489922,0.00751661228434,-0.00437043526262,1.0,0.0,0.01172117843
1385573600877575520,-0.0213291043765,0.00709143563837,-0.00431526552131,1.0,0.0,0.0124106206129
1385573600977704885,-0.0203916857921,0.00660868399767,-0.00435841816792,1.0,0.0,0.0131057749996
1385573601077644460,-0.0191518198937,0.00612940582762,-0.00428141240249,1.0,0.0,0.0137164787335
1385573601177642581,-0.0177747339741,0.00550025018326,-0.00431502924114,1.0,0.0,0.0144299140611
1385573601277674572,-0.0162269237125,0.00499182394701,-0.0043149009157,1.0,0.0,0.0151526173969
1385573601377616118,-0.0146936284036,0.00455989495389,-0.00423511254533,1.0,0.0,0.0158417474154
1385573601477604414,-0.0132803157931,0.00408692917164,-0.00424025978203,1.0,0.0,0.016515616003
1385573601577640020,-0.0120047041407,0.00368350054857,-0.00424885874631,1.0,0.0,0.0171476720301
1385573601677689354,-0.0110325101289,0.00327927975941,-0.00423349160713,1.0,0.0,0.0178634115914
1385573601777760636,-0.0103719801689,0.00281977719315,-0.00416191470521,1.0,0.0,0.0185291865932
1385573601877661217,-0.00987117082436,0.00221719360484,-0.00393169505041,1.0,0.0,0.0192782415416
1385573601977645620,-0.009734930715,0.00162167736975,-0.00384854381725,1.0,0.0,0.0199908007068
1385573602077540184,-0.00963068687633,0.00106306669602,-0.00369167973658,1.0,0.0,0.0206206277061
1385573602177607011,-0.00964794191298,0.000519597026369,-0.00357303746139,1.0,0.0,0.0213076694663
1385573602277661407,-0.00974782092972,-4.91308104998e-05,-0.00354441275191,1.0,0.0,0.0219292463759
1385573602377557083,-0.00980735480131,-0.000253948310155,-0.00334777032747,1.0,0.0,0.0224167987925
1385573602477601086,-0.0101227774381,-0.000592381921797,-0.00322524306152,1.0,0.0,0.0228330700848
1385573602577578035,-0.0102820545363,-0.000646176617347,-0.00298607030437,1.0,0.0,0.0231535047642
1385573602677582281,-0.0105396999131,-0.000793139304014,-0.00266709353498,1.0,0.0,0.0234793536623
1385573602777743345,-0.0106725593399,-0.000681250850479,-0.00239768412874,1.0,0.0,0.0237065680242
1385573602877607984,-0.0108066236251,-0.000615877209572,-0.00214554130586,1.0,0.0,0.023912831574
1385573602977551993,-0.0108920799418,-0.000477751783571,-0.00190050174095,1.0,0.0,0.0241482567107
1385573603077685537,-0.0109852752004,-0.000291121089972,-0.00162221449223,1.0,0.0,0.0243842701461
1385573603177583807,-0.011026777545,-5.1323008492e-05,-0.00146472723196,1.0,0.0,0.0246664918463
1385573603277929075,-0.0112028531896,0.000188634307394,-0.00146540530316,1.0,0.0,0.0248448568446
1385573603377628382,-0.0113976571994,0.000401571293986,-0.0014398158763,1.0,0.0,0.025031953344
1385573603477561045,-0.0116628196354,0.000678069932072,-0.00147730549851,1.0,0.0,0.0250632958343
1385573603577660059,-0.0119463132047,0.00100422630181,-0.00145647499847,1.0,0.0,0.0251227576979
1385573603677693517,-0.0122391947808,0.00135204434352,-0.00149349915325,1.0,0.0,0.0251553615311
1385573603777570517,-0.0124763871835,0.00175795591976,-0.00150105804878,1.0,0.0,0.0251702824371
1385573603877631232,-0.0127546418534,0.00219186182165,-0.00154715251082,1.0,0.0,0.0251850820363
1385573603977605786,-0.0129332837193,0.00265298141196,-0.00152772865616,1.0,0.0,0.025245222721
1385573604077703344,-0.0130940179192,0.0031593372878,-0.00149483083446,1.0,0.0,0.0252666362311
1385573604178056898,-0.0131428607999,0.00345223207176,-0.0014557344365,1.0,0.0,0.025361928845
1385573604277475643,-0.0131584502825,0.00376938555452,-0.00152090949225,1.0,0.0,0.0253396429725
1385573604377838061,-0.0130081785494,0.00396315431302,-0.00155158422512,1.0,0.0,0.0252903456594
1385573604477669152,-0.01273242195,0.00391618888037,-0.00151856934609,1.0,0.0,0.0253207527053
1385573604577694477,-0.01229989268,0.00391951523244,-0.00135086712122,1.0,0.0,0.0254218353393
1385573604677742204,-0.0117146086859,0.00368647157339,-0.00118564567074,1.0,0.0,0.0256172277483
1385573604777702323,-0.0109685204441,0.00343312156285,-0.00111580864255,1.0,0.0,0.0259012172643
1385573604877658131,-0.0101515980888,0.00319946580328,-0.00116385957554,1.0,0.0,0.0261835895644
1385573604977713637,-0.00920551440078,0.00288849823632,-0.00110046781906,1.0,0.0,0.0264632163759
1385573605077630321,-0.00818438024036,0.00260858169659,-0.00114099500563,1.0,0.0,0.0267930071825
1385573605177760538,-0.00707071077322,0.00240435620394,-0.00123414193604,1.0,0.0,0.0270662887863
1385573605277822938,-0.0059809081582,0.0023243695909,-0.00131176339363,1.0,0.0,0.0272917404538
1385573605380688011,-0.00489598167722,0.00236222690224,-0.001380459801,1.0,0.0,0.0274799245598
1385573605477600556,-0.00391036448609,0.00241271763794,-0.00153177623217,1.0,0.0,0.0276481410852
1385573605578957622,-0.003056331956,0.00245689928968,-0.00165611349064,1.0,0.0,0.0277981866875
1385573605677597390,-0.00239896290472,0.00251720343638,-0.00170532192444,1.0,0.0,0.0280310274687
1385573605777824964,-0.00200013672362,0.00254754685222,-0.00172450850542,1.0,0.0,0.0281505758719
1385573605877619868,-0.00177691693769,0.00263453347517,-0.00168748370367,1.0,0.0,0.0281936810066
1385573605977665345,-0.00181126586642,0.0028255481471,-0.00164912324104,1.0,0.0,0.0281931543446
1385573606078049143,-0.00203290150839,0.00301376107521,-0.00154385808304,1.0,0.0,0.0282501206824
1385573606177776267,-0.00256004433142,0.00340688548113,-0.00150468317557,1.0,0.0,0.0282312144257
1385573606277699667,-0.00328339600404,0.00391300205071,-0.00155240866103,1.0,0.0,0.0281703150826
1385573606377760429,-0.00407942712231,0.00461763675475,-0.00154583374357,1.0,0.0,0.0280403423955
1385573606477651343,-0.00507108463352,0.00537289532281,-0.00163513196333,1.0,0.0,0.0279090196623
1385573606577642908,-0.00611782515605,0.00623978127369,-0.00161661724848,1.0,0.0,0.0277115731079
1385573606677696047,-0.00716024660599,0.00713301407631,-0.00145806791122,1.0,0.0,0.0275280073648
1385573606777628360,-0.00810741415615,0.0078864662933,-0.00126542488313,1.0,0.0,0.0272980156867
1385573606877617087,-0.00896269998556,0.00859060851992,-0.00105346145545,1.0,0.0,0.0270404832681
1385573606977697941,-0.00964815137574,0.00918517975676,-0.000786320347886,1.0,0.0,0.0267399224554
1385573607077838247,-0.0102097529552,0.00957247573247,-0.000569233083579,1.0,0.0,0.0265129790107
1385573607177607845,-0.0105470115602,0.00978811413282,-0.000346785554612,1.0,0.0,0.0262092412823
1385573607277619104,-0.0106963837968,0.00990402822862,-0.000105044920706,1.0,0.0,0.0258862868647
1385573607377692407,-0.0107030186398,0.00965039262396,0.000113602252131,1.0,0.0,0.0255295512676
1385573607477820232,-0.0105323352874,0.00917638019877,0.000306298282227,1.0,0.0,0.0252337054877
1385573607577764984,-0.0102585510691,0.00842775443664,0.000468990088502,1.0,0.0,0.0248862556681
1385573607677742730,-0.00984949161385,0.00748614144873,0.000647066755237,1.0,0.0,0.0245745282298
1385573607777766070,-0.00948649073874,0.00642311719439,0.000939747774035,1.0,0.0,0.0242094776669
1385573607877624921,-0.00902905526455,0.00517949546097,0.00122670231925,1.0,0.0,0.0239363814548
1385573607977769609,-0.0085403666687,0.00404456230061,0.00163866273389,1.0,0.0,0.0236529875315
1385573608077966915,-0.00817316252974,0.00285013164008,0.00206737998999,1.0,0.0,0.0234420689713
1385573608178057969,-0.00775000311665,0.00172419627635,0.0024644774519,1.0,0.0,0.0232034148779
1385573608277681188,-0.00732718371891,0.0007465767873,0.00280168043981,1.0,0.0,0.022965067753
1385573608377672551,-0.00697066984364,-0.000219776184938,0.00317063329388,1.0,0.0,0.0227312922916
1385573608477932168,-0.00657134726308,-0.00115006084453,0.00348823255311,1.0,0.0,0.0225638120619
1385573608577571992,-0.00608128481504,-0.00196919430708,0.00374814942671,1.0,0.0,0.0223949447089
1385573608677697098,-0.00563483702073,-0.00278707234151,0.00397164201146,1.0,0.0,0.022289420381
1385573608777919183,-0.00502021560371,-0.00347214741074,0.00416430793024,1.0,0.0,0.0221746081388
1385573608877691202,-0.00436247132186,-0.004115287,0.00425524170277,1.0,0.0,0.0221188212489
1385573608977621772,-0.00369776644596,-0.00463814957655,0.00418327299488,1.0,0.0,0.0220016976198
1385573609077617384,-0.00308702656864,-0.00502063650858,0.00411473783419,1.0,0.0,0.0218827722839
1385573609177652436,-0.00261536964232,-0.00521868080173,0.00402738763179,1.0,0.0,0.0217080904198
1385573609278031644,-0.00230162456464,-0.00532050336369,0.00398146876653,1.0,0.0,0.0215417118487
1385573609378090260,-0.00222629124696,-0.00534571419991,0.0039292720007,1.0,0.0,0.0213535365563
1385573609477753760,-0.00240857612301,-0.00528851503758,0.00390843088583,1.0,0.0,0.0210365500641
1385573609577670273,-0.0028417854872,-0.00521329561975,0.00385949354339,1.0,0.0,0.0207536719481
1385573609677650917,-0.00348360912145,-0.00522921736197,0.00382104516041,1.0,0.0,0.0204248824307
1385573609777558034,-0.00430236995325,-0.00525977958306,0.00374774193907,1.0,0.0,0.0200029624519
1385573609877562486,-0.00521101429897,-0.00535261301011,0.00362807570347,1.0,0.0,0.0196657104183
