%time,field.header.seq,field.header.stamp,field.header.frame_id,field.child_frame_id,field.transform.translation.x,field.transform.translation.y,field.transform.translation.z,field.transform.rotation.x,field.transform.rotation.y,field.transform.rotation.z,field.transform.rotation.w
1385573544650967888,1067649,1385573544650967888,/world,vicon/Archie/Archie,0.462848281802,1.15243885845,0.117716941424,0.00211365826358,-0.00012174198073,0.615984003381,0.787755815723
1385573544661194219,1067650,1385573544661194219,/world,vicon/Archie/Archie,0.462895392118,1.15238396477,0.117593316783,0.00171595535589,0.000219944574258,0.615965446064,0.787771271612
1385573544670896326,1067651,1385573544670896326,/world,vicon/Archie/Archie,0.462905635194,1.15237746565,0.117609362978,0.00172136420394,0.000209077571894,0.615977204775,0.787762068387
1385573544680882315,1067652,1385573544680882315,/world,vicon/Archie/Archie,0.462904006546,1.15241146775,0.117568953972,0.00170087780833,0.000230116416822,0.615955948979,0.787778727168
1385573544690980054,1067653,1385573544690980054,/world,vicon/Archie/Archie,0.462912344101,1.15236865857,0.117599476546,0.00174764449531,0.000229518029221,0.615972927654,0.787765349236
1385573544700848402,1067654,1385573544700848402,/world,vicon/Archie/Archie,0.462855475945,1.15244145673,0.117716427321,0.00214690448392,-0.000142107313016,0.615992724236,0.787748903074
1385573544711176349,1067655,1385573544711176349,/world,vicon/Archie/Archie,0.462816792364,1.15237599051,0.11753080432,0.00200774866972,-0.000153287379818,0.615864944552,0.78784917054
1385573544720963432,1067656,1385573544720963432,/world,vicon/Archie/Archie,0.462890104835,1.15239072319,0.117590103814,0.00168239424237,0.000240110577208,0.61598293914,0.787757659807
1385573544730905325,1067657,1385573544730905325,/world,vicon/Archie/Archie,0.462903200589,1.15237965434,0.117613847119,0.00172736155371,0.000226469417746,0.615975950768,0.787763030999
1385573544740885009,1067658,1385573544740885009,/world,vicon/Archie/Archie,0.462866973183,1.15243006172,0.117709579223,0.00211911790304,-0.000149409684062,0.615997299733,0.787745399058
1385573544750870496,1067659,1385573544750870496,/world,vicon/Archie/Archie,0.462854992259,1.15242713429,0.117720938112,0.00213354892039,-0.00013778183896,0.615995345708,0.78774689022
1385573544761062675,1067660,1385573544761062675,/world,vicon/Archie/Archie,0.462894320255,1.15243424089,0.117555103491,0.00164972309634,0.000216131023876,0.615973369064,0.787765219024
1385573544770895017,1067661,1385573544770895017,/world,vicon/Archie/Archie,0.462856171924,1.15243030067,0.117724745967,0.0021326923109,-0.000161643557632,0.615990041783,0.787751035492
1385573544780986310,1067662,1385573544780986310,/world,vicon/Archie/Archie,0.462905532148,1.15241503266,0.117574658647,0.00172886023343,0.000259035727625,0.615950950671,0.787782565376
1385573544790783648,1067663,1385573544790783648,/world,vicon/Archie/Archie,0.462898925586,1.15242122005,0.117577834352,0.00171195364604,0.000264024118868,0.615945042626,0.787787219984
1385573544801075772,1067664,1385573544801075772,/world,vicon/Archie/Archie,0.462821308484,1.15238306084,0.117531297056,0.00197588919509,-0.000128897765369,0.615857068713,0.787855411965
1385573544811141860,1067665,1385573544811141860,/world,vicon/Archie/Archie,0.46290824165,1.1524030556,0.117567522073,0.00171246846959,0.000213826519295,0.615974219726,0.787764420599
1385573544820922094,1067666,1385573544820922094,/world,vicon/Archie/Archie,0.462901886063,1.15238358073,0.117610746189,0.00172393799028,0.000226537405438,0.615977006312,0.787762213116
1385573544830877934,1067667,1385573544830877934,/world,vicon/Archie/Archie,0.462899534702,1.15234414079,0.117561859002,0.0018564829481,1.42454546323e-05,0.615999083925,0.787744680637
1385573544840845028,1067668,1385573544840845028,/world,vicon/Archie/Archie,0.462862456918,1.1524570044,0.117688541329,0.00207402521576,-0.00010931144412,0.615987997039,0.787752800042
1385573544851390692,1067669,1385573544851390692,/world,vicon/Archie/Archie,0.462902155801,1.15239081493,0.117593062513,0.00170073186668,0.000216322931894,0.615961924817,0.78777405891
1385573544860814369,1067670,1385573544860814369,/world,vicon/Archie/Archie,0.462902967104,1.15241792182,0.117575182244,0.00170279132385,0.000236599963882,0.615973488397,0.787765006912
1385573544870932185,1067671,1385573544870932185,/world,vicon/Archie/Archie,0.462820859729,1.15241743521,0.117487872651,0.00192052862739,-0.000149142161663,0.6158639017,0.787850203978
1385573544881043550,1067672,1385573544881043550,/world,vicon/Archie/Archie,0.462909348023,1.15238550455,0.117605220922,0.00176285226414,0.000251262783252,0.615953706595,0.787780337754
1385573544890894617,1067673,1385573544890894617,/world,vicon/Archie/Archie,0.462812947022,1.15237883804,0.117509492834,0.00192748422869,-0.000167845300276,0.615875842885,0.787840848638
1385573544900898644,1067674,1385573544900898644,/world,vicon/Archie/Archie,0.462871945274,1.15247373356,0.11769722407,0.00208048879086,-0.00019609860528,0.616001710741,0.787742042471
1385573544911980752,1067675,1385573544911980752,/world,vicon/Archie/Archie,0.462898981603,1.15238498007,0.117589179198,0.00170340298685,0.000170886005149,0.615975691737,0.787763299732
1385573544920988596,1067676,1385573544920988596,/world,vicon/Archie/Archie,0.46282078277,1.15237699199,0.1175225825,0.00199527375559,-0.000157947719428,0.615867834018,0.787846942595
1385573544931013571,1067677,1385573544931013571,/world,vicon/Archie/Archie,0.462908165317,1.15237422334,0.117606800437,0.00175075174766,0.000217083286627,0.615978219343,0.787761208132
1385573544940892658,1067678,1385573544940892658,/world,vicon/Archie/Archie,0.462862815095,1.15243814666,0.117727058183,0.00212833119659,-0.000125869502339,0.615993411168,0.787748419079
1385573544951076686,1067679,1385573544951076686,/world,vicon/Archie/Archie,0.462914217373,1.15237872781,0.117612713871,0.00175299841414,0.000235375879259,0.615961217059,0.787774492271
1385573544960912044,1067680,1385573544960912044,/world,vicon/Archie/Archie,0.462905456063,1.15238051278,0.11761265242,0.00175111616842,0.000213481313598,0.615979763487,0.787760000883
1385573544970983137,1067681,1385573544970983137,/world,vicon/Archie/Archie,0.462909362235,1.15238225343,0.117611174118,0.0017613485285,0.000236256205512,0.615981576422,0.787758553964
1385573544980944485,1067682,1385573544980944485,/world,vicon/Archie/Archie,0.462903551413,1.15241797853,0.117550280368,0.00164430413688,0.000242038156526,0.615956706237,0.787778251618
1385573544990819075,1067683,1385573544990819075,/world,vicon/Archie/Archie,0.462861501284,1.15245931427,0.117685579713,0.00209366380114,-0.000134139440441,0.615986783991,0.787753692804
1385573545000931153,1067684,1385573545000931153,/world,vicon/Archie/Archie,0.462913821467,1.15237251339,0.117608476517,0.00173173159221,0.000225237750445,0.615968582888,0.787768782872
1385573545010828776,1067685,1385573545010828776,/world,vicon/Archie/Archie,0.462903546019,1.15242065856,0.117554191202,0.0016838529849,0.000224380810947,0.615960119863,0.787775504209
1385573545021078604,1067686,1385573545021078604,/world,vicon/Archie/Archie,0.462905766371,1.15238007001,0.117613651311,0.00174612157153,0.000250375998084,0.615957655929,0.787777287356
1385573545030999497,1067687,1385573545030999497,/world,vicon/Archie/Archie,0.462912457192,1.15239083019,0.117614870173,0.00174592597509,0.000241445326398,0.615969511734,0.787768020461
1385573545040824992,1067688,1385573545040824992,/world,vicon/Archie/Archie,0.462860726755,1.15242418078,0.117730549305,0.00214568687772,-0.000153159513333,0.615992878019,0.787748784068
1385573545051509348,1067689,1385573545051509348,/world,vicon/Archie/Archie,0.462901398003,1.15238908554,0.117599510968,0.00168593569846,0.000209965878319,0.615983361622,0.787757330489
1385573545060810048,1067690,1385573545060810048,/world,vicon/Archie/Archie,0.462906471497,1.152385497,0.11759106383,0.00170362552042,0.000210504190025,0.615967875028,0.787769401717
1385573545070938526,1067691,1385573545070938526,/world,vicon/Archie/Archie,0.462912708962,1.15238463391,0.117613079146,0.00175458023475,0.000217097642808,0.615982203788,0.787758084016
1385573545081057190,1067692,1385573545081057190,/world,vicon/Archie/Archie,0.462902583613,1.15241341463,0.117571136265,0.00171919027813,0.000225740465207,0.615974431491,0.78776423705
1385573545091017610,1067693,1385573545091017610,/world,vicon/Archie/Archie,0.462781369634,1.15239165004,0.117574311537,0.0025102673173,-0.000820553054545,0.615902896504,0.787817648525
1385573545101734528,1067694,1385573545101734528,/world,vicon/Archie/Archie,0.462898857446,1.15238199357,0.117610288913,0.00174497544911,0.000248337169793,0.615968650416,0.787768693903
1385573545110854424,1067695,1385573545110854424,/world,vicon/Archie/Archie,0.46289663953,1.15241568378,0.117577747484,0.00171218636836,0.00026553837068,0.615961650739,0.787774233347
1385573545121032777,1067696,1385573545121032777,/world,vicon/Archie/Archie,0.462898471799,1.15239077408,0.117589689172,0.00169574785208,0.000228067850119,0.615977063568,0.787762229091
1385573545130913339,1067697,1385573545130913339,/world,vicon/Archie/Archie,0.4629022676,1.152428378,0.117559972738,0.00166359532773,0.00023808765342,0.61595782546,0.787777337209
1385573545141029320,1067698,1385573545141029320,/world,vicon/Archie/Archie,0.462899928027,1.15239409477,0.117589189752,0.00169721586391,0.000207725854352,0.615964391901,0.787772139783
1385573545150895963,1067699,1385573545150895963,/world,vicon/Archie/Archie,0.462908358724,1.15242290581,0.117583247478,0.00169289257484,0.000213642932535,0.615984978487,0.787756050278
1385573545160862747,1067700,1385573545160862747,/world,vicon/Archie/Archie,0.462859936175,1.15244429367,0.117713788238,0.0020748201939,-0.000139190063637,0.615998769295,0.787744369688
1385573545171038537,1067701,1385573545171038537,/world,vicon/Archie/Archie,0.462900747244,1.15237438396,0.117606262307,0.00172191053724,0.00022013714609,0.615984974547,0.787755988677
1385573545180930841,1067702,1385573545180930841,/world,vicon/Archie/Archie,0.462909479013,1.15237924237,0.117606725246,0.00175557518629,0.00021942504789,0.615980246867,0.787759611352
1385573545190860329,1067703,1385573545190860329,/world,vicon/Archie/Archie,0.462900746822,1.15238416739,0.117593259604,0.00171445155412,0.000221192889564,0.615962437242,0.787773627152
1385573545200939343,1067704,1385573545200939343,/world,vicon/Archie/Archie,0.462906726121,1.15238259011,0.117594397262,0.00170457120792,0.000211028879423,0.615972537774,0.787765753642
1385573545211166284,1067705,1385573545211166284,/world,vicon/Archie/Archie,0.462845039246,1.15244626946,0.117716731319,0.00206596647711,-0.000149115778768,0.615995677106,0.787746809155
1385573545220923552,1067706,1385573545220923552,/world,vicon/Archie/Archie,0.462864572993,1.15247080296,0.117688974936,0.0020718271317,-0.000130895126479,0.615984280316,0.787755708835
1385573545231121064,1067707,1385573545231121064,/world,vicon/Archie/Archie,0.462897074489,1.15238687826,0.117594085188,0.00171476343865,0.000224820769916,0.615974667985,0.787764062041
1385573545240857436,1067708,1385573545240857436,/world,vicon/Archie/Archie,0.462892049169,1.15244208964,0.117559534773,0.00164818466205,0.000248096437124,0.615973073997,0.787765443547
1385573545250967003,1067709,1385573545250967003,/world,vicon/Archie/Archie,0.462900904362,1.15243049407,0.117563199237,0.00165858158427,0.000189990700402,0.615969638018,0.787768124546
1385573545260845474,1067710,1385573545260845474,/world,vicon/Archie/Archie,0.462857786751,1.15243848608,0.11770386495,0.00207134040344,-0.000162065431322,0.616002663728,0.787741329095
1385573545271017637,1067711,1385573545271017637,/world,vicon/Archie/Archie,0.4628960544,1.15243036045,0.117557871301,0.00166085708019,0.000218741112351,0.615963942881,0.787772565387
1385573545281055546,1067712,1385573545281055546,/world,vicon/Archie/Archie,0.46290453985,1.1523999763,0.117603381607,0.00167409435354,0.00017688101545,0.615985792388,0.787755463134
1385573545290940255,1067713,1385573545290940255,/world,vicon/Archie/Archie,0.462906425462,1.15238316397,0.117610402962,0.00174448012004,0.000249106866657,0.615989506582,0.78775238655
1385573545301006775,1067714,1385573545301006775,/world,vicon/Archie/Archie,0.46290571338,1.15239099179,0.117583308405,0.00169283184033,0.000200821095984,0.615968012586,0.787769319955
1385573545310803596,1067715,1385573545310803596,/world,vicon/Archie/Archie,0.462856830249,1.15247303533,0.117668945438,0.00205393317428,-0.000140539510986,0.615987575633,0.787753177253
1385573545321044754,1067716,1385573545321044754,/world,vicon/Archie/Archie,0.462914623129,1.15238740196,0.117591608551,0.00169100275974,0.000203784652886,0.615957163503,0.787777806054
1385573545331000208,1067717,1385573545331000208,/world,vicon/Archie/Archie,0.462898429327,1.15243211237,0.117557794303,0.00165106113389,0.000243854643553,0.615951193483,0.787782547267
1385573545340925093,1067718,1385573545340925093,/world,vicon/Archie/Archie,0.462894164224,1.15238672339,0.117590041092,0.00171215605298,0.000226286988508,0.615969195049,0.787768346703
1385573545350874936,1067719,1385573545350874936,/world,vicon/Archie/Archie,0.462900860363,1.15241923097,0.117552425051,0.0016664935854,0.00021426904388,0.615962168201,0.787773942342
1385573545360861082,1067720,1385573545360861082,/world,vicon/Archie/Archie,0.462856141064,1.15243453282,0.117722514132,0.00212297903927,-0.000161066776526,0.616006634831,0.787738086461
1385573545371021871,1067721,1385573545371021871,/world,vicon/Archie/Archie,0.462894604552,1.1524220491,0.117549357462,0.0016709994236,0.000221143685644,0.615964796944,0.787771875471
1385573545380880828,1067722,1385573545380880828,/world,vicon/Archie/Archie,0.462896376503,1.15242802215,0.117558616974,0.00164172087144,0.000205786609712,0.615987603219,0.787754108263
1385573545390855861,1067723,1385573545390855861,/world,vicon/Archie/Archie,0.462898074533,1.15237581276,0.117612860908,0.00175637853518,0.000256400952487,0.615972231917,0.787765865534
1385573545400884409,1067724,1385573545400884409,/world,vicon/Archie/Archie,0.462903469656,1.15237419707,0.117606165281,0.00173244360878,0.00022645531831,0.615973113904,0.787765238066
1385573545410852930,1067725,1385573545410852930,/world,vicon/Archie/Archie,0.462859971841,1.15243134888,0.117723198799,0.00213061098162,-0.0001207083778,0.615993074642,0.787748676875
1385573545420862905,1067726,1385573545420862905,/world,vicon/Archie/Archie,0.462852927865,1.15243434486,0.117707602852,0.00208568418189,-0.000143261099704,0.615994966382,0.787747314048
1385573545430958907,1067727,1385573545430958907,/world,vicon/Archie/Archie,0.462895460648,1.15243189451,0.117555115967,0.00166405626851,0.000238447076095,0.615957555425,0.787777547264
1385573545440911908,1067728,1385573545440911908,/world,vicon/Archie/Archie,0.462910752523,1.152375686,0.117605851966,0.00174297342802,0.000241137521325,0.615961279822,0.787774463699
1385573545451008688,1067729,1385573545451008688,/world,vicon/Archie/Archie,0.462820664569,1.15237900117,0.117525541067,0.00196990445106,-0.000149492859176,0.615867383321,0.7878473604
1385573545461112293,1067730,1385573545461112293,/world,vicon/Archie/Archie,0.462892525813,1.15237594531,0.1175843903,0.0016844515649,0.000200131143895,0.615970489234,0.787767401562
1385573545470996810,1067731,1385573545470996810,/world,vicon/Archie/Archie,0.462893323814,1.15242765013,0.117555624724,0.00165108254547,0.000253614272001,0.615963836591,0.787772658588
1385573545481019156,1067732,1385573545481019156,/world,vicon/Archie/Archie,0.462892843861,1.15238372903,0.117592599979,0.00169436812418,0.000209194500539,0.615955023036,0.787779471014
1385573545490885924,1067733,1385573545490885924,/world,vicon/Archie/Archie,0.462902819388,1.15238874735,0.117591192675,0.00171146993996,0.00016816075351,0.615986364964,0.787754937002
1385573545500909052,1067734,1385573545500909052,/world,vicon/Archie/Archie,0.462894058981,1.15238913673,0.117588867202,0.00171766756912,0.000212171211062,0.615961441039,0.787774401561
1385573545510794603,1067735,1385573545510794603,/world,vicon/Archie/Archie,0.462889292583,1.15237899591,0.117596044166,0.00169130586644,0.000205543587462,0.615974603509,0.787764168433
1385573545520920692,1067736,1385573545520920692,/world,vicon/Archie/Archie,0.462900742177,1.15238401021,0.117606977605,0.00173307383696,0.000221072276695,0.615987754747,0.787753789952
1385573545530920714,1067737,1385573545530920714,/world,vicon/Archie/Archie,0.462850922699,1.15246776065,0.117670140899,0.00205637501793,-0.000128783887358,0.615998395884,0.787744711823
1385573545540983527,1067738,1385573545540983527,/world,vicon/Archie/Archie,0.462896919869,1.15239349207,0.117587320591,0.00168812330986,0.00022336386754,0.615975564916,0.787763418658
1385573545550915520,1067739,1385573545550915520,/world,vicon/Archie/Archie,0.462866353004,1.15242494247,0.117721393057,0.0021374564991,-0.000157825896507,0.615990568063,0.787750611823
1385573545561045266,1067740,1385573545561045266,/world,vicon/Archie/Archie,0.462896196787,1.15238945576,0.117594576157,0.00168761316249,0.000214257554314,0.615974664114,0.787764126642
1385573545570856605,1067741,1385573545570856605,/world,vicon/Archie/Archie,0.462859295623,1.15243531745,0.117710785409,0.00207428620056,-0.000157661435326,0.615990601406,0.787750754655
1385573545581078279,1067742,1385573545581078279,/world,vicon/Archie/Archie,0.462817512914,1.15238685339,0.117540587252,0.00195916775785,-0.000169785303615,0.615873620023,0.787842507735
1385573545590869386,1067743,1385573545590869386,/world,vicon/Archie/Archie,0.462899339335,1.15238318037,0.117593809448,0.00170452989296,0.000213803259403,0.615963830247,0.787772561526
1385573545601044074,1067744,1385573545601044074,/world,vicon/Archie/Archie,0.462769913671,1.15246325815,0.117612172885,0.00236808457665,-0.000547721513829,0.615883407108,0.787833561754
1385573545610895968,1067745,1385573545610895968,/world,vicon/Archie/Archie,0.462851756069,1.15243525661,0.117709101975,0.00207915377696,-0.000153410612354,0.616012909469,0.787733298111
1385573545621123442,1067746,1385573545621123442,/world,vicon/Archie/Archie,0.462869390791,1.15243078142,0.117720609634,0.0021424011615,-0.000153362468965,0.615991045152,0.787750226207
1385573545631045259,1067747,1385573545631045259,/world,vicon/Archie/Archie,0.462895123906,1.15239414063,0.117595206209,0.00168600247395,0.000228149968326,0.615973436209,0.787765086322
1385573545640893981,1067748,1385573545640893981,/world,vicon/Archie/Archie,0.462896014718,1.1523788737,0.11759012948,0.00172459883715,0.000222938241385,0.61596220529,0.787773785875
1385573545651085112,1067749,1385573545651085112,/world,vicon/Archie/Archie,0.462900947486,1.15237749492,0.117611401572,0.00175241573191,0.000238944316956,0.615970220048,0.78776745297
1385573545662263108,1067750,1385573545662263108,/world,vicon/Archie/Archie,0.462898550565,1.15238788045,0.117596339226,0.00169986169476,0.000224835182887,0.615957534725,0.787777491005
1385573545670936055,1067751,1385573545670936055,/world,vicon/Archie/Archie,0.462897982646,1.15241654696,0.117567936113,0.00169004835699,0.000220124837729,0.615966753293,0.787770305431
1385573545681041425,1067752,1385573545681041425,/world,vicon/Archie/Archie,0.462893637986,1.15238404167,0.117595109001,0.00171340167212,0.00021452106758,0.615971369341,0.787766647166
1385573545690884989,1067753,1385573545690884989,/world,vicon/Archie/Archie,0.46290914378,1.15242331936,0.117579685405,0.00168933904084,0.00019316494668,0.615983286941,0.787757385894
1385573545701011973,1067754,1385573545701011973,/world,vicon/Archie/Archie,0.462901135738,1.15237567043,0.117595257735,0.00170866576528,0.000213913622882,0.615963017203,0.787773188259
1385573545710889540,1067755,1385573545710889540,/world,vicon/Archie/Archie,0.462889560418,1.15238601466,0.117593332515,0.00172112799224,0.000197816718883,0.615962254513,0.787773761687
1385573545720954895,1067756,1385573545720954895,/world,vicon/Archie/Archie,0.462861167753,1.15245571322,0.11768199178,0.00209413128733,-0.000121000522768,0.615991961516,0.787749645078
1385573545731016924,1067757,1385573545731016924,/world,vicon/Archie/Archie,0.462900064174,1.15238644384,0.117611456294,0.00174470344315,0.000247153486495,0.615957124302,0.787777707191
1385573545740848394,1067758,1385573545740848394,/world,vicon/Archie/Archie,0.462893565079,1.1523875859,0.117593778073,0.00170129231165,0.000221908781985,0.615979381746,0.78776040623
1385573545751030147,1067759,1385573545751030147,/world,vicon/Archie/Archie,0.462887579075,1.15238785496,0.117613951683,0.00171193420305,0.000229786452615,0.615983473335,0.787757181533
1385573545760888136,1067760,1385573545760888136,/world,vicon/Archie/Archie,0.462895413455,1.15238715517,0.117592632191,0.00169575342754,0.000208621500409,0.615956031235,0.787778679886
1385573545770903687,1067761,1385573545770903687,/world,vicon/Archie/Archie,0.462902041791,1.15241521962,0.117577547945,0.00171174184482,0.000260789512435,0.615961151373,0.787774626354
1385573545780912135,1067762,1385573545780912135,/world,vicon/Archie/Archie,0.462929051017,1.15240846208,0.117603784722,0.00168716512929,0.000264505966895,0.615952823055,0.787781189977
1385573545790959762,1067763,1385573545790959762,/world,vicon/Archie/Archie,0.462820548723,1.15237217789,0.117530646294,0.00199405837918,-0.000137702768562,0.615884317524,0.787834063872
1385573545801088865,1067764,1385573545801088865,/world,vicon/Archie/Archie,0.462885603484,1.15242752711,0.117561746236,0.00165256380653,0.000250236112259,0.615966148782,0.787770848642
1385573545810821552,1067765,1385573545810821552,/world,vicon/Archie/Archie,0.462858776369,1.15244587759,0.117695822718,0.00206899765084,-0.000123649683475,0.615985532304,0.78775473845
1385573545820931261,1067766,1385573545820931261,/world,vicon/Archie/Archie,0.462898463356,1.15238312958,0.117595879655,0.0017091961127,0.000228714264372,0.615972751902,0.787765571254
1385573545830996453,1067767,1385573545830996453,/world,vicon/Archie/Archie,0.462902847593,1.15238587056,0.117590014138,0.00171120558153,0.000204304049589,0.615955793162,0.787778833751
1385573545840794636,1067768,1385573545840794636,/world,vicon/Archie/Archie,0.462856449759,1.15242622078,0.117729002855,0.00212612144367,-0.000134221839616,0.615986395756,0.787753909439
1385573545851022080,1067769,1385573545851022080,/world,vicon/Archie/Archie,0.4629050515,1.15237295069,0.117604763301,0.00173801046291,0.000208836188376,0.615960793561,0.787774864097
1385573545860935823,1067770,1385573545860935823,/world,vicon/Archie/Archie,0.462900741831,1.15237428711,0.117605810506,0.00173755785996,0.000225993086514,0.615979091312,0.787760553015
1385573545870906461,1067771,1385573545870906461,/world,vicon/Archie/Archie,0.462864067192,1.15243019973,0.117726272291,0.0021652692012,-0.000142761529067,0.616008525878,0.787736496091
1385573545880947310,1067772,1385573545880947310,/world,vicon/Archie/Archie,0.462899387086,1.15242461146,0.117553373348,0.00167652428492,0.000221687947465,0.615951112105,0.787782563667
1385573545890910163,1067773,1385573545890910163,/world,vicon/Archie/Archie,0.462859573755,1.1524639619,0.117684227303,0.00208479986477,-0.000121626006085,0.615984817327,0.78775525618
1385573545901046244,1067774,1385573545901046244,/world,vicon/Archie/Archie,0.462891003842,1.15238029408,0.117609904826,0.00174967425505,0.000218273520681,0.615987397654,0.787754033266
1385573545910865910,1067775,1385573545910865910,/world,vicon/Archie/Archie,0.46290614696,1.15237977935,0.11761087248,0.00173488871245,0.000223793297045,0.615976060849,0.787762929148
1385573545920939953,1067776,1385573545920939953,/world,vicon/Archie/Archie,0.46291217724,1.15237691159,0.117606744554,0.00175606698535,0.000225263701221,0.615971859061,0.787766167292
1385573545931087175,1067777,1385573545931087175,/world,vicon/Archie/Archie,0.462902006694,1.15238114406,0.117596297839,0.00172436559072,0.000222507091735,0.615960213969,0.787775343522
1385573545940776972,1067778,1385573545940776972,/world,vicon/Archie/Archie,0.462855953523,1.15247150269,0.117668827632,0.00203590572766,-0.000140646651401,0.615988675582,0.78775236392
1385573545950906428,1067779,1385573545950906428,/world,vicon/Archie/Archie,0.46285589623,1.15242603587,0.117720385367,0.00212959865666,-0.000153822909541,0.616007542451,0.787737360287
1385573545961071741,1067780,1385573545961071741,/world,vicon/Archie/Archie,0.462892556741,1.15239133305,0.117588235328,0.00166949532581,0.000227947327326,0.615985077618,0.787756018687
1385573545970940764,1067781,1385573545970940764,/world,vicon/Archie/Archie,0.462894325083,1.15242008852,0.11754810959,0.00165029721116,0.000229933930697,0.615966545795,0.787770549152
1385573545980990273,1067782,1385573545980990273,/world,vicon/Archie/Archie,0.462904541089,1.15242031609,0.117575374659,0.00172706295098,0.000259781393801,0.615968710906,0.787768682388
1385573545991025607,1067783,1385573545991025607,/world,vicon/Archie/Archie,0.462855940825,1.15243628226,0.117709540763,0.0020917469955,-0.000181170991196,0.615984302611,0.787755628801
1385573546001025303,1067784,1385573546001025303,/world,vicon/Archie/Archie,0.462916869487,1.15238055024,0.117609387295,0.00174482495086,0.000226554777379,0.615972755242,0.787765491157
1385573546010828678,1067785,1385573546010828678,/world,vicon/Archie/Archie,0.462893021685,1.15243117636,0.117555846865,0.00166278527434,0.000231220854626,0.615955181259,0.78777940844
1385573546021036827,1067786,1385573546021036827,/world,vicon/Archie/Archie,0.462902585496,1.15237510091,0.11761206263,0.00173634488517,0.000220182041563,0.615976313611,0.787762729314
1385573546030956875,1067787,1385573546030956875,/world,vicon/Archie/Archie,0.462853908986,1.15243980426,0.117703632149,0.00209123255702,-0.000181019085933,0.615982505442,0.787757035493
1385573546041215651,1067788,1385573546041215651,/world,vicon/Archie/Archie,0.462899324886,1.15238703499,0.117596785504,0.0017244554033,0.000211055985579,0.615958864363,0.78777640173
1385573546051034450,1067789,1385573546051034450,/world,vicon/Archie/Archie,0.462902035055,1.15239251056,0.117598642909,0.00169768329874,0.00021478513494,0.615957424914,0.787777584368
1385573546060823984,1067790,1385573546060823984,/world,vicon/Archie/Archie,0.462859438738,1.15243624757,0.117725174376,0.00210972144439,-0.000137601512679,0.616003471725,0.787740600048
1385573546070963760,1067791,1385573546070963760,/world,vicon/Archie/Archie,0.462896683983,1.1523889326,0.11761204274,0.00174794387021,0.000247595527039,0.61596791469,0.787769262831
1385573546080916447,1067792,1385573546080916447,/world,vicon/Archie/Archie,0.462902850886,1.1523809282,0.117607394877,0.00176585394135,0.000214153747082,0.61597566335,0.78776317384
1385573546090872259,1067793,1385573546090872259,/world,vicon/Archie/Archie,0.462890725482,1.15241980251,0.117558479652,0.00165620112939,0.000219246225396,0.615946065721,0.787786552977
1385573546100951100,1067794,1385573546100951100,/world,vicon/Archie/Archie,0.462896809546,1.15242281146,0.11755767094,0.00166758205999,0.000196556499277,0.615972742123,0.78776567677
1385573546111074537,1067795,1385573546111074537,/world,vicon/Archie/Archie,0.462903967457,1.1524231639,0.117570030412,0.00170641603206,0.000250429000946,0.615964569483,0.787771968637
1385573546120944243,1067796,1385573546120944243,/world,vicon/Archie/Archie,0.462860518123,1.15244243501,0.117707835477,0.0020929144943,-0.000163890810069,0.615996487503,0.787746101375
1385573546130948948,1067797,1385573546130948948,/world,vicon/Archie/Archie,0.462899488677,1.15239172419,0.117595852603,0.001700012278,0.000223425084642,0.615990433433,0.787751766712
1385573546140837190,1067798,1385573546140837190,/world,vicon/Archie/Archie,0.462908177806,1.15237434352,0.117606145964,0.0017412503111,0.000217708671879,0.615978265467,0.787761192953
1385573546150911416,1067799,1385573546150911416,/world,vicon/Archie/Archie,0.462893251412,1.1524208473,0.117562048127,0.00165906916465,0.000234224037582,0.61595777561,0.787777386889
1385573546161069426,1067800,1385573546161069426,/world,vicon/Archie/Archie,0.46288837039,1.15238813835,0.117595780372,0.00168667249125,0.000220655137235,0.615996013235,0.787747432954
1385573546170918651,1067801,1385573546170918651,/world,vicon/Archie/Archie,0.462892567166,1.15242317912,0.117551091159,0.00164651053592,0.000225941429927,0.615964375705,0.787772255043
1385573546181004729,1067802,1385573546181004729,/world,vicon/Archie/Archie,0.462902554089,1.15239918412,0.11760489093,0.00169249009788,0.000222972944402,0.615992250744,0.78775036197
1385573546190884417,1067803,1385573546190884417,/world,vicon/Archie/Archie,0.462904438277,1.15238158933,0.117608698397,0.00176289434381,0.000242379065262,0.615962483521,0.787773477816
1385573546201022335,1067804,1385573546201022335,/world,vicon/Archie/Archie,0.462907482814,1.15239083135,0.117590756572,0.00171982737298,0.000191001287841,0.615958278998,0.787776874658
1385573546210808823,1067805,1385573546210808823,/world,vicon/Archie/Archie,0.462855642782,1.15243030587,0.117709963797,0.0020992708568,-0.000166627560303,0.615994177918,0.787747889916
1385573546221079999,1067806,1385573546221079999,/world,vicon/Archie/Archie,0.462889374452,1.15238454693,0.117607421526,0.00174013728976,0.00022712093405,0.615990247902,0.787751823119
1385573546230971813,1067807,1385573546230971813,/world,vicon/Archie/Archie,0.462901166924,1.15237322439,0.117609813454,0.00177002170598,0.000213072211383,0.615966661322,0.787770203653
1385573546240824823,1067808,1385573546240824823,/world,vicon/Archie/Archie,0.462907207801,1.15239351791,0.117593954208,0.00171817967202,0.00019674169794,0.615976477682,0.787762647054
1385573546251063091,1067809,1385573546251063091,/world,vicon/Archie/Archie,0.462896453701,1.15238863616,0.117589251881,0.00170656548652,0.000196203838,0.615973594241,0.787764927079
1385573546260774976,1067810,1385573546260774976,/world,vicon/Archie/Archie,0.462859921128,1.15243085969,0.117712711982,0.00210647249111,-0.000140783515761,0.615991972799,0.787749600064
1385573546270969733,1067811,1385573546270969733,/world,vicon/Archie/Archie,0.462894399299,1.15239215133,0.117593030842,0.00170834269512,0.000216286448796,0.615985604256,0.787755526883
1385573546281098449,1067812,1385573546281098449,/world,vicon/Archie/Archie,0.462810988165,1.15238944393,0.117512831221,0.00193186016219,-0.000155813849248,0.615867051726,0.787847712592
1385573546290845984,1067813,1385573546290845984,/world,vicon/Archie/Archie,0.462866433814,1.15242764202,0.117714789732,0.00211891016193,-0.000159192380145,0.615997237065,0.787745446706
1385573546300974035,1067814,1385573546300974035,/world,vicon/Archie/Archie,0.462907630732,1.15239478748,0.11761960104,0.00170997032397,0.000203364902071,0.615981243329,0.787758936802
1385573546311089021,1067815,1385573546311089021,/world,vicon/Archie/Archie,0.462886747987,1.15241637485,0.117559854747,0.00164133270803,0.000219499730939,0.615972572998,0.787765858083
1385573546321031662,1067816,1385573546321031662,/world,vicon/Archie/Archie,0.46280690459,1.15238594856,0.117531570903,0.00196566159834,-0.000130364014049,0.61587611186,0.78784055114
1385573546330946442,1067817,1385573546330946442,/world,vicon/Archie/Archie,0.462910482249,1.15238231352,0.117603317535,0.00173294468138,0.000214305163576,0.615965763118,0.787770988069
1385573546340844519,1067818,1385573546340844519,/world,vicon/Archie/Archie,0.462895564226,1.15241479013,0.11756746757,0.00172107202809,0.000249450879689,0.615956424496,0.787778305621
1385573546350970930,1067819,1385573546350970930,/world,vicon/Archie/Archie,0.462899427057,1.15241923266,0.117557113739,0.00166548915945,0.000218380018991,0.615959689987,0.787775881052
1385573546360852133,1067820,1385573546360852133,/world,vicon/Archie/Archie,0.46290122441,1.15242578166,0.11755463975,0.00167177546201,0.000209737807347,0.6159658325,0.787771067233
1385573546370996812,1067821,1385573546370996812,/world,vicon/Archie/Archie,0.462899907098,1.15238865086,0.117595493166,0.00168717167877,0.00019960237032,0.615978876468,0.787760837663
1385573546380945032,1067822,1385573546380945032,/world,vicon/Archie/Archie,0.46286560988,1.15243178912,0.11772827397,0.00211617987087,-0.000124722352533,0.615998606673,0.787744389255
1385573546390836397,1067823,1385573546390836397,/world,vicon/Archie/Archie,0.462865325898,1.1524234367,0.117719358783,0.00212616253988,-0.000137703540085,0.615997839408,0.787744960196
1385573546400875084,1067824,1385573546400875084,/world,vicon/Archie/Archie,0.462858584118,1.15244099905,0.117715067612,0.00210583428765,-0.000173703831464,0.61599775116,0.787745076693
1385573546411044457,1067825,1385573546411044457,/world,vicon/Archie/Archie,0.462888446697,1.15238068833,0.11759333751,0.00171971736351,0.000214462978956,0.615983776667,0.787756931712
1385573546420969236,1067826,1385573546420969236,/world,vicon/Archie/Archie,0.462893993309,1.15237806,0.117610584001,0.00175124730313,0.000247676011112,0.615988278666,0.787753332164
1385573546430930077,1067827,1385573546430930077,/world,vicon/Archie/Archie,0.46289585234,1.15237933446,0.117611909769,0.00172978549775,0.000235915508117,0.615982194536,0.787758140675
1385573546440950253,1067828,1385573546440950253,/world,vicon/Archie/Archie,0.46281785355,1.15238222962,0.117531611065,0.00195828293448,-0.000167446921653,0.615855464526,0.787856702645
1385573546451089021,1067829,1385573546451089021,/world,vicon/Archie/Archie,0.462893316466,1.152380484,0.11760384722,0.00173039630602,0.000227268277463,0.61597757797,0.787761751747
1385573546461024006,1067830,1385573546461024006,/world,vicon/Archie/Archie,0.462895320299,1.15238185995,0.117587267008,0.00171424425675,0.000210151018132,0.615975661741,0.787763290174
1385573546470927273,1067831,1385573546470927273,/world,vicon/Archie/Archie,0.46290259651,1.15237820516,0.117602269958,0.00173676560611,0.000214382153975,0.615983446691,0.787757152356
1385573546480914944,1067832,1385573546480914944,/world,vicon/Archie/Archie,0.462898457619,1.15240367458,0.117569952152,0.00171411670418,0.000239456617234,0.615975729993,0.787763228721
1385573546490916694,1067833,1385573546490916694,/world,vicon/Archie/Archie,0.462903022261,1.15238511666,0.117581882818,0.00168031618383,0.000203267358791,0.615969676012,0.787768045464
1385573546500903201,1067834,1385573546500903201,/world,vicon/Archie/Archie,0.462850906454,1.15244118011,0.117706432685,0.00207767945257,-0.0001487971398,0.616005848464,0.787738824589
1385573546511074320,1067835,1385573546511074320,/world,vicon/Archie/Archie,0.462891196833,1.15242147271,0.117552667155,0.00166756628847,0.000237250446839,0.615958919114,0.787776473943
1385573546521632427,1067836,1385573546521632427,/world,vicon/Archie/Archie,0.462903945881,1.15238280666,0.117585532691,0.00170288564081,0.000191701481858,0.615972192677,0.787766032068
1385573546530976926,1067837,1385573546530976926,/world,vicon/Archie/Archie,0.4629144705,1.15237721876,0.117616780126,0.00176747144144,0.000219287368528,0.615968159856,0.78776903595
1385573546540910724,1067838,1385573546540910724,/world,vicon/Archie/Archie,0.462899172776,1.15237975477,0.117605067935,0.00174349635087,0.000222794226054,0.615977324112,0.787761922641
1385573546551362317,1067839,1385573546551362317,/world,vicon/Archie/Archie,0.462859170172,1.15242362913,0.117723005841,0.00213977354751,-0.000138817205507,0.616000580607,0.787742779586
1385573546561042377,1067840,1385573546561042377,/world,vicon/Archie/Archie,0.462899446026,1.15241212174,0.11757471,0.00172912867431,0.000259098309596,0.615962401787,0.78777361124
1385573546571041403,1067841,1385573546571041403,/world,vicon/Archie/Archie,0.462805876072,1.15240541453,0.117476514215,0.00195391605072,-0.000163271469751,0.615865473296,0.78784889056
1385573546580997394,1067842,1385573546580997394,/world,vicon/Archie/Archie,0.462904989089,1.15239095926,0.11761644739,0.00175205590327,0.000245064229499,0.615983903693,0.787756752199
1385573546591480610,1067843,1385573546591480610,/world,vicon/Archie/Archie,0.462906661421,1.15237854123,0.11761497437,0.00173828178995,0.00025504913419,0.615971509761,0.787766470783
1385573546601115632,1067844,1385573546601115632,/world,vicon/Archie/Archie,0.462901983491,1.15237240173,0.117615066138,0.00174703080759,0.000234234106002,0.615971826097,0.787766210542
1385573546610988600,1067845,1385573546610988600,/world,vicon/Archie/Archie,0.462889063637,1.15241995737,0.117556448869,0.00166839567776,0.000233781940218,0.615952044557,0.787781848362
1385573546621350839,1067846,1385573546621350839,/world,vicon/Archie/Archie,0.462821545078,1.15236531786,0.117532845471,0.00198243315729,-0.0001266816363,0.61587051558,0.787844884447
1385573546630965653,1067847,1385573546630965653,/world,vicon/Archie/Archie,0.46285121126,1.15244198027,0.117716023983,0.00206013417457,-0.000214402547122,0.616038402652,0.787713397332
1385573546641767901,1067848,1385573546641767901,/world,vicon/Archie/Archie,0.462904939534,1.15237665734,0.117618005852,0.00173758928683,0.000227374082373,0.615965002524,0.787771568889
1385573546650951058,1067849,1385573546650951058,/world,vicon/Archie/Archie,0.462886923663,1.1523776581,0.117609223969,0.00176396615792,0.00024450681601,0.615993641677,0.787749111109
1385573546661014182,1067850,1385573546661014182,/world,vicon/Archie/Archie,0.462905327877,1.15237307386,0.117604973842,0.00176565645601,0.000233296756602,0.615977942386,0.787761386794
1385573546670951017,1067851,1385573546670951017,/world,vicon/Archie/Archie,0.462902695484,1.15237186298,0.117611954467,0.00174943941725,0.000242552751938,0.61598303601,0.787757437273
1385573546680954351,1067852,1385573546680954351,/world,vicon/Archie/Archie,0.462901535387,1.15238375388,0.117614171317,0.00175757822606,0.000228102157256,0.615956626846,0.787778073275
1385573546690841058,1067853,1385573546690841058,/world,vicon/Archie/Archie,0.462899090498,1.15240839319,0.117573860528,0.00172017206735,0.000255142742453,0.615965005069,0.78777159662
1385573546701020555,1067854,1385573546701020555,/world,vicon/Archie/Archie,0.462885356789,1.15237948183,0.117601656761,0.00169354849777,0.000249755371442,0.615983236065,0.787757400729
1385573546710840267,1067855,1385573546710840267,/world,vicon/Archie/Archie,0.46286406251,1.15245664148,0.117691462596,0.00209821472819,-0.000107943990532,0.615995320625,0.787747009395
1385573546720972061,1067856,1385573546720972061,/world,vicon/Archie/Archie,0.462888678491,1.15241750062,0.117557584838,0.00168138908595,0.000215368695504,0.615975255316,0.787763677371
1385573546730926377,1067857,1385573546730926377,/world,vicon/Archie/Archie,0.462914635865,1.15240778517,0.117579566285,0.00170448696216,0.000223704579731,0.615954862901,0.787779570406
1385573546740910777,1067858,1385573546740910777,/world,vicon/Archie/Archie,0.462928531644,1.15240117385,0.117613037238,0.00166995139696,0.000254243330653,0.615945835835,0.787786693173
1385573546751062787,1067859,1385573546751062787,/world,vicon/Archie/Archie,0.462909444633,1.15237582137,0.11760511658,0.00175718081474,0.000224013124392,0.615978768494,0.787760762477
1385573546761017498,1067860,1385573546761017498,/world,vicon/Archie/Archie,0.462897888061,1.15237949129,0.117604478513,0.00174746980963,0.000210194705246,0.615978111563,0.787761301564
1385573546770932338,1067861,1385573546770932338,/world,vicon/Archie/Archie,0.462902166142,1.15236351406,0.117624038595,0.00174479555637,0.00024610388717,0.615983713779,0.787756916491
1385573546781056702,1067862,1385573546781056702,/world,vicon/Archie/Archie,0.462823577211,1.15237413615,0.1175240661,0.00200307162828,-0.00016165141149,0.615858595832,0.787854143553
1385573546790918692,1067863,1385573546790918692,/world,vicon/Archie/Archie,0.462893880238,1.15237730339,0.117608608148,0.00173835689474,0.000224432927553,0.61597456521,0.787764090804
1385573546800935452,1067864,1385573546800935452,/world,vicon/Archie/Archie,0.462906570117,1.15239820083,0.117572061957,0.00171547662757,0.000232151823775,0.615965290289,0.787771390954
1385573546811110136,1067865,1385573546811110136,/world,vicon/Archie/Archie,0.46285858625,1.15242565418,0.117721460899,0.00212618990096,-0.00014577709417,0.616018643097,0.787728690237
1385573546820970455,1067866,1385573546820970455,/world,vicon/Archie/Archie,0.46277987684,1.1524348064,0.117637958605,0.00237176089942,-0.000574492872286,0.615911572259,0.787811512905
1385573546831052753,1067867,1385573546831052753,/world,vicon/Archie/Archie,0.462905299773,1.15236853781,0.117610172922,0.0017639165296,0.000235396110914,0.61597702958,0.787762103821
1385573546840923822,1067868,1385573546840923822,/world,vicon/Archie/Archie,0.462812238953,1.15240168752,0.117480821039,0.00197487904796,-0.000164333589151,0.615863917362,0.787850054349
1385573546851004293,1067869,1385573546851004293,/world,vicon/Archie/Archie,0.462903544161,1.15237541531,0.117606033758,0.00174401732778,0.000225827270098,0.615978186651,0.787761246175
1385573546861030631,1067870,1385573546861030631,/world,vicon/Archie/Archie,0.462902689542,1.15238588781,0.117610461915,0.00173614193296,0.000244024640351,0.615959149599,0.787776143513
1385573546870922405,1067871,1385573546870922405,/world,vicon/Archie/Archie,0.462898300979,1.15237232734,0.117609982267,0.00173466029438,0.000209695932674,0.615972084878,0.787766042447
1385573546880976556,1067872,1385573546880976556,/world,vicon/Archie/Archie,0.462767766517,1.15242343601,0.117644640865,0.00240665313268,-0.000579625175894,0.615886246973,0.787831202
1385573546890878556,1067873,1385573546890878556,/world,vicon/Archie/Archie,0.46277000409,1.15242946104,0.117639567114,0.002394065488,-0.000558739676605,0.615885692412,0.787831688968
1385573546901061176,1067874,1385573546901061176,/world,vicon/Archie/Archie,0.462908304265,1.15241349923,0.117580260578,0.00170217978464,0.000253985289331,0.615961094019,0.787774694142
1385573546911052113,1067875,1385573546911052113,/world,vicon/Archie/Archie,0.462856623376,1.15241640331,0.117723608341,0.00209873632997,-0.000141156901389,0.61600334532,0.78774072761
1385573546920970698,1067876,1385573546920970698,/world,vicon/Archie/Archie,0.462772679263,1.15242806269,0.117623499945,0.00235205830512,-0.000570786235295,0.615905570835,0.787816266549
1385573546931205827,1067877,1385573546931205827,/world,vicon/Archie/Archie,0.462908089103,1.15236998194,0.117605913521,0.00172825061835,0.00021154986466,0.615978529394,0.787761016884
1385573546940851941,1067878,1385573546940851941,/world,vicon/Archie/Archie,0.462903624564,1.15241186379,0.117576975286,0.00171284835444,0.000217579650363,0.615946454483,0.787786128349
1385573546951080260,1067879,1385573546951080260,/world,vicon/Archie/Archie,0.462909252934,1.1523760058,0.117602548646,0.00174432087588,0.000194367695022,0.615976817287,0.787762324645
1385573546960796472,1067880,1385573546960796472,/world,vicon/Archie/Archie,0.46285061837,1.15242502501,0.117725539009,0.00209605179299,-0.00012387543308,0.61600932035,0.787736065229
1385573546971014046,1067881,1385573546971014046,/world,vicon/Archie/Archie,0.462902274237,1.15237830583,0.117606966678,0.00176564994364,0.000196227433859,0.615971577152,0.787766374071
1385573546980921443,1067882,1385573546980921443,/world,vicon/Archie/Archie,0.462901849194,1.15237414979,0.117603113013,0.00176260370663,0.00019863318678,0.615964636802,0.78777180705
1385573546990920228,1067883,1385573546990920228,/world,vicon/Archie/Archie,0.46289834601,1.15237398393,0.117615357407,0.00173469872102,0.000250825380372,0.615980803745,0.787759212783
1385573547000953479,1067884,1385573547000953479,/world,vicon/Archie/Archie,0.462894674964,1.15241085369,0.117570078135,0.00171042810909,0.000223542750096,0.615963927424,0.787772470055
1385573547011053012,1067885,1385573547011053012,/world,vicon/Archie/Archie,0.462894858787,1.15237379362,0.117592571489,0.00170205475913,0.000182526221584,0.615975449866,0.787763489161
1385573547021064870,1067886,1385573547021064870,/world,vicon/Archie/Archie,0.462817239807,1.15237149587,0.117527858909,0.00198712973699,-0.000163254476011,0.61587539007,0.787841055397
1385573547030990492,1067887,1385573547030990492,/world,vicon/Archie/Archie,0.462853886104,1.15242996061,0.117720382172,0.00213937037498,-0.000154005484864,0.616015499754,0.787731111128
1385573547041055784,1067888,1385573547041055784,/world,vicon/Archie/Archie,0.462893295143,1.15237967796,0.117620456987,0.00169660508392,0.000202279979339,0.615985206582,0.787755866932
1385573547051075737,1067889,1385573547051075737,/world,vicon/Archie/Archie,0.462908037077,1.1523726126,0.117608085213,0.00173933629446,0.000221814510137,0.615965687657,0.787771030907
1385573547061091725,1067890,1385573547061091725,/world,vicon/Archie/Archie,0.462903114369,1.15237531431,0.117611420764,0.00174577014272,0.000236644660583,0.615979185174,0.787760458337
1385573547071083115,1067891,1385573547071083115,/world,vicon/Archie/Archie,0.462818959893,1.15237020961,0.117520027678,0.00199048690532,-0.000162390490775,0.615872436595,0.787843355898
1385573547080968602,1067892,1385573547080968602,/world,vicon/Archie/Archie,0.462853172507,1.1524289751,0.11773197548,0.00211407225111,-0.000146315326587,0.616001529774,0.787742105391
1385573547091034837,1067893,1385573547091034837,/world,vicon/Archie/Archie,0.462819011593,1.15238871358,0.117534892865,0.00199660572067,-0.000178520250465,0.615848934508,0.787861708399
1385573547101069655,1067894,1385573547101069655,/world,vicon/Archie/Archie,0.462815533329,1.15237236242,0.117532376705,0.0019739974719,-0.000145011004367,0.615879884257,0.787837578739
1385573547110970850,1067895,1385573547110970850,/world,vicon/Archie/Archie,0.462890987545,1.15241662085,0.117557683344,0.00164795118106,0.000243164450833,0.615947780679,0.787785222382
1385573547121170766,1067896,1385573547121170766,/world,vicon/Archie/Archie,0.462808147586,1.1523695284,0.117527207261,0.00199449568061,-0.000163854763027,0.615881691736,0.787836110447
1385573547131050396,1067897,1385573547131050396,/world,vicon/Archie/Archie,0.462898090443,1.15238137007,0.117607954053,0.00174740587213,0.000264572342187,0.615986548116,0.787754688412
1385573547140940102,1067898,1385573547140940102,/world,vicon/Archie/Archie,0.462774543045,1.15243729888,0.117644009108,0.00239075388954,-0.000552119587674,0.615883977674,0.787833044182
1385573547151127144,1067899,1385573547151127144,/world,vicon/Archie/Archie,0.462901719325,1.15237165559,0.117611794485,0.00175933372372,0.00021368882914,0.615965201953,0.787771368523
1385573547160981206,1067900,1385573547160981206,/world,vicon/Archie/Archie,0.462817054805,1.15237684215,0.117527842499,0.00198708004846,-0.000152219374539,0.615865308622,0.787848938552
1385573547171038863,1067901,1385573547171038863,/world,vicon/Archie/Archie,0.46286385644,1.1524170837,0.117718330469,0.00213148575868,-0.000166177430682,0.616008132306,0.787736891409
1385573547181052394,1067902,1385573547181052394,/world,vicon/Archie/Archie,0.462823406388,1.15237387215,0.117528028298,0.00200209090386,-0.000151873581625,0.615861106517,0.787852185405
1385573547190970249,1067903,1385573547190970249,/world,vicon/Archie/Archie,0.462894188527,1.15237645243,0.117611469614,0.00174951301666,0.000232151510229,0.615977293779,0.787761930318
1385573547201065006,1067904,1385573547201065006,/world,vicon/Archie/Archie,0.462894307903,1.15238253012,0.117591889216,0.00169204897097,0.000213693010195,0.615968623731,0.787768840387
1385573547210977421,1067905,1385573547210977421,/world,vicon/Archie/Archie,0.462908273493,1.15236592786,0.117602502557,0.00175132110951,0.000186612622086,0.615979554407,0.787760170739
1385573547220959061,1067906,1385573547220959061,/world,vicon/Archie/Archie,0.462902231523,1.15237963548,0.117607378263,0.00175536257494,0.000221817048774,0.615973682535,0.787764744022
1385573547231014274,1067907,1385573547231014274,/world,vicon/Archie/Archie,0.462895815156,1.15237676112,0.117606114247,0.00172834411824,0.000187569428133,0.615971188861,0.787766762524
1385573547240897154,1067908,1385573547240897154,/world,vicon/Archie/Archie,0.462907449933,1.15237126198,0.117616982283,0.00175884359077,0.000273966454202,0.615965269831,0.787771297886
1385573547251089183,1067909,1385573547251089183,/world,vicon/Archie/Archie,0.4627648807,1.15243046382,0.117629463945,0.00239076330692,-0.000564061145171,0.615906739526,0.787815241216
1385573547260960732,1067910,1385573547260960732,/world,vicon/Archie/Archie,0.462854006466,1.15242142957,0.117713091556,0.00213926198844,-0.000158865822158,0.616008429895,0.787736639124
1385573547271073146,1067911,1385573547271073146,/world,vicon/Archie/Archie,0.462893269127,1.15238683538,0.117596111676,0.00169926121514,0.000230153461752,0.615959234137,0.787776162004
1385573547280938193,1067912,1385573547280938193,/world,vicon/Archie/Archie,0.462908131092,1.15236766633,0.117605648329,0.00174245831386,0.000240299919237,0.615976625231,0.78776246627
1385573547290988330,1067913,1385573547290988330,/world,vicon/Archie/Archie,0.462892176424,1.15238109873,0.117579302365,0.00169422626547,0.000186797316034,0.615965577038,0.78777122479
1385573547301066934,1067914,1385573547301066934,/world,vicon/Archie/Archie,0.46281996144,1.15237719811,0.117527536422,0.00197961919491,-0.000163059104143,0.615860399735,0.787852792442
1385573547310981009,1067915,1385573547310981009,/world,vicon/Archie/Archie,0.462812281386,1.15237756334,0.117521696314,0.00200331146006,-0.000160477235695,0.615867564816,0.787847132125
1385573547321108366,1067916,1385573547321108366,/world,vicon/Archie/Archie,0.462899898594,1.15238290035,0.11760422326,0.00174108308759,0.000202254267146,0.615985840113,0.787755274501
1385573547331003402,1067917,1385573547331003402,/world,vicon/Archie/Archie,0.462768827977,1.15242896097,0.1176395681,0.00239340005356,-0.000561240638706,0.615895623695,0.787823925353
1385573547340990440,1067918,1385573547340990440,/world,vicon/Archie/Archie,0.462892880463,1.15236968439,0.117606660345,0.0017577567985,0.000227986726243,0.615982783875,0.787757620263
1385573547351015184,1067919,1385573547351015184,/world,vicon/Archie/Archie,0.462894156114,1.15238120201,0.117589487058,0.00171348555643,0.00020274634591,0.615971309712,0.787766696728
1385573547361053594,1067920,1385573547361053594,/world,vicon/Archie/Archie,0.462767779072,1.15242803487,0.117640841205,0.00237716205496,-0.000549007741832,0.615902448649,0.787818647557
1385573547371126768,1067921,1385573547371126768,/world,vicon/Archie/Archie,0.462893273999,1.15238176829,0.117611980544,0.00173014320376,0.000232141603953,0.615966748389,0.787770218778
1385573547380887787,1067922,1385573547380887787,/world,vicon/Archie/Archie,0.462861903295,1.15242277706,0.117718630467,0.00212763530995,-0.000166541584012,0.615993417716,0.787748408289
1385573547390954751,1067923,1385573547390954751,/world,vicon/Archie/Archie,0.462905039935,1.15237345832,0.117523840376,0.00180671570095,6.34994209293e-05,0.615962549202,0.787773361905
1385573547401093193,1067924,1385573547401093193,/world,vicon/Archie/Archie,0.462904383753,1.15237193819,0.117610739389,0.00175883106626,0.00025046395689,0.615977368439,0.78776184558
1385573547411017479,1067925,1385573547411017479,/world,vicon/Archie/Archie,0.462896060052,1.15241204055,0.117573399942,0.00170583499896,0.000250104168701,0.615962361512,0.787773696423
1385573547421370518,1067926,1385573547421370518,/world,vicon/Archie/Archie,0.46280554284,1.15237522823,0.117513253346,0.00196328230034,-0.000169187733035,0.615875578629,0.787840966533
1385573547431037583,1067927,1385573547431037583,/world,vicon/Archie/Archie,0.462927162028,1.15238913316,0.117613897901,0.00172743280916,0.000258966847879,0.615966094743,0.787770727458
1385573547440903643,1067928,1385573547440903643,/world,vicon/Archie/Archie,0.46285971773,1.15242675728,0.117725094104,0.00213106357621,-0.000131185031803,0.616016809635,0.787730113431
1385573547451182647,1067929,1385573547451182647,/world,vicon/Archie/Archie,0.462809002501,1.15237768198,0.11751231858,0.00194924525709,-0.00016238641383,0.615866922689,0.787847769313
1385573547461036183,1067930,1385573547461036183,/world,vicon/Archie/Archie,0.462901362428,1.15237673558,0.117600220651,0.00173624155251,0.000232907611373,0.615979450349,0.787760273158
1385573547470988074,1067931,1385573547470988074,/world,vicon/Archie/Archie,0.462903603479,1.15237756605,0.117602841029,0.00175553821689,0.00020584353651,0.615975636358,0.787763220217
1385573547480950567,1067932,1385573547480950567,/world,vicon/Archie/Archie,0.462906711183,1.15238305351,0.117609551639,0.00176836482474,0.000231574815178,0.615968089562,0.787769085393
1385573547490897560,1067933,1385573547490897560,/world,vicon/Archie/Archie,0.462899096792,1.15238276263,0.117606236986,0.00177273583803,0.000238119814939,0.615972724562,0.787765449421
1385573547501038495,1067934,1385573547501038495,/world,vicon/Archie/Archie,0.462821179012,1.15236654561,0.117518049932,0.00199583312332,-0.000173294050872,0.615871495896,0.787844075412
1385573547511009447,1067935,1385573547511009447,/world,vicon/Archie/Archie,0.462814625661,1.15238356429,0.117528467541,0.00197939957452,-0.000117006179605,0.615861925736,0.787851608309
1385573547521096403,1067936,1385573547521096403,/world,vicon/Archie/Archie,0.462903051949,1.1523765312,0.11759205632,0.00171767191785,0.000212605362256,0.615978616251,0.78776097182
1385573547531059697,1067937,1385573547531059697,/world,vicon/Archie/Archie,0.462816816883,1.15241846089,0.117488626293,0.00196392455478,-0.000113100879104,0.615850225782,0.787860793296
1385573547540964837,1067938,1385573547540964837,/world,vicon/Archie/Archie,0.462811274287,1.15241849224,0.117484948601,0.00192583730985,-0.000148041536333,0.615855201859,0.787856991832
1385573547551087915,1067939,1385573547551087915,/world,vicon/Archie/Archie,0.462908766982,1.15237088294,0.11760890923,0.0017529619126,0.000210439799138,0.615967470775,0.787769609585
1385573547561091564,1067940,1385573547561091564,/world,vicon/Archie/Archie,0.462859591199,1.15241973286,0.117709640548,0.00213330893259,-0.000162097669485,0.616020613243,0.787727127105
1385573547571075796,1067941,1385573547571075796,/world,vicon/Archie/Archie,0.462903855201,1.15238398274,0.117605898887,0.0017681168261,0.000228689123819,0.615961438749,0.787774287114
1385573547580968087,1067942,1385573547580968087,/world,vicon/Archie/Archie,0.462901199467,1.15238443552,0.117589881022,0.00170920041608,0.000204588921057,0.615974970126,0.787763843392
1385573547591238119,1067943,1385573547591238119,/world,vicon/Archie/Archie,0.462893603911,1.15238454189,0.117606584078,0.00176625279859,0.000250240958447,0.615966276185,0.787770502325
1385573547601094220,1067944,1385573547601094220,/world,vicon/Archie/Archie,0.462805795786,1.15241785158,0.117475625332,0.00192533538076,-0.000162111377506,0.61585905275,0.787853980094
1385573547610995994,1067945,1385573547610995994,/world,vicon/Archie/Archie,0.462765138205,1.15243818184,0.117621950334,0.00236379706263,-0.000585437441281,0.6158944269,0.787824932736
1385573547621481419,1067946,1385573547621481419,/world,vicon/Archie/Archie,0.462893660193,1.15243006725,0.117547150731,0.00164735809445,0.000228551597771,0.615952597074,0.787781462167
1385573547630973434,1067947,1385573547630973434,/world,vicon/Archie/Archie,0.462850315571,1.15246797115,0.117665204683,0.00203236746441,-0.000151365806947,0.615978263653,0.787760512642
1385573547640950374,1067948,1385573547640950374,/world,vicon/Archie/Archie,0.462897257428,1.15242611102,0.117555100973,0.00168904078476,0.000222688592247,0.615951562631,0.787782184391
1385573547651103988,1067949,1385573547651103988,/world,vicon/Archie/Archie,0.462896106461,1.15238873891,0.117589646583,0.00168490914371,0.00023577536087,0.615964879937,0.787771776706
1385573547661018979,1067950,1385573547661018979,/world,vicon/Archie/Archie,0.462859069964,1.15244256992,0.117695194694,0.00207470140745,-0.000174077228719,0.61599585557,0.787746641523
1385573547671080194,1067951,1385573547671080194,/world,vicon/Archie/Archie,0.462896357865,1.15242650082,0.117555676948,0.00165674428433,0.000227507251664,0.615965417454,0.787771418585
1385573547681039690,1067952,1385573547681039690,/world,vicon/Archie/Archie,0.462894138567,1.15238068931,0.117608056425,0.00172962567483,0.000222423747117,0.615967472248,0.787769656724
1385573547690937163,1067953,1385573547690937163,/world,vicon/Archie/Archie,0.46291035137,1.15241600708,0.117574240354,0.00171370892946,0.000272877727395,0.615956274726,0.78777843101
1385573547701074158,1067954,1385573547701074158,/world,vicon/Archie/Archie,0.462906146116,1.15238190761,0.117592473869,0.0017176053487,0.00020655362029,0.615968209681,0.787769110736
1385573547710995955,1067955,1385573547710995955,/world,vicon/Archie/Archie,0.462903251362,1.15237241285,0.117608068502,0.00174806654878,0.000201236241885,0.615961123893,0.787774585538
1385573547721040650,1067956,1385573547721040650,/world,vicon/Archie/Archie,0.462910666727,1.15237027273,0.117611843936,0.00174918093223,0.000240075511707,0.615985936261,0.78775517076
1385573547731063102,1067957,1385573547731063102,/world,vicon/Archie/Archie,0.462814475925,1.15241260322,0.117490110145,0.00194078751114,-0.000136510389186,0.615855666178,0.787856594277
1385573547740989625,1067958,1385573547740989625,/world,vicon/Archie/Archie,0.462907568608,1.15237000322,0.117607198978,0.00175138800104,0.00019409792253,0.615991273289,0.787751005203
1385573547750986955,1067959,1385573547750986955,/world,vicon/Archie/Archie,0.46286209118,1.15242679154,0.117730207161,0.00213257387835,-0.000137158702285,0.616013143749,0.78773297509
1385573547761059546,1067960,1385573547761059546,/world,vicon/Archie/Archie,0.4628529136,1.15238632932,0.117542089527,0.00199019015852,-0.000124881172173,0.615868506235,0.78784643591
1385573547771142496,1067961,1385573547771142496,/world,vicon/Archie/Archie,0.462903851526,1.15237510498,0.117616662415,0.00172103092995,0.000253924796803,0.615978709733,0.787760879157
1385573547780995102,1067962,1385573547780995102,/world,vicon/Archie/Archie,0.462904349884,1.15241406484,0.117584459747,0.0016886622729,0.000209202375757,0.615983565275,0.787757165607
1385573547791065314,1067963,1385573547791065314,/world,vicon/Archie/Archie,0.462823705577,1.15237116219,0.117529088147,0.00198969228087,-0.00015937952157,0.615865326485,0.78784891658
1385573547801004110,1067964,1385573547801004110,/world,vicon/Archie/Archie,0.462895980677,1.15243869067,0.117734758516,0.00214133452005,-0.00013958628918,0.615990127701,0.787750949081
1385573547810992685,1067965,1385573547810992685,/world,vicon/Archie/Archie,0.462903136139,1.15236932951,0.117617627304,0.00176758347871,0.000225385275543,0.61597367643,0.787764720456
1385573547821067856,1067966,1385573547821067856,/world,vicon/Archie/Archie,0.46289926578,1.15237787439,0.117612996709,0.00175467584671,0.000241505747726,0.615966782672,0.787770134895
1385573547830961528,1067967,1385573547830961528,/world,vicon/Archie/Archie,0.462934762418,1.15239733262,0.117616876029,0.00172047153521,0.00025639659112,0.61596434994,0.787772107808
1385573547841841948,1067968,1385573547841841948,/world,vicon/Archie/Archie,0.462864112243,1.15245317272,0.11768194234,0.00208661100811,-0.000141593136865,0.61598546335,0.787754742891
1385573547851127120,1067969,1385573547851127120,/world,vicon/Archie/Archie,0.462823141345,1.15239075041,0.117536426758,0.00197027695219,-0.000190554651929,0.615877041379,0.787839800721
1385573547860978029,1067970,1385573547860978029,/world,vicon/Archie/Archie,0.46290879078,1.1523665023,0.117610060708,0.00173898377233,0.000219594798613,0.6159779727,0.787761426361
1385573547871108759,1067971,1385573547871108759,/world,vicon/Archie/Archie,0.462902987974,1.15241265128,0.117570889515,0.00169224657515,0.000247541356179,0.615953161451,0.787780920004
1385573547881030232,1067972,1385573547881030232,/world,vicon/Archie/Archie,0.462905099591,1.15237507443,0.11761363708,0.00172119288608,0.000176278212082,0.615996895276,0.787746679734
1385573547891019386,1067973,1385573547891019386,/world,vicon/Archie/Archie,0.462902023409,1.15237084599,0.117616421879,0.00175645207137,0.000208304104923,0.615985702279,0.787755346585
