%time,field.linear.x,field.linear.y,field.linear.z,field.angular.x,field.angular.y,field.angular.z
1385573547687585642,0.0,0.0,0.0,0.0,0.0,0.0
1385573547687604366,0.462894138567,-1.15238068931,-0.117608056425,0.00299911408387,0.0017803498924,-1.32722668884
1385573547698201121,0.46291035137,-1.15241600708,-0.117574240354,0.00303621631595,0.00168120595239,-1.32719835475
1385573547707397110,0.462906146116,-1.15238190761,-0.117592473869,0.00296062287475,0.00179054841638,-1.32722854249
1385573547717390335,0.462903251362,-1.15237241285,-0.117608068502,0.00300208177692,0.00183642551018,-1.32721052791
1385573547727391156,0.462910666727,-1.15237027273,-0.117611843936,0.00305162847845,0.00177670119176,-1.32727358435
1385573547737401627,0.462814475925,-1.15241260322,-0.117490110145,0.0028899969173,0.00260559414006,-1.32694233626
1385573547747374818,0.462907568608,-1.15237000322,-0.117607198978,0.00299845020407,0.0018518788409,-1.32728705931
1385573547757384426,0.46286209118,-1.15242679154,-0.117730207161,0.00319083271886,0.00284347977515,-1.32734196911
1385573547767377803,0.4628529136,-1.15238632932,-0.117542089527,0.00298212256093,0.00264816834809,-1.3269748973
1385573547777416112,0.462903851526,-1.15237510498,-0.117616662415,0.00302435529929,0.00172017362928,-1.32725527594
1385573547787375557,0.462904349884,-1.15241406484,-0.117584459747,0.00291825067668,0.0017507759681,-1.32726754753
1385573547797400681,0.462823705577,-1.15237116219,-0.117529088147,0.00293885613108,0.00270190222656,-1.32696680976
1385573547807385780,0.462895980677,-1.15243869067,-0.117734758516,0.00320172759505,0.00285800420326,-1.32728352467
1385573547817505004,0.462903136139,-1.15236932951,-0.117617627304,0.00306255247692,0.00182246965925,-1.32724242401
1385573547827497260,0.46289926578,-1.15237787439,-0.117612996709,0.00306209113618,0.0017811429827,-1.32722495603
1385573547837407532,0.462934762418,-1.15239733262,-0.117616876029,0.00302655036877,0.001715534937,-1.32721882358
1385573547847430075,0.462864112243,-1.15245317272,-0.11768194234,0.00311305398507,0.00279372906171,-1.32727172879
1385573547857425393,0.462823141345,-1.15239075041,-0.117536426758,0.00286982334344,0.00272715313849,-1.32699655432
1385573547867385452,0.46290879078,-1.1523665023,-0.117610060708,0.00301034919541,0.00179637573986,-1.32725333794
1385573547877395992,0.462902987974,-1.15241265128,-0.117570889515,0.00297119552768,0.00169467335238,-1.32719041801
1385573547887381462,0.462905099591,-1.15237507443,-0.11761363708,0.00292891078571,0.0018427748384,-1.32730132343
1385573547897431404,0.462902023409,-1.15237084599,-0.117616421879,0.00302394342491,0.00183571441168,-1.32727293446
1385573547907488633,0.462908310535,-1.15241312862,-0.117566483296,0.00295056210396,0.00174778735182,-1.32718886533
1385573547917413148,0.462814698284,-1.15236750297,-0.117516347876,0.0028882496542,0.00272797187938,-1.32697689691
1385573547927385697,0.462823196366,-1.15238152416,-0.117524704538,0.0029655731435,0.00269554139361,-1.32693114258
1385573547937391384,0.46281816098,-1.15237473439,-0.117528794294,0.00298876115063,0.00270056576449,-1.32696189367
1385573547947411677,0.462902416025,-1.15237014215,-0.11760733779,0.0029899813847,0.00177654009052,-1.32723802286
1385573547957388317,0.46290034926,-1.15237290269,-0.117603765966,0.00303906518412,0.0018154800001,-1.3272402475
1385573547967378931,0.462893546502,-1.1523830173,-0.117598196535,0.00295492524442,0.00171896304206,-1.32723826358
1385573547977396917,0.462891860773,-1.15242512466,-0.117566573209,0.00294473809575,0.00170465084105,-1.32721696283
1385573547987391116,0.462873118432,-1.15242350265,-0.117728874696,0.00319923444354,0.00285297442091,-1.32729352962
1385573547997479403,0.462890215037,-1.15242938325,-0.117550464466,0.00287876923033,0.00180435066685,-1.32720051179
1385573548007560413,0.462913969912,-1.15237840178,-0.117611155964,0.00302179512945,0.00179637241597,-1.3272350622
1385573548017487423,0.462901913113,-1.15238597883,-0.117604875343,0.00301341368651,0.00179576179315,-1.32724792857
1385573548027414027,0.462861167864,-1.15247535103,-0.11770114045,0.00306259767344,0.00280132963585,-1.32729940784
1385573548037428660,0.4628243856,-1.15237273804,-0.117532671311,0.00295897735232,0.00268144276629,-1.3269831056
1385573548047392171,0.462910162329,-1.15237596283,-0.11760477242,0.00300209891661,0.00184491680407,-1.32723586942
1385573548057404052,0.462855065258,-1.15243415817,-0.117721505904,0.00320611230289,0.00281680842754,-1.32731841884
1385573548067392539,0.462860613498,-1.15242207471,-0.117707416294,0.0031415855976,0.0029306212148,-1.32730313085
1385573548077395856,0.462766029019,-1.15247835722,-0.117583972653,0.00297558595434,0.00380770566419,-1.32701960938
1385573548087378983,0.46290190775,-1.15237378158,-0.117608493264,0.00303387968351,0.00177084249941,-1.32726129795
1385573548097445478,0.462860964948,-1.15242908589,-0.117702557635,0.00306419089477,0.00283752653455,-1.32731326746
1385573548107401470,0.462823542735,-1.15237449495,-0.117520025152,0.00289050208115,0.00272822938747,-1.32696026993
1385573548117384906,0.462892391506,-1.15238540532,-0.117599305743,0.00296261256547,0.00169930317149,-1.32726238459
1385573548127377011,0.462898554793,-1.15242490961,-0.117554300294,0.00291374188571,0.00167840442402,-1.32717336126
1385573548137395895,0.462928785463,-1.1524224255,-0.117602419708,0.00299065519837,0.00172147204063,-1.32715953423
1385573548147556590,0.462902151376,-1.15238422838,-0.117591926491,0.0029190120866,0.00177319847496,-1.32723802664
1385573548157492378,0.462857090995,-1.1524438977,-0.11769401652,0.00303505540177,0.00278839033713,-1.32732701943
1385573548167423987,0.462901313456,-1.15241370036,-0.117572645337,0.00298566807262,0.00171241149791,-1.32725530015
1385573548177541754,0.462904965395,-1.15239375843,-0.117590738847,0.00297218489353,0.00170349983164,-1.32720249039
1385573548188036262,0.462895983196,-1.15239665804,-0.117579662854,0.00293264813675,0.0015794033625,-1.32720927009
1385573548197532378,0.462901471581,-1.15238465498,-0.11758952425,0.00292784783379,0.00178400847252,-1.32723524554
1385573548207486444,0.462905911627,-1.15242210378,-0.117551129929,0.00285523079183,0.00170493201564,-1.32721617054
1385573548217573348,0.462904435818,-1.15239615142,-0.117594792425,0.00298004922066,0.00176759392873,-1.32718695447
1385573548227513465,0.462907566929,-1.15238485754,-0.1175849093,0.00290636227168,0.00171669290881,-1.32723233257
1385573548237515297,0.462815931992,-1.15239339384,-0.117503929949,0.00280027058299,0.00267647826175,-1.32707343244
1385573548247587547,0.46294890364,-1.15240960274,-0.117600933232,0.00303733641655,0.00168459113854,-1.32718278571
1385573548257529805,0.462816675658,-1.15239269234,-0.117523082533,0.00303114103176,0.00262229816999,-1.32696031064
1385573548267476292,0.462806656634,-1.15239863836,-0.117501456763,0.00290360460493,0.00264442303905,-1.32667349636
1385573548277790285,0.462893742053,-1.15240926844,-0.117592851934,0.00288553267138,0.00174106547176,-1.32724698986
1385573548287571102,0.462807872938,-1.15242707415,-0.117463658509,0.00271678523856,0.00274992725731,-1.32719894899
1385573548297457606,0.462827359389,-1.15238844253,-0.117506993267,0.0028338281028,0.00279827785655,-1.32673447485
1385573548307467704,0.462791468687,-1.15242067951,-0.117469015961,0.00287800716273,0.00265604948281,-1.3262405953
1385573548317508801,0.462855542458,-1.15241453159,-0.117563329925,0.0029949449734,0.00174913174294,-1.32766976654
1385573548327414524,0.462889251522,-1.1523882639,-0.117582451636,0.00295356120991,0.00193106953793,-1.32817274838
1385573548337449748,0.462926925829,-1.15235204966,-0.117619922622,0.00257788813783,0.00201262809013,-1.32706132403
1385573548347470986,0.462897089627,-1.15233467415,-0.117668081024,0.00239567421001,0.00209922323906,-1.32691395018
1385573548358696488,0.462865860085,-1.15234967438,-0.117555240925,0.0026148871062,0.00280967949119,-1.32848434161
1385573548367486787,0.462889175662,-1.15231170158,-0.117588736783,0.00246980398043,0.00275338716691,-1.32880363299
1385573548377572596,0.462891403751,-1.15231803405,-0.117606709929,0.00241890487859,0.00264787886987,-1.327836895
1385573548387573452,0.46288640247,-1.15235121593,-0.117659949148,0.00251460759785,0.00205913693964,-1.32785036823
1385573548398429148,0.462906718539,-1.15236662887,-0.117651994786,0.00256873776907,0.00210273069465,-1.32873201128
1385573548407504540,0.46287743463,-1.1523396918,-0.117591659884,0.00243844978509,0.00276412287037,-1.32834843285
1385573548417541465,0.46288832589,-1.15236367345,-0.117609023749,0.00252370157392,0.00218182757608,-1.32764194968
1385573548427512624,0.462863472532,-1.15231133801,-0.117583661776,0.00252686717664,0.00279655450855,-1.32824703064
1385573548437523751,0.462887955197,-1.15236312293,-0.117654957176,0.00257068505653,0.00219699849058,-1.328746535
1385573548447490561,0.462832559274,-1.15230784953,-0.117509366081,0.00280046185893,0.00282908873277,-1.3279125959
1385573548457488804,0.462816835788,-1.15236077842,-0.117545079476,0.00247811392534,0.00300635845753,-1.32745346003
1385573548467460520,0.462911083202,-1.15237062121,-0.117668350037,0.00254878853812,0.00200492511872,-1.32854088936
1385573548478477390,0.46288099143,-1.15235687407,-0.117649147578,0.00261662473801,0.0022052742017,-1.32850185767
1385573548487617841,0.462880068883,-1.1523357536,-0.11764197462,0.00248367491212,0.0023074009322,-1.32773045277
1385573548497499639,0.462901553377,-1.15239503075,-0.117663333414,0.00269192221799,0.00202823016757,-1.32800095245
1385573548507578929,0.462865587677,-1.1523121029,-0.117559218501,0.00242336772811,0.00293433874811,-1.32864912586
1385573548517505331,0.462831040695,-1.15235590654,-0.117616425646,0.00297715662829,0.0020042023778,-1.32822120022
1385573548527483255,0.462858251326,-1.15229395729,-0.117572752718,0.00232058252186,0.00305405922936,-1.32777096036
1385573548537467188,0.462865959416,-1.15230730399,-0.117583106843,0.00242911657365,0.00288761100723,-1.32828886644
1385573548547438900,0.46277062178,-1.15232919835,-0.117465762751,0.00234496362756,0.00404194423572,-1.32805407841
1385573548557509609,0.462882968924,-1.15232930888,-0.117612593825,0.00241816770258,0.00269912333789,-1.32807327399
1385573548567394017,0.46288222887,-1.15235829682,-0.117672022738,0.00259747106042,0.00216902181121,-1.32808464442
1385573548577389199,0.462834496551,-1.15232723075,-0.117539524805,0.00283857409202,0.00269220847856,-1.32831622985
1385573548587508037,0.462879545315,-1.15235606338,-0.117661545344,0.0025556816663,0.00222818075156,-1.32833157885
1385573548597733626,0.462797860328,-1.15236472719,-0.117575589194,0.00249325503924,0.0031436931226,-1.32775558225
1385573548607444347,0.462888543559,-1.1523412827,-0.117657560625,0.00252911242118,0.0021728959186,-1.32824620338
1385573548617439363,0.462844717053,-1.15242273689,-0.11758508071,0.00290725792136,0.00178258899437,-1.32833383411
1385573548627465788,0.462843247657,-1.15236813541,-0.117611924245,0.00273686834881,0.00194982694294,-1.32813686884
1385573548637501618,0.462706196454,-1.15226215317,-0.117659307502,0.00241771219317,0.00331746472867,-1.32801226242
1385573548647395361,0.462868178174,-1.15236640067,-0.11764520768,0.00251911547472,0.00216896160732,-1.32831781427
1385573548658447994,0.46288216889,-1.1523924092,-0.117624091378,0.00229348882896,0.00212951033844,-1.32813979023
1385573548667461335,0.462871390591,-1.15238287797,-0.117620813792,0.00282543504792,0.00189297106885,-1.32823346642
1385573548677644012,0.462866930443,-1.15231244487,-0.117576887288,0.00220088405449,0.00296879286793,-1.3282536055
1385573548687542935,0.462880512069,-1.15235925156,-0.117652713444,0.00234421673924,0.00214964041251,-1.32813359154
1385573548697510301,0.462882799442,-1.15236839208,-0.117645122756,0.00223633159036,0.00234596631615,-1.3282538616
1385573548707567123,0.462885474401,-1.15232981644,-0.117608067467,0.0023142179881,0.00273187738404,-1.32848647291
1385573548717472825,0.462864216968,-1.15237801111,-0.117652395641,0.00247577719312,0.00225353431169,-1.32822176347
1385573548727491328,0.46289699647,-1.15233941062,-0.117643244321,0.00270008781402,0.00212846894014,-1.32777634947
1385573548737598722,0.462842508811,-1.15241216531,-0.117565917539,0.0031485605382,0.00185084136186,-1.3283003887
1385573548747461329,0.462874851567,-1.15237159911,-0.117640415927,0.00285791185659,0.00217471334559,-1.3286000264
1385573548757503884,0.462921954257,-1.15238263905,-0.11767586664,0.00272683737347,0.00209822042245,-1.32797455904
1385573548767529102,0.462844881125,-1.15237507165,-0.117641776433,0.00285248195301,0.00191531455021,-1.32796186285
1385573548777534481,0.462906429434,-1.15237155184,-0.117672751235,0.00255634384417,0.00214350728041,-1.32838824318
1385573548787586402,0.462917527706,-1.15239171429,-0.117666534508,0.0026168506824,0.00214335465915,-1.3283279076
1385573548797475586,0.462789523419,-1.15238358455,-0.1175651966,0.00297427459264,0.00276685535684,-1.32757353559
1385573548807522540,0.462880329148,-1.15230560246,-0.117616300738,0.00288841877953,0.002834445878,-1.32815849113
1385573548817566313,0.462888599942,-1.15232109224,-0.11762674973,0.00302832264214,0.002846521338,-1.32841958324
1385573548827484113,0.462841452701,-1.15232298332,-0.117598447119,0.00305656134116,0.00274987030511,-1.32789309291
1385573548837534685,0.462889767056,-1.15233201193,-0.11760837269,0.00225482375738,0.00285804303802,-1.32803115705
1385573548847571633,0.462906623681,-1.15227105405,-0.117463826451,0.00209891870396,0.00298394655223,-1.32823786747
1385573548857558252,0.462822581742,-1.15238660099,-0.117665074624,0.00136033399288,0.00197408164621,-1.32813637042
1385573548867473692,0.462746525113,-1.152348635,-0.117604996229,0.00057308760174,0.00279834186655,-1.32785320535
1385573548877522196,0.462762257211,-1.15237916608,-0.117554102831,0.000641804229365,0.00301344342174,-1.32859481276
1385573548887574697,0.462911733942,-1.15236079248,-0.117690388806,0.00103622827497,0.00244381618629,-1.32832926341
1385573548897503773,0.462845000193,-1.15234250463,-0.117716293582,0.00196855696369,0.00191280519613,-1.3281242666
1385573548907521125,0.462860818288,-1.1523422232,-0.117760636169,0.00225178128119,0.00195373395544,-1.32849762497
1385573548917493428,0.462844441117,-1.15231248064,-0.117604103804,0.0026501033733,0.00274338929032,-1.3280217317
1385573548927452047,0.462848888163,-1.15227656319,-0.117613293308,0.00216841324729,0.00288410756506,-1.32820429333
1385573548937548847,0.46287946236,-1.15237043092,-0.117697337003,0.00197426005086,0.00188890448881,-1.32850467292
1385573548947395890,0.462806923025,-1.15236011341,-0.117644445218,0.0015923616641,0.00291447971872,-1.32785571729
1385573548957372469,0.462787893428,-1.15236635589,-0.117718003839,0.00179047673787,0.00174056320813,-1.32856001408
1385573548967393177,0.462965625588,-1.15227004735,-0.117555142705,0.00228574650339,0.00182466805047,-1.32847041522
1385573548977386945,0.462767162521,-1.15227365629,-0.117502965614,0.0018551950096,0.00418816064192,-1.32778710009
1385573548987500822,0.462808136624,-1.15234313975,-0.117686063954,0.00270836022101,0.00182911774899,-1.32860701499
1385573548997487214,0.462849311649,-1.15229596436,-0.117674078884,0.00268374455964,0.00287792380376,-1.32842869635
1385573549007909077,0.462886795418,-1.1523025292,-0.117707444584,0.00302924387537,0.00280051245633,-1.32814329201
1385573549017874811,0.462812973486,-1.15234571816,-0.117682748757,0.00334917512572,0.00183254248392,-1.32866993078
1385573549027443709,0.462894808953,-1.15235187455,-0.117733716721,0.00280057128755,0.00227933852992,-1.32835165357
1385573549037527223,0.462860142765,-1.15230792631,-0.117734785023,0.00272305523704,0.00204559941716,-1.32840076809
1385573549047423578,0.462738832788,-1.15231718385,-0.117698318178,0.00191000466467,0.00295642846649,-1.32850611441
1385573549057446823,0.462925370983,-1.15226695662,-0.117568053477,0.00281558836892,0.00140240473962,-1.32826907359
1385573549067491444,0.462801058319,-1.15229572061,-0.117713284029,0.00172958722368,0.00203783957851,-1.32860012044
1385573549077515789,0.462813013036,-1.15232395175,-0.117718399354,0.0018453059311,0.00188874269974,-1.32878743668
1385573549087535827,0.462827060086,-1.15231652164,-0.117677059733,0.0025184438166,0.00196609496703,-1.32844437975
1385573549097436772,0.462816185889,-1.15229718102,-0.11777736545,0.00266181743292,0.00210501619984,-1.32875764291
1385573549107455988,0.46290684546,-1.15234487618,-0.11777810175,0.0029072620709,0.00230581044099,-1.32834440596
1385573549117462373,0.4627365701,-1.15228674418,-0.117635581775,0.00251884955341,0.00310310833994,-1.32810685832
1385573549127524482,0.462757011932,-1.1523214079,-0.117676736671,0.00269811254181,0.00175894410707,-1.32889941079
1385573549137496652,0.462825334397,-1.15227601867,-0.117666126132,0.00209063861082,0.00257153066227,-1.32870098603
1385573549147418661,0.462819077394,-1.15231773236,-0.117688664667,0.00202196229277,0.00207639337501,-1.32863203318
1385573549157483403,0.462742745881,-1.15233403179,-0.117693733634,0.00210994974949,0.00172126413942,-1.3290785936
1385573549168987075,0.462807970181,-1.15231997571,-0.117711724144,0.00168591277857,0.00218199127905,-1.32864846682
1385573549177539145,0.462794357753,-1.15227940363,-0.117691575082,0.00190912036951,0.00215685670632,-1.32880535311
1385573549187595046,0.462671971461,-1.15228757987,-0.117622682858,0.0018071245291,0.002985604576,-1.32865686465
1385573549197520321,0.462687485727,-1.15228374918,-0.117562964035,0.00230402746952,0.00303554203977,-1.32807150173
1385573549207531452,0.4627753021,-1.1522814356,-0.11769503829,0.00213462620752,0.0021804439026,-1.32878206971
1385573549217565624,0.462785891809,-1.1523007721,-0.117698386733,0.00206965914096,0.00212340888769,-1.32886723356
1385573549228286681,0.462768811907,-1.15227491419,-0.117646135002,0.0023730004169,0.00187806587693,-1.32840859475
1385573549237420877,0.46276168811,-1.15226984427,-0.117680796699,0.00194586379149,0.00221675831542,-1.32887234912
1385573549247493630,0.462716020151,-1.15228205389,-0.11761300981,0.00178647738694,0.00290532397192,-1.32835532413
1385573549257468659,0.462696358152,-1.15225075989,-0.117645757661,0.00165975118435,0.0030014812696,-1.32823827224
1385573549267451280,0.462617105207,-1.15233455932,-0.117553816904,0.0019616476044,0.00270116362448,-1.32881639696
1385573549277560276,0.462705476631,-1.15227621704,-0.117618965407,0.00177929629309,0.00308479159626,-1.3283673448
1385573549289429516,0.462792217807,-1.15230085374,-0.117639795505,0.0020040152272,0.0021343288065,-1.32860537402
1385573549297436335,0.462722306013,-1.15229188416,-0.117644572519,0.00269646910795,0.0017592329348,-1.32894581447
1385573549307506290,0.462801218823,-1.15230930554,-0.117684664942,0.00259030592354,0.00233861134283,-1.32851647541
1385573549317491026,0.462772318118,-1.15228138999,-0.117681433932,0.00271476398166,0.00225201384682,-1.32900335275
1385573549327542027,0.462695916305,-1.15229912574,-0.117599567036,0.00221296298523,0.00301819619253,-1.32859799594
1385573549337472607,0.462729463635,-1.15229068153,-0.117644532941,0.0025373107085,0.00188191658234,-1.32849260645
1385573549347481251,0.462743590463,-1.15227405999,-0.117677499663,0.00184011193751,0.00219161876973,-1.3289442151
1385573549357985558,0.462752974383,-1.15227089268,-0.117697968644,0.00183458295195,0.00214420006295,-1.32906634129
1385573549367370855,0.462612137409,-1.15230772988,-0.117590377337,0.00205650705506,0.00270497654161,-1.32917757688
1385573549377462077,0.462833845776,-1.15217089025,-0.117572312369,0.00252960892027,0.00212541145285,-1.32974640682
1385573549387458800,0.462736642788,-1.15226262336,-0.11759006275,0.00194502323481,0.00258822547985,-1.32944393606
1385573549397382288,0.462732495642,-1.15216425594,-0.117562157119,0.00183062335991,0.00308620990087,-1.329497198
1385573549407363818,0.462598371607,-1.15223123166,-0.117566506801,0.00227736640918,0.00327304516234,-1.32973470284
1385573549417466882,0.462754435631,-1.15225644193,-0.117807349207,0.00238332769758,0.0024866018907,-1.32981680258
1385573549427401847,0.462679034065,-1.15224621374,-0.117709921974,0.0021076463934,0.00224988869248,-1.32992782798
1385573549437449682,0.46265225306,-1.15223720254,-0.117585907862,0.00257997866356,0.00242133260669,-1.33050127464
1385573549447390919,0.462591276294,-1.15222083447,-0.117561178981,0.00254074729965,0.00354021513049,-1.3302460783
1385573549457379398,0.462762155413,-1.15222661582,-0.117732859181,0.00311285087233,0.00282960765413,-1.33002207671
1385573549468230043,0.462662377165,-1.15220264946,-0.117786845551,0.00304565931544,0.00226815398659,-1.33107687609
1385573549477644764,0.462655561547,-1.15216502327,-0.117627203015,0.00377031942924,0.00246857748241,-1.33026412185
1385573549487457389,0.462674704075,-1.1521723276,-0.117603691734,0.00313194286628,0.00346842504592,-1.33018362648
1385573549497471305,0.462608201193,-1.15213383544,-0.117726656442,0.00305127079669,0.00229925506553,-1.33129837175
1385573549507469936,0.462646561045,-1.15217991047,-0.117745683761,0.00334305468142,0.0021193619925,-1.33051276043
1385573549517454086,0.462615017237,-1.15218586544,-0.117823108106,0.00332146797737,0.00337507149874,-1.33169379757
1385573549527497785,0.462677161497,-1.15212467696,-0.117679508988,0.00307035507234,0.00230629124838,-1.33117422464
1385573549537492536,0.462668929068,-1.15207286972,-0.117643042279,0.00321269076263,0.00250564663764,-1.33158709189
1385573549547440000,0.462559031345,-1.15221504772,-0.117804886571,0.004707688831,0.00288823241285,-1.33189520989
1385573549557512497,0.462672596475,-1.15208130253,-0.117800856885,0.00472740260322,0.00201150260276,-1.3312917638
1385573549567462599,0.462635762051,-1.15211096558,-0.117876126425,0.00493019056293,0.003558354728,-1.33216120641
1385573549577574338,0.462657485894,-1.15219393571,-0.117774016714,0.00471516260428,0.00342524586225,-1.33169166164
1385573549587386767,0.462554499891,-1.15210580916,-0.117796344291,0.00480767882051,0.00292984076506,-1.33208371668
1385573549597388158,0.462580981363,-1.15215349236,-0.117929564957,0.00477719118508,0.00328162396048,-1.332070174
1385573549608132420,0.462595070087,-1.15208557821,-0.117951710077,0.0054229026142,0.00347889335521,-1.33206233781
1385573549617494946,0.462605365189,-1.15205825424,-0.117846436425,0.00547542064735,0.00349070907554,-1.33200919693
1385573549627425021,0.462547533085,-1.15213068883,-0.117773308599,0.00549971375382,0.00330913593775,-1.33195381332
1385573549637519136,0.462552291599,-1.15200888948,-0.117950021807,0.00499986481221,0.0035657220209,-1.33261155887
1385573549647502373,0.462571841118,-1.15210018029,-0.117936981389,0.00447861270842,0.003463641116,-1.33188978491
1385573549657410102,0.462541266944,-1.15204896336,-0.117864958838,0.00435386240387,0.00319791591702,-1.33259018038
1385573549667411359,0.462492685992,-1.15211277842,-0.117821114536,0.00479822960683,0.00328624726464,-1.33233651432
1385573549677485317,0.46255270028,-1.15201923751,-0.117887299402,0.00505435723823,0.00397952098596,-1.33224011582
1385573549687520334,0.462422348665,-1.151998124,-0.117911495059,0.00577875374679,0.00372876237075,-1.33269925815
1385573549697508266,0.462508110795,-1.15204102103,-0.117950592682,0.00645802393241,0.00343908189069,-1.33266106436
1385573549707549340,0.462398522471,-1.15200170613,-0.11784743087,0.0069119583283,0.00331445461693,-1.33329152748
1385573549717499060,0.462399529517,-1.15210789328,-0.117897841468,0.00643730299091,0.00342788654218,-1.3332192237
1385573549727459870,0.462396787152,-1.15201227109,-0.117955023765,0.00574182621947,0.00360714495941,-1.3330954815
1385573549737516507,0.462356328374,-1.152101233,-0.117934370589,0.00488615453687,0.00268083668881,-1.33386233503
1385573549747504622,0.462320435343,-1.15202962782,-0.117854654889,0.00512557161803,0.0029038172352,-1.3336140913
1385573549757444718,0.462133524709,-1.15202439586,-0.117713156632,0.00502848163336,0.00390041447705,-1.33388848448
1385573549767419039,0.462155839399,-1.15198861186,-0.117765495268,0.00489492288362,0.00288554675247,-1.33456178671
1385573549777491798,0.462117455823,-1.15198579404,-0.117778493665,0.0043058657241,0.0027443701784,-1.33409414903
1385573549787502180,0.462217777083,-1.15197856223,-0.117911572999,0.00428712933283,0.00248706166486,-1.33450019517
1385573549797467286,0.462148413852,-1.1519505012,-0.117968244335,0.0051461012854,0.00286568915795,-1.33436212605
1385573549807538644,0.462170521616,-1.15197383366,-0.117987468712,0.00577745365804,0.0026988892984,-1.33481985173
1385573549817532349,0.462045779206,-1.15189780012,-0.117919730212,0.00674663492189,0.00226042776029,-1.33573147662
1385573549827444973,0.462185228101,-1.15193246239,-0.117955183541,0.00647321320791,0.00338578957068,-1.3345824717
1385573549837608715,0.461970431418,-1.15180505282,-0.117835493678,0.00621052206972,0.00381784320329,-1.33597210658
1385573549847462586,0.462052483329,-1.15185591746,-0.117924593044,0.00566535089665,0.00277438434431,-1.33549440999
1385573549857485528,0.461980162799,-1.15179458883,-0.11799513638,0.00521615912268,0.00262185332948,-1.33613896463
1385573549867501822,0.462023528918,-1.15182201224,-0.117951238256,0.00474241516497,0.00297105152459,-1.33616410637
1385573549877504253,0.461917423345,-1.15175534713,-0.117780050359,0.00515437618356,0.00315464165527,-1.33641967455
1385573549887417827,0.461926872403,-1.15170808972,-0.11776283804,0.00525397098351,0.00299372984071,-1.33699352888
1385573549897463490,0.461953995649,-1.15167972782,-0.118002090616,0.00516833485345,0.00284408052483,-1.33701140252
1385573549907519749,0.461937461067,-1.1516402141,-0.118139037315,0.00552459525743,0.00277884467691,-1.33772026692
1385573549917684117,0.461884757045,-1.15162262512,-0.117990956391,0.00539060088784,0.00319325654065,-1.33829850014
1385573549927443920,0.461778213072,-1.15162802394,-0.117885440184,0.00507121726244,0.00335369779327,-1.33958489303
1385573549937436607,0.461729624429,-1.15163914179,-0.117807072472,0.00483003683383,0.00366266600822,-1.34028456434
1385573549947496749,0.46160527548,-1.1516705152,-0.11780885917,0.00504790282229,0.00340815332047,-1.34131380947
1385573549957455801,0.46147551181,-1.15175238914,-0.117882805025,0.00564358630267,0.0022622273511,-1.34222195293
1385573549967451522,0.461505799388,-1.15173799845,-0.117879172172,0.00561893913071,0.00281357113441,-1.34276046966
1385573549977468240,0.461418423614,-1.15159500304,-0.117766901113,0.0055825826108,0.00352883188901,-1.34461386634
1385573549987466240,0.461343801057,-1.15170680676,-0.117739390658,0.00623759406536,0.00151169856264,-1.34579677869
1385573549997526377,0.461318952809,-1.15173513013,-0.117657339533,0.0062810711857,0.00109987170872,-1.34668737135
1385573550007522861,0.461082113402,-1.15165046877,-0.117815400958,0.00681097437392,0.00265702555132,-1.34773003508
1385573550017468386,0.461203629769,-1.15156491019,-0.118142201994,0.00585818486106,0.00392459462314,-1.34901734121
1385573550027467470,0.461035981285,-1.15158793934,-0.118144545377,0.00554517452484,0.00374412167661,-1.34998658564
1385573550037480059,0.460844387746,-1.15162017096,-0.117930076337,0.0056274648221,0.00281153195051,-1.35071437954
1385573550047424928,0.460614720725,-1.1516813319,-0.117658349753,0.00536995301973,0.00224440745982,-1.35188550005
1385573550057422542,0.460610753767,-1.1516509859,-0.117614479105,0.00533823527732,0.00398798974725,-1.3527753988
1385573550067485197,0.460125827615,-1.15134589871,-0.117886401403,0.00555194448137,0.00378070729472,-1.35562233636
1385573550077589416,0.460069823129,-1.15139313778,-0.11814897284,0.0050000165031,0.00170435784317,-1.35732996797
1385573550087490248,0.459851033305,-1.1513087638,-0.118167427623,0.00450634904907,0.00248719740379,-1.35949775058
1385573550097507648,0.459609530173,-1.15128870195,-0.117784020776,0.00354453635757,0.00418044847593,-1.36095314581
1385573550107531989,0.459294058675,-1.15120381409,-0.117587082899,0.00257645825022,0.00290123308972,-1.36269664438
1385573550117479788,0.459120042964,-1.15120333099,-0.117753333696,0.00104705893792,0.00419965756648,-1.36414536624
1385573550127494697,0.458879852708,-1.15094598245,-0.118097131887,0.000525170769221,0.00232538143632,-1.3661985886
1385573550137494983,0.458774007829,-1.15089921222,-0.118075483416,-0.000352687701262,0.00349035033068,-1.36779290587
1385573550147489700,0.458422490915,-1.15069737438,-0.117965757142,8.39525086834e-05,0.00166868652853,-1.36948933971
1385573550157476287,0.458237349673,-1.15066488067,-0.118009198877,0.000195321770378,0.000985808025013,-1.3714888531
1385573550167596827,0.457987386033,-1.15044057184,-0.117995537975,0.000954276429686,0.00244348674303,-1.37325256161
1385573550177545836,0.457795908839,-1.15023541733,-0.117781678988,0.00104650800405,0.00367030059851,-1.3758237602
1385573550187442030,0.457414217833,-1.15020251431,-0.117790741642,0.00120661851706,0.00359308775799,-1.37833236715
1385573550197516217,0.457263106661,-1.14998630616,-0.118165522106,0.000953354137923,0.00159385175568,-1.38064342918
1385573550207703871,0.456795098302,-1.14990764346,-0.118255388139,0.000495262292249,0.00255186746983,-1.38268296728
1385573550217437072,0.456615167911,-1.14969637803,-0.117988341442,-0.000220265266658,0.00381891918221,-1.38499394313
1385573550227378291,0.456238552408,-1.14942179421,-0.117761255009,-0.00039567861082,0.00215416926255,-1.38751798882
1385573550237380340,0.45596843249,-1.14934415547,-0.117899101039,-0.000502517351639,0.000811126445767,-1.38970700826
1385573550247394139,0.455712474209,-1.14898665402,-0.11798579261,-0.00102728470778,0.00376798762731,-1.39101922246
1385573550257403860,0.455352533953,-1.14891703178,-0.118029519863,-0.00130944332811,0.00448356133048,-1.39325587239
1385573550267418111,0.455089470447,-1.14862583308,-0.118152501042,-0.00114146485576,0.0025054108981,-1.39471708617
1385573550277385514,0.45481703443,-1.14834563539,-0.118118688244,-0.00147548588971,0.00191349975391,-1.39648577918
1385573550287384600,0.454529326669,-1.14788108911,-0.118126959931,-0.00152821682894,0.00188339748844,-1.39860864573
1385573550297377107,0.454216804912,-1.1476689141,-0.11795774394,-0.00180627976054,0.00166932055856,-1.39984982398
1385573550307400272,0.453964767487,-1.14729043456,-0.117900995315,-0.00172679968093,0.00223605975953,-1.40155832533
1385573550317383082,0.45372082606,-1.14695065662,-0.117928135022,-0.00214740648017,0.00296997041614,-1.40293877016
1385573550327373876,0.453476534199,-1.14644048755,-0.117948770185,-0.00384855201108,0.00197934819379,-1.40523411978
1385573550337388309,0.453080666784,-1.14626914847,-0.118051782571,-0.00341623671226,0.0029642134548,-1.40633109046
1385573550347383363,0.45292148028,-1.14590827666,-0.118040747019,-0.00402490519182,0.0027458274389,-1.40891758995
1385573550357373456,0.452676891056,-1.14560797919,-0.118074324686,-0.00382594820882,0.00335028701408,-1.41092059297
1385573550367396117,0.452454528587,-1.14527525325,-0.118169771307,-0.00390197902136,0.003448914013,-1.41349171729
1385573550377384654,0.452306812004,-1.14489690832,-0.118251248354,-0.00366976742271,0.00339047709987,-1.41560463041
1385573550387377629,0.452018919743,-1.14436109121,-0.11810482496,-0.00390986549462,0.00160797481632,-1.41824972267
1385573550397378715,0.45166495266,-1.1442676302,-0.118145639165,-0.00272875047202,0.00244221878379,-1.42025110676
1385573550407391746,0.451462988512,-1.14359007179,-0.118174345288,-0.00199406561099,0.00320749361936,-1.42308903167
1385573550417379135,0.451265945825,-1.14329689053,-0.118378671802,-0.000256932511446,0.00406362269755,-1.4245739102
1385573550427381382,0.450958996175,-1.14271182639,-0.118395310656,-0.00034962259193,0.00368264873387,-1.4273714151
1385573550437375523,0.450659273399,-1.14229437765,-0.118476773521,-0.000215990258134,0.00175568130039,-1.4299910629
1385573550447399941,0.450423819036,-1.14172762634,-0.118407023642,-0.00136491407761,0.00240965054281,-1.43196288922
1385573550457375546,0.450014036267,-1.1413087565,-0.118571790641,-0.00128811723541,0.0014307149618,-1.43443673395
1385573550467380030,0.449728365882,-1.14083925615,-0.118742536808,-0.0025734288342,0.00135595901244,-1.4358914052
1385573550477393464,0.449417499965,-1.14029998578,-0.119008539668,-0.00389542776596,0.00247638717526,-1.43756030242
1385573550487384010,0.449131885482,-1.13967219054,-0.119056742044,-0.00549064541145,0.00354354760737,-1.43876636209
1385573550497399239,0.448976347553,-1.13900960593,-0.119393689824,-0.00566346608565,0.00372945846944,-1.44088072272
1385573550507385902,0.448744245687,-1.13849822808,-0.119449758328,-0.00574992493546,0.00395805675051,-1.44135054416
1385573550517378286,0.44854742146,-1.13780558084,-0.119934240481,-0.00644182014081,0.00243866847274,-1.44311115955
1385573550527377831,0.448331478478,-1.1373890976,-0.120092147878,-0.0067563060839,0.00307149705135,-1.44366874281
1385573550537398725,0.448316235975,-1.13674825679,-0.120625080427,-0.00692557697887,0.00456738603727,-1.44546904916
1385573550547385592,0.448379565457,-1.13619061874,-0.121087434631,-0.00769389120353,0.00523802943773,-1.44692998744
1385573550557389908,0.448322809763,-1.13557646403,-0.121634382678,-0.0076460116102,0.0038652752811,-1.44758549523
1385573550567391579,0.448391941502,-1.13497338596,-0.122232593117,-0.00723363299416,0.00388128410239,-1.44851774848
1385573550577380879,0.448142066106,-1.13419503081,-0.122858120739,-0.00636122056704,0.00438988276565,-1.44933043042
1385573550587401111,0.448133230132,-1.1334295303,-0.123724796164,-0.00483103602267,0.00299394295744,-1.45094395202
1385573550597384994,0.448296473338,-1.1328191066,-0.124464655743,-0.00365961100188,0.00293984103312,-1.4516009049
1385573550607378993,0.44815630567,-1.13198487775,-0.125561142169,-0.00219522313361,0.00521526688258,-1.45173904912
1385573550617373476,0.448238679486,-1.13108499361,-0.126722932413,-0.000223340348292,0.00285927650196,-1.45257483801
1385573550627398678,0.44821150106,-1.13025303216,-0.127838269709,0.00067134706772,0.00138155587534,-1.45252463796
1385573550637379017,0.448293216705,-1.12929578494,-0.128937266602,0.00147901322105,0.00131494473834,-1.45389999283
1385573550647378077,0.448262324132,-1.12825884688,-0.130390632006,0.00308676137881,9.88797176763e-05,-1.45478940356
1385573550657381407,0.448123657026,-1.12735446696,-0.13189994395,0.00424581685699,0.00136965846208,-1.45434846544
1385573550667379275,0.448199613083,-1.12637639113,-0.133608183176,0.00568928666376,0.00063633987407,-1.45512025023
1385573550677380030,0.448217901069,-1.12526553416,-0.135226269491,0.00634548654122,-0.00118763645588,-1.4551673406
1385573550687393395,0.448191907855,-1.1243172161,-0.136987543201,0.00777578818907,0.000228705480792,-1.45682507983
1385573550697386466,0.448076270966,-1.12316040561,-0.139072509277,0.00947161253446,-0.00166774849844,-1.45656972589
1385573550707393618,0.448042653012,-1.12196307121,-0.141407628907,0.0104084621195,-0.00304863038859,-1.45672142318
1385573550717373735,0.448153641619,-1.1208378673,-0.143769997644,0.0103849852063,-0.00372051564352,-1.45690896032
1385573550727385854,0.448029424403,-1.11978197676,-0.146185455089,0.0114155163287,-0.00485218522412,-1.45732102563
1385573550737388023,0.448019742713,-1.11851065989,-0.148803195906,0.0115466488062,-0.00737429712777,-1.45795750719
1385573550747377487,0.447992616826,-1.11740224871,-0.151448054474,0.0121830177691,-0.00689389256574,-1.45942371599
1385573550757391676,0.447640223555,-1.11609212893,-0.154292878127,0.0136394742316,-0.0100962571785,-1.45951020719
1385573550767423362,0.447849589892,-1.11484456271,-0.15749286151,0.0139042643525,-0.0114443206889,-1.45947012334
1385573550777385885,0.447801759012,-1.11362445852,-0.160618092468,0.0151557331282,-0.0129775357745,-1.45980826253
1385573550787426458,0.447815938726,-1.11240385382,-0.163787248998,0.0145742559695,-0.017010874719,-1.45965383293
1385573550797482870,0.447955500349,-1.11116168004,-0.166950349801,0.0164642823164,-0.0174073477547,-1.45925480836
1385573550807454541,0.447870335866,-1.11000136536,-0.170306242444,0.0176951631458,-0.0186156709123,-1.45956089604
1385573550817415684,0.447991884955,-1.10873587695,-0.173885687286,0.0178673986516,-0.0187657876153,-1.45940974904
1385573550827382595,0.448026832162,-1.10762474265,-0.177361290175,0.0175594253678,-0.019542191354,-1.46021105729
1385573550837398360,0.448006610024,-1.10626223866,-0.180749365772,0.0162035109082,-0.0209808413575,-1.46142941239
1385573550847382626,0.447986920347,-1.1052927204,-0.184548996813,0.0144070472063,-0.0204031945982,-1.4623894527
1385573550857376157,0.447972170966,-1.10416049949,-0.188381987915,0.0115935344316,-0.0204618607274,-1.46353159357
1385573550867395344,0.447951135368,-1.10305669055,-0.192287822179,0.00937148299653,-0.019739966427,-1.46488471807
1385573550877381848,0.447967480786,-1.10206346964,-0.196181851466,0.00835502286352,-0.0190910592549,-1.46608117837
1385573550887385514,0.447983772061,-1.10098110159,-0.200200038937,0.00674069709899,-0.0192288883605,-1.46671016408
1385573550897426273,0.448141727344,-1.09999228587,-0.204410968324,0.00710707720091,-0.018956182338,-1.46744666611
1385573550907408778,0.448223568732,-1.09887046265,-0.208361821567,0.00680762890508,-0.0180856007038,-1.46769691383
1385573550917375593,0.44829960253,-1.09787601072,-0.212670312041,0.00694989951884,-0.0167417596581,-1.46769965256
1385573550927373869,0.448377617913,-1.0969896477,-0.216786268093,0.00709684993745,-0.0158847666889,-1.46839473414
1385573550937381727,0.448362764422,-1.09610539711,-0.221199330893,0.00602544960427,-0.0151161091673,-1.46896896223
1385573550947372281,0.448355985724,-1.09519512174,-0.225513638273,0.00359218190501,-0.0139183305901,-1.46962840125
1385573550957373870,0.448433439357,-1.09435906795,-0.229937733723,0.00164595110096,-0.0119735897517,-1.46962276501
1385573550967458101,0.448370496569,-1.09357784115,-0.234219088666,9.49663531507e-05,-0.0127749381402,-1.47121334526
1385573550977391354,0.448472071066,-1.0927792782,-0.238665964515,-0.00189261400573,-0.0127720051621,-1.47201277168
1385573550987402831,0.44849164207,-1.09200586359,-0.243244663662,-0.00266945205747,-0.0129245212172,-1.47284340731
1385573550997493861,0.448483640287,-1.09114918037,-0.247681299215,-0.00342731080832,-0.012105804012,-1.47311767418
1385573551007524387,0.448579488295,-1.09037219893,-0.252235902432,-0.00341102916988,-0.0124761922723,-1.47407100515
1385573551017453498,0.448484071935,-1.08957869438,-0.256797064243,-0.00298078482468,-0.0123493450671,-1.47429991778
1385573551027601840,0.448512298474,-1.08884397758,-0.261541728129,-0.00319551679051,-0.0106974528367,-1.47465099459
1385573551037533875,0.448392409661,-1.0881329282,-0.266134005509,-0.00221693116385,-0.0103772546312,-1.47483554693
1385573551047471372,0.448378960691,-1.08744915799,-0.270960941298,-0.00189880326102,-0.00979811882625,-1.4746100604
1385573551057399764,0.44848458969,-1.08667262798,-0.275486155642,-0.00299729172495,-0.0102060676452,-1.47501739233
1385573551067424223,0.448462959296,-1.08590069547,-0.280292965305,-0.00309103142293,-0.00969302329113,-1.47517559715
1385573551077399528,0.448243023444,-1.08528938131,-0.285265417691,-0.00422067033434,-0.00875526653948,-1.47483220503
1385573551087413241,0.448298089667,-1.0846021538,-0.290033737943,-0.00472147012661,-0.00894710209509,-1.4753949344
1385573551097511219,0.448170058053,-1.08390891513,-0.294932897301,-0.00470072695391,-0.00948308480229,-1.47584534904
1385573551107496786,0.448111699798,-1.08326773457,-0.299830105185,-0.0046421386794,-0.0084035786899,-1.47598324538
1385573551117456208,0.448033363217,-1.08264770339,-0.304865303565,-0.00289716483868,-0.00696277268183,-1.4766485282
1385573551127655760,0.447985138806,-1.08192419839,-0.309895796611,-0.00171389364795,-0.00647884952408,-1.47693567552
1385573551137578225,0.448021388213,-1.0812644691,-0.315004738531,-0.000906437826569,-0.00462376893313,-1.47719645865
1385573551147566910,0.447964225965,-1.08054318657,-0.320107923002,0.000192487332974,-0.00303160081805,-1.47736040526
1385573551157621861,0.447683421018,-1.07992704861,-0.325002263674,0.000202997971147,-0.00332032196616,-1.47748918794
1385573551167585042,0.447866988008,-1.07932184839,-0.330113078525,-0.00125714808749,-0.00111974096364,-1.47776451087
1385573551177482268,0.447541196895,-1.07879159128,-0.335180692302,-0.00205994439877,0.000362733492526,-1.4788246517
1385573551187543053,0.447439695885,-1.07810127542,-0.34028470587,-0.00300472050841,0.00136439942576,-1.47985719257
1385573551197537171,0.447501393545,-1.07744755097,-0.345569663591,-0.00364897759061,0.00347798845368,-1.48078837782
1385573551207554335,0.447074896919,-1.07692478173,-0.350577607018,-0.00508488753368,0.00378557360186,-1.48131165453
1385573551217560279,0.446815786595,-1.07643663253,-0.3559612751,-0.00571042885856,0.00668635224828,-1.48144183221
1385573551227510976,0.446894013925,-1.0757225187,-0.361157056265,-0.00579590947904,0.00700003905502,-1.48214604778
1385573551237504090,0.446547488252,-1.07512680959,-0.366247626368,-0.00514394985548,0.00673049031507,-1.48218896231
1385573551247430626,0.446390733193,-1.07464306264,-0.371582503538,-0.00529079160026,0.00883361703468,-1.4822893043
1385573551257435721,0.446339127984,-1.07415169736,-0.376862371186,-0.00448030837764,0.0088166142254,-1.48309614499
1385573551267455143,0.445866103939,-1.07356204997,-0.382236689419,-0.00422393931784,0.0103636784166,-1.48342638359
1385573551277508764,0.446066020301,-1.07294832929,-0.387592213574,-0.00415087275267,0.0109520861157,-1.48402073047
1385573551287459798,0.44570893006,-1.07244007535,-0.393219647111,-0.00445768786901,0.0116448543992,-1.48543945311
1385573551297488997,0.445433160817,-1.07180817182,-0.398706028804,-0.00453373097222,0.0109174833463,-1.4861149034
1385573551307430353,0.445323347355,-1.071328845,-0.404415907337,-0.00581039929591,0.0104658991539,-1.48691414345
1385573551317427840,0.444985646416,-1.07076702392,-0.410285149623,-0.00620044263285,0.00995385597145,-1.48799161598
1385573551327480497,0.444729981965,-1.07023421066,-0.415840082923,-0.00738816473906,0.00955895069206,-1.48864583652
1385573551337479576,0.444531959489,-1.06964722956,-0.421232073547,-0.00849953810142,0.00995148557426,-1.48931624172
1385573551347427307,0.444121902931,-1.06913196889,-0.426438103193,-0.0089355056913,0.00943300279877,-1.48985628293
1385573551357628384,0.443885947797,-1.06869847814,-0.431581705545,-0.00986378543545,0.00908701237143,-1.49024424669
1385573551367613773,0.443550135625,-1.06817533028,-0.43668943558,-0.00992140509025,0.00921012874495,-1.49004355589
1385573551377477062,0.443382581066,-1.06757965926,-0.441568070475,-0.0099983725785,0.00882880075943,-1.4902960078
1385573551387540964,0.442977798439,-1.0670836426,-0.446144637747,-0.0102984797482,0.00749732369984,-1.49073993356
1385573551397524174,0.442470715772,-1.06657389283,-0.450652539465,-0.0108443475741,0.00612144143363,-1.49158391428
1385573551407431831,0.44222257493,-1.06595359544,-0.45519290565,-0.0102425508534,0.00623993996359,-1.49245658705
1385573551417511233,0.44179696113,-1.06554187055,-0.459487837734,-0.0103194269231,0.00699404894044,-1.49259923228
1385573551427411763,0.441603300537,-1.06503445115,-0.463669821058,-0.0105919084319,0.00648134293831,-1.49281929761
1385573551437474949,0.441230172763,-1.06442584267,-0.46747573798,-0.0116220420191,0.0046495017623,-1.49326374715
1385573551447639307,0.440724356756,-1.06403180537,-0.471328992198,-0.0123606195249,0.00512587858034,-1.49416609708
1385573551457542513,0.440423156102,-1.06353592432,-0.47500032019,-0.0127779673426,0.00368424096864,-1.49452857872
1385573551467513817,0.439914512069,-1.06298171683,-0.478510809959,-0.0128870604814,0.00477217262383,-1.49480021596
1385573551477524815,0.439430660692,-1.06256119673,-0.481831659084,-0.0124150310464,0.00317350931398,-1.49513822204
1385573551487506948,0.439042007063,-1.06207417027,-0.485048821267,-0.0128019964454,0.00255258044628,-1.4953500032
1385573551497429702,0.438495259441,-1.06163759229,-0.488198708608,-0.01257403289,0.0031969935978,-1.49605974684
1385573551507463454,0.438194661404,-1.06118438756,-0.491137090468,-0.0127280610698,0.000892173876176,-1.49629266044
1385573551517422245,0.437661738914,-1.06075868479,-0.493827638608,-0.0127989169232,0.000324393111461,-1.49712723753
1385573551527416442,0.437157554747,-1.06041495813,-0.496547938496,-0.0130959217742,-5.8644041417e-05,-1.49764381138
1385573551537476576,0.436683000877,-1.05993688289,-0.498891546249,-0.0141317182268,-0.00205721886348,-1.497889406
1385573551547471800,0.436106034088,-1.0596536287,-0.501286774745,-0.0137412019664,-0.00221600115762,-1.49785144443
1385573551557499155,0.435566041967,-1.05920825369,-0.50333369899,-0.0143749849625,-0.00435971685106,-1.49815699887
1385573551567603016,0.434996346105,-1.05885949224,-0.505352125344,-0.0145433277418,-0.00544664667436,-1.49886608548
1385573551577469683,0.434453193435,-1.05849650656,-0.507264959784,-0.0152267914104,-0.00617938915377,-1.49917045804
1385573551587625813,0.433833065244,-1.05811232426,-0.509035752355,-0.0149042586582,-0.00616397321055,-1.50047364634
1385573551597484552,0.433415379869,-1.05787754793,-0.510594206624,-0.0147481356104,-0.00790338045794,-1.49995812129
1385573551607426951,0.432751466396,-1.05756166139,-0.511907658345,-0.0145516121618,-0.0101316880026,-1.49993634036
1385573551617571845,0.431956005316,-1.05724048542,-0.513191503515,-0.0141672399854,-0.0116066741211,-1.50093200886
1385573551627494426,0.431518048399,-1.05690286791,-0.514346948238,-0.0142283813916,-0.0115824185094,-1.50139708807
1385573551637626630,0.430778190097,-1.05671908279,-0.515298740983,-0.0139362986663,-0.0129510333978,-1.50218465723
1385573551647629913,0.430189508641,-1.05634621854,-0.516137623458,-0.0141134654848,-0.0143056775665,-1.5025659171
1385573551657537279,0.429431858877,-1.05619100894,-0.516827155884,-0.0135927068959,-0.0154899455393,-1.50266811957
1385573551667438500,0.428837771486,-1.05597783341,-0.517384306155,-0.0139395933731,-0.0155355920797,-1.50302909512
1385573551677436030,0.428239214761,-1.05587653095,-0.517953041169,-0.0135155445359,-0.0145813826447,-1.50352846972
1385573551687479958,0.427390279551,-1.05558030549,-0.518445761599,-0.0126498157421,-0.015367102047,-1.50425485087
1385573551697394508,0.426562661276,-1.05541532992,-0.518417537579,-0.0121804386238,-0.0163287282661,-1.50420111729
1385573551707397063,0.425983976226,-1.05528374029,-0.51851247024,-0.0118757272884,-0.0174658845809,-1.50500680338
1385573551717383142,0.425491290546,-1.05517550618,-0.518521568726,-0.0121491681007,-0.0171392140309,-1.50518753197
1385573551727381893,0.424643574221,-1.05506886194,-0.518379548674,-0.010922559504,-0.0180856724896,-1.50566720623
1385573551737399024,0.423934040291,-1.05505787825,-0.518172703261,-0.0106843524821,-0.0180276985661,-1.50639351861
1385573551747379477,0.423306679114,-1.05503299212,-0.517689589689,-0.0108362667005,-0.0189055215331,-1.5065533559
1385573551757371984,0.422544044571,-1.05503316752,-0.517320689887,-0.00989474743734,-0.0188080896167,-1.5068977901
1385573551767460153,0.421852364436,-1.05492956687,-0.516686982958,-0.00944198700233,-0.019506076337,-1.50740092739
1385573551777416605,0.420957790079,-1.05490244668,-0.516050317657,-0.00904430454995,-0.0193597777491,-1.50827350929
1385573551787526268,0.420306135884,-1.0548124131,-0.515315501416,-0.00887261177186,-0.0188532553187,-1.50913505797
1385573551797416508,0.419734071444,-1.0549903175,-0.514533523058,-0.00825615629891,-0.0181418273123,-1.50860714604
1385573551807417032,0.418741788252,-1.05512043715,-0.513577767733,-0.00796633228605,-0.0187810338149,-1.50976789188
1385573551817384719,0.418032418597,-1.0552126886,-0.512530550245,-0.00793134219561,-0.0186474533333,-1.5100854782
1385573551827600439,0.417165415751,-1.05530564538,-0.511385223338,-0.00700521563909,-0.0185245155898,-1.51073753609
1385573551837416333,0.416490141299,-1.05540019268,-0.510410392671,-0.00723591574468,-0.016924933365,-1.51110279547
1385573551847386508,0.415749906498,-1.05565647239,-0.50931759226,-0.00526216012159,-0.016089852948,-1.51154970681
1385573551857395850,0.415020888002,-1.05572250595,-0.507881296293,-0.00599242615429,-0.016322083581,-1.51179313109
1385573551867424521,0.414151807517,-1.05599444511,-0.506474234755,-0.00547498804253,-0.0163252456481,-1.51227966593
1385573551877421989,0.413331983881,-1.05623652314,-0.505150234865,-0.00503331854904,-0.0154689880342,-1.51260240527
1385573551887440570,0.412716479351,-1.05637576436,-0.503862808834,-0.00422337038795,-0.0145159736476,-1.5133280651
1385573551897394319,0.411839098837,-1.05659178698,-0.502215487115,-0.00365475017857,-0.0144720278564,-1.51400946951
1385573551907393804,0.411100231282,-1.05689217409,-0.500534891906,-0.00354860530885,-0.0137970642777,-1.51450803054
1385573551917407037,0.410176220655,-1.05725015156,-0.499076092512,-0.00306133387791,-0.0123668674198,-1.51455649053
1385573551927387414,0.409581758266,-1.0575266958,-0.497478998994,-0.00234135814253,-0.0123094901,-1.51440737225
1385573551937378787,0.408844949276,-1.05775723189,-0.495800645328,-0.00210104270449,-0.0114958410977,-1.51586636735
1385573551947406188,0.407848235262,-1.05816913758,-0.494088045309,-0.00113203130365,-0.0112838243915,-1.51594680351
1385573551957388902,0.407222220734,-1.05861300935,-0.492399602984,-0.00140998360551,-0.00972896854203,-1.51620624057
1385573551967517463,0.406472179262,-1.05895490673,-0.49060667193,-0.000879447148772,-0.00999526320986,-1.51649233045
1385573551977421732,0.405616502533,-1.05932837033,-0.488888360339,0.000101207621932,-0.00915724641418,-1.51715913747
1385573551987471944,0.405049857669,-1.05961898899,-0.486966953162,1.42585800709e-05,-0.00869861144088,-1.51786063574
1385573551997409054,0.404027773768,-1.06006574571,-0.485182273768,0.000763264403837,-0.00826771421279,-1.51824488803
1385573552007417725,0.403418593308,-1.0605140811,-0.483419321642,0.000406232917822,-0.00776613403241,-1.51849142603
1385573552017405343,0.402576598504,-1.06094965616,-0.481531040174,0.000193693223665,-0.00742342707487,-1.51898947708
1385573552027396484,0.401808983273,-1.06146385007,-0.47993490769,0.00130809457438,-0.00593030265562,-1.51924756783
1385573552037408986,0.401046563388,-1.06179883327,-0.477959050419,0.000358146718218,-0.00666471384068,-1.52007089377
1385573552047378399,0.400165274557,-1.06229759634,-0.476165413034,0.00155445923999,-0.00647338463529,-1.52067643845
1385573552057368517,0.399638891335,-1.06284471361,-0.474408432271,0.000817276496673,-0.00501687406826,-1.52023831616
1385573552067484014,0.398813857061,-1.06331757332,-0.472539493451,0.000985355567001,-0.00544502614175,-1.52109211696
1385573552077403467,0.398085468648,-1.06381187203,-0.470805106308,0.00187321840281,-0.00477814225293,-1.52162614745
1385573552087408044,0.39712439342,-1.06436852103,-0.46890054967,0.00132097414098,-0.00347934994633,-1.52239166748
1385573552097476248,0.396376016778,-1.06491648093,-0.467217147113,0.00285823500276,-0.00523496461161,-1.52322072416
1385573552107480934,0.395617583153,-1.06540097696,-0.465253355755,0.00225196368409,-0.00624445287782,-1.52364399329
1385573552117388256,0.39489378961,-1.065999159,-0.463496252869,0.00149749232912,-0.00650021898274,-1.52400440568
1385573552127396852,0.394084121611,-1.06657842057,-0.461603397931,0.0003595598784,-0.0069775433216,-1.52394079951
1385573552137382208,0.39329963996,-1.0670603333,-0.459853613034,-0.00164475141058,-0.00729898721636,-1.52472264654
1385573552147375385,0.392303932167,-1.06773375031,-0.458093142121,-0.00169458083568,-0.00739106549761,-1.52524742525
1385573552157395734,0.391532487781,-1.06829053738,-0.45618407013,-0.00395351096687,-0.00826958527005,-1.52542816417
1385573552167411798,0.390739436617,-1.06898358552,-0.454536580798,-0.00475551717319,-0.00816965044445,-1.52629688257
1385573552177381666,0.390108839717,-1.06960840742,-0.452855053083,-0.00480512833129,-0.0079179338166,-1.52607552193
1385573552187426182,0.389329245304,-1.0702029667,-0.451214727935,-0.00556680151075,-0.00837160519229,-1.52644690318
1385573552197392149,0.388223295622,-1.07090224289,-0.449520129371,-0.00548362515359,-0.00867493575004,-1.52717156918
1385573552207423266,0.387564389783,-1.07142387429,-0.447828055252,-0.00597847492497,-0.00913265497549,-1.52762441942
1385573552217380853,0.386804984741,-1.0721009913,-0.446178111863,-0.00641371573097,-0.00872214783281,-1.52791451259
1385573552227387937,0.385772323207,-1.07280336445,-0.444542327141,-0.00650335776998,-0.0100086620265,-1.52846224653
1385573552237373790,0.385209312028,-1.07350912063,-0.443175834171,-0.00617570327076,-0.0084804130734,-1.52798466168
1385573552247396225,0.384414494246,-1.0740537688,-0.441565810039,-0.00652319833899,-0.00850130744996,-1.52853289528
1385573552257385342,0.38350032186,-1.07496167073,-0.440252813504,-0.00555908936852,-0.00712649996735,-1.52805872706
1385573552267411462,0.382863517075,-1.07549889107,-0.438744095094,-0.00445630026677,-0.00605745699176,-1.52833461783
1385573552277387457,0.382037841713,-1.07616216629,-0.43723398,-0.00399210707941,-0.00690416273526,-1.52918829656
1385573552287554343,0.381238885174,-1.0768349854,-0.435837986546,-0.00241478379543,-0.00551758756943,-1.52962516896
1385573552297488129,0.380441029848,-1.07754029639,-0.434389359104,-0.00149955217368,-0.0052854433847,-1.52936384352
1385573552307382286,0.379555083269,-1.07831991046,-0.4329906898,-0.00105675759067,-0.00580468005525,-1.53002928594
1385573552317384966,0.378733637101,-1.07913160157,-0.431652989624,-0.000563449547439,-0.00579678872514,-1.53018216525
1385573552327409121,0.378034829845,-1.07987236987,-0.430318733898,-0.000118443672462,-0.00535813531246,-1.53064958954
1385573552337377071,0.377212383698,-1.08078579702,-0.429074010807,-2.52580025518e-05,-0.00411608317794,-1.53008341172
1385573552347380759,0.376541087101,-1.08135223793,-0.427792563481,-0.000713188316484,-0.00506685283323,-1.53051371821
1385573552357385500,0.37571520243,-1.082242289,-0.426726151017,-0.000579367474333,-0.00438218333818,-1.53039024791
1385573552367350534,0.37484172632,-1.08302748772,-0.425464308205,-0.00130288175248,-0.00265796019401,-1.53054751576
1385573552377387070,0.374124300779,-1.08376722661,-0.424542838147,-0.00110893492092,-0.0032680761451,-1.53121327469
1385573552387399344,0.373013235938,-1.08460252326,-0.423379885759,-0.00245515458641,-0.0033763987824,-1.53194428634
1385573552397376940,0.372334719812,-1.08533807756,-0.42234050072,-0.00313740835662,-0.00297751241773,-1.53214947569
1385573552407385860,0.371487935039,-1.08615447702,-0.421244062857,-0.00333573989857,-0.00229101728681,-1.53244119096
1385573552417461336,0.370584405322,-1.08690338335,-0.420326276083,-0.0037863176126,-0.00127179295013,-1.53276873073
1385573552427457509,0.369994466832,-1.08772508965,-0.419480902426,-0.00412373323349,-0.00139102863697,-1.5327841232
1385573552437385452,0.369007782478,-1.08850224533,-0.418678532121,-0.00328876853231,-0.000559430100136,-1.53315461009
1385573552447381722,0.368274117227,-1.08938458297,-0.417929683712,-0.00291243196815,0.000415258713939,-1.53359117581
1385573552457400205,0.367645776604,-1.09018860005,-0.417017896327,-0.0032265157696,0.00202877711925,-1.53357936746
1385573552467378429,0.366695582883,-1.09106445828,-0.416258967214,-0.00146661374926,0.0025812600227,-1.53329112934
1385573552477392005,0.366170179531,-1.09181711718,-0.41579373573,-0.00147560253514,0.0034107092257,-1.53380061237
1385573552487403199,0.365260005094,-1.0927162987,-0.415152846573,-0.000733391002257,0.00430921594321,-1.53445706937
1385573552497457516,0.364378466089,-1.09352276985,-0.41460961854,-0.00109546687919,0.00385609929461,-1.53487806921
1385573552507415115,0.363845574098,-1.09442511079,-0.413968027013,-0.000943716658652,0.0044663364943,-1.5354860778
1385573552517393612,0.362963607937,-1.09525693474,-0.413508553242,-0.000506680267467,0.00521404729038,-1.53560664562
1385573552527381516,0.36223495827,-1.09601158735,-0.413151898104,-0.000846134703541,0.00593609780106,-1.53533387645
1385573552537372971,0.361413974129,-1.0968175193,-0.412551629081,-0.000961290211116,0.00561896816315,-1.53579229271
1385573552547391259,0.360663993474,-1.09759118741,-0.412145609149,-9.8085969327e-05,0.00549285599439,-1.53621898481
1385573552557369408,0.360161957216,-1.09835699446,-0.411849114489,0.0011138434017,0.00527620788096,-1.53704271378
1385573552567335150,0.359309725509,-1.09923476075,-0.411660915986,0.00232102718663,0.00609357471784,-1.53782288763
1385573552577408507,0.358506491634,-1.1000098121,-0.411476463085,0.00326499287851,0.00585162916131,-1.53824486512
1385573552587380159,0.357953779809,-1.10075537254,-0.411327511771,0.00330637371391,0.00583291429685,-1.53873460068
1385573552597368830,0.357174490921,-1.10163356353,-0.41137908302,0.00440714390858,0.00629050970329,-1.53833969284
1385573552607371135,0.356504344704,-1.10246204291,-0.411347801838,0.00421926529229,0.00617584826282,-1.5386065251
1385573552617391384,0.355764664953,-1.10329219251,-0.411273419234,0.00367632672895,0.00531294291431,-1.53884468785
1385573552627376645,0.35486605772,-1.10415353014,-0.411260917786,0.00367380979314,0.00493966336011,-1.53873380325
1385573552637369618,0.354372117401,-1.10492304792,-0.411322606506,0.00344740895543,0.00400156022,-1.53969171275
1385573552647404490,0.353436665033,-1.10569553465,-0.411327390785,0.00392041069064,0.00239195592554,-1.54032149514
1385573552657371152,0.352684527658,-1.10649493414,-0.411570445794,0.0029739464439,0.00271513923889,-1.54094806491
1385573552667371901,0.35202162396,-1.10737067938,-0.41166287103,0.00213436848996,0.00179602131117,-1.54137020272
1385573552677470073,0.351264711695,-1.10829125767,-0.411954224249,0.00132763357034,0.00156877189223,-1.54002435316
1385573552687479079,0.350560451901,-1.10898111088,-0.41214001952,0.000511261622462,0.00127741384184,-1.54045636878
1385573552697384284,0.349628536206,-1.10972276617,-0.412195539759,-0.00178801694575,0.000199318570589,-1.54104867699
1385573552707501433,0.349030517834,-1.1105641865,-0.412559516415,-0.00228716582712,0.000176847089663,-1.54059521356
1385573552717387019,0.348486710331,-1.11129623879,-0.41276302216,-0.00234819752374,0.00011867910089,-1.54137529005
1385573552727372777,0.347550412388,-1.11213735577,-0.413045216412,-0.00238482832871,0.00131091371113,-1.54196806526
1385573552737687736,0.34675705045,-1.112870758,-0.413441386673,-0.00288857560076,0.00163682098072,-1.5421894641
1385573552747429850,0.346069883773,-1.11362973285,-0.413803671066,-0.00402846393503,0.00168263369969,-1.5419795948
1385573552757421631,0.345325159527,-1.11438495144,-0.414279390316,-0.00395943800544,0.00221950292198,-1.54186568424
1385573552767416134,0.344652870425,-1.11516848512,-0.414725875356,-0.00441045654201,0.00442161893006,-1.54289019016
1385573552777472692,0.343756800809,-1.11593749716,-0.414994673763,-0.00446878508654,0.00446844748821,-1.5436247425
1385573552787540435,0.343109615783,-1.11658675055,-0.415535001823,-0.00450859322385,0.00583014860611,-1.54398334779
1385573552797465666,0.342370969905,-1.11736313701,-0.416046285208,-0.00425278619655,0.00599179145776,-1.54473640432
1385573552807415166,0.341605993105,-1.11805985067,-0.416593555835,-0.00314935596344,0.00811816147938,-1.5448720776
1385573552817421485,0.340881319012,-1.11881262507,-0.417078923917,-0.00308172381903,0.00882328649118,-1.54495525183
1385573552827380652,0.340132307943,-1.11959391274,-0.417483760016,-0.00304114937401,0.00969331179996,-1.5448163821
1385573552837418470,0.339383749746,-1.12025269961,-0.417975296075,-0.0030027321965,0.0110738751648,-1.54455802825
1385573552847480575,0.338684281243,-1.12101127087,-0.418579463549,-0.00344016992387,0.010117800371,-1.5450884009
1385573552857540502,0.337845896575,-1.12164654233,-0.419097751165,-0.00313407493415,0.0118325244112,-1.54510747447
1385573552867410380,0.337111762968,-1.12231211348,-0.419632994054,-0.00264980950722,0.0122859231296,-1.54589345606
1385573552877455859,0.336397436698,-1.12302070365,-0.420200410534,-0.00234240611221,0.0123329362586,-1.5460213088
1385573552887497159,0.335695854033,-1.12372672608,-0.420850884747,-0.00293753425235,0.0132059279528,-1.54655357461
