%time,field.linear.x,field.linear.y,field.linear.z,field.angular.x,field.angular.y,field.angular.z
1385575318650103233,-0.0,0.0,0.0,1.0,0.0,0.0
1385575318840223367,-0.0,0.0,4.93108449912e-08,1.0,0.0,0.153488362349
1385575319040306590,0.386178648091,0.164214300641,-0.0113330681164,1.0,0.0,0.102969027219
1385575319240374225,0.399767099585,0.169852684308,-0.00777626095871,1.0,0.0,0.0747785886114
1385575319440348623,0.330078209258,0.140480575079,-0.00292525183291,1.0,0.0,0.0529632810575
1385575319640309955,0.209291700001,0.0888422751442,0.00384799416726,1.0,0.0,0.0363553120582
1385575319840692533,0.0752897044817,0.031472947484,0.0118778971455,1.0,0.0,0.023802134257
1385575320040459146,-0.0486204509345,-0.0210607905678,0.0209482282244,1.0,0.0,0.0145050705039
1385575320240533468,-0.148327687017,-0.0636151844096,0.0304832156402,1.0,0.0,0.0100893111413
1385575320440237020,-0.214715249882,-0.0921704155591,0.0405789149043,1.0,0.0,0.0102480566358
1385575320642462281,-0.229028802352,-0.0985695265594,0.0507188144864,1.0,0.0,0.0124637755383
1385575320840355285,-0.186463659779,-0.0801539374132,0.0608632847773,1.0,0.0,0.0154311970472
1385575321040343896,-0.0982539511522,-0.0414516587763,0.0706175158004,1.0,0.0,0.0184225915277
1385575321240312795,0.0126973343934,0.00890240822929,0.0805018787515,1.0,0.0,0.0213978304826
1385575321440246260,0.124519323536,0.0536031436939,0.0901736253554,1.0,0.0,0.0230350385058
1385575321640344391,0.216910223444,0.0866794612009,0.0980989863006,1.0,0.0,0.0226552601544
1385575321840340654,0.282270155028,0.099810434324,0.0979925978656,1.0,0.0,0.0199030275259
1385575322040378539,0.303021286331,0.101699001397,0.0911551555345,1.0,0.0,0.0171966380931
1385575322240208964,0.277410056329,0.0864669501845,0.0849475526836,1.0,0.0,0.0143363785751
1385575322440282262,0.213070940399,0.0598775861218,0.0827031497322,1.0,0.0,0.0117373814547
1385575322640286736,0.122363499104,0.024196785372,0.0861945897184,1.0,0.0,0.00958499208976
1385575322840267507,0.0110859592658,-0.0169755913171,0.102820370615,1.0,0.0,0.00793081342825
1385575323040251095,-0.106729498513,-0.0597088570462,0.124576879301,1.0,0.0,0.00653945556803
1385575323240264578,-0.214614099455,-0.0954988341837,0.144771114356,1.0,0.0,0.00538434161691
1385575323440304999,-0.293723352249,-0.115603077337,0.158029246099,1.0,0.0,0.00464013083624
1385575323640248911,-0.340201617867,-0.116205263276,0.166113700362,1.0,0.0,0.00459400962884
1385575323840255644,-0.349544149337,-0.100276094746,0.169205711302,1.0,0.0,0.00530843879323
1385575324040532802,-0.317624990395,-0.0736566890182,0.163321533047,1.0,0.0,0.00639245138466
1385575324240267755,-0.251303363558,-0.0409865673075,0.155867301291,1.0,0.0,0.00767605539575
1385575324440300765,-0.163661971606,-0.0039997999685,0.150382392524,1.0,0.0,0.0094204649774
1385575324640293466,-0.0637710220357,0.036420426534,0.146898524515,1.0,0.0,0.0113726722877
1385575324840258057,0.0422762438898,0.0663123382396,0.144820706932,1.0,0.0,0.0138213638234
1385575325040304741,0.129924374148,0.0913366805525,0.138105095479,1.0,0.0,0.0156963297327
1385575325240424967,0.192210359397,0.101801156117,0.126947472035,1.0,0.0,0.0168927262497
1385575325440285746,0.225697847099,0.0993086832706,0.113979519603,1.0,0.0,0.0177009500659
1385575325640193201,0.227888150168,0.0839049396064,0.101344707211,1.0,0.0,0.0184203518192
1385575325840330402,0.195446017989,0.0557831451504,0.0893364570582,1.0,0.0,0.0190977748086
1385575326040380170,0.133412475197,0.0163097436554,0.0797230403141,1.0,0.0,0.0197704923452
1385575326240440654,0.0485548219773,-0.0275927200206,0.0722813608347,1.0,0.0,0.0203110087276
1385575326440253977,-0.0480642029444,-0.071273451089,0.0663391495007,1.0,0.0,0.0205728086837
1385575326640394513,-0.143525423578,-0.108426886142,0.0607273554976,1.0,0.0,0.0204327354281
1385575326840355011,-0.225459717779,-0.133852235999,0.0547632968412,1.0,0.0,0.0201268625492
1385575327040249359,-0.283300163672,-0.143684928647,0.0487174877325,1.0,0.0,0.0198328192798
1385575327240400350,-0.309698355207,-0.136760520791,0.0438984041673,1.0,0.0,0.019951258408
1385575327440411812,-0.300577395246,-0.11191256277,0.0422817769633,1.0,0.0,0.0201140624697
1385575327640418313,-0.257632709783,-0.0715295275436,0.0438076084429,1.0,0.0,0.0204219529403
1385575327840329332,-0.185491995227,-0.0182387527117,0.0496536114971,1.0,0.0,0.0206166490395
1385575328040317678,-0.092803935725,0.0401089460064,0.0585305850036,1.0,0.0,0.0207520363785
1385575328240324303,0.00716767739364,0.0976740783299,0.0666795367668,1.0,0.0,0.0203814665937
1385575328440247938,0.100880779765,0.14394492812,0.0708506425036,1.0,0.0,0.0194733363281
1385575328640366036,0.176135338834,0.170917100106,0.0695856369805,1.0,0.0,0.0183737838714
1385575328840260036,0.224210306628,0.17445212075,0.0638477762371,1.0,0.0,0.0174342831866
1385575329040411693,0.239793191036,0.152514948393,0.0546473315087,1.0,0.0,0.0169695727339
1385575329240347140,0.22105433083,0.111530826101,0.0433331930158,1.0,0.0,0.0168467261074
1385575329440345886,0.170863351849,0.054275491744,0.032725099232,1.0,0.0,0.0171508804782
1385575329640422817,0.0947231430036,-0.0140434978214,0.0246235485806,1.0,0.0,0.0181288011468
1385575329840265811,0.000936413254915,-0.0855882486537,0.0187200465548,1.0,0.0,0.0194530795655
1385575330040438881,-0.0986108846526,-0.15120059884,0.0143371360697,1.0,0.0,0.0207323492101
1385575330240397394,-0.191280078922,-0.202394968464,0.010704253128,1.0,0.0,0.0219034955506
1385575330440419136,-0.263825158387,-0.231272497835,0.00722303840351,1.0,0.0,0.0228943108175
1385575330640342797,-0.306242796478,-0.232281631378,0.00458143369581,1.0,0.0,0.0239533578288
1385575330840256038,-0.312807015636,-0.203164843472,0.00570974669705,1.0,0.0,0.0251459591284
1385575331040215966,-0.282518799225,-0.1436747791,0.0114835473268,1.0,0.0,0.0260951063833
1385575331240197585,-0.218279964873,-0.0607578947821,0.0215075681258,1.0,0.0,0.0267925883274
1385575331440314664,-0.1268487273,0.0362134682197,0.0362121441478,1.0,0.0,0.0271654252363
1385575331640285242,-0.021639859648,0.134390504351,0.0479443506157,1.0,0.0,0.0267352521576
1385575331840467281,0.083231008068,0.2175877352,0.0536750575961,1.0,0.0,0.025443243651
1385575332040339552,0.173802440319,0.273040078417,0.0528443225396,1.0,0.0,0.0233512729822
1385575332240317197,0.240010958994,0.29188861778,0.0479610886704,1.0,0.0,0.0209344954179
1385575332440248430,0.274037666595,0.271355074505,0.0394737816284,1.0,0.0,0.0187979715839
1385575332640322319,0.271648001984,0.213305269626,0.0287410338149,1.0,0.0,0.017728080726
1385575332840330907,0.233096618016,0.127291742575,0.0205855005188,1.0,0.0,0.0176639971312
1385575333040382100,0.161490675104,0.0209704108622,0.0164069950997,1.0,0.0,0.0185920243253
1385575333240256575,0.0653886668213,-0.0939241210424,0.0147422468832,1.0,0.0,0.0196621189882
1385575333440364092,-0.0439355595517,-0.203095785002,0.0129299170997,1.0,0.0,0.0206118771978
1385575333640337756,-0.151558416717,-0.290814096414,0.00970646804987,1.0,0.0,0.0213251417818
1385575333840276435,-0.241492886956,-0.344063406239,0.00432115677185,1.0,0.0,0.0215168283772
1385575334040389697,-0.301584361898,-0.356888940851,-0.00163497677009,1.0,0.0,0.0217336010254
1385575334240376432,-0.324586434231,-0.3281114659,-0.00420307758577,1.0,0.0,0.0219848994818
1385575334440255566,-0.30666878316,-0.259187529039,1.74548777018e-05,1.0,0.0,0.0225324698675
1385575334640411135,-0.248404488993,-0.155337984151,0.0121858968806,1.0,0.0,0.023511921059
1385575334840422048,-0.155487125718,-0.0256933479025,0.0321970571019,1.0,0.0,0.0249815670995
1385575335040449483,-0.0394475718594,0.112072054086,0.0511357710643,1.0,0.0,0.026629284043
1385575335240250548,0.0786782534542,0.232021356798,0.0560898582383,1.0,0.0,0.0275905419745
1385575335440451172,0.181743193128,0.317655249044,0.0503828823878,1.0,0.0,0.0276299183547
1385575335640233171,0.256327903106,0.355743849291,0.0417054356707,1.0,0.0,0.027253510559
1385575335840236076,0.293230847299,0.342191952141,0.0336872446173,1.0,0.0,0.0268867443895
1385575336040267447,0.2902398077,0.280173853938,0.0209769315927,1.0,0.0,0.0269159144988
1385575336240354723,0.251215410549,0.183090502489,0.00825429213448,1.0,0.0,0.0275668213567
1385575336440273131,0.181123844964,0.0614819192702,0.00101186781133,1.0,0.0,0.02882690249
1385575336640321855,0.0863377570241,-0.0735714545839,-0.00191440915529,1.0,0.0,0.0303384488648
1385575336840302862,-0.0232386595451,-0.206170241718,-0.00366297601807,1.0,0.0,0.0316919951914
1385575337040348319,-0.133255366129,-0.316485463226,-0.00710364350787,1.0,0.0,0.031850570014
1385575337240377016,-0.227242822629,-0.384791232676,-0.0111792358963,1.0,0.0,0.03076413917
1385575337440604925,-0.290225980353,-0.400389464237,-0.0160777983346,1.0,0.0,0.0294301253319
1385575337640333205,-0.316173891781,-0.366104867913,-0.0191117439512,1.0,0.0,0.0281064407186
1385575337840329967,-0.306016779668,-0.288037660814,-0.0158600948252,1.0,0.0,0.0267448884782
1385575338040373808,-0.259180072001,-0.172982500976,-0.0027281059577,1.0,0.0,0.0257396251697
1385575338240399105,-0.177028157535,-0.0294172073594,0.0197696001231,1.0,0.0,0.025603617742
1385575338440262628,-0.0678496511799,0.124247951663,0.0407588930575,1.0,0.0,0.0262324896971
1385575338640393532,0.049786575206,0.257750290693,0.0461611294317,1.0,0.0,0.026683806098
1385575338840271502,0.157262462253,0.352142728993,0.0402782909067,1.0,0.0,0.0264925463943
1385575339040295633,0.239796729966,0.393544049063,0.0319630622792,1.0,0.0,0.0258960253231
1385575339240249216,0.285984087242,0.375674779746,0.0233278078176,1.0,0.0,0.0255144527794
1385575339440304775,0.292420334724,0.305758691982,0.012658984842,1.0,0.0,0.0255840416545
1385575339640388509,0.263076058149,0.198537870582,0.000553779289108,1.0,0.0,0.026301782773
1385575339840238193,0.202068420529,0.0664136226928,-0.00560684363768,1.0,0.0,0.0275448482548
1385575340040286092,0.114813051799,-0.080171627395,-0.00716772107614,1.0,0.0,0.0291651386049
1385575340240255628,0.0106645658576,-0.22492331019,-0.00826261135179,1.0,0.0,0.0304987833268
1385575340440232880,-0.0980821664042,-0.345813603325,-0.0112206594218,1.0,0.0,0.0303961322311
1385575340640242416,-0.196324382791,-0.41955931414,-0.0150046890281,1.0,0.0,0.0292184876315
1385575340840270307,-0.26855215521,-0.434402680121,-0.0193388803724,1.0,0.0,0.0277068269171
1385575341040410021,-0.30482858877,-0.393775169913,-0.0222218902044,1.0,0.0,0.026482928757
1385575341240233414,-0.305002788966,-0.307529565193,-0.0182527043669,1.0,0.0,0.0252686341417
1385575341440505823,-0.26962098215,-0.181875950379,-0.00527544067504,1.0,0.0,0.0241606699667
1385575341640495144,-0.199231864427,-0.0272377583112,0.0158734044469,1.0,0.0,0.0236690892174
1385575341840402596,-0.0998840791054,0.135961773857,0.0359244069112,1.0,0.0,0.0239321922379
1385575342040272127,0.0137210433445,0.277197738348,0.0436508049118,1.0,0.0,0.0244924451464
1385575342240444597,0.121947028659,0.375621424388,0.040679481573,1.0,0.0,0.0245151074659
1385575342440280649,0.209764897691,0.415870526807,0.0317962539716,1.0,0.0,0.0241101043447
1385575342640299829,0.265455358881,0.39376041522,0.0232217043571,1.0,0.0,0.0238525268055
1385575342840206874,0.283924573156,0.31642622193,0.0124658886822,1.0,0.0,0.0240455092723
1385575343040353437,0.267500444064,0.199714450853,-5.14911871435e-05,1.0,0.0,0.0247131896174
1385575343240264425,0.219726922799,0.0573338213408,-0.00784005205898,1.0,0.0,0.0261054246658
1385575343440347063,0.142959445849,-0.0981146555281,-0.0107387331222,1.0,0.0,0.0278487985601
1385575343640249955,0.0450451200552,-0.247879216659,-0.012963866699,1.0,0.0,0.0293474438188
1385575343840265806,-0.0611368828566,-0.368573059142,-0.0158912329111,1.0,0.0,0.0296569615284
1385575344040253965,-0.161876965577,-0.437663116236,-0.0189639087514,1.0,0.0,0.0289345501129
1385575344240308980,-0.242074314944,-0.442958789267,-0.0224832587196,1.0,0.0,0.0277816803018
1385575344440431659,-0.290280207122,-0.390123822665,-0.0243232220113,1.0,0.0,0.0268232095202
1385575344640600054,-0.305063399113,-0.290517897477,-0.019151815958,1.0,0.0,0.0256105532752
1385575344840251383,-0.284609264943,-0.151281316643,-0.00609716656658,1.0,0.0,0.0244396702869
1385575345040278229,-0.229107549185,0.0143109062133,0.0121166839412,1.0,0.0,0.0234798970238
1385575345240236378,-0.141574772006,0.182007272768,0.0282523107785,1.0,0.0,0.0230997842047
1385575345440333113,-0.03531539356,0.323355146165,0.034879386458,1.0,0.0,0.0228013920368
1385575345640414643,0.0729545661274,0.415290599286,0.031970071598,1.0,0.0,0.0219617009221
1385575345840408851,0.167634289564,0.444912238131,0.0254446036561,1.0,0.0,0.0205226742198
1385575346040214410,0.237480895113,0.408914012371,0.0191553850277,1.0,0.0,0.0193684305424
1385575346240321134,0.275194456094,0.318121551588,0.0109275527145,1.0,0.0,0.01919504561
1385575346440224982,0.278597697008,0.190465873122,0.0014590982357,1.0,0.0,0.0201119943327
1385575346640265213,0.248520071467,0.0399936561007,-0.00244399020176,1.0,0.0,0.0220064642931
1385575346840308224,0.186816291463,-0.121238137105,-0.00316902783881,1.0,0.0,0.0246085762189
1385575347040228603,0.101134567949,-0.273626590008,-0.00604490385302,1.0,0.0,0.0269382365419
1385575347240263372,0.00112178546485,-0.393474095503,-0.0108935786322,1.0,0.0,0.0279274701803
1385575347440450281,-0.102900760303,-0.459200670275,-0.0164211692634,1.0,0.0,0.0274291561802
1385575347640200437,-0.195869994425,-0.460219977435,-0.0216018081443,1.0,0.0,0.026260258871
1385575347840199324,-0.263604484838,-0.402933560472,-0.023996580014,1.0,0.0,0.0253866103038
1385575348040239908,-0.299093808401,-0.297817706483,-0.0196320570189,1.0,0.0,0.0248411455409
1385575348240428824,-0.297469792919,-0.152909073149,-0.00636794670083,1.0,0.0,0.0247840900987
1385575348440313137,-0.260155698856,0.0194691809836,0.0104586266465,1.0,0.0,0.0248173523752
1385575348640253391,-0.189171479853,0.193884006531,0.0239781645118,1.0,0.0,0.02508935454
1385575348840437337,-0.0934790049821,0.340301156513,0.0298723200969,1.0,0.0,0.0253178258522
1385575349040344571,0.0128676442485,0.435323062963,0.029115204925,1.0,0.0,0.0248829582925
1385575349240259461,0.114956130313,0.46518780069,0.0237987644913,1.0,0.0,0.0236510013856
1385575349440286420,0.199399896159,0.429063756961,0.0163807486378,1.0,0.0,0.0220419826665
1385575349640236034,0.256839333152,0.337203531383,0.00764720647723,1.0,0.0,0.0208454036769
1385575349840350963,0.281833890542,0.206840464997,-0.000715951163956,1.0,0.0,0.0204937281296
1385575350040334677,0.270791419427,0.0521902404202,-0.00344626659256,1.0,0.0,0.0219440221178
1385575350240368176,0.223980489942,-0.112051351233,-0.00341514724248,1.0,0.0,0.025267680395
1385575350440327908,0.149878423856,-0.26511402876,-0.00614561044247,1.0,0.0,0.0290848227768
1385575350640265767,0.0579768420465,-0.385530076541,-0.0114529500794,1.0,0.0,0.0327842920834
1385575350840414407,-0.0414449280139,-0.455620218999,-0.0179120922278,1.0,0.0,0.0354166178416
1385575351040297366,-0.137737556839,-0.46569628979,-0.0234794542274,1.0,0.0,0.0363493763721
1385575351240500529,-0.222522390308,-0.416169992996,-0.0265560461666,1.0,0.0,0.0356509124299
1385575351440660969,-0.286934121587,-0.317504161746,-0.0238799907983,1.0,0.0,0.0342428785511
1385575351642108020,-0.317051072227,-0.178809241036,-0.0109911380854,1.0,0.0,0.0332913883165
1385575351840266632,-0.304493822331,-0.0095856234205,0.00868269330318,1.0,0.0,0.0333457225412
1385575352040209436,-0.249308252643,0.169394034683,0.0256713397566,1.0,0.0,0.034519637456
1385575352240234167,-0.161154491937,0.327907738483,0.0320572265359,1.0,0.0,0.0357871795884
1385575352440256087,-0.0514958231582,0.440489496577,0.0309967329461,1.0,0.0,0.0367451741899
1385575352640349168,0.0627842970135,0.492307800991,0.0264776213649,1.0,0.0,0.0366172959059
1385575352840396339,0.168346548429,0.475576625661,0.0192953883182,1.0,0.0,0.035845714122
1385575353040275786,0.252727677367,0.397121106611,0.0119794931154,1.0,0.0,0.0348420785847
1385575353240410113,0.307440099532,0.271664712801,0.00519103884088,1.0,0.0,0.0339427498587
1385575353440385759,0.325352244032,0.113596356057,0.0047183146199,1.0,0.0,0.0343207607506
1385575353640279034,0.301481028988,-0.0634293967723,0.00881675248974,1.0,0.0,0.036657490661
1385575353840410126,0.24099462438,-0.236361367104,0.00871877274153,1.0,0.0,0.0400207474058
1385575354040362552,0.152396196535,-0.379584366423,0.00600491742984,1.0,0.0,0.0429961882575
1385575354240291657,0.0437148220775,-0.468865017406,0.0020229530742,1.0,0.0,0.045434830092
1385575354440312419,-0.072080924295,-0.490781753846,-0.00262858571677,1.0,0.0,0.0468345061885
1385575354640474233,-0.181630186537,-0.445701647199,-0.00587810681502,1.0,0.0,0.0471580965933
1385575354840403425,-0.274474756966,-0.344083338971,-0.00719949328026,1.0,0.0,0.0464243396777
1385575355040764187,-0.339422354985,-0.200623551342,-0.00413363862408,1.0,0.0,0.0452457619139
1385575355240342733,-0.363797815605,-0.0288507534198,0.00536393835127,1.0,0.0,0.0439174569634
1385575355440266797,-0.33992471494,0.152679615573,0.0148280010981,1.0,0.0,0.0431217070877
1385575355640380577,-0.270303528704,0.316057591114,0.0177094622696,1.0,0.0,0.0425524990191
1385575355840266487,-0.163267151509,0.435979591801,0.0178897286777,1.0,0.0,0.0422967766874
1385575356040319957,-0.0347808389751,0.495727537758,0.014879719634,1.0,0.0,0.0415956521428
1385575356240280431,0.0993418413072,0.48880223687,0.00972744323415,1.0,0.0,0.0403107433111
1385575356440303473,0.222616948336,0.420144562212,0.00567194748368,1.0,0.0,0.0388008296332
1385575356640285319,0.320422000033,0.300357054804,0.00237632794926,1.0,0.0,0.0376693509163
1385575356840324504,0.382123795756,0.146351419883,0.00384942943764,1.0,0.0,0.0370686915793
1385575357040420321,0.398687602848,-0.0262035781985,0.00705522827079,1.0,0.0,0.0377893066798
1385575357240644145,0.361897218232,-0.194595707004,0.0077930844386,1.0,0.0,0.0396472502407
1385575357440300651,0.291913550561,-0.334111717569,0.00790082731191,1.0,0.0,0.0419936409227
1385575357640214933,0.182908686635,-0.424912346282,0.00686018681915,1.0,0.0,0.0442982473572
1385575357840280288,0.0535152402145,-0.457499419767,0.00580368642546,1.0,0.0,0.0455092474294
1385575358040463461,-0.0829939947842,-0.430367560141,0.00484379602788,1.0,0.0,0.0450357090406
1385575358240239363,-0.211757713454,-0.347683618946,0.00401867554945,1.0,0.0,0.0431573714889
1385575358440379336,-0.315659298829,-0.219761274922,0.00454148121529,1.0,0.0,0.0408385956459
1385575358640349696,-0.378257941727,-0.061785999474,0.00651459506365,1.0,0.0,0.0390125915569
1385575358840268975,-0.389548616267,0.10592630807,0.00783801891015,1.0,0.0,0.0380406331162
1385575359040285690,-0.349048675979,0.260130315645,0.00649280887705,1.0,0.0,0.0375972609519
1385575359240330925,-0.265261277891,0.379055354701,0.00354325839145,1.0,0.0,0.0375610034
1385575359440379416,-0.149783537449,0.449919499826,0.000334795369144,1.0,0.0,0.0377797146151
1385575359640387677,-0.0144244782261,0.46676050187,-0.00325049349051,1.0,0.0,0.038010812356
1385575359840487262,0.127564539414,0.429117206977,-0.00501059986196,1.0,0.0,0.0379832393621
1385575360040379848,0.261348270881,0.342163720474,-0.00447179549637,1.0,0.0,0.0375474721816
1385575360240450144,0.36964057633,0.21441929057,-0.000218501282133,1.0,0.0,0.0371167188921
1385575360440359594,0.434148739236,0.0586035994904,0.00460532931458,1.0,0.0,0.0375394795967
1385575360640980406,0.445051125485,-0.104857717241,0.00819695808434,1.0,0.0,0.0382459212847
1385575360840269976,0.400637409976,-0.25263792909,0.00838633822918,1.0,0.0,0.0391276074058
1385575361040286395,0.309216688027,-0.364108907217,0.00786290579759,1.0,0.0,0.0398985823853
1385575361240297023,0.181918125922,-0.425127045655,0.0107067916298,1.0,0.0,0.040317001941
1385575361440277222,0.0313672519596,-0.427645367741,0.0145355118702,1.0,0.0,0.0402590911424
1385575361640468104,-0.123718184406,-0.375485802346,0.0165863577465,1.0,0.0,0.0387589720763
1385575361840361813,-0.264077454682,-0.273906071231,0.0160273055984,1.0,0.0,0.0363787104637
1385575362040195026,-0.368141392193,-0.135118620636,0.0131157322778,1.0,0.0,0.034130811465
1385575362240277021,-0.418955192643,0.0220099585428,0.00962623807976,1.0,0.0,0.0325154750182
1385575362440207104,-0.409698179813,0.176240433693,0.00590682989846,1.0,0.0,0.0312183452007
1385575362640212980,-0.34623743764,0.305396225164,-0.000439964592336,1.0,0.0,0.0302008660946
1385575362840217190,-0.242150860941,0.393616685879,-0.00806715945803,1.0,0.0,0.0300264647136
1385575363040195568,-0.111106399066,0.433816481611,-0.0147756293813,1.0,0.0,0.0306232691447
1385575363240262275,0.0352992749457,0.425498888537,-0.0186902271764,1.0,0.0,0.0314140980928
1385575363440275806,0.184449829228,0.37047717081,-0.0192750940951,1.0,0.0,0.0316730096815
1385575363640273034,0.317414487437,0.272228739037,-0.0161460084296,1.0,0.0,0.0316394463018
1385575363840411710,0.411998526256,0.138375772476,-0.00992396158111,1.0,0.0,0.0322150751886
1385575364040552811,0.454267422917,-0.0147798536293,-0.00609530607879,1.0,0.0,0.0333547012946
1385575364240235475,0.432762610052,-0.16483038097,-0.00287057529892,1.0,0.0,0.0345588805318
1385575364440524203,0.367602511202,-0.290631920704,-0.000142856514088,1.0,0.0,0.0360565161748
1385575364640248918,0.256144003656,-0.376072794982,0.00404498432628,1.0,0.0,0.0375648912767
1385575364840528337,0.115428847279,-0.41190762631,0.00876077674196,1.0,0.0,0.038713966305
1385575365040448251,-0.0385627269235,-0.395527200137,0.0141027315571,1.0,0.0,0.0386392590737
1385575365240274138,-0.186801688154,-0.323216555152,0.0172794372266,1.0,0.0,0.0372437135882
1385575365440647814,-0.310290465671,-0.216343040385,0.0172192463388,1.0,0.0,0.0352022502258
1385575365640451391,-0.385269228102,-0.073355295951,0.0160243714424,1.0,0.0,0.033326637479
1385575365840362381,-0.41234029156,0.0746949447876,0.0133029188095,1.0,0.0,0.0316364673713
1385575366040363767,-0.380652221773,0.215663413666,0.0083452694583,1.0,0.0,0.0301395042005
1385575366240294514,-0.301752502641,0.328581241078,0.000825154584171,1.0,0.0,0.0291353592275
1385575366440440032,-0.188921705834,0.401310184902,-0.00802719123876,1.0,0.0,0.0291474402019
1385575366640268826,-0.0513999827899,0.422903074562,-0.0153490036942,1.0,0.0,0.0299148772188
1385575366840287218,0.0903224477127,0.408256118884,-0.0200314448738,1.0,0.0,0.0306962159919
1385575367040318984,0.230705993502,0.345601752281,-0.021002900639,1.0,0.0,0.0310469731374
1385575367240271979,0.349009687016,0.241937732271,-0.018120228901,1.0,0.0,0.0311316518797
1385575367440430154,0.423666798246,0.106384517207,-0.010596749731,1.0,0.0,0.0320441080634
1385575367640260958,0.442216755475,-0.0448764887366,-0.00260393282507,1.0,0.0,0.0336827086937
1385575367840321564,0.402978842271,-0.190496144705,0.000969289078528,1.0,0.0,0.035193266525
1385575368040413833,0.314883083357,-0.310622031225,0.00449925133659,1.0,0.0,0.0365871150293
1385575368240278778,0.189921128015,-0.388989912423,0.00959265448064,1.0,0.0,0.0376303638446
1385575368440241878,0.0408863667185,-0.414148741497,0.0161499026627,1.0,0.0,0.0379355610198
1385575368640332578,-0.11393031403,-0.38339162337,0.0184026501054,1.0,0.0,0.0371576062164
1385575368840273021,-0.252386186207,-0.299154128258,0.018778058614,1.0,0.0,0.0352997351072
1385575369040268359,-0.361806968101,-0.183620897089,0.01658729826,1.0,0.0,0.0331924319086
1385575369240234892,-0.41791493887,-0.0360502699125,0.0126696679241,1.0,0.0,0.0316843933697
1385575369440334923,-0.428022739809,0.113766733253,0.00769543724364,1.0,0.0,0.0306561916104
1385575369640286298,-0.374789575941,0.252684185894,0.00137810351537,1.0,0.0,0.0299031154212
1385575369840762736,-0.288172704283,0.363394243592,-0.00668027310469,1.0,0.0,0.0297809515548
1385575370040279250,-0.164515584459,0.430304038984,-0.0127580552425,1.0,0.0,0.0303571566472
1385575370240457714,-0.0161676594606,0.440017619089,-0.0161704651215,1.0,0.0,0.0312985905424
1385575370440474640,0.134240562624,0.40778585087,-0.0167543156269,1.0,0.0,0.0318818119425
1385575370640385761,0.271511684164,0.317940018404,-0.0133900524715,1.0,0.0,0.0322969684564
1385575370840506359,0.37689594224,0.196471018286,-0.00610223338033,1.0,0.0,0.0331350962823
1385575371040327788,0.426475658608,0.041798716718,-0.000614139970802,1.0,0.0,0.0344323738597
1385575371240366135,0.421711676316,-0.11528154959,0.00308757401546,1.0,0.0,0.0355791407921
1385575371440376930,0.367909512431,-0.256277351081,0.00502200871135,1.0,0.0,0.0363762176176
1385575371640387151,0.260173198706,-0.357487722567,0.0076993966128,1.0,0.0,0.0374172387484
1385575371840281611,0.128380800975,-0.415774623547,0.00976029705045,1.0,0.0,0.0384232803957
1385575372040482587,-0.0243176864749,-0.41636461378,0.0115546686289,1.0,0.0,0.0386294585553
1385575372240301457,-0.177456296522,-0.361407171394,0.0104072758291,1.0,0.0,0.0382463863466
1385575372440337612,-0.307480565401,-0.255769151288,0.00746884026332,1.0,0.0,0.0376618211236
1385575372640316000,-0.399916261807,-0.122661174825,0.00498014726562,1.0,0.0,0.037007259701
1385575372840326391,-0.441401608225,0.0290782650947,0.00209362992949,1.0,0.0,0.0368339503877
1385575373040383076,-0.425820082264,0.181788365382,-0.00135302933012,1.0,0.0,0.0367863224478
1385575373240489320,-0.363649553758,0.316554290894,-0.00641905552521,1.0,0.0,0.0368590289215
1385575373440368616,-0.255507549747,0.414517883601,-0.0107284125279,1.0,0.0,0.037210027515
1385575373640373403,-0.116653961809,0.465466090398,-0.0118049270869,1.0,0.0,0.0374071916131
1385575373840438602,0.0418518767041,0.454699223493,-0.0102606717277,1.0,0.0,0.0369955130873
1385575374040299576,0.196143849914,0.39836500463,-0.00607010244154,1.0,0.0,0.03585814082
1385575374240367368,0.326736451378,0.287289488246,0.00196477651577,1.0,0.0,0.0347293464512
1385575374440410632,0.406399051253,0.134042933659,0.0100326799861,1.0,0.0,0.0346935533971
1385575374640256101,0.432484602361,-0.0313856901717,0.0162639321796,1.0,0.0,0.0352148741882
1385575374840290775,0.407354051147,-0.188105495023,0.0176891608801,1.0,0.0,0.0358637648939
1385575375040342398,0.327690047132,-0.315766249441,0.0178392531752,1.0,0.0,0.0369222348606
1385575375240231104,0.211387121299,-0.398182536093,0.017194722524,1.0,0.0,0.0383494622577
1385575375440435037,0.071017520717,-0.427615678385,0.0145139175963,1.0,0.0,0.0397743861393
1385575375640425149,-0.0800458204557,-0.396816247758,0.0114536793545,1.0,0.0,0.0403435742868
1385575375840383531,-0.221282328225,-0.321230753832,0.00626508412872,1.0,0.0,0.0401419757008
1385575376040350366,-0.341140906947,-0.21125693665,3.63759909222e-06,1.0,0.0,0.0400133725284
1385575376240755201,-0.414307690766,-0.0656977863766,-0.00555144050995,1.0,0.0,0.0402930368868
1385575376440201208,-0.436453325449,0.0887476539357,-0.00928536292759,1.0,0.0,0.0407995842019
1385575376640544370,-0.401815382995,0.237936280684,-0.0123743940379,1.0,0.0,0.0412861762682
1385575376840331049,-0.317125534843,0.363204771717,-0.0163419410658,1.0,0.0,0.0417559204466
1385575377040381121,-0.194706163427,0.447506197708,-0.0180891827829,1.0,0.0,0.0424803097194
1385575377240390511,-0.0451705363719,0.480139561574,-0.0180281308365,1.0,0.0,0.0426730881934
1385575377440491105,0.115769066045,0.457339542031,-0.0157409266681,1.0,0.0,0.0416034151226
1385575377640272777,0.265869633772,0.378725088292,-0.0102187312087,1.0,0.0,0.0397322011598
1385575377840371440,0.379552750776,0.250023206455,0.000487519382683,1.0,0.0,0.0382674266464
1385575378040291264,0.4416961251,0.088699142197,0.01148431596,1.0,0.0,0.0381338703064
1385575378240343092,0.436060489637,-0.0859476480188,0.0155388694127,1.0,0.0,0.0386899660774
1385575378440448578,0.379105090933,-0.241363615298,0.0171089316685,1.0,0.0,0.0393485375214
1385575378640565859,0.283193510787,-0.360517829279,0.019221053002,1.0,0.0,0.0405127669224
1385575378840434202,0.148108585755,-0.422083210582,0.0196738066365,1.0,0.0,0.0418352511734
1385575379040596909,0.000837122579555,-0.427896640025,0.0162344791993,1.0,0.0,0.0424438552765
1385575379240229590,-0.146514254427,-0.378113250833,0.0111875860039,1.0,0.0,0.0419983674066
1385575379440283813,-0.276207903697,-0.28139169719,0.0042040496581,1.0,0.0,0.0408052758594
1385575379640330263,-0.372223236125,-0.151073562329,-0.00318216549996,1.0,0.0,0.039479706313
1385575379840317072,-0.422203738698,-0.000646553553664,-0.0100469348684,1.0,0.0,0.0385162246204
1385575380040300860,-0.41803651439,0.1554542041,-0.015320558642,1.0,0.0,0.0378921221102
1385575380240286668,-0.36061855773,0.296834339939,-0.0204769722659,1.0,0.0,0.0372569700265
1385575380440314100,-0.265843601655,0.40652034363,-0.0244717128305,1.0,0.0,0.0371814751678
1385575380640285770,-0.13086217128,0.463623802911,-0.0255129871727,1.0,0.0,0.0371155198068
1385575380840311273,0.0227166452701,0.471265617097,-0.0244496057588,1.0,0.0,0.0360226040213
1385575381040359692,0.181138154693,0.424950577254,-0.0214565989145,1.0,0.0,0.03363529042
1385575381240429152,0.318604076084,0.326823314113,-0.0149396152846,1.0,0.0,0.0309582448726
1385575381440647115,0.40992164599,0.185888411311,-0.000896881168741,1.0,0.0,0.0290925099986
1385575381640256613,0.441253421737,0.019495736699,0.0111644425127,1.0,0.0,0.0285948020642
1385575381840412252,0.418895864296,-0.144758547859,0.01537002614,1.0,0.0,0.0280965940733
1385575382040264929,0.346387925714,-0.283418930996,0.017747502434,1.0,0.0,0.0280817015501
1385575382240309268,0.23140778124,-0.377010066867,0.0236909609942,1.0,0.0,0.0295171960462
1385575382440368978,0.090746794404,-0.41544933051,0.0262924365325,1.0,0.0,0.0318069615478
1385575382640394793,-0.0566412857174,-0.400434311951,0.0245498494257,1.0,0.0,0.0331260637839
1385575382840614158,-0.195751947427,-0.33734660964,0.0198202168293,1.0,0.0,0.0331572671264
1385575383040331405,-0.310163784384,-0.236414968898,0.0126962145595,1.0,0.0,0.0322879148447
1385575383240351486,-0.385750381148,-0.109597351584,0.00448525656785,1.0,0.0,0.0314566580079
1385575383440658345,-0.4120483902,0.030219397473,-0.00208407219409,1.0,0.0,0.0311032359123
1385575383640262911,-0.385494463996,0.16912857444,-0.00772750143262,1.0,0.0,0.0311630864616
1385575383840815266,-0.311469275732,0.290441053784,-0.0135313503381,1.0,0.0,0.0313936081599
1385575384040461222,-0.202248883204,0.378265802227,-0.0178888862378,1.0,0.0,0.031989478925
1385575384240423611,-0.0691847986767,0.422487994472,-0.0196719948308,1.0,0.0,0.0324420635027
1385575384440407551,0.0780476216699,0.419452713894,-0.0198741618665,1.0,0.0,0.0317827432935
1385575384640389685,0.222284038987,0.365608164831,-0.0188183133524,1.0,0.0,0.0303262425259
1385575384840390043,0.341485093401,0.264808013555,-0.0157895657939,1.0,0.0,0.0287929425107
1385575385040353312,0.416531902555,0.128846145829,-0.0104057427405,1.0,0.0,0.0277633766701
1385575385240288782,0.437393200568,-0.0239378685238,-0.00272972362621,1.0,0.0,0.0274077748739
1385575385440395257,0.403001721298,-0.17360490326,0.00264092531053,1.0,0.0,0.0276544185157
1385575385640259186,0.318522524831,-0.298943958538,0.0080277776149,1.0,0.0,0.0288305683055
1385575385840437793,0.194721741625,-0.3849512989,0.0158437449543,1.0,0.0,0.0310493396962
1385575386040285236,0.0457527834023,-0.420924419241,0.0186538610263,1.0,0.0,0.0331214243986
1385575386240266867,-0.108977703544,-0.405795884871,0.0190864442977,1.0,0.0,0.0340028503033
1385575386440426161,-0.251560013655,-0.340772180111,0.01753558868,1.0,0.0,0.0336716310237
1385575386640262892,-0.362894438819,-0.233638834279,0.0132254486933,1.0,0.0,0.0327378779435
1385575386840313625,-0.426845709974,-0.0973023383997,0.0097320447022,1.0,0.0,0.0318831389425
1385575387040353291,-0.433343151798,0.0520031186302,0.00668556169775,1.0,0.0,0.031428050892
1385575387240266105,-0.383301762453,0.194627476634,0.003461075792,1.0,0.0,0.0311675743938
1385575387440405008,-0.28759146946,0.312901791278,-0.00106541752548,1.0,0.0,0.031107882104
1385575387640262200,-0.159827602797,0.393001123049,-0.00483945102937,1.0,0.0,0.0315713398238
1385575387840387482,-0.012650248431,0.425817035628,-0.00857814705317,1.0,0.0,0.0315137321387
1385575388040469509,0.13824106131,0.407050325338,-0.0121491222233,1.0,0.0,0.0303773413213
1385575388240347237,0.273520154764,0.338453559699,-0.0148221764574,1.0,0.0,0.0284634548584
1385575388440290713,0.374002765608,0.22810838448,-0.0142131379095,1.0,0.0,0.0265116871774
1385575388640572957,0.426843073216,0.0889555245962,-0.0113072283709,1.0,0.0,0.025092211345
1385575388840274036,0.423850571308,-0.0623513313612,-0.00810059516926,1.0,0.0,0.0249729153
1385575389040382128,0.36906220652,-0.204854847284,-0.00430807311264,1.0,0.0,0.0258319601875
1385575389240329469,0.268440396722,-0.319904072774,-0.000151535064767,1.0,0.0,0.0284573540435
1385575389440459676,0.133379758731,-0.393514550782,0.00456535407308,1.0,0.0,0.0322672026437
1385575389640539325,-0.0183227630795,-0.418720919538,0.00735331199637,1.0,0.0,0.0351477575363
1385575389840531167,-0.169493663773,-0.394093907585,0.00841307036577,1.0,0.0,0.0365210090669
1385575390040286203,-0.302700979076,-0.32228866019,0.00706774893086,1.0,0.0,0.0363515636288
1385575390240312273,-0.398852750941,-0.210975831443,0.00576201524125,1.0,0.0,0.0354810836564
1385575390440268730,-0.442426072874,-0.0713301148522,0.00674930865835,1.0,0.0,0.0347747277373
1385575390640257777,-0.426905448476,0.0797784649354,0.00790980819764,1.0,0.0,0.034532857577
1385575390840321023,-0.358359907889,0.222367624635,0.00668494924747,1.0,0.0,0.0342831391352
1385575391040435117,-0.247973557677,0.337648012179,0.00525609206367,1.0,0.0,0.034613370897
1385575391240436631,-0.109699591926,0.411044878281,0.00365319795797,1.0,0.0,0.0350221577576
1385575391440315286,0.0426041502881,0.431195198634,0.00029824134663,1.0,0.0,0.0348239409817
1385575391640272872,0.189788634245,0.396937389543,-0.00485496004602,1.0,0.0,0.0336059145166
1385575391840278190,0.310744196846,0.313414758825,-0.00847578104229,1.0,0.0,0.0321939906822
1385575392040301998,0.388229395505,0.192729084173,-0.00850779509209,1.0,0.0,0.0313090178287
1385575392240279224,0.415516622803,0.0495536835049,-0.00649109383147,1.0,0.0,0.0309202122358
1385575392440250096,0.388911567969,-0.101049472263,-0.00562821260708,1.0,0.0,0.0317725801839
1385575392640288440,0.314892219143,-0.237618887201,-0.00674472432927,1.0,0.0,0.0338051824389
1385575392840297600,0.201891628871,-0.341471151031,-0.00457367316997,1.0,0.0,0.037759272589
1385575393040311700,0.0638012292798,-0.401924669398,-0.00376579898251,1.0,0.0,0.0417218220574
1385575393240259200,-0.0832785376386,-0.414186165859,-0.00415785438665,1.0,0.0,0.0439526930729
1385575393440282718,-0.224381572509,-0.376553619519,-0.00321672983135,1.0,0.0,0.0442380870345
1385575393640420304,-0.343602616374,-0.290023346636,-0.00396488045763,1.0,0.0,0.0432769814183
1385575393840767696,-0.421859312916,-0.164708695215,-0.00319990187107,1.0,0.0,0.0418098112543
1385575394040283007,-0.445211573792,-0.0149033617106,0.000176584039538,1.0,0.0,0.0405413303329
1385575394240345427,-0.410506638279,0.141959883951,0.00308355563635,1.0,0.0,0.0397637632771
1385575394440424192,-0.323629103665,0.284715944293,0.00341097998195,1.0,0.0,0.0392620176794
1385575394640400212,-0.19754890835,0.394307570611,0.00341539949439,1.0,0.0,0.0385858746101
1385575394840431195,-0.045488998842,0.45237295747,0.00279578473856,1.0,0.0,0.037614270451
1385575395040452451,0.113713484363,0.450649474146,0.000390085557229,1.0,0.0,0.0358898115914
1385575395241961988,0.257310470946,0.390965046848,-0.00294397914551,1.0,0.0,0.0335641900844
1385575395440577646,0.36735792496,0.288852041492,-0.00367610109292,1.0,0.0,0.0310407054332
1385575395640433357,0.419597223379,0.142511834381,-0.000806070954068,1.0,0.0,0.0293619916496
1385575395840445857,0.418311190653,-0.0167288761329,0.000817816539951,1.0,0.0,0.0285752301501
1385575396040415375,0.366351186983,-0.170605876106,0.00249929933399,1.0,0.0,0.0283682130236
1385575396240256452,0.271977530033,-0.299400131165,0.00357636906016,1.0,0.0,0.0295961750492
1385575396440261817,0.148475903079,-0.389121931931,0.00418734507296,1.0,0.0,0.0315549462166
1385575396640368498,0.00803527285307,-0.430014588559,0.00228919155621,1.0,0.0,0.0328666593456
1385575396840281182,-0.134569905271,-0.417267114519,0.000654861671534,1.0,0.0,0.0327394869915
1385575397040465056,-0.263746864855,-0.352054898917,-0.00195163471526,1.0,0.0,0.0316783940096
1385575397240320944,-0.361370712785,-0.245422629351,-0.00382033380431,1.0,0.0,0.0300912593429
1385575397440273996,-0.412243255022,-0.108483363683,-0.00276456420499,1.0,0.0,0.0289552120203
1385575397640268436,-0.409132295339,0.0428357352398,0.000263875156312,1.0,0.0,0.0283197361052
1385575397840252994,-0.35227519824,0.190090961133,0.00286401619501,1.0,0.0,0.0287028113318
1385575398040272869,-0.252241654637,0.313180851165,0.0036428701533,1.0,0.0,0.0297523404441
1385575398240324762,-0.122538069324,0.395768090795,0.00300363960751,1.0,0.0,0.0309359247648
1385575398440253245,0.0219861298381,0.425548162032,0.00116132192439,1.0,0.0,0.0319156852525
1385575398640258603,0.162937952376,0.400076886313,-0.00186604546395,1.0,0.0,0.032379950807
1385575398840253532,0.281599904646,0.326378493472,-0.00509211559598,1.0,0.0,0.0322194402121
1385575399040266721,0.363603969172,0.216146343004,-0.00621033052157,1.0,0.0,0.0316430814793
1385575399240361474,0.400147224138,0.0820239915586,-0.00547214513898,1.0,0.0,0.0314359266415
1385575399440213805,0.385894008063,-0.0613219105859,-0.00482619816736,1.0,0.0,0.0326592443608
1385575399640253243,0.322118362131,-0.197849915973,0.000369322297897,1.0,0.0,0.0355657768647
1385575399840408643,0.221415023461,-0.313668576403,-0.00010336136533,1.0,0.0,0.0387686014653
1385575400040309983,0.0968155523082,-0.395506433256,-0.000588574725548,1.0,0.0,0.0414773363128
1385575400240277161,-0.0406164514671,-0.429818624964,0.000584171921045,1.0,0.0,0.0428340678475
1385575400440397523,-0.177944455365,-0.408832258135,0.00117045460487,1.0,0.0,0.0425033281734
1385575400640258244,-0.297626134466,-0.334323640785,0.000467780613285,1.0,0.0,0.0408110374559
1385575400840423610,-0.381623461026,-0.215930592675,0.00130987702134,1.0,0.0,0.0387220625365
1385575401040431244,-0.417019073084,-0.0685834445174,0.00477085519473,1.0,0.0,0.0369265557375
1385575401240412536,-0.399353744997,0.0902715703704,0.00774520568283,1.0,0.0,0.0357108671672
1385575401440367157,-0.332859047681,0.240296908519,0.00760461460544,1.0,0.0,0.035146156108
1385575401640293371,-0.226215683175,0.360383668381,0.00713276355407,1.0,0.0,0.0352131909005
1385575401840214247,-0.0911729652334,0.432726415183,0.00562027781939,1.0,0.0,0.0351534715702
1385575402040355882,0.0569023760833,0.446920629346,0.00231978550804,1.0,0.0,0.0344156105997
1385575402240349826,0.197811757022,0.403157452775,-0.00244218727826,1.0,0.0,0.0329875139498
1385575402440284952,0.311810823966,0.310728567902,-0.00550990816175,1.0,0.0,0.0310108378911
1385575402640232249,0.383900406721,0.18069558018,-0.00560203293327,1.0,0.0,0.0293307239686
1385575402840334967,0.404107999348,0.0279878596626,-0.00537768892954,1.0,0.0,0.0297050239164
1385575403040261457,0.367038543049,-0.127328667071,-0.00296460608721,1.0,0.0,0.0328615065494
1385575403240296268,0.284003589354,-0.263637688756,-0.00221825038312,1.0,0.0,0.0365977262093
1385575403440283353,0.170937913814,-0.366532151329,-0.00505488086397,1.0,0.0,0.0405074593494
1385575403640336036,0.040711628904,-0.424757324624,-0.00852956475823,1.0,0.0,0.0438365004947
1385575403840277076,-0.0968778764713,-0.427602006924,-0.00969614692536,1.0,0.0,0.0454220572664
1385575404040354674,-0.227577284414,-0.371649596018,-0.00952213097547,1.0,0.0,0.0457824351604
1385575404240339427,-0.332925007112,-0.265709328685,-0.00830882751538,1.0,0.0,0.0454519659924
1385575404440295811,-0.396971016711,-0.124214461539,-0.00469182459318,1.0,0.0,0.0449910650021
1385575404640263684,-0.410339298284,0.0370845339738,-0.000270243146344,1.0,0.0,0.0450146955938
1385575404840413358,-0.372133387843,0.198403350167,0.00191526042609,1.0,0.0,0.0453032893254
1385575405040380977,-0.288427663323,0.337967402943,0.00191166025145,1.0,0.0,0.0456108670998
1385575405240234419,-0.170265480767,0.436675138425,0.00161007066804,1.0,0.0,0.0455735272894
1385575405440345224,-0.0292311726194,0.480199159829,0.00135567642629,1.0,0.0,0.0447491265241
1385575405640370349,0.118727354949,0.462035060221,0.000217205433335,1.0,0.0,0.0429042555653
1385575405840358811,0.253720342308,0.385979857501,-0.000770746846571,1.0,0.0,0.0404150204648
1385575406040245067,0.35713316918,0.263027884963,0.00190162084933,1.0,0.0,0.0378205174791
1385575406240207498,0.412090390541,0.107682541587,0.00468239181726,1.0,0.0,0.0365406833525
1385575406440264209,0.41309678107,-0.0576573868397,0.00607155231464,1.0,0.0,0.0367197909691
1385575406640297537,0.358835409856,-0.212996114199,0.0101381551772,1.0,0.0,0.0385027875714
1385575406840280437,0.263306389769,-0.338159436967,0.00753434411054,1.0,0.0,0.0400663415372
1385575407040220048,0.139820399741,-0.418136077151,0.00626505582347,1.0,0.0,0.0416612236909
1385575407240292934,0.00231639557415,-0.443525249188,0.0040856189118,1.0,0.0,0.0424981243275
1385575407440287950,-0.136412455827,-0.411216361254,0.00256880073296,1.0,0.0,0.0421098411117
1385575407640320396,-0.260138176897,-0.326315454236,0.000420605478202,1.0,0.0,0.0409730747614
1385575407840263540,-0.351464681642,-0.201461897329,-0.000253657264759,1.0,0.0,0.0397223852696
1385575408040265793,-0.396613958978,-0.0502572798262,0.000732894063248,1.0,0.0,0.0391260510214
1385575408240385536,-0.388443857027,0.11047415627,0.00198953997711,1.0,0.0,0.0394397658804
1385575408440276007,-0.330403861941,0.259538971078,0.000428730469939,1.0,0.0,0.0399682816768
1385575408640267402,-0.234010089084,0.376371619009,-0.00316520171247,1.0,0.0,0.0405409084362
1385575408840248053,-0.111369115689,0.446228111795,-0.00550674454849,1.0,0.0,0.0408311495856
1385575409040266815,0.0280511526563,0.459077508606,-0.00828143091948,1.0,0.0,0.040329011232
1385575409240277616,0.169038265051,0.41487001672,-0.00989624387873,1.0,0.0,0.0386309676788
1385575409440382220,0.292729690338,0.318923067132,-0.01010780553,1.0,0.0,0.0363802384223
1385575409640288846,0.378888480841,0.182723657334,-0.00597336430815,1.0,0.0,0.0348914682375
1385575409840270816,0.411326415403,0.0225586753297,-0.00334013583677,1.0,0.0,0.0360365805659
1385575410040283078,0.386181260362,-0.141721581488,0.0049098989768,1.0,0.0,0.0396042031207
1385575410240366743,0.314615983487,-0.289227336304,0.00414966752357,1.0,0.0,0.0425296592568
1385575410440276197,0.207878237072,-0.40101672485,0.00332889275249,1.0,0.0,0.0451992435235
1385575410640253463,0.0788434803268,-0.461642870623,0.00201936993202,1.0,0.0,0.0471080412447
1385575410840321744,-0.0612306521927,-0.462345577168,0.00192239276055,1.0,0.0,0.04746744341
1385575411040313303,-0.197821712912,-0.40231959271,0.00176721203748,1.0,0.0,0.0462774565756
1385575411240290618,-0.311712019627,-0.289559683865,0.00228139789023,1.0,0.0,0.044558237182
1385575411440378012,-0.38498409001,-0.137853078076,0.00593164531213,1.0,0.0,0.0430109713782
1385575411640367996,-0.40616588437,0.0348334013791,0.00940234621882,1.0,0.0,0.0423479040978
1385575411840362271,-0.37385401215,0.204801089635,0.0095731087001,1.0,0.0,0.0423790202627
1385575412040388148,-0.295310118533,0.347324059022,0.00683953392053,1.0,0.0,0.0429435980417
1385575412240273127,-0.182480045392,0.443363458848,0.00244357800093,1.0,0.0,0.0437721542238
1385575412440372072,-0.0472160894522,0.481404908779,-0.00202494352727,1.0,0.0,0.0439133354963
1385575412640310464,0.0972333151111,0.457152269574,-0.00673715591093,1.0,0.0,0.0431561948689
1385575412840257769,0.232564013813,0.376260703657,-0.00967379182528,1.0,0.0,0.041830625695
1385575413040487782,0.340121392139,0.250756219494,-0.0091627338847,1.0,0.0,0.0406198673189
1385575413240338446,0.405013408864,0.0950345692907,-0.00555259408179,1.0,0.0,0.0402510100445
1385575413440274425,0.415217348946,-0.072358896471,-0.00402489602429,1.0,0.0,0.0417801387273
1385575413640351773,0.368670483813,-0.230678445543,0.000893999099724,1.0,0.0,0.0446085692922
1385575413840390265,0.276968046696,-0.359541928995,-0.000586767636987,1.0,0.0,0.0465801466489
1385575414040242631,0.154216326904,-0.441932867935,-0.000752003094538,1.0,0.0,0.0484486566896
1385575414240243179,0.0145133868315,-0.468161322996,-0.000349952477864,1.0,0.0,0.0491688501903
1385575414440432205,-0.129185547755,-0.435104007621,0.000357822903509,1.0,0.0,0.0480512364097
1385575414640291144,-0.260149987489,-0.3455777262,0.00142677635663,1.0,0.0,0.0459359194145
1385575414840333748,-0.358626009888,-0.212428596954,0.00480990572872,1.0,0.0,0.0434999830967
1385575415040345529,-0.408985084819,-0.0509503813426,0.00920020738673,1.0,0.0,0.0416501550979
1385575415240571158,-0.403783634807,0.118434861972,0.0112200494481,1.0,0.0,0.0410979214678
1385575415440281489,-0.347171502115,0.27126339108,0.0101477760994,1.0,0.0,0.0414837460225
1385575415640254307,-0.249979156977,0.387029302151,0.00776085222149,1.0,0.0,0.0424757974557
1385575415840393964,-0.124408062742,0.452315138131,0.00404737406571,1.0,0.0,0.0434009085587
1385575416040418808,0.0173352040458,0.460202352284,-0.000532008808173,1.0,0.0,0.043456066559
1385575416240196814,0.159293707275,0.410275999585,-0.00450486453354,1.0,0.0,0.0426759365049
1385575416440260977,0.283299383211,0.31026933851,-0.00681338594837,1.0,0.0,0.0414825637257
1385575416640398095,0.372827062768,0.173763094142,-0.00544459212106,1.0,0.0,0.0403476024183
1385575416840346025,0.413642889949,0.0145546993445,-0.00379793338305,1.0,0.0,0.0410202070946
1385575417040273176,0.39719512405,-0.147154401222,-0.00123286690329,1.0,0.0,0.0438374151353
1385575417240344982,0.329696606686,-0.290789628685,-0.00342944192811,1.0,0.0,0.0468890831474
1385575417440293542,0.225824343825,-0.398055375122,-0.00696288216836,1.0,0.0,0.0492266284143
1385575417640250349,0.0972614451793,-0.453977789467,-0.00748546339978,1.0,0.0,0.0508848575659
1385575417840323564,-0.0458908130143,-0.451670351369,-0.00562109280686,1.0,0.0,0.0510082706643
1385575418040262358,-0.190049916947,-0.391022614121,-0.00347379433756,1.0,0.0,0.0494696602992
1385575418240337292,-0.315030751663,-0.279417871433,-0.00163508358917,1.0,0.0,0.047065730909
1385575418440371880,-0.398978219602,-0.130401975912,0.0030102180152,1.0,0.0,0.0447477667463
1385575418640332684,-0.426981887275,0.0381688941952,0.00762694162821,1.0,0.0,0.0432989204472
1385575418840275884,-0.396484895058,0.201849068672,0.00891214088324,1.0,0.0,0.0427958218994
1385575419040262420,-0.316041033861,0.337326327067,0.00743579468112,1.0,0.0,0.0429232658658
1385575419240265477,-0.199658981523,0.427885574346,0.00461535077045,1.0,0.0,0.0434980700632
1385575419440259451,-0.0596701739842,0.463714999854,0.0012808995617,1.0,0.0,0.0439449843738
1385575419640251105,0.0899071335287,0.441472385878,-0.00210887006822,1.0,0.0,0.043291975272
1385575419842304445,0.231040429055,0.363861570867,-0.0045450124525,1.0,0.0,0.0419349616893
1385575420040455223,0.34415735975,0.241300656659,-0.00419248797456,1.0,0.0,0.0403845506981
1385575420240489041,0.412233036122,0.0868566606823,-0.00176599955194,1.0,0.0,0.0396689326147
1385575420440430431,0.423727632997,-0.0800802537092,-0.00226293191441,1.0,0.0,0.0407330952667
1385575420640356012,0.376326988881,-0.234774251778,-0.00349744155187,1.0,0.0,0.0433621922785
1385575420840496596,0.283944911326,-0.355907643825,-0.00674087272106,1.0,0.0,0.0462942158081
1385575421040315508,0.165301944524,-0.432502559508,-0.0100600442757,1.0,0.0,0.0488690766272
1385575421240662478,0.0298647172921,-0.457067679355,-0.0113542541556,1.0,0.0,0.0502797965282
1385575421440394306,-0.111982185223,-0.424704180458,-0.00767701852878,1.0,0.0,0.0500884320449
1385575421640269650,-0.246051801616,-0.339468741302,-0.00354755697326,1.0,0.0,0.0482909844323
1385575421840257071,-0.351832461136,-0.210353855538,0.00112333328511,1.0,0.0,0.0461399889922
1385575422040262608,-0.410254152782,-0.0529690428208,0.00846286843684,1.0,0.0,0.0444700398222
1385575422240246481,-0.411605146204,0.111380134443,0.0130106564393,1.0,0.0,0.0435930079845
1385575422440258877,-0.35846697516,0.259412080533,0.0133500676276,1.0,0.0,0.0431104342635
1385575422640298700,-0.260770857661,0.370838416688,0.0118897875261,1.0,0.0,0.0431163231522
1385575422840408537,-0.132308182875,0.432364501804,0.00922265686217,1.0,0.0,0.0434850315313
1385575423040306270,0.0120586777946,0.438666206307,0.00513387010842,1.0,0.0,0.0434605883743
1385575423240305102,0.156679337606,0.392516189382,0.00153507711398,1.0,0.0,0.0422753816119
1385575423440269215,0.284362464563,0.297325677164,-0.00278072826099,1.0,0.0,0.0407156487734
1385575423640387683,0.377447983312,0.166646181623,-0.00416921000261,1.0,0.0,0.0393306553411
1385575423840302982,0.421720063605,0.0141502041536,-0.00505361348461,1.0,0.0,0.0390133533218
1385575424040415199,0.410091007623,-0.139671526619,-0.0059653557872,1.0,0.0,0.0401226507511
1385575424240822474,0.345154991424,-0.275880811104,-0.00597490574644,1.0,0.0,0.0425231005502
1385575424440282425,0.243053695991,-0.382032165528,-0.0102296617206,1.0,0.0,0.044649644259
1385575424640258544,0.117818183466,-0.447550264765,-0.0120801773482,1.0,0.0,0.046195419089
1385575424840259988,-0.0233096862702,-0.461191914397,-0.00905729999678,1.0,0.0,0.04634469464
1385575425040266150,-0.168958808148,-0.416368803669,-0.00317269861778,1.0,0.0,0.044893253763
1385575425240224833,-0.298850496548,-0.314353999647,0.0039907880568,1.0,0.0,0.0427592939584
1385575425440291188,-0.389768512534,-0.166716049373,0.0112767278814,1.0,0.0,0.0410482465184
1385575425640269339,-0.425837890843,0.00449818675057,0.0170508397473,1.0,0.0,0.0400257480397
1385575425840254231,-0.403687453659,0.173689848431,0.0195656256686,1.0,0.0,0.0392283109582
1385575426040538747,-0.328550780283,0.316539915186,0.0192363080093,1.0,0.0,0.0388977336701
1385575426240457155,-0.213302844187,0.413838711959,0.0166359379455,1.0,0.0,0.0391171028702
1385575426440507267,-0.0717929899674,0.454211988079,0.0116164771409,1.0,0.0,0.0393596334267
1385575426640455963,0.0786018620794,0.435399120684,0.0055577096451,1.0,0.0,0.0391875742135
1385575426840642933,0.220074015692,0.363409219514,-0.000540091404707,1.0,0.0,0.0382103783065
1385575427040347333,0.335665296318,0.24782346117,-0.00575825101164,1.0,0.0,0.0369140384066
1385575427240444687,0.410627787452,0.101890037715,-0.00870206986966,1.0,0.0,0.0361816446472
1385575427440217783,0.431142615018,-0.0577303610002,-0.01269135149,1.0,0.0,0.0376210386622
1385575427640359882,0.391582559327,-0.207541554327,-0.010712880919,1.0,0.0,0.04073098903
1385575427840325060,0.303265268063,-0.334156220255,-0.0136152556134,1.0,0.0,0.0440635969875
1385575428040342468,0.184237924601,-0.424045539114,-0.0150976885368,1.0,0.0,0.0467574461809
1385575428240288029,0.0455321060208,-0.465279643114,-0.0130792369026,1.0,0.0,0.0483887512482
1385575428440257770,-0.102959611154,-0.449724701649,-0.00789814288141,1.0,0.0,0.0480980602563
1385575428640330851,-0.244677847719,-0.375762578921,-0.00275946160734,1.0,0.0,0.0461972606022
1385575428840342126,-0.356439287893,-0.250777514093,0.00469694005012,1.0,0.0,0.0439306699493
1385575429040287304,-0.417934391548,-0.0903086044515,0.0128931669408,1.0,0.0,0.0422582173611
1385575429240269705,-0.420723085321,0.0823000873587,0.0183743651337,1.0,0.0,0.0410472717014
1385575429440282429,-0.366443325001,0.242232702667,0.0200912092915,1.0,0.0,0.0402636513528
1385575429640374805,-0.266560459305,0.366255541667,0.0193531458232,1.0,0.0,0.0402239360532
1385575429840364837,-0.136077007147,0.439720989033,0.0165138835504,1.0,0.0,0.0408347692068
1385575430040405079,0.00913038210933,0.455548055022,0.00998079510861,1.0,0.0,0.0410462026037
1385575430240270462,0.153934365068,0.41388953064,0.00319310525571,1.0,0.0,0.0404687210232
1385575430440263999,0.281908796477,0.321198753372,-0.00317816479908,1.0,0.0,0.039426912487
1385575430640264290,0.376997897696,0.191186488092,-0.00780173392316,1.0,0.0,0.0384661928143
1385575430840263273,0.426234971377,0.0379671997417,-0.012365393938,1.0,0.0,0.0388801686686
1385575431040280839,0.417997649717,-0.11908908219,-0.011219097358,1.0,0.0,0.0409755776469
1385575431240406777,0.35746626614,-0.264294423521,-0.0129886744056,1.0,0.0,0.0434579471525
1385575431440263719,0.258209796405,-0.380694292145,-0.0151835457788,1.0,0.0,0.0456443478065
1385575431640269189,0.131550917357,-0.452717065691,-0.0145793237415,1.0,0.0,0.0470982787943
1385575431840291897,-0.0129915597633,-0.468722626266,-0.0104770545388,1.0,0.0,0.0471952534032
1385575432040287255,-0.1613999627,-0.426014947632,-0.00648285724823,1.0,0.0,0.0456132990321
1385575432240403866,-0.293217920987,-0.32938136487,-0.000782395843173,1.0,0.0,0.0429218658473
1385575432440319558,-0.386158408566,-0.189494368424,0.00672441799444,1.0,0.0,0.0402182229881
1385575432640516826,-0.423068144978,-0.0234246312105,0.0145064775828,1.0,0.0,0.0384480837351
1385575432840385762,-0.399997943424,0.143924099435,0.0185302306333,1.0,0.0,0.0378018447475
1385575433040353304,-0.326390353851,0.288088339275,0.0191771736392,1.0,0.0,0.0375699034259
1385575433240479565,-0.214290608467,0.389997727217,0.0167354835851,1.0,0.0,0.0381155843545
1385575433441850416,-0.0786823500293,0.437665715533,0.011431710453,1.0,0.0,0.038899819642
1385575433640272650,0.0649759626112,0.427590609847,0.0050479408241,1.0,0.0,0.0390040423603
1385575433840251923,0.199556819202,0.365274886055,-0.00219070102805,1.0,0.0,0.03816141175
1385575434040200146,0.309885872637,0.261354897516,-0.00873896293426,1.0,0.0,0.036738518898
1385575434240221367,0.382828180384,0.126336082442,-0.0133477946254,1.0,0.0,0.0362036453697
1385575434440352411,0.406923947764,-0.0254679047592,-0.0179784863359,1.0,0.0,0.0377889567768
1385575434640343944,0.375309539979,-0.171978173746,-0.0177243210384,1.0,0.0,0.0411026134097
1385575434840273764,0.296211363989,-0.300305056525,-0.0179860276221,1.0,0.0,0.0447442418719
1385575435040390936,0.183337449105,-0.398541860894,-0.018917893778,1.0,0.0,0.0477132575056
1385575435240470222,0.0478899591793,-0.452099265847,-0.0170734177665,1.0,0.0,0.0495905303046
1385575435440316084,-0.0991309446969,-0.450786328253,-0.0119104944623,1.0,0.0,0.0496587514237
1385575435640356762,-0.241984673575,-0.38969526549,-0.00596247530466,1.0,0.0,0.0481900792072
1385575435840282914,-0.35885459122,-0.275105791397,0.000524913446121,1.0,0.0,0.0460242167323
1385575436040319059,-0.429734143784,-0.122168839112,0.00851511711898,1.0,0.0,0.0439460064842
1385575436240403468,-0.441829811206,0.0490187198218,0.016033830154,1.0,0.0,0.0426847031993
1385575436440325800,-0.395332513634,0.213496210614,0.0192450702716,1.0,0.0,0.0422813082981
1385575436640319616,-0.300223546607,0.348672781643,0.0207618110456,1.0,0.0,0.0427646316945
1385575436840828328,-0.170626258194,0.437431823475,0.0198838420052,1.0,0.0,0.0436040397508
1385575437040279712,-0.0203746111422,0.469795982464,0.0168863357732,1.0,0.0,0.0440463510216
1385575437240236429,0.132701436335,0.444143489385,0.0105769640416,1.0,0.0,0.0431613851488
1385575437440353564,0.26979296015,0.363143666823,0.0044294166625,1.0,0.0,0.0415921164348
1385575437640263885,0.371850320971,0.238784606212,-6.80764680416e-05,1.0,0.0,0.0396732249049
1385575437840266423,0.424462463162,0.0833590353658,-0.00147107800619,1.0,0.0,0.0385656605621
1385575438040278450,0.421618884484,-0.083710545222,-0.00381830356867,1.0,0.0,0.0386707825686
1385575438240318605,0.367276635774,-0.239292087434,-0.00696571958592,1.0,0.0,0.0392215825184
1385575438440428433,0.271789721278,-0.362584723032,-0.0100981926774,1.0,0.0,0.0403158418522
1385575438640781957,0.146060657697,-0.439574275991,-0.0110092384829,1.0,0.0,0.0418599737979
1385575438840391636,0.000606070396546,-0.461856509531,-0.0111713029331,1.0,0.0,0.042628856007
1385575439040311432,-0.149676105746,-0.427208274335,-0.00960019333385,1.0,0.0,0.042092316501
1385575439240366796,-0.286049294029,-0.339214983632,-0.00750486224635,1.0,0.0,0.0405527234034
1385575439440326906,-0.387900183596,-0.208518714796,-0.00222871318912,1.0,0.0,0.0388174788794
1385575439640365399,-0.439189491913,-0.0490512728532,0.00518911247671,1.0,0.0,0.0374111253051
1385575439840253089,-0.431269819955,0.117258964857,0.0094871786444,1.0,0.0,0.0366746131248
1385575440040293170,-0.368714177098,0.26582926587,0.0108060980492,1.0,0.0,0.036066344783
1385575440240388847,-0.260296638051,0.375300750099,0.01241316237,1.0,0.0,0.0365639504176
1385575440440334931,-0.120932019372,0.432993490088,0.0130499824838,1.0,0.0,0.0377000122065
1385575440640404474,0.0334632682154,0.434370780618,0.0107959103371,1.0,0.0,0.03858166699
1385575440840274341,0.183722278622,0.384643418273,0.0066605879888,1.0,0.0,0.0383874489298
1385575441040254981,0.311155773829,0.291322436847,0.00166520030951,1.0,0.0,0.0374727025474
1385575441240282211,0.397698517718,0.165054326195,-0.000650223308367,1.0,0.0,0.0367582241205
1385575441440262403,0.431682837743,0.0183982389504,-0.0026107224201,1.0,0.0,0.0371014380882
1385575441640261263,0.408066314088,-0.131246385603,-0.00466276640766,1.0,0.0,0.0385892403469
1385575441840328977,0.3353689929,-0.263625805224,-0.00653898102523,1.0,0.0,0.041159598965
1385575442040356475,0.228033192373,-0.365393773058,-0.00953683710048,1.0,0.0,0.0438881813695
1385575442240273586,0.0968270008132,-0.425802085712,-0.0096366533482,1.0,0.0,0.0460151809042
1385575442440317894,-0.0491664071423,-0.436764104438,-0.00805112553245,1.0,0.0,0.0464439523616
1385575442640254694,-0.195989270832,-0.392763927741,-0.00652351364992,1.0,0.0,0.0453025490135
1385575442840255195,-0.322636664373,-0.298677889141,-0.0046097110364,1.0,0.0,0.0432909322065
1385575443040264724,-0.4082730769,-0.164850296094,0.000589722315181,1.0,0.0,0.0413280002502
1385575443240257271,-0.440210112361,-0.00761712400188,0.00622731807748,1.0,0.0,0.0396006717379
1385575443440267487,-0.415648850109,0.151584510385,0.0095596872084,1.0,0.0,0.0380712356908
1385575443640411943,-0.341608197968,0.290921530339,0.0106179916326,1.0,0.0,0.036786934621
1385575443840270849,-0.227261016184,0.390721435906,0.0114005946862,1.0,0.0,0.0364963790009
1385575444040259371,-0.0856800316499,0.43806577515,0.0118540669263,1.0,0.0,0.0366756933843
1385575444240347790,0.0678588127463,0.427389967395,0.00903000469111,1.0,0.0,0.0368525564496
1385575444440268585,0.213483520135,0.364254155511,0.00500440536261,1.0,0.0,0.0365232852873
1385575444640348413,0.332278917761,0.257746770041,0.00104333347374,1.0,0.0,0.0358220825945
1385575444841275783,0.40800207956,0.119754686096,-0.00240794485688,1.0,0.0,0.0355407708361
1385575445040403966,0.431656580687,-0.0338746789283,-0.00567803799536,1.0,0.0,0.0356746174997
1385575445240369049,0.400091130208,-0.182931260499,-0.00929457824867,1.0,0.0,0.0366671255197
1385575445440407754,0.317900384788,-0.306619514051,-0.00956993766318,1.0,0.0,0.0387839319428
1385575445640301141,0.198051070215,-0.394164834882,-0.0119238893344,1.0,0.0,0.0411966770796
1385575445840498776,0.0543271703306,-0.437653265992,-0.0133716245833,1.0,0.0,0.0427990914126
1385575446040302553,-0.0999122095077,-0.429943854228,-0.0129551992856,1.0,0.0,0.0429910381304
1385575446240261810,-0.247893743101,-0.370339777873,-0.0118454327508,1.0,0.0,0.0416930604288
1385575446440247927,-0.368191414537,-0.264894429669,-0.00741755569871,1.0,0.0,0.0396002425164
1385575446640257165,-0.440334068154,-0.123545609309,-0.000673219979302,1.0,0.0,0.0375746962882
1385575446840350663,-0.451948473275,0.0362653705704,0.00734276527897,1.0,0.0,0.0360156776115
1385575447040272321,-0.40472540336,0.192196663015,0.0117646999357,1.0,0.0,0.0349564273121
1385575447240261137,-0.310119642105,0.322386343394,0.0136641883399,1.0,0.0,0.034545563868
1385575447440249374,-0.181412900739,0.409790343759,0.0150826879545,1.0,0.0,0.0345524568283
1385575447640280585,-0.0323254485667,0.440713450558,0.0150825437201,1.0,0.0,0.0348868389531
1385575447840304586,0.118210543026,0.413571579716,0.0127128311294,1.0,0.0,0.0349451527903
1385575448040319913,0.251756264261,0.336228872461,0.0101932597535,1.0,0.0,0.03475546183
1385575448240305725,0.351938160807,0.221551164671,0.00642010671391,1.0,0.0,0.0343167089127
1385575448440427679,0.406842676312,0.0823700065799,0.00244882799653,1.0,0.0,0.0345246404967
1385575448640283068,0.41020765303,-0.0665703259142,-0.00154996079525,1.0,0.0,0.0353814685123
1385575448840265401,0.36299036807,-0.207232648293,-0.00596449032568,1.0,0.0,0.0365660437364
