%time,field.header.seq,field.header.stamp,field.header.frame_id,field.child_frame_id,field.transform.translation.x,field.transform.translation.y,field.transform.translation.z,field.transform.rotation.x,field.transform.rotation.y,field.transform.rotation.z,field.transform.rotation.w
1385575315538735612,1239435,1385575315538735612,/world,vicon/Archie/Archie,0.262655774923,-0.888165611022,0.106887024684,0.00226318570456,-0.00531725022556,0.665671107575,0.746222876479
1385575315548756966,1239436,1385575315548756966,/world,vicon/Archie/Archie,0.262636199896,-0.888156180097,0.106901919786,0.00225145489411,-0.00540824993644,0.665681962642,0.746212574537
1385575315558557026,1239437,1385575315558557026,/world,vicon/Archie/Archie,0.262634491423,-0.888155699799,0.106902924899,0.00225921651573,-0.00539959286464,0.665687704841,0.746207491225
1385575315568628289,1239438,1385575315568628289,/world,vicon/Archie/Archie,0.262637426986,-0.888156737201,0.106901295279,0.00222391803932,-0.00539485442577,0.665691100235,0.746204602507
1385575315578555682,1239439,1385575315578555682,/world,vicon/Archie/Archie,0.262637357788,-0.88815905418,0.106903477889,0.00226275408205,-0.00540739552803,0.665689262642,0.746206034296
1385575315588430544,1239440,1385575315588430544,/world,vicon/Archie/Archie,0.262638805802,-0.888157809467,0.10689902558,0.00225031306639,-0.00540255224359,0.665692530774,0.746203191491
1385575315599303025,1239441,1385575315599303025,/world,vicon/Archie/Archie,0.262602751431,-0.888132559253,0.106857634279,0.00221639226425,-0.00540278115724,0.665690873956,0.746204769411
1385575315608599791,1239442,1385575315608599791,/world,vicon/Archie/Archie,0.262596197757,-0.888131333125,0.10684889166,0.00223026364734,-0.00542964209741,0.665678130409,0.746215901469
1385575315618710447,1239443,1385575315618710447,/world,vicon/Archie/Archie,0.262645289013,-0.888158493874,0.10690102141,0.00224640747127,-0.00540018181699,0.665696906037,0.746199317195
1385575315628798085,1239444,1385575315628798085,/world,vicon/Archie/Archie,0.262633121459,-0.888156325695,0.106903355681,0.00226316046875,-0.00540517866838,0.665681282733,0.746213167913
1385575315638463497,1239445,1385575315638463497,/world,vicon/Archie/Archie,0.262628498793,-0.888154733008,0.106901207523,0.00225034957396,-0.00539783506372,0.665685408245,0.746209579511
1385575315648521523,1239446,1385575315648521523,/world,vicon/Archie/Archie,0.262623605036,-0.88815579564,0.106894554797,0.0022471356683,-0.00539993583598,0.66569762858,0.746198672189
1385575315658418911,1239447,1385575315658418911,/world,vicon/Archie/Archie,0.262638606111,-0.888156488084,0.106901803461,0.00224783392599,-0.00538992398024,0.665689477686,0.746206013954
1385575315668576485,1239448,1385575315668576485,/world,vicon/Archie/Archie,0.262625456601,-0.888156218637,0.106890888482,0.00225243738491,-0.0054048785921,0.665686370285,0.746208664001
1385575315678634901,1239449,1385575315678634901,/world,vicon/Archie/Archie,0.262634185268,-0.888150421257,0.106899516562,0.00225331481858,-0.00539835594882,0.665695306187,0.74620073683
1385575315688494445,1239450,1385575315688494445,/world,vicon/Archie/Archie,0.262621738236,-0.888155677069,0.106895269681,0.00225229341962,-0.00541520244294,0.665694537257,0.74620130382
1385575315698693254,1239451,1385575315698693254,/world,vicon/Archie/Archie,0.262632039756,-0.888151072051,0.106892613097,0.00224427121232,-0.00540988736524,0.665687305774,0.746207817767
1385575315708609674,1239452,1385575315708609674,/world,vicon/Archie/Archie,0.262637465203,-0.888158923691,0.106900666513,0.00224613936661,-0.00540808011562,0.665689855618,0.746205550539
1385575315718539658,1239453,1385575315718539658,/world,vicon/Archie/Archie,0.262636987179,-0.888151044049,0.106889730134,0.00225276309329,-0.00539916617543,0.665692081157,0.746203609712
1385575315728579400,1239454,1385575315728579400,/world,vicon/Archie/Archie,0.262634661887,-0.888151154767,0.106889893526,0.00221920060312,-0.0053917097284,0.66568591838,0.746209261994
1385575315738461824,1239455,1385575315738461824,/world,vicon/Archie/Archie,0.262637391807,-0.888157103721,0.106893357939,0.0022362950541,-0.00540403865943,0.665692351089,0.746203383168
1385575315748658695,1239456,1385575315748658695,/world,vicon/Archie/Archie,0.262613263679,-0.888135864749,0.106845866767,0.00222699171814,-0.00540538062609,0.665687325433,0.746207884659
1385575315758467664,1239457,1385575315758467664,/world,vicon/Archie/Archie,0.262640425922,-0.888155147024,0.106890942999,0.0022324517425,-0.00539559620017,0.665691157944,0.74620452018
1385575315768584480,1239458,1385575315768584480,/world,vicon/Archie/Archie,0.262638833979,-0.888166437895,0.106892364548,0.00224036814343,-0.00541439582822,0.665692914221,0.746202793498
1385575315778553037,1239459,1385575315778553037,/world,vicon/Archie/Archie,0.26264269607,-0.888166325455,0.10688797705,0.00224046541163,-0.00541093266717,0.665687091224,0.746208013023
1385575315788529663,1239460,1385575315788529663,/world,vicon/Archie/Archie,0.262645417814,-0.88815684579,0.106886691414,0.00222008105423,-0.005391976391,0.665685792332,0.746209369895
1385575315798686061,1239461,1385575315798686061,/world,vicon/Archie/Archie,0.262643078199,-0.888161122533,0.106891869795,0.00223742495024,-0.00541323910535,0.665687315277,0.746207805542
1385575315808551022,1239462,1385575315808551022,/world,vicon/Archie/Archie,0.262644776184,-0.888165088378,0.106884589066,0.00223584565963,-0.00541874359789,0.665690849695,0.746204617277
1385575315818622718,1239463,1385575315818622718,/world,vicon/Archie/Archie,0.262636687678,-0.888170109719,0.106887811541,0.00224224102977,-0.00540344277789,0.665700107139,0.746196450351
1385575315828626892,1239464,1385575315828626892,/world,vicon/Archie/Archie,0.262632099488,-0.888162245192,0.106891919285,0.00223439005665,-0.00540176427495,0.665697468832,0.746198839744
1385575315838519336,1239465,1385575315838519336,/world,vicon/Archie/Archie,0.262640849361,-0.888163358628,0.106894856168,0.00224794148655,-0.00542361226526,0.665697149204,0.74619892571
1385575315848712630,1239466,1385575315848712630,/world,vicon/Archie/Archie,0.262609574041,-0.888142255937,0.106848692447,0.00221195014093,-0.00539680296018,0.665700129389,0.746196568959
1385575315858463859,1239467,1385575315858463859,/world,vicon/Archie/Archie,0.262634519171,-0.888162089222,0.106887101902,0.00222733876466,-0.00539167707212,0.665686205214,0.746208982101
1385575315868743961,1239468,1385575315868743961,/world,vicon/Archie/Archie,0.262610674946,-0.88814829014,0.10685041678,0.00220294377599,-0.00539574950394,0.66569448398,0.746201639588
1385575315878630464,1239469,1385575315878630464,/world,vicon/Archie/Archie,0.262631629626,-0.888167319474,0.10689392593,0.00225424433737,-0.00540852190086,0.665689898406,0.746205484725
1385575315888449547,1239470,1385575315888449547,/world,vicon/Archie/Archie,0.262627303782,-0.888160365761,0.106886250791,0.00223650350729,-0.00539913711529,0.665684232102,0.74621066094
1385575315898698398,1239471,1385575315898698398,/world,vicon/Archie/Archie,0.262608092645,-0.888148487495,0.106846014638,0.00220729773756,-0.00541430048949,0.665696978043,0.746199267362
1385575315908671440,1239472,1385575315908671440,/world,vicon/Archie/Archie,0.262620333429,-0.888151439437,0.106846170433,0.00223138818236,-0.00541651467034,0.665686687052,0.746208360283
1385575315918595141,1239473,1385575315918595141,/world,vicon/Archie/Archie,0.262632824568,-0.888160483934,0.106881805655,0.00222595135398,-0.00540701802772,0.665691198655,0.746204420604
1385575315928688299,1239474,1385575315928688299,/world,vicon/Archie/Archie,0.262624530866,-0.888169845851,0.106881711479,0.00222043384562,-0.00540989234539,0.665693912834,0.746201994874
1385575315938489654,1239475,1385575315938489654,/world,vicon/Archie/Archie,0.262638942044,-0.888170371002,0.106886441777,0.0022316082798,-0.00539523605323,0.665691310631,0.746204389094
1385575315949055390,1239476,1385575315949055390,/world,vicon/Archie/Archie,0.262632655418,-0.888161061463,0.106888862923,0.00224123766939,-0.00541580583651,0.665688108775,0.7462070676
1385575315958536770,1239477,1385575315958536770,/world,vicon/Archie/Archie,0.262638743532,-0.888158961492,0.10688494284,0.00223206346153,-0.00540056194882,0.665681344963,0.746213239491
1385575315968580252,1239478,1385575315968580252,/world,vicon/Archie/Archie,0.262627610268,-0.88816524555,0.106886596107,0.00223384870622,-0.00540221481636,0.665694261877,0.746201699072
1385575315978560354,1239479,1385575315978560354,/world,vicon/Archie/Archie,0.262628783374,-0.888169776,0.106884755292,0.0022387011351,-0.00540822471494,0.665688562207,0.746206725693
1385575315988488572,1239480,1385575315988488572,/world,vicon/Archie/Archie,0.26264061115,-0.888165023351,0.106885927558,0.00222994222349,-0.00539003543836,0.665694729824,0.746201381371
1385575315998617863,1239481,1385575315998617863,/world,vicon/Archie/Archie,0.262633232203,-0.888167465582,0.106880046892,0.00222144323707,-0.00540253609835,0.665692104872,0.746203658062
1385575316008412956,1239482,1385575316008412956,/world,vicon/Archie/Archie,0.262650354189,-0.888166503113,0.106890306951,0.0022430377582,-0.00541970102018,0.665691717906,0.746203814205
1385575316019006350,1239483,1385575316019006350,/world,vicon/Archie/Archie,0.262628450598,-0.888157063376,0.106883947962,0.00223333965245,-0.00540098335132,0.66569070742,0.746204880463
1385575316028635783,1239484,1385575316028635783,/world,vicon/Archie/Archie,0.262629527759,-0.888156624311,0.106884644921,0.00223747379734,-0.00542386604941,0.665680447258,0.746213855089
1385575316038458165,1239485,1385575316038458165,/world,vicon/Archie/Archie,0.262622879809,-0.888154382325,0.106884559101,0.0022327253716,-0.00540048965459,0.665682178197,0.746212494723
1385575316048694190,1239486,1385575316048694190,/world,vicon/Archie/Archie,0.262594928077,-0.888132585745,0.106843684509,0.00219358764774,-0.00539845184562,0.665682422444,0.746212407656
1385575316058697905,1239487,1385575316058697905,/world,vicon/Archie/Archie,0.262633788052,-0.888156624227,0.106892835944,0.00223265059921,-0.00538666450495,0.665703796257,0.746193309248
1385575316068574099,1239488,1385575316068574099,/world,vicon/Archie/Archie,0.262626273447,-0.888150543599,0.106893570371,0.0022471538882,-0.00540597051828,0.665678571293,0.746215629362
1385575316078622877,1239489,1385575316078622877,/world,vicon/Archie/Archie,0.262625541588,-0.888150863104,0.106895060644,0.0022634337322,-0.00541157709352,0.665682153606,0.746212343822
1385575316088603235,1239490,1385575316088603235,/world,vicon/Archie/Archie,0.26262791321,-0.888150668102,0.106897073663,0.00225706565416,-0.0053981018931,0.665690618056,0.746204909648
1385575316098739636,1239491,1385575316098739636,/world,vicon/Archie/Archie,0.262647515299,-0.888158923559,0.106868261252,0.0022520159369,-0.00531267240073,0.665662631555,0.746230503857
1385575316108673249,1239492,1385575316108673249,/world,vicon/Archie/Archie,0.262630545829,-0.888156068466,0.106892749931,0.00225836570887,-0.00541407836686,0.665694489783,0.746201335976
1385575316118701087,1239493,1385575316118701087,/world,vicon/Archie/Archie,0.262618612373,-0.888151879635,0.106887122698,0.00225332559053,-0.00540994208327,0.665696568034,0.746199527176
1385575316128586145,1239494,1385575316128586145,/world,vicon/Archie/Archie,0.262623667684,-0.88815763158,0.106888090649,0.00224835965204,-0.00541367667824,0.665688038355,0.746207124447
1385575316138444284,1239495,1385575316138444284,/world,vicon/Archie/Archie,0.262622845535,-0.888152899088,0.106888633045,0.00224354187357,-0.00539111013733,0.66568350736,0.74621134438
1385575316148521477,1239496,1385575316148521477,/world,vicon/Archie/Archie,0.262624494939,-0.888155124772,0.106886926058,0.00224867392052,-0.00541823892825,0.66568504249,0.746209762974
1385575316158570130,1239497,1385575316158570130,/world,vicon/Archie/Archie,0.26263062361,-0.888154602706,0.106895947074,0.00226375726944,-0.00542239105933,0.665677529411,0.746216389471
1385575316168581841,1239498,1385575316168581841,/world,vicon/Archie/Archie,0.262619855713,-0.888148920834,0.106883434999,0.00223730652952,-0.00539790693054,0.665691091811,0.746204547925
1385575316178631876,1239499,1385575316178631876,/world,vicon/Archie/Archie,0.262619648979,-0.888154067566,0.106882865508,0.00224321442959,-0.00538312128163,0.665689998286,0.746205612533
1385575316188482259,1239500,1385575316188482259,/world,vicon/Archie/Archie,0.262617238745,-0.888148023295,0.106888222785,0.00225658841094,-0.00540818095077,0.665678059168,0.746216041726
1385575316198552232,1239501,1385575316198552232,/world,vicon/Archie/Archie,0.262633650707,-0.888153515022,0.106896934259,0.00222987444838,-0.00537992037234,0.665684186444,0.746210860304
1385575316208439142,1239502,1385575316208439142,/world,vicon/Archie/Archie,0.262622903222,-0.888153547573,0.106889946033,0.00224000863673,-0.00538434825709,0.66569016462,0.746205464924
1385575316218557797,1239503,1385575316218557797,/world,vicon/Archie/Archie,0.262627840448,-0.888151556739,0.106883034012,0.00221911286922,-0.00539651665529,0.665680670116,0.746213909399
1385575316228589334,1239504,1385575316228589334,/world,vicon/Archie/Archie,0.262628165408,-0.888156699246,0.106896272328,0.00224036816889,-0.00540394345217,0.665689313075,0.746206081859
1385575316238474066,1239505,1385575316238474066,/world,vicon/Archie/Archie,0.262629002291,-0.888158780542,0.10688762947,0.00225271035373,-0.00541841123631,0.665681919417,0.746212535594
1385575316248541544,1239506,1385575316248541544,/world,vicon/Archie/Archie,0.262626424448,-0.888150045575,0.106896025677,0.00225925280978,-0.00541323686664,0.665677734629,0.746216286516
1385575316258427880,1239507,1385575316258427880,/world,vicon/Archie/Archie,0.262632633701,-0.888157298389,0.106889161632,0.00224363199468,-0.0054117218774,0.665691446386,0.746204112552
1385575316268527099,1239508,1385575316268527099,/world,vicon/Archie/Archie,0.262629080344,-0.888154554703,0.106895041945,0.00224019634327,-0.00539413571063,0.665688990947,0.746206440707
1385575316278604708,1239509,1385575316278604708,/world,vicon/Archie/Archie,0.262625965555,-0.888152785139,0.106895222085,0.00226360652022,-0.00538511718273,0.665685903805,0.746209189219
1385575316288427909,1239510,1385575316288427909,/world,vicon/Archie/Archie,0.262617440021,-0.888151979676,0.106887078755,0.00223530565162,-0.00539517066229,0.665686840907,0.746208365931
1385575316298554190,1239511,1385575316298554190,/world,vicon/Archie/Archie,0.262625462848,-0.888152275647,0.106888750664,0.00222138914551,-0.00537168959174,0.66569019898,0.746205581166
1385575316308482214,1239512,1385575316308482214,/world,vicon/Archie/Archie,0.262627503567,-0.88815431503,0.106889763359,0.00223600678543,-0.00539303647312,0.665679518112,0.746214911803
1385575316318721496,1239513,1385575316318721496,/world,vicon/Archie/Archie,0.262596508165,-0.888130354064,0.106855479185,0.00222712563234,-0.00540135625632,0.665675588779,0.746218383428
1385575316328631445,1239514,1385575316328631445,/world,vicon/Archie/Archie,0.262631634053,-0.888157751269,0.106893987591,0.00226669347857,-0.00541496167382,0.665676423914,0.746217420687
1385575316338459910,1239515,1385575316338459910,/world,vicon/Archie/Archie,0.262622577148,-0.888151248085,0.106895961578,0.00224467652263,-0.00539474336317,0.665678943182,0.746215386316
1385575316348760760,1239516,1385575316348760760,/world,vicon/Archie/Archie,0.262606856375,-0.888132239721,0.10685223602,0.00221214965948,-0.00539504114069,0.665676886849,0.746217315693
1385575316358502360,1239517,1385575316358502360,/world,vicon/Archie/Archie,0.262627874839,-0.888161530432,0.106895144798,0.00224942355434,-0.00539077749763,0.665688826806,0.746206583646
1385575316368533962,1239518,1385575316368533962,/world,vicon/Archie/Archie,0.262637206902,-0.888157936572,0.106885610752,0.00223751874178,-0.00537854086498,0.665688426945,0.746207064453
1385575316378604788,1239519,1385575316378604788,/world,vicon/Archie/Archie,0.262633482684,-0.888160686329,0.1068890792,0.00223565879124,-0.00537692246531,0.665685494533,0.746209697674
1385575316388484976,1239520,1385575316388484976,/world,vicon/Archie/Archie,0.262644897823,-0.888159698077,0.106889173991,0.0022310804963,-0.00539820008877,0.665688611898,0.746206776775
1385575316398660395,1239521,1385575316398660395,/world,vicon/Archie/Archie,0.26263885009,-0.888163291292,0.106895424733,0.00224908611667,-0.00539549495387,0.665683121272,0.74621164042
1385575316408437987,1239522,1385575316408437987,/world,vicon/Archie/Archie,0.262622730898,-0.888162719559,0.106891940946,0.00224049121982,-0.00538454283298,0.665700872447,0.746195909477
1385575316418579301,1239523,1385575316418579301,/world,vicon/Archie/Archie,0.262641477872,-0.888154559926,0.106888630318,0.00223579861907,-0.00539542004677,0.665691929564,0.746203823067
1385575316428569032,1239524,1385575316428569032,/world,vicon/Archie/Archie,0.262634337091,-0.888157257624,0.106887108005,0.00224331966364,-0.00537829126056,0.665697147115,0.746199269514
1385575316438484648,1239525,1385575316438484648,/world,vicon/Archie/Archie,0.262640454583,-0.888158091744,0.106887819238,0.00223357406991,-0.00539881874512,0.665675460361,0.746218497074
1385575316448627341,1239526,1385575316448627341,/world,vicon/Archie/Archie,0.262635359283,-0.888157553796,0.106886429693,0.00223368098347,-0.00538377154728,0.665686967509,0.746208340185
1385575316458508235,1239527,1385575316458508235,/world,vicon/Archie/Archie,0.262639805492,-0.888159710817,0.106898587662,0.00222994404865,-0.00537925974669,0.665684901328,0.74621022712
1385575316468451650,1239528,1385575316468451650,/world,vicon/Archie/Archie,0.26264929472,-0.888165189894,0.106903364186,0.00225709266827,-0.00539697005335,0.665682533666,0.746212129772
1385575316478583949,1239529,1385575316478583949,/world,vicon/Archie/Archie,0.262644188332,-0.888156850264,0.106891904363,0.00225203329418,-0.00540364411688,0.665687109908,0.746208014349
1385575316488474863,1239530,1385575316488474863,/world,vicon/Archie/Archie,0.262639272041,-0.888162699136,0.106893330658,0.00224725837937,-0.00538311271889,0.665689178804,0.746206331487
1385575316498555182,1239531,1385575316498555182,/world,vicon/Archie/Archie,0.262638925967,-0.888162185876,0.106887981121,0.00224520279612,-0.00538888015075,0.665688324297,0.746207058349
1385575316508488875,1239532,1385575316508488875,/world,vicon/Archie/Archie,0.262636013847,-0.888165572635,0.106895980266,0.00223663906517,-0.00540015428782,0.665700623068,0.746196030696
1385575316519111186,1239533,1385575316519111186,/world,vicon/Archie/Archie,0.2626430782,-0.88815979802,0.106899590287,0.00224624721248,-0.0053907168838,0.665704389545,0.746192709885
1385575316528617427,1239534,1385575316528617427,/world,vicon/Archie/Archie,0.262631356311,-0.888160542154,0.106889040017,0.00225251069406,-0.00540953117625,0.665704960535,0.746192045446
1385575316538452626,1239535,1385575316538452626,/world,vicon/Archie/Archie,0.262638796065,-0.888161856179,0.106888478949,0.00223832119145,-0.00539769123569,0.665695776085,0.746200367562
1385575316548621543,1239536,1385575316548621543,/world,vicon/Archie/Archie,0.262642751666,-0.888158802946,0.106895257876,0.00225302952529,-0.00538194418351,0.665693442641,0.74620251873
1385575316558508148,1239537,1385575316558508148,/world,vicon/Archie/Archie,0.262640864546,-0.888166051137,0.106888051428,0.00224318547182,-0.00539098635915,0.665697440815,0.746198916293
1385575316568604302,1239538,1385575316568604302,/world,vicon/Archie/Archie,0.262635647835,-0.888160184363,0.106893194433,0.00224348128402,-0.00538446831692,0.665695016355,0.746201125363
1385575316578652284,1239539,1385575316578652284,/world,vicon/Archie/Archie,0.262641008238,-0.88815292586,0.106893736782,0.00223365222358,-0.00537896518404,0.665692583323,0.746203365069
1385575316588509860,1239540,1385575316588509860,/world,vicon/Archie/Archie,0.262647798484,-0.888158483802,0.106893792352,0.00223841561729,-0.00538426998644,0.665698867136,0.746197706661
1385575316598575209,1239541,1385575316598575209,/world,vicon/Archie/Archie,0.26263444149,-0.888160564044,0.106888512873,0.00224940682878,-0.00539802563502,0.665693897354,0.746202007847
1385575316608481915,1239542,1385575316608481915,/world,vicon/Archie/Archie,0.262651551244,-0.888162952121,0.106890298554,0.00224460747098,-0.0053811122884,0.665688821374,0.746206672756
1385575316618572323,1239543,1385575316618572323,/world,vicon/Archie/Archie,0.262639356558,-0.888157196243,0.10689371533,0.00224761349885,-0.0053846642436,0.665692116192,0.746203698774
1385575316628601754,1239544,1385575316628601754,/world,vicon/Archie/Archie,0.262636337716,-0.888154561632,0.106881654583,0.00223064252679,-0.00540887003815,0.665691443089,0.746204175113
1385575316638535347,1239545,1385575316638535347,/world,vicon/Archie/Archie,0.262643690085,-0.888153860269,0.106882828621,0.00222106559792,-0.00538135468394,0.665690086818,0.74620561255
1385575316648626346,1239546,1385575316648626346,/world,vicon/Archie/Archie,0.262636829322,-0.888155979082,0.106892953964,0.00225782787088,-0.00539939920103,0.66568140314,0.746213118496
1385575316658493953,1239547,1385575316658493953,/world,vicon/Archie/Archie,0.262638781336,-0.888160235399,0.106883886818,0.00225205263175,-0.00541991323932,0.665693107358,0.746202545972
1385575316668570912,1239548,1385575316668570912,/world,vicon/Archie/Archie,0.262648664417,-0.888158445573,0.106882230473,0.0022327682731,-0.0054029605487,0.665687897212,0.746207374842
1385575316678619037,1239549,1385575316678619037,/world,vicon/Archie/Archie,0.26265056859,-0.888158090816,0.106897134682,0.00225597531047,-0.0054184183877,0.665698248055,0.746197958892
1385575316688588118,1239550,1385575316688588118,/world,vicon/Archie/Archie,0.262634634746,-0.888151922624,0.106882779642,0.0022379020715,-0.00539697084752,0.665700139995,0.746196480902
1385575316698527407,1239551,1385575316698527407,/world,vicon/Archie/Archie,0.262638851236,-0.888158767082,0.106881933975,0.00223504265375,-0.0053992486814,0.665695540891,0.746200575942
1385575316708525045,1239552,1385575316708525045,/world,vicon/Archie/Archie,0.262645750742,-0.888154794569,0.106892809952,0.00224471831605,-0.00537924165227,0.665688211957,0.746207229568
1385575316718598733,1239553,1385575316718598733,/world,vicon/Archie/Archie,0.262653682662,-0.888160656591,0.106886706577,0.00222926157479,-0.00538203810757,0.665680727308,0.746213932695
1385575316728566770,1239554,1385575316728566770,/world,vicon/Archie/Archie,0.262642491141,-0.88815299895,0.106882107802,0.0022349983336,-0.00540252544212,0.665695579167,0.746200518211
1385575316738475665,1239555,1385575316738475665,/world,vicon/Archie/Archie,0.262637643278,-0.888153560847,0.10687863344,0.00222998024326,-0.00539463113298,0.665682230263,0.74621249886
1385575316748589474,1239556,1385575316748589474,/world,vicon/Archie/Archie,0.262633003955,-0.888154803373,0.106889776525,0.00225207007394,-0.00540369932574,0.665691623568,0.746203987208
1385575316758449226,1239557,1385575316758449226,/world,vicon/Archie/Archie,0.262649144661,-0.888161399424,0.106886696904,0.00226299793055,-0.00542867296645,0.665684278967,0.746210324967
1385575316768697335,1239558,1385575316768697335,/world,vicon/Archie/Archie,0.262617802265,-0.888146615766,0.10683825615,0.00222222760182,-0.0054034129911,0.665683696772,0.746211150201
1385575316778767834,1239559,1385575316778767834,/world,vicon/Archie/Archie,0.262602943922,-0.888131739269,0.106838627174,0.00219345492431,-0.00539678201464,0.665681809382,0.746212967026
1385575316788700102,1239560,1385575316788700102,/world,vicon/Archie/Archie,0.262642617549,-0.88816070827,0.106887005327,0.0022319429874,-0.00538069206697,0.665693524147,0.746202518417
1385575316798538079,1239561,1385575316798538079,/world,vicon/Archie/Archie,0.262650008796,-0.888167631897,0.106896540432,0.00222420813742,-0.00538676832204,0.665681574165,0.746213158181
1385575316808843020,1239562,1385575316808843020,/world,vicon/Archie/Archie,0.262636869292,-0.88816281638,0.10689467779,0.00224727584981,-0.00538854666132,0.665694915109,0.746201174828
1385575316818543067,1239563,1385575316818543067,/world,vicon/Archie/Archie,0.262645677391,-0.888163914167,0.106890157796,0.00225319731038,-0.00542229090528,0.665674863117,0.746218800672
1385575316828736495,1239564,1385575316828736495,/world,vicon/Archie/Archie,0.262607687349,-0.888141467571,0.106851014025,0.00220736965256,-0.00539716786831,0.665681150836,0.746213510679
1385575316838766775,1239565,1385575316838766775,/world,vicon/Archie/Archie,0.262643070362,-0.888169442534,0.106893444998,0.00225580912433,-0.00541471655688,0.665691045,0.746204412193
1385575316848843649,1239566,1385575316848843649,/world,vicon/Archie/Archie,0.262639157665,-0.888176235589,0.106888427748,0.00224266657322,-0.00541479150063,0.665698440516,0.746197853638
1385575316858474352,1239567,1385575316858474352,/world,vicon/Archie/Archie,0.262638289691,-0.888175516441,0.106890805143,0.00224390291486,-0.00541226236761,0.665695563273,0.746200435107
1385575316868687941,1239568,1385575316868687941,/world,vicon/Archie/Archie,0.262608727981,-0.888152731116,0.106847122731,0.00222996022397,-0.00542256830013,0.665697577867,0.746198604831
1385575316878676955,1239569,1385575316878676955,/world,vicon/Archie/Archie,0.262645054787,-0.888173436006,0.106892242853,0.00223372087165,-0.00538827664133,0.665705049707,0.746192176159
1385575316888463225,1239570,1385575316888463225,/world,vicon/Archie/Archie,0.262641373621,-0.888164904827,0.106895207089,0.00225276880867,-0.0054045861301,0.665691483963,0.746204103219
1385575316898544494,1239571,1385575316898544494,/world,vicon/Archie/Archie,0.262641078433,-0.888165430788,0.106888405147,0.00224697209914,-0.00540482461331,0.665679321348,0.746214969106
1385575316908702194,1239572,1385575316908702194,/world,vicon/Archie/Archie,0.262638912127,-0.888169152776,0.106901134442,0.00224747170377,-0.00539145929708,0.665681512504,0.746213109606
1385575316918721908,1239573,1385575316918721908,/world,vicon/Archie/Archie,0.262604817311,-0.888149224916,0.10685502405,0.00221281018948,-0.00538210376057,0.665693011414,0.746203022632
1385575316928803913,1239574,1385575316928803913,/world,vicon/Archie/Archie,0.26264754495,-0.888170388065,0.106893367109,0.00226074435821,-0.00540228972625,0.665683406018,0.746211302014
1385575316938540415,1239575,1385575316938540415,/world,vicon/Archie/Archie,0.26264190887,-0.88817477405,0.10689475485,0.00225746159157,-0.00540309168915,0.665683266328,0.746211430761
1385575316948552327,1239576,1385575316948552327,/world,vicon/Archie/Archie,0.262641246022,-0.888169986717,0.106892768762,0.00223945003347,-0.00539350046613,0.665685625431,0.746209449894
1385575316958449799,1239577,1385575316958449799,/world,vicon/Archie/Archie,0.262654984341,-0.888176315109,0.106892148886,0.00223932033723,-0.00538461166614,0.665682435324,0.746212360325
1385575316968591913,1239578,1385575316968591913,/world,vicon/Archie/Archie,0.262655816847,-0.888171624456,0.106895380883,0.00226683255716,-0.0054058265559,0.665680136708,0.746214174418
1385575316978720092,1239579,1385575316978720092,/world,vicon/Archie/Archie,0.262612958248,-0.888144730627,0.106851401916,0.00222354682942,-0.00540523824843,0.66569037328,0.746205176986
1385575316988553852,1239580,1385575316988553852,/world,vicon/Archie/Archie,0.26263674885,-0.888167733449,0.106888054608,0.00225530649395,-0.00540693723415,0.665685087054,0.746209785179
1385575316998623797,1239581,1385575316998623797,/world,vicon/Archie/Archie,0.26265551381,-0.888176324104,0.106896393567,0.00224461747303,-0.00538275640059,0.665695647777,0.746200570998
1385575317008491166,1239582,1385575317008491166,/world,vicon/Archie/Archie,0.262641474532,-0.888166413627,0.106899081591,0.00223696839361,-0.005372108297,0.665696701288,0.746199730849
1385575317018535421,1239583,1385575317018535421,/world,vicon/Archie/Archie,0.262653280824,-0.888168058416,0.106890785575,0.00222988883853,-0.00539333114434,0.665697280545,0.746199082182
1385575317028566279,1239584,1385575317028566279,/world,vicon/Archie/Archie,0.262641611409,-0.888163580965,0.106889774097,0.0022419388785,-0.00539404928943,0.665684419094,0.746210514612
1385575317038632228,1239585,1385575317038632228,/world,vicon/Archie/Archie,0.262639654278,-0.888165825706,0.106884427746,0.00224336912044,-0.00541354724769,0.665693998573,0.746201823279
1385575317048612099,1239586,1385575317048612099,/world,vicon/Archie/Archie,0.262654738308,-0.888169811072,0.10689104664,0.00224538499656,-0.00539716395574,0.665696087169,0.746200072632
1385575317058462444,1239587,1385575317058462444,/world,vicon/Archie/Archie,0.262645386585,-0.888164652893,0.106889047849,0.00223408878187,-0.00538420633596,0.665699295331,0.746197338085
1385575317068581205,1239588,1385575317068581205,/world,vicon/Archie/Archie,0.262646448735,-0.888171546378,0.106886805072,0.0022614158425,-0.00541172185639,0.665692106052,0.746203470379
1385575317078643205,1239589,1385575317078643205,/world,vicon/Archie/Archie,0.262644489674,-0.888162310435,0.106890727808,0.00224966179852,-0.00540895075151,0.665692480691,0.746203191782
1385575317088436328,1239590,1385575317088436328,/world,vicon/Archie/Archie,0.262635616261,-0.888155451837,0.106888492116,0.00226361014863,-0.00540942680051,0.665692106722,0.746203479769
1385575317098540236,1239591,1385575317098540236,/world,vicon/Archie/Archie,0.262639640597,-0.888159271463,0.106900388524,0.00224547117363,-0.00540191689941,0.665688412197,0.746206884865
1385575317108409764,1239592,1385575317108409764,/world,vicon/Archie/Archie,0.262642363891,-0.888160804252,0.106886573807,0.00224122027964,-0.0054070568563,0.665701561244,0.746195129992
1385575317118561619,1239593,1385575317118561619,/world,vicon/Archie/Archie,0.262641433323,-0.888157137219,0.106890622378,0.00224847619696,-0.00541223784226,0.66569153165,0.746204018165
1385575317128696006,1239594,1385575317128696006,/world,vicon/Archie/Archie,0.262632435024,-0.888189379963,0.106832385172,0.00238885294979,-0.00563461805451,0.665691945148,0.746201567022
1385575317138751698,1239595,1385575317138751698,/world,vicon/Archie/Archie,0.262641111102,-0.888154229356,0.106890796869,0.00224324517055,-0.00538486552679,0.66568669762,0.746208544367
1385575317148778180,1239596,1385575317148778180,/world,vicon/Archie/Archie,0.262638434608,-0.888147654565,0.106881424189,0.0022315048866,-0.00538345046327,0.665685661375,0.746209514203
1385575317158609966,1239597,1385575317158609966,/world,vicon/Archie/Archie,0.262643918155,-0.888157186886,0.10689138742,0.00225119502612,-0.00539150502813,0.665689152862,0.746206282175
1385575317168573322,1239598,1385575317168573322,/world,vicon/Archie/Archie,0.262648265375,-0.888166089946,0.106895638501,0.00224473664988,-0.0053881381355,0.665681143048,0.746213471411
1385575317178759265,1239599,1385575317178759265,/world,vicon/Archie/Archie,0.262644738932,-0.888155095327,0.10689502301,0.00223905361933,-0.00538356089875,0.66569154986,0.746204237696
1385575317188501046,1239600,1385575317188501046,/world,vicon/Archie/Archie,0.26263749147,-0.888162162266,0.106894362954,0.00225553626049,-0.00539415249243,0.665690184404,0.746205329694
1385575317198599277,1239601,1385575317198599277,/world,vicon/Archie/Archie,0.262645606197,-0.888153075027,0.106899869086,0.00224298487266,-0.00538299758029,0.665685422338,0.746209696294
1385575317208431366,1239602,1385575317208431366,/world,vicon/Archie/Archie,0.262640634072,-0.888152910441,0.106887909761,0.00222569206016,-0.00538659986291,0.66568380001,0.746211169336
1385575317218747401,1239603,1385575317218747401,/world,vicon/Archie/Archie,0.262636980011,-0.888161910944,0.106900983934,0.00224775363756,-0.00538657622681,0.665690993811,0.746204685833
1385575317228573335,1239604,1385575317228573335,/world,vicon/Archie/Archie,0.262637267746,-0.888154250966,0.10689525506,0.00225940819668,-0.00539539826959,0.665677257625,0.746216840759
1385575317238614437,1239605,1385575317238614437,/world,vicon/Archie/Archie,0.262635825022,-0.888153331581,0.106895595507,0.00225055203436,-0.0053935036362,0.665683556458,0.746211262174
1385575317248612618,1239606,1385575317248612618,/world,vicon/Archie/Archie,0.262637928105,-0.888158912087,0.106897157216,0.00225609351364,-0.00540636117183,0.665686974983,0.74620810277
1385575317258616170,1239607,1385575317258616170,/world,vicon/Archie/Archie,0.262642523556,-0.888164869037,0.106898285235,0.00225591465477,-0.00540113004685,0.665692057137,0.746203607408
1385575317268600825,1239608,1385575317268600825,/world,vicon/Archie/Archie,0.2626369394,-0.888145527865,0.106896074996,0.00224374651939,-0.00539336098209,0.665690001263,0.746205534339
1385575317278619181,1239609,1385575317278619181,/world,vicon/Archie/Archie,0.262628690296,-0.888151145763,0.106896006518,0.00225409466612,-0.00540695263235,0.665693336563,0.746202429356
1385575317288483660,1239610,1385575317288483660,/world,vicon/Archie/Archie,0.262637522327,-0.888150639103,0.106889810773,0.00224853877223,-0.00539585669991,0.665681209873,0.746213344578
1385575317298619510,1239611,1385575317298619510,/world,vicon/Archie/Archie,0.262633491667,-0.888158636556,0.106888795689,0.00224637055709,-0.00540020064995,0.665681924501,0.746212682179
1385575317308485434,1239612,1385575317308485434,/world,vicon/Archie/Archie,0.262636111784,-0.888154732716,0.106890004061,0.0022471265299,-0.00539207480846,0.665685665584,0.7462094013
1385575317318547518,1239613,1385575317318547518,/world,vicon/Archie/Archie,0.262626270031,-0.888160327352,0.1068883467,0.00225153595257,-0.0053974850175,0.665694491463,0.746201475325
1385575317328805072,1239614,1385575317328805072,/world,vicon/Archie/Archie,0.262637404177,-0.888156780663,0.106896008652,0.00224999276075,-0.00539632088634,0.665674030006,0.746219741785
1385575317338480079,1239615,1385575317338480079,/world,vicon/Archie/Archie,0.262634497091,-0.888155792749,0.106897280166,0.00225419337501,-0.00538706083695,0.665674677015,0.746219218842
1385575317348540144,1239616,1385575317348540144,/world,vicon/Archie/Archie,0.262634928503,-0.888159904363,0.106888661813,0.00226374720544,-0.00541256223821,0.665688561355,0.746206619443
1385575317358523230,1239617,1385575317358523230,/world,vicon/Archie/Archie,0.26263849398,-0.888162017231,0.10689844459,0.00226037711955,-0.00538532642685,0.665684641718,0.746210323391
1385575317368680222,1239618,1385575317368680222,/world,vicon/Archie/Archie,0.262629346487,-0.888192598848,0.106843562213,0.00238617496198,-0.00562291417854,0.665700696269,0.746193856845
1385575317378827476,1239619,1385575317378827476,/world,vicon/Archie/Archie,0.262636144609,-0.88815446231,0.106893912971,0.00225883258034,-0.00539752985655,0.665682529487,0.746212124186
1385575317388634372,1239620,1385575317388634372,/world,vicon/Archie/Archie,0.262634298649,-0.888161514291,0.106896767425,0.00225982466259,-0.00539304090595,0.665693216072,0.74620262019
1385575317398602102,1239621,1385575317398602102,/world,vicon/Archie/Archie,0.262638604273,-0.888162626757,0.106897008939,0.00225999519582,-0.00540282269276,0.665685928736,0.74620904994
1385575317408469274,1239622,1385575317408469274,/world,vicon/Archie/Archie,0.262628616933,-0.888155706098,0.106889654321,0.00224319346296,-0.00539693944428,0.665691257947,0.746204389039
1385575317418559192,1239623,1385575317418559192,/world,vicon/Archie/Archie,0.26263107293,-0.888158598329,0.106891771091,0.00226683927525,-0.00540424366725,0.665685119407,0.746209740884
1385575317428651204,1239624,1385575317428651204,/world,vicon/Archie/Archie,0.262636862987,-0.888163375064,0.10689909418,0.00226190723755,-0.00541682605719,0.665693399258,0.746202278176
1385575317438685468,1239625,1385575317438685468,/world,vicon/Archie/Archie,0.262644498242,-0.888162311896,0.106890709093,0.00225997621934,-0.0054039310138,0.665699002544,0.746197378747
1385575317448774809,1239626,1385575317448774809,/world,vicon/Archie/Archie,0.262644845039,-0.888160143336,0.106894219888,0.00225108962363,-0.00539459446275,0.665681498411,0.746213088614
1385575317458613391,1239627,1385575317458613391,/world,vicon/Archie/Archie,0.262593033426,-0.888137533137,0.106858050084,0.00222688278837,-0.00539762110454,0.665681897826,0.74621278305
1385575317468789556,1239628,1385575317468789556,/world,vicon/Archie/Archie,0.262638974417,-0.88816167586,0.106894135839,0.0022538051152,-0.00540845872628,0.665685081899,0.746209783287
1385575317478674107,1239629,1385575317478674107,/world,vicon/Archie/Archie,0.262598242992,-0.888173528721,0.106804252868,0.00236426576363,-0.00563346700742,0.66568514482,0.746207720587
1385575317488652373,1239630,1385575317488652373,/world,vicon/Archie/Archie,0.26263463961,-0.888161030356,0.106891954948,0.00225685532732,-0.00541497724838,0.665690331468,0.746205043681
1385575317498788111,1239631,1385575317498788111,/world,vicon/Archie/Archie,0.262623232622,-0.8881627536,0.106893555402,0.00224723817051,-0.00541692726806,0.665693067556,0.746202617677
1385575317508607510,1239632,1385575317508607510,/world,vicon/Archie/Archie,0.262642989464,-0.888166168807,0.106886684319,0.00224520871201,-0.00539023325402,0.665681810331,0.74621285959
1385575317518672324,1239633,1385575317518672324,/world,vicon/Archie/Archie,0.262620964549,-0.888197326865,0.106837667576,0.00239223820596,-0.00561616726192,0.665705043651,0.746190009796
1385575317528825752,1239634,1385575317528825752,/world,vicon/Archie/Archie,0.262632775993,-0.888194034876,0.106838110571,0.0023800913317,-0.00560401510285,0.665706615381,0.746188737799
1385575317538540679,1239635,1385575317538540679,/world,vicon/Archie/Archie,0.262627827522,-0.888183959029,0.106835306325,0.0023763910882,-0.00560816280792,0.66569828874,0.746196146897
1385575317548727559,1239636,1385575317548727559,/world,vicon/Archie/Archie,0.262624574988,-0.888153708937,0.106877967162,0.00224505332772,-0.00539563370906,0.665685224784,0.746209775047
1385575317558609884,1239637,1385575317558609884,/world,vicon/Archie/Archie,0.262628745419,-0.888163879277,0.106884855141,0.0022400259573,-0.00538570886073,0.665699639305,0.746197002576
1385575317568625171,1239638,1385575317568625171,/world,vicon/Archie/Archie,0.262625432417,-0.888195643288,0.106837715506,0.00238097163666,-0.00560350202569,0.665680576298,0.746211968598
1385575317578741208,1239639,1385575317578741208,/world,vicon/Archie/Archie,0.262633218492,-0.888163567296,0.106888861021,0.00224589647848,-0.00539193267244,0.665686524755,0.746208639571
1385575317588568255,1239640,1385575317588568255,/world,vicon/Archie/Archie,0.262637466107,-0.8881572461,0.106888950183,0.00224905894418,-0.00538631890127,0.665689689693,0.746205847163
1385575317598707300,1239641,1385575317598707300,/world,vicon/Archie/Archie,0.262631197291,-0.888150229571,0.106889537592,0.00224347889752,-0.00538281726603,0.665684099058,0.74621087659
1385575317608602968,1239642,1385575317608602968,/world,vicon/Archie/Archie,0.262593018972,-0.888134615512,0.106842266927,0.00221224621819,-0.00539598823894,0.665698689959,0.746197858121
1385575317618756455,1239643,1385575317618756455,/world,vicon/Archie/Archie,0.262608207166,-0.888127659528,0.106845652238,0.00220397649957,-0.00540195752319,0.6656859312,0.746209221563
1385575317629185966,1239644,1385575317629185966,/world,vicon/Archie/Archie,0.262638558464,-0.888159517394,0.106901612984,0.00225948636674,-0.00540342274868,0.665693401166,0.746202380986
1385575317638475522,1239645,1385575317638475522,/world,vicon/Archie/Archie,0.262636360861,-0.888150629277,0.106890793004,0.00222613035741,-0.00537219291859,0.665691009258,0.746204840563
1385575317648557914,1239646,1385575317648557914,/world,vicon/Archie/Archie,0.262622398261,-0.888157810234,0.106887161966,0.00228347762482,-0.00540823546611,0.665689496072,0.746205756838
1385575317658633184,1239647,1385575317658633184,/world,vicon/Archie/Archie,0.262626132043,-0.88818845466,0.106845296854,0.00239993107171,-0.0056209394978,0.665700484576,0.746194016463
1385575317668763452,1239648,1385575317668763452,/world,vicon/Archie/Archie,0.262595244533,-0.888132991189,0.106853004657,0.00222654268364,-0.00540242056055,0.665683540452,0.746211283975
1385575317678834594,1239649,1385575317678834594,/world,vicon/Archie/Archie,0.262620282356,-0.888156230897,0.106890547004,0.00225314146091,-0.00540140799303,0.665678591529,0.746215626294
1385575317689328158,1239650,1385575317689328158,/world,vicon/Archie/Archie,0.262627079506,-0.888151937081,0.106896905687,0.00227354874819,-0.00542055857809,0.665687605629,0.746207384199
1385575317698659494,1239651,1385575317698659494,/world,vicon/Archie/Archie,0.26258978232,-0.888168427175,0.106799511356,0.00238231358343,-0.0056320547654,0.665686849398,0.746206153204
1385575317708675758,1239652,1385575317708675758,/world,vicon/Archie/Archie,0.262622076579,-0.888161003602,0.106890321672,0.00226189318688,-0.00539726448333,0.665701321997,0.746195351947
1385575317718671715,1239653,1385575317718671715,/world,vicon/Archie/Archie,0.262636410579,-0.888157996911,0.106900426177,0.00226695200065,-0.00540412250416,0.665691220811,0.746204298382
1385575317728655928,1239654,1385575317728655928,/world,vicon/Archie/Archie,0.262616932931,-0.888156776624,0.106890179847,0.00224949529147,-0.00538971727706,0.665692002602,0.746203757958
1385575317738650184,1239655,1385575317738650184,/world,vicon/Archie/Archie,0.262622572517,-0.888186108026,0.106842464273,0.00237512740663,-0.00561466921468,0.66569831551,0.74619607811
1385575317748774497,1239656,1385575317748774497,/world,vicon/Archie/Archie,0.262618646487,-0.888147113514,0.106887647318,0.00223619087961,-0.00538764982354,0.665687595073,0.746207744831
1385575317758645384,1239657,1385575317758645384,/world,vicon/Archie/Archie,0.262586877119,-0.888133802447,0.106841263453,0.00223018608732,-0.00538212035679,0.66567639101,0.746217797632
1385575317768790210,1239658,1385575317768790210,/world,vicon/Archie/Archie,0.262616562719,-0.888159738521,0.106893517949,0.00224637633665,-0.00538986328022,0.665685652952,0.746209430804
1385575317778801682,1239659,1385575317778801682,/world,vicon/Archie/Archie,0.262616052584,-0.888158945604,0.106889289124,0.00225584740565,-0.00541297235092,0.665682100362,0.746212404172
1385575317788604082,1239660,1385575317788604082,/world,vicon/Archie/Archie,0.262617305892,-0.88815562568,0.106888130819,0.00226038203178,-0.00541247017009,0.665686490155,0.746208478017
1385575317798782656,1239661,1385575317798782656,/world,vicon/Archie/Archie,0.262576981189,-0.888131337594,0.106851232611,0.00223695636543,-0.00543335418141,0.665683500796,0.746211063611
1385575317808577284,1239662,1385575317808577284,/world,vicon/Archie/Archie,0.26258030227,-0.888130862524,0.106850120626,0.00224163481713,-0.00540646268413,0.665674774222,0.746219029642
1385575317818679661,1239663,1385575317818679661,/world,vicon/Archie/Archie,0.262591838492,-0.888139949387,0.106854989344,0.00225240593744,-0.00541521949296,0.665682200485,0.746212308946
1385575317828730504,1239664,1385575317828730504,/world,vicon/Archie/Archie,0.262622539291,-0.888160279553,0.106895088791,0.00226084377824,-0.00540767792416,0.665692740688,0.746202935266
1385575317838696012,1239665,1385575317838696012,/world,vicon/Archie/Archie,0.262617421846,-0.888161637534,0.106885907966,0.00224597552107,-0.00538524899206,0.665683241045,0.746211616955
1385575317848763354,1239666,1385575317848763354,/world,vicon/Archie/Archie,0.262624096938,-0.888155646083,0.106902218792,0.00226831866069,-0.00540843435482,0.665684626196,0.746210146014
1385575317858509091,1239667,1385575317858509091,/world,vicon/Archie/Archie,0.26261343099,-0.888161869141,0.106899975753,0.00226970270216,-0.00540731834274,0.665701174583,0.746195386958
1385575317868625634,1239668,1385575317868625634,/world,vicon/Archie/Archie,0.262600807501,-0.888134935504,0.10684895699,0.00222714345036,-0.00539920890345,0.665683629127,0.746211226321
1385575317878832048,1239669,1385575317878832048,/world,vicon/Archie/Archie,0.262623935651,-0.888154462409,0.106888181858,0.00226654044634,-0.00539771313351,0.665688845403,0.746206465124
1385575317888514454,1239670,1385575317888514454,/world,vicon/Archie/Archie,0.262628460345,-0.888157996062,0.106888984488,0.00226763836953,-0.00540547603323,0.665677785052,0.746216272359
1385575317898561898,1239671,1385575317898561898,/world,vicon/Archie/Archie,0.2626399353,-0.888148569516,0.106890879015,0.00227341892606,-0.00540393219558,0.665684065315,0.746210663465
1385575317908491843,1239672,1385575317908491843,/world,vicon/Archie/Archie,0.262630315881,-0.888154766944,0.106886714514,0.00226263646694,-0.00538610072838,0.665691183773,0.74620447482
1385575317918759082,1239673,1385575317918759082,/world,vicon/Archie/Archie,0.26263192463,-0.888158765532,0.106877515443,0.00223807550057,-0.00539041253226,0.665684409735,0.746210560838
1385575317928746392,1239674,1385575317928746392,/world,vicon/Archie/Archie,0.262616870622,-0.88815691149,0.106878604065,0.00226219450084,-0.00537521656289,0.665691898702,0.746203916852
1385575317938461150,1239675,1385575317938461150,/world,vicon/Archie/Archie,0.262623875069,-0.888166835638,0.106877615008,0.00224888880798,-0.00541184678764,0.665698985194,0.746197370355
1385575317948724592,1239676,1385575317948724592,/world,vicon/Archie/Archie,0.262593224609,-0.888142016993,0.106828894213,0.00221611853966,-0.0054241806702,0.66568202942,0.746212505115
1385575317958608923,1239677,1385575317958608923,/world,vicon/Archie/Archie,0.262608078151,-0.888176859309,0.106868604721,0.00227041644572,-0.00542671859264,0.665698542323,0.746197592252
1385575317968702543,1239678,1385575317968702543,/world,vicon/Archie/Archie,0.262571667897,-0.888146650068,0.106829408186,0.00221351728274,-0.00542655353753,0.665698129831,0.7461981324
1385575317978674251,1239679,1385575317978674251,/world,vicon/Archie/Archie,0.262618820179,-0.888173062548,0.106880641007,0.00227742920348,-0.00542476667554,0.665689418961,0.746205724117
1385575317988480841,1239680,1385575317988480841,/world,vicon/Archie/Archie,0.262629663084,-0.888180866257,0.106881642421,0.00226620377875,-0.00541510174497,0.665688274796,0.7462068492
1385575317998743667,1239681,1385575317998743667,/world,vicon/Archie/Archie,0.262624860094,-0.888187459832,0.106883558759,0.00226742011234,-0.00539446156646,0.665694881751,0.746201100911
1385575318008598917,1239682,1385575318008598917,/world,vicon/Archie/Archie,0.262596091249,-0.88815902714,0.106837399789,0.00222817496896,-0.00540642044508,0.665702353793,0.746194466616
1385575318018666453,1239683,1385575318018666453,/world,vicon/Archie/Archie,0.262640586003,-0.88817956325,0.106883807767,0.00227657376513,-0.00540307252146,0.665687751267,0.74620737187
1385575318028659938,1239684,1385575318028659938,/world,vicon/Archie/Archie,0.262656062107,-0.888183317318,0.106888614161,0.0022727476459,-0.00539387162636,0.665693334073,0.746202469667
1385575318038488518,1239685,1385575318038488518,/world,vicon/Archie/Archie,0.262653502869,-0.888182608467,0.106891128733,0.00226035439508,-0.00539696960397,0.665702361176,0.746194431661
1385575318048765952,1239686,1385575318048765952,/world,vicon/Archie/Archie,0.262634601941,-0.888154235658,0.106855987805,0.00219970627615,-0.0053520894962,0.665693050973,0.746203241963
1385575318058687748,1239687,1385575318058687748,/world,vicon/Archie/Archie,0.2626677444,-0.888182639237,0.106906337478,0.00225296559437,-0.0053662982131,0.665699175833,0.746197516939
1385575318068768477,1239688,1385575318068768477,/world,vicon/Archie/Archie,0.262665810229,-0.888181674919,0.106904441094,0.00225865170202,-0.00540429473372,0.665690078588,0.746205341284
1385575318078686133,1239689,1385575318078686133,/world,vicon/Archie/Archie,0.262667942402,-0.888167711775,0.106910952213,0.00226597448589,-0.00539423447844,0.665683359058,0.746211386316
1385575318088523669,1239690,1385575318088523669,/world,vicon/Archie/Archie,0.262674591262,-0.888169648106,0.106913161832,0.00226475676056,-0.00539527574304,0.665683096654,0.746211616571
1385575318098606534,1239691,1385575318098606534,/world,vicon/Archie/Archie,0.262672065151,-0.888163118817,0.106910650622,0.00224909220205,-0.00539510048725,0.665690278964,0.746205257934
1385575318108629123,1239692,1385575318108629123,/world,vicon/Archie/Archie,0.262633704268,-0.888148101988,0.106867326404,0.00223731988675,-0.00541855813907,0.665680041707,0.746214255895
1385575318118655547,1239693,1385575318118655547,/world,vicon/Archie/Archie,0.262665353646,-0.888167405985,0.106915906807,0.00226930331394,-0.00541504059839,0.665695379051,0.746200502484
1385575318128661098,1239694,1385575318128661098,/world,vicon/Archie/Archie,0.262664267616,-0.888154814047,0.106909680853,0.00225855848495,-0.00540970592151,0.665678520999,0.746215612726
1385575318138527633,1239695,1385575318138527633,/world,vicon/Archie/Archie,0.262650401485,-0.888158104155,0.106912169663,0.00226492854078,-0.00541644526069,0.665691479902,0.746203984046
1385575318148750430,1239696,1385575318148750430,/world,vicon/Archie/Archie,0.262625852576,-0.888131470845,0.106862558002,0.00221014245394,-0.00538894408579,0.665681539399,0.746213215278
1385575318158690637,1239697,1385575318158690637,/world,vicon/Archie/Archie,0.26273197523,-0.888178347626,0.106951493246,0.00241566465417,-0.00532654386001,0.665702379027,0.746194435153
1385575318168600552,1239698,1385575318168600552,/world,vicon/Archie/Archie,0.262762976189,-0.888201039888,0.10699079575,0.00244179953567,-0.00531973181339,0.665703601703,0.746193307896
1385575318178679024,1239699,1385575318178679024,/world,vicon/Archie/Archie,0.262657966536,-0.888155010225,0.106908791827,0.00225562645342,-0.00540787753562,0.665689270424,0.746206045441
1385575318188993204,1239700,1385575318188993204,/world,vicon/Archie/Archie,0.262648788666,-0.888163167959,0.106916499451,0.00226192690619,-0.00541139914513,0.665692449927,0.746203164397
1385575318198608966,1239701,1385575318198608966,/world,vicon/Archie/Archie,0.262644133841,-0.888171492251,0.106915469594,0.00226175626069,-0.00540397914015,0.665702095711,0.746194613512
1385575318208603435,1239702,1385575318208603435,/world,vicon/Archie/Archie,0.262609270375,-0.888138979693,0.106874064024,0.00222209365967,-0.00539953250113,0.665696480669,0.746199774172
1385575318218843691,1239703,1385575318218843691,/world,vicon/Archie/Archie,0.262634705946,-0.888165689041,0.106907181884,0.00226721421998,-0.00540680407608,0.66569545627,0.746200499672
1385575318228614249,1239704,1385575318228614249,/world,vicon/Archie/Archie,0.262637911917,-0.88815115641,0.106904364936,0.00224247560777,-0.0053811881509,0.665697690916,0.746198766031
1385575318238461020,1239705,1385575318238461020,/world,vicon/Archie/Archie,0.262628526844,-0.888164938121,0.106897736355,0.00226672661348,-0.00539660789318,0.665689024718,0.746206312587
1385575318248628581,1239706,1385575318248628581,/world,vicon/Archie/Archie,0.262630808409,-0.888164680826,0.106891121554,0.00226509065507,-0.00541157857162,0.665692222949,0.746203355987
1385575318258496467,1239707,1385575318258496467,/world,vicon/Archie/Archie,0.262626232927,-0.888168765547,0.106899424805,0.0022603809616,-0.0054170758102,0.665678463648,0.746215604905
1385575318268595465,1239708,1385575318268595465,/world,vicon/Archie/Archie,0.262620960146,-0.888166143854,0.106896384669,0.00227291733706,-0.00539883679501,0.665689162341,0.746206154859
1385575318278698300,1239709,1385575318278698300,/world,vicon/Archie/Archie,0.262614138587,-0.888165040171,0.106895010939,0.00225492956823,-0.00540536410893,0.665689293237,0.746206045407
1385575318288479076,1239710,1385575318288479076,/world,vicon/Archie/Archie,0.262622232057,-0.888161769941,0.106895995084,0.00226301475036,-0.00539963221387,0.665684820836,0.746210052227
1385575318298499210,1239711,1385575318298499210,/world,vicon/Archie/Archie,0.262623758453,-0.888164009349,0.106888482399,0.00225048681388,-0.00539704839228,0.665686805523,0.746208338288
1385575318308683689,1239712,1385575318308683689,/world,vicon/Archie/Archie,0.262635000597,-0.888201135149,0.106846464312,0.00240381159476,-0.00562638497931,0.665698492235,0.746195740351
1385575318318773667,1239713,1385575318318773667,/world,vicon/Archie/Archie,0.262638834931,-0.888167122853,0.106903218682,0.00226510204717,-0.00540218317053,0.665692125069,0.74620351135
1385575318328829800,1239714,1385575318328829800,/world,vicon/Archie/Archie,0.26263320524,-0.888166214193,0.106887292669,0.00224155334916,-0.00538512707564,0.665697044926,0.746199316685
1385575318338665200,1239715,1385575318338665200,/world,vicon/Archie/Archie,0.262598640194,-0.888149671374,0.106856855341,0.00223418185294,-0.00541559998472,0.665694045253,0.746201794304
1385575318348700852,1239716,1385575318348700852,/world,vicon/Archie/Archie,0.262638781011,-0.88817219697,0.106894659451,0.00224694826478,-0.00540050818574,0.665698539474,0.746197855985
1385575318358612190,1239717,1385575318358612190,/world,vicon/Archie/Archie,0.262601453636,-0.888151735044,0.106846963196,0.00221540763854,-0.00540715024986,0.665686945331,0.746208245406
1385575318368595257,1239718,1385575318368595257,/world,vicon/Archie/Archie,0.262654679665,-0.888171054365,0.106889331221,0.002248607374,-0.0053903413959,0.665687572334,0.746207708366
1385575318378614012,1239719,1385575318378614012,/world,vicon/Archie/Archie,0.262646395612,-0.888171686999,0.106895884722,0.00225495743106,-0.00540040138824,0.665690329104,0.746205157158
1385575318388545570,1239720,1385575318388545570,/world,vicon/Archie/Archie,0.262641010285,-0.888171769695,0.106895203232,0.00224555605163,-0.00538655135693,0.665695853223,0.746200357507
1385575318398577590,1239721,1385575318398577590,/world,vicon/Archie/Archie,0.262641861829,-0.888178943607,0.106895530872,0.00225700117351,-0.00539779275249,0.665693058832,0.746202734652
1385575318408558723,1239722,1385575318408558723,/world,vicon/Archie/Archie,0.262639961981,-0.888166887948,0.106890949688,0.00225487771946,-0.0053877936397,0.665688973373,0.746206457983
1385575318418622654,1239723,1385575318418622654,/world,vicon/Archie/Archie,0.262638887193,-0.888170532195,0.106891385407,0.00224631268139,-0.00539155731549,0.665685672083,0.746209401691
1385575318428659460,1239724,1385575318428659460,/world,vicon/Archie/Archie,0.262647810037,-0.888168197251,0.106893113802,0.00225003994175,-0.0053966454813,0.665672841468,0.746220799543
1385575318438528234,1239725,1385575318438528234,/world,vicon/Archie/Archie,0.262638990005,-0.88816983002,0.106890636157,0.00223833190303,-0.00539288423335,0.665695259011,0.746200863575
1385575318448620521,1239726,1385575318448620521,/world,vicon/Archie/Archie,0.262647215519,-0.888178795302,0.106899839934,0.0022603028577,-0.00538585595333,0.66568731752,0.746207932737
1385575318458494436,1239727,1385575318458494436,/world,vicon/Archie/Archie,0.26264951682,-0.888168107637,0.106901823097,0.00223923686719,-0.00539644344779,0.665701764275,0.746195031648
1385575318468604539,1239728,1385575318468604539,/world,vicon/Archie/Archie,0.262645972158,-0.888170827729,0.10689222605,0.00224333426931,-0.00538845200276,0.665692880984,0.746203002034
1385575318478705191,1239729,1385575318478705191,/world,vicon/Archie/Archie,0.262646591874,-0.888178720934,0.106895342252,0.00226982223237,-0.00541678917494,0.665678762066,0.746215312116
1385575318488504215,1239730,1385575318488504215,/world,vicon/Archie/Archie,0.262647359966,-0.888178247577,0.106893153669,0.00224965759257,-0.00539451351964,0.665695741153,0.746200387614
1385575318498636965,1239731,1385575318498636965,/world,vicon/Archie/Archie,0.262638755896,-0.888181814679,0.106896355323,0.00225724572677,-0.00540438859942,0.665690966521,0.746204552732
1385575318508722207,1239732,1385575318508722207,/world,vicon/Archie/Archie,0.262651124087,-0.888173451105,0.106906719902,0.00224947629934,-0.00538969840872,0.665689872211,0.746205658678
1385575318518604461,1239733,1385575318518604461,/world,vicon/Archie/Archie,0.262641883241,-0.888174362841,0.106896591729,0.00224850819063,-0.00540102859855,0.665690362031,0.746205142706
1385575318528734490,1239734,1385575318528734490,/world,vicon/Archie/Archie,0.262642030554,-0.888176175341,0.106898466329,0.00224772189358,-0.00539973191394,0.665689173643,0.746206214619
1385575318538532388,1239735,1385575318538532388,/world,vicon/Archie/Archie,0.262640221735,-0.888171841481,0.106901949352,0.00224487935203,-0.00539957652416,0.665683631705,0.746211168216
1385575318548582365,1239736,1385575318548582365,/world,vicon/Archie/Archie,0.2626412927,-0.88816460647,0.106893607783,0.0022557376112,-0.00540321168636,0.665694880035,0.746201074542
1385575318558463913,1239737,1385575318558463913,/world,vicon/Archie/Archie,0.262638203958,-0.888173324451,0.106888839719,0.00224672686049,-0.0054066924276,0.665696250636,0.746199853782
1385575318568702831,1239738,1385575318568702831,/world,vicon/Archie/Archie,0.262638787986,-0.88817049057,0.106891539549,0.00225863128519,-0.00541147497983,0.665688486515,0.746206709595
1385575318578631705,1239739,1385575318578631705,/world,vicon/Archie/Archie,0.262641502298,-0.888165350516,0.106893133898,0.00226253128559,-0.0054005574854,0.665678852071,0.746215371616
1385575318588552485,1239740,1385575318588552485,/world,vicon/Archie/Archie,0.262647544544,-0.888171594231,0.106895285648,0.00225495111547,-0.00539318794593,0.665692449534,0.746203317704
1385575318598684675,1239741,1385575318598684675,/world,vicon/Archie/Archie,0.262635585178,-0.888167519948,0.106896226293,0.00225566434366,-0.00539566770527,0.665706000413,0.74619120858
1385575318608570424,1239742,1385575318608570424,/world,vicon/Archie/Archie,0.262641113338,-0.888168898869,0.106893090451,0.00225135085014,-0.00539124249729,0.665686964364,0.74620823595
1385575318618640320,1239743,1385575318618640320,/world,vicon/Archie/Archie,0.262620241546,-0.888169977471,0.106883313566,0.00225705945041,-0.00541444135753,0.665706128514,0.746190954091
1385575318628816683,1239744,1385575318628816683,/world,vicon/Archie/Archie,0.262623877459,-0.888160747552,0.106887028917,0.0022693806396,-0.0054171140036,0.66569459244,0.746201188945
1385575318638710973,1239745,1385575318638710973,/world,vicon/Archie/Archie,0.262641443216,-0.888170754746,0.10688819641,0.00225749065432,-0.00541687486596,0.66567680528,0.746217094493
1385575318648623697,1239746,1385575318648623697,/world,vicon/Archie/Archie,0.262633143221,-0.888160709545,0.106889077928,0.00225882131925,-0.00540778817784,0.665681194577,0.746213240796
1385575318658504517,1239747,1385575318658504517,/world,vicon/Archie/Archie,0.26263122019,-0.888158030162,0.106889361691,0.00225577732782,-0.00539828751957,0.66569812801,0.746198212491
1385575318668655296,1239748,1385575318668655296,/world,vicon/Archie/Archie,0.262639010368,-0.888167730345,0.106888570949,0.002263517728,-0.00539955446708,0.665692559208,0.746203147885
1385575318678628162,1239749,1385575318678628162,/world,vicon/Archie/Archie,0.26262599034,-0.888160343668,0.106886996506,0.00226723212053,-0.00539571363564,0.665682688574,0.746211969929
1385575318688798966,1239750,1385575318688798966,/world,vicon/Archie/Archie,0.262630147999,-0.888197048265,0.106837331665,0.00239713619075,-0.0056374931097,0.665697353518,0.746196693861
1385575318698845388,1239751,1385575318698845388,/world,vicon/Archie/Archie,0.262633588425,-0.888160206989,0.106886581108,0.0022655274103,-0.00541894223539,0.665691919837,0.746203571631
1385575318708487592,1239752,1385575318708487592,/world,vicon/Archie/Archie,0.262600974122,-0.888174019965,0.106796724536,0.00236043164225,-0.00561932891057,0.665694627536,0.746199379774
1385575318718820121,1239753,1385575318718820121,/world,vicon/Archie/Archie,0.262629954518,-0.888197766129,0.10684381548,0.00239685454602,-0.00561000800355,0.665703579823,0.746191347249
1385575318728866076,1239754,1385575318728866076,/world,vicon/Archie/Archie,0.262631128123,-0.888163363811,0.106895887398,0.00225518411377,-0.00540585347588,0.665689792767,0.746205595462
1385575318738649112,1239755,1385575318738649112,/world,vicon/Archie/Archie,0.262624947453,-0.888161921475,0.106886868598,0.00224471406335,-0.00538997760698,0.665699176898,0.746197370189
1385575318748800658,1239756,1385575318748800658,/world,vicon/Archie/Archie,0.26263370623,-0.888152859842,0.106884935683,0.00224346544278,-0.00538447735987,0.665683263814,0.746211609763
