%time,field.linear.x,field.linear.y,field.linear.z,field.angular.x,field.angular.y,field.angular.z
1385575318650115790,0.0,0.0,0.0,0.0,0.0,0.0
1385575318654169747,0.262633143221,0.888160709545,-0.106889077928,-0.00382884533973,0.0110782626323,-1.45686442279
1385575318661383877,0.26263122019,0.888158030162,-0.106889361691,-0.00382098876382,0.0110599439623,-1.45690962585
1385575318670270266,0.262639010368,0.888167730345,-0.106888570949,-0.00381104118138,0.0110721691263,-1.4568947118
1385575318680332106,0.26262599034,0.888160343668,-0.106886996506,-0.0038002368798,0.0110714327314,-1.45686817314
1385575318690268386,0.262630147999,0.888197048265,-0.106837331665,-0.00392853293463,0.011605152371,-1.45691215762
1385575318700176047,0.262633588425,0.888160206989,-0.106886581108,-0.00383384856408,0.0111037828536,-1.45689338025
1385575318710182193,0.262600974122,0.888174019965,-0.106796724536,-0.00395908234133,0.0115291882339,-1.45690453998
1385575318720264954,0.262629954518,0.888197766129,-0.10684381548,-0.0038924506503,0.0115637258784,-1.45692827878
1385575318730373898,0.262631128123,0.888163363811,-0.106895887398,-0.0038318251313,0.0110704884385,-1.45688743607
1385575318740201782,0.262624947453,0.888161921475,-0.106886868598,-0.00382645006899,0.0110328066628,-1.45691229101
1385575318750197739,0.26263370623,0.888152859842,-0.106884935683,-0.0038207544238,0.0110230170607,-1.45686953229
1385575318760303267,0.262636848455,0.888164251198,-0.106887733955,-0.00381813957082,0.011069840625,-1.45687814107
1385575318770231208,0.262625670897,0.888162151764,-0.106887512101,-0.00382365606463,0.0110855866884,-1.45688786154
1385575318780202833,0.262624829736,0.888163137784,-0.106888923006,-0.00384830907872,0.0110536591244,-1.45690863328
1385575318790181234,0.262634277454,0.888197815227,-0.106844412134,-0.00391721580958,0.0115656603107,-1.4569229259
1385575318800175325,0.26263168501,0.888165684195,-0.106886508262,-0.0038020565548,0.0110705598092,-1.45688599308
1385575318810281819,0.26259357129,0.888141700826,-0.106848499649,-0.00388351132955,0.0110390368127,-1.45686182852
1385575318820229221,0.262603785245,0.888143227265,-0.106842624578,-0.00387443390344,0.0110177127139,-1.45686510505
1385575318830257643,0.262601413613,0.888134827413,-0.106848472262,-0.00388136327165,0.0109986534317,-1.45689853884
1385575318840286676,0.262635939873,0.888161812017,-0.106892761668,-0.00381643849254,0.0110678379075,-1.45688402072
1385575318850251749,0.262644130974,0.888159318495,-0.106891773395,-0.0038104669477,0.0110926215908,-1.45689989436
1385575318860188901,0.262637003722,0.888162485582,-0.106885070163,-0.0038473837966,0.0110289528381,-1.45687915073
1385575318870252834,0.262638469969,0.888168559118,-0.106881588272,-0.0038336886035,0.0111096670013,-1.45687330963
1385575318880244239,0.262641831792,0.888158365329,-0.106899284564,-0.0038138273391,0.011030062752,-1.45686204457
1385575318890182474,0.262629184728,0.888154883176,-0.106887991363,-0.00380784289727,0.0110540681087,-1.45685910965
1385575318900275221,0.262642784254,0.888156424406,-0.106896680177,-0.0038546458149,0.0110286768187,-1.45692389701
1385575318910206451,0.262640934384,0.888165058249,-0.106897895055,-0.00383183031844,0.0110852899318,-1.45684277852
1385575318920214642,0.262609560722,0.888137065078,-0.106853618744,-0.00386993484533,0.0109960855841,-1.45686591002
1385575318930258102,0.262634678237,0.888163844555,-0.106893078696,-0.0038120387202,0.011048982864,-1.45685043414
1385575318940241459,0.262646896528,0.888160764827,-0.106894405518,-0.0038339731871,0.0109903907054,-1.45688650616
1385575318950306224,0.26263567082,0.888164754008,-0.106899219055,-0.00384765833672,0.0110770253239,-1.45686439743
1385575318960252693,0.262634355254,0.888159644251,-0.106894115204,-0.00385310418154,0.0109850434792,-1.45689648197
1385575318970342074,0.262644658301,0.888176431392,-0.106904376194,-0.00380246954468,0.0110670179939,-1.45685860958
1385575318980193056,0.26264386206,0.888173976618,-0.106898754103,-0.00382389117367,0.0111021785709,-1.45687592915
1385575318990212461,0.262658644991,0.888169243291,-0.106900868536,-0.00382462689667,0.0110671433055,-1.45685935958
1385575319000254699,0.262620954948,0.888141356237,-0.1068582277,-0.00384300020109,0.0110262870603,-1.45685755295
1385575319010333216,0.262653371575,0.888173496681,-0.106909034097,-0.00378969047917,0.0110428973424,-1.45685795703
1385575319020233377,0.262639540682,0.888207805707,-0.106853834226,-0.00388465818135,0.0115599498433,-1.4568854678
1385575319030324714,0.262620982462,0.888148033356,-0.106864329432,-0.00385845427184,0.0110233555542,-1.45685810692
1385575319040320678,0.262642756434,0.888174527277,-0.106894508127,-0.00379969070846,0.011025334142,-1.45685342985
1385575319050245710,0.262614567831,0.888152427026,-0.106851734533,-0.00383252396993,0.010944449747,-1.45687837983
1385575319060174301,0.262657668556,0.888176757816,-0.10690250211,-0.00382283150278,0.0110699225051,-1.45689185534
1385575319070297054,0.26262152497,0.888147417403,-0.106857432435,-0.00384546519101,0.010950576811,-1.45688378788
1385575319080193155,0.262645138208,0.888174444057,-0.106906423368,-0.00376788021834,0.0110267960484,-1.45688375851
1385575319090297647,0.262649376511,0.888166644836,-0.106894708157,-0.00379390506426,0.0110304845915,-1.45687311553
1385575319100353072,0.262611198936,0.888151127064,-0.106850708811,-0.00385621224795,0.0109810756746,-1.45687209816
1385575319110325654,0.262645189274,0.888171588278,-0.106892230052,-0.00384102356988,0.0110585669698,-1.45687508
1385575319120444295,0.262656836137,0.888171527364,-0.106894615853,-0.0038147852618,0.0110472431815,-1.45685808695
1385575319130281433,0.262650892978,0.888169399223,-0.106900546398,-0.00383360252409,0.0110720351755,-1.45686612704
1385575319140188086,0.262635975238,0.888171565582,-0.106901123685,-0.00384184262403,0.0110768196322,-1.45687507531
1385575319150266668,0.262639190764,0.888174092377,-0.106902240237,-0.00382478295675,0.0110503177386,-1.45689183792
1385575319160273808,0.26263409524,0.888171446992,-0.106890197015,-0.00382739970972,0.0111016653255,-1.45687570318
1385575319170214235,0.262639743666,0.888169316874,-0.106900021754,-0.00383605264082,0.0110295815893,-1.45689561393
1385575319180230077,0.26260450082,0.888144048118,-0.106853006987,-0.00388604930132,0.0110266959687,-1.45686165951
1385575319190257097,0.262638259913,0.888169808382,-0.106900544688,-0.00382476968199,0.0110544429472,-1.45676723728
1385575319200233576,0.262644502628,0.888178120783,-0.106906979336,-0.00381383503932,0.0109906840157,-1.45702567082
1385575319210262710,0.262645379648,0.888195806543,-0.106856447387,-0.00403237366397,0.0108897974738,-1.45712887534
1385575319220223016,0.262647215425,0.88817024739,-0.1069084383,-0.00383820302434,0.0109612972212,-1.45735207807
1385575319230278639,0.262658009149,0.888124343479,-0.106899594086,-0.00373732564079,0.0110572021888,-1.45617786105
1385575319240323738,0.262649010558,0.888123942757,-0.106895609984,-0.00384686302837,0.010939995185,-1.45595374594
1385575319250249599,0.262630926561,0.888160105145,-0.106903569476,-0.00378396278625,0.0108952525008,-1.45731234754
1385575319260283427,0.262629314767,0.888169296433,-0.106890206109,-0.00362806152638,0.0109534432159,-1.45805852096
1385575319270277960,0.262639529987,0.888130522544,-0.106899040641,-0.00370504037436,0.0110085600183,-1.45665789766
1385575319280205737,0.26260838014,0.888103512288,-0.10689142097,-0.0036658912444,0.0111505436094,-1.45510457913
1385575319290260951,0.262622467064,0.888140572615,-0.106932074504,-0.00387608549941,0.0110388330764,-1.45631469365
1385575319300238082,0.262628394909,0.888195808879,-0.106916695375,-0.00368329367289,0.0109746216137,-1.45748215748
1385575319310272525,0.262592274705,0.888172040046,-0.106861319764,-0.00378516661643,0.0116777784203,-1.45657494235
1385575319320259586,0.262612495967,0.88813401848,-0.106912251331,-0.00381846935018,0.0111200174432,-1.45565924683
1385575319330258662,0.26261082252,0.888177472844,-0.106916629123,-0.00390460807211,0.0108743852767,-1.45662669353
1385575319340170664,0.262614754811,0.888192801999,-0.106927899861,-0.00387261337613,0.0109455763528,-1.45729584222
1385575319350405658,0.262572800603,0.888157366341,-0.10684194512,-0.00406834535917,0.0116944279386,-1.45640432618
1385575319360151968,0.262643959097,0.888115614129,-0.106937936471,-0.00392169092088,0.0111212774195,-1.45613608471
1385575319370652058,0.262542001471,0.888169935987,-0.106923713468,-0.00342414866722,0.0108518350469,-1.45679793747
1385575319380197629,0.26261370354,0.888207615267,-0.106894610163,-0.00384624338532,0.0109403648802,-1.45747273625
1385575319390512091,0.262614971347,0.888174587542,-0.106923220446,-0.00372793944086,0.0112186204368,-1.45621011012
1385575319400281415,0.262592451703,0.888153377365,-0.10693013372,-0.00354368497982,0.0109517402666,-1.45614202996
1385575319410293928,0.262616027834,0.888172801229,-0.10691414363,-0.00364955278129,0.010872325418,-1.45708066674
1385575319420207586,0.262629811755,0.888183428452,-0.106917697172,-0.00374396302117,0.011077035394,-1.45702274947
1385575319430225035,0.262597831563,0.888154821701,-0.106908852247,-0.00380308248423,0.0111754840463,-1.45607992837
1385575319440272349,0.262604995302,0.888161448224,-0.10694587075,-0.00388611148629,0.0109911030786,-1.45623821543
1385575319450244742,0.262516180302,0.888129279688,-0.106885402183,-0.00364999273589,0.0107813858317,-1.45672698321
1385575319460247439,0.26265181694,0.888299387399,-0.106852230974,-0.00412046386111,0.0114591011047,-1.457211346
1385575319470211573,0.262593004543,0.888193482245,-0.106855146108,-0.00383704818933,0.0115471485319,-1.45635626972
1385575319480295176,0.262730341264,0.888229203661,-0.106962103659,-0.00335211832582,0.0115344185382,-1.45656626354
1385575319490296617,0.262613040584,0.888208056712,-0.10689406508,-0.00381051527261,0.0114660153899,-1.45684474552
1385575319500236719,0.262615910983,0.888179860546,-0.106945849931,-0.00367617305089,0.0110118445485,-1.45668895506
1385575319510238412,0.262547086242,0.888209271261,-0.106893232959,-0.00359106234825,0.0108472251229,-1.45648746694
1385575319520203748,0.262746725657,0.888220420905,-0.107024965656,-0.00335563258364,0.0110510558598,-1.45665730179
1385575319530225980,0.262737920551,0.888209447826,-0.107006550544,-0.00333557584846,0.0110883978363,-1.45674939095
1385575319540215104,0.262607834033,0.888209645615,-0.106888339358,-0.0039275045943,0.0115476134657,-1.45649210598
1385575319550206671,0.262693263084,0.888223745575,-0.10692525792,-0.00357332531151,0.0115808025297,-1.45654324194
1385575319560231507,0.26265172454,0.888263997588,-0.107011083045,-0.00286088973252,0.0115284844914,-1.45667351682
1385575319570229454,0.262740259148,0.888210101433,-0.107023398931,-0.00334864841494,0.0111652326413,-1.45663896284
1385575319580218051,0.262621987652,0.888199393138,-0.106871440422,-0.00374208729296,0.0114863026209,-1.45655645579
1385575319590262794,0.262587669614,0.888160185966,-0.106886603771,-0.0037525729979,0.0109912735025,-1.45666535786
1385575319600234175,0.262777567494,0.888225844884,-0.107077181041,-0.00307606831231,0.0113034940832,-1.4567958039
1385575319610237984,0.262621476086,0.888183687444,-0.106921197541,-0.00368770012963,0.011088000328,-1.45660234175
1385575319620210674,0.262574485983,0.888163575649,-0.106811645497,-0.00374184115007,0.0115432801,-1.45653538518
1385575319630230317,0.262640695119,0.888194901938,-0.106898457066,-0.003464561902,0.0118039615316,-1.4564381083
1385575319640243073,0.2625198933,0.888210377544,-0.106901148878,-0.00328536321064,0.0113803936339,-1.45664865421
1385575319650238120,0.262739285912,0.888253253303,-0.106944599105,-0.00349642897634,0.0117420798788,-1.45660047507
1385575319660191411,0.262636307278,0.888181763076,-0.106916330182,-0.00387956196251,0.0111761319016,-1.45654955255
1385575319670313407,0.262705099842,0.888160349508,-0.107024536259,-0.00320203420439,0.0112347731334,-1.45644327489
1385575319680261251,0.262567435146,0.888218726464,-0.106904059993,-0.00377090785837,0.0109614209079,-1.45646813918
1385575319690227295,0.262570300741,0.88817584916,-0.106796242157,-0.00382917801806,0.0114745281346,-1.45665885
1385575319700191137,0.262543298938,0.888160892591,-0.106786109191,-0.00410856299138,0.0124907532009,-1.456081585
1385575319710168767,0.262657187562,0.888271781989,-0.106948795946,-0.00330402833807,0.0113579694715,-1.45654867416
1385575319720613798,0.262735664453,0.888221086052,-0.106998864459,-0.00328497161558,0.0110679419532,-1.45682778276
1385575319730287673,0.262613100886,0.888197775972,-0.106910256871,-0.00379902327207,0.011178075509,-1.45685044308
1385575319740202599,0.262760161483,0.888254653167,-0.107026572147,-0.00353671726223,0.0111967563273,-1.45646013911
1385575319750270882,0.262556489838,0.888152956754,-0.106928245392,-0.00394060454103,0.0109773609603,-1.45640787121
1385575319760221031,0.262554178758,0.888173491183,-0.1070296919,-0.00354951350124,0.0110366534975,-1.45664970358
1385575319770229612,0.262519142264,0.88817502882,-0.10691854718,-0.00375599477515,0.0106995709955,-1.4565551347
1385575319780439802,0.262626431536,0.888188335157,-0.107006315812,-0.00389704234776,0.0109127735812,-1.45664968679
1385575319790319239,0.262534752456,0.888240228514,-0.106915120327,-0.003533348524,0.0114710072755,-1.45645632409
1385575319800195515,0.262584080722,0.888147644283,-0.106922055237,-0.00342760124571,0.0111761480981,-1.45633409296
1385575319810178488,0.262712284635,0.888245695293,-0.107092987885,-0.00253561020218,0.0113558245109,-1.456490267
1385575319820224800,0.262624556938,0.888221554453,-0.10696213506,-0.00330653480835,0.0108218286062,-1.45671786649
1385575319830272605,0.262584335165,0.888202505477,-0.106903710498,-0.00350118265118,0.0115035662769,-1.45640330891
1385575319840813441,0.26262863779,0.888196100224,-0.10698478742,-0.00371992284941,0.0111320564248,-1.45607780058
1385575319850278598,0.262649476347,0.888223392643,-0.107036957762,-0.00365197915917,0.0109059707301,-1.45672959346
1385575319860230297,0.262725271944,0.888229387773,-0.107078894958,-0.00298410480425,0.0112261295381,-1.45684297636
1385575319870327118,0.262550628208,0.88816450078,-0.106908857045,-0.00323106854889,0.0118997260599,-1.45571670434
1385575319880254137,0.262568322084,0.888258098887,-0.106949165128,-0.00312076181829,0.0106525535328,-1.45666159601
1385575319890192554,0.262623588068,0.888194936037,-0.107001808572,-0.00307739244693,0.0112504318358,-1.45642079414
1385575319900250745,0.262635403086,0.888258519771,-0.10697040425,-0.00339716784555,0.0116414310301,-1.4564490543
1385575319910368547,0.26260045197,0.888202907361,-0.107021964334,-0.00314994552278,0.0106435195719,-1.4570959995
1385575319920534077,0.26256232699,0.888208419464,-0.106956048512,-0.00298649578299,0.0107795130269,-1.45600366394
1385575319930399530,0.26260868575,0.888264903707,-0.106955616961,-0.00305465805495,0.0115720551654,-1.45661612855
1385575319940249579,0.262511531937,0.888206349201,-0.106910319358,-0.00283072044295,0.0116698384432,-1.4569595457
1385575319950340021,0.26260213203,0.88824912098,-0.107006937411,-0.00290421919027,0.0111005219042,-1.45654630249
1385575319960336616,0.262607193665,0.888239155837,-0.107048855785,-0.00307215117494,0.0107203734909,-1.45688468715
1385575319970266590,0.26258127049,0.888210904871,-0.107004077733,-0.00315890707641,0.0106491824829,-1.45671928859
1385575319980268724,0.262585752924,0.888208069845,-0.106961106898,-0.0035285516593,0.0113321758186,-1.45613165366
1385575319990185167,0.262623241952,0.888263411537,-0.107035490109,-0.00363493099565,0.0110812554897,-1.45719894641
1385575320001528918,0.262574165117,0.888213992469,-0.107006325538,-0.00369167116811,0.0109832779646,-1.45666898236
1385575320010318388,0.262708524316,0.888259397692,-0.107057785432,-0.00311757305083,0.011163681552,-1.45629048153
1385575320020292094,0.262512710221,0.888257744104,-0.106951466934,-0.00333607963127,0.0107074970848,-1.45696444541
1385575320030248716,0.262573144439,0.888195793185,-0.106996203781,-0.00303539585415,0.0111484812543,-1.45658054568
1385575320040373397,0.262750308929,0.888292002799,-0.107023868638,-0.00232196627032,0.0114782575862,-1.45665103255
1385575320050240953,0.262706128334,0.888252504407,-0.107049366582,-0.00196229573043,0.0108684378465,-1.45695409945
1385575320060437355,0.262651026189,0.888202635431,-0.107052866612,-0.0020361882534,0.0115949470224,-1.45618740298
1385575320070397035,0.262623924706,0.888245112711,-0.107000367449,-0.00266707381267,0.0109675613421,-1.45669192253
1385575320080257303,0.262563029517,0.88824284387,-0.106967126657,-0.0031089992136,0.0111061521578,-1.45709142634
1385575320090411127,0.262538592978,0.888218945539,-0.106965351324,-0.00358379418507,0.0110883914459,-1.45605215654
1385575320100388960,0.262516358397,0.888176855296,-0.106958899217,-0.0040803636292,0.0112188529465,-1.45666942856
1385575320110328454,0.262540640503,0.888236964735,-0.106970026299,-0.00411591481958,0.0107201887328,-1.45702822918
1385575320120389217,0.262571220353,0.888269939953,-0.106911527467,-0.00432611879151,0.011530160644,-1.45642986985
1385575320130374382,0.262618302575,0.888308015503,-0.106944530932,-0.00421617583887,0.0115419371845,-1.45731925148
1385575320140379177,0.262555476566,0.888248674564,-0.107022820106,-0.00349199747325,0.0112155162927,-1.45665036724
1385575320150344829,0.262532485953,0.888219694755,-0.106929178445,-0.00326949147047,0.0110290679269,-1.45647903853
1385575320160276842,0.262532485953,0.888219694755,-0.106929178445,-0.00326949147047,0.0110290679269,-1.45647903853
1385575320170394146,0.262641611648,0.888280070789,-0.107105489902,-0.00273924035355,0.0113797798872,-1.45648377427
1385575320180396749,0.262512015513,0.888242600985,-0.106878677836,-0.0037586275516,0.0110115981596,-1.45661089103
1385575320190402317,0.262516987367,0.8882478955,-0.106949557436,-0.00400736843833,0.0107993477861,-1.45698248777
1385575320202270841,0.262476891382,0.888233102288,-0.106958523292,-0.00412553335745,0.0109449044508,-1.45618701119
1385575320210310524,0.262493727787,0.888258058561,-0.106926994319,-0.00446913854462,0.0109779297088,-1.45696769324
1385575320220231692,0.262462234882,0.888246440762,-0.106872598395,-0.00394815537486,0.011458342825,-1.45672645961
1385575320230370532,0.262524610222,0.888233403107,-0.106920998848,-0.00367189410281,0.0109293548511,-1.45606200036
1385575320240529435,0.262549784799,0.888267492039,-0.106934224685,-0.00326673182835,0.0108852096749,-1.45704083839
1385575320250281749,0.262584268636,0.888232916588,-0.106976297219,-0.0032559330137,0.0112012233452,-1.4564120303
1385575320260360381,0.262536852871,0.888239752391,-0.10691589914,-0.00334327898277,0.0110966253978,-1.45636273905
1385575320270344824,0.26246329644,0.888267159895,-0.106890641607,-0.00365427035204,0.0106557355942,-1.45695237336
1385575320280228715,0.262565782704,0.88832699784,-0.106976639201,-0.00435423007423,0.0108213170149,-1.45669007972
1385575320290318750,0.262482080151,0.888246017628,-0.106948904762,-0.00453239752166,0.0109464532225,-1.45659748242
1385575320300239446,0.262474112214,0.888276869916,-0.106973369384,-0.00482077534317,0.0108131964665,-1.45710653131
1385575320310544561,0.262546075915,0.888262048974,-0.107119595211,-0.00550204051515,0.0103722290269,-1.45659446285
1385575320320376117,0.262467368171,0.888238271606,-0.1072103188,-0.00542001227976,0.00928450888911,-1.45685642143
1385575320330172748,0.262563417876,0.888289000572,-0.106984145506,-0.00458735722942,0.0109423030229,-1.4565128018
1385575320340348865,0.262490160936,0.888320141086,-0.106726602126,-0.00330910559239,0.0118149087231,-1.45580847317
1385575320350190176,0.262590565057,0.888341336115,-0.10675635438,-0.00222222997859,0.0107253362957,-1.45698123409
1385575320361016844,0.262617749073,0.888371388894,-0.107062510124,-0.000557133449059,0.0101861960446,-1.45642495113
1385575320370252211,0.26256091506,0.888396193156,-0.107010076107,-0.000528200911444,0.0106882287037,-1.45648727386
1385575320380306062,0.262497265722,0.888367868533,-0.106981632181,-0.000716817703761,0.0105559522966,-1.45648124033
1385575320390360167,0.262486263495,0.88849167079,-0.106988295668,-0.00149379989067,0.0108268078985,-1.45650030724
1385575320400523792,0.262429136252,0.888429289063,-0.106850942701,-0.00350975515199,0.0107967232747,-1.45643853396
1385575320410331911,0.26227294525,0.888489426753,-0.106803235334,-0.00462270186578,0.0119306494301,-1.45748417375
1385575320420182785,0.262278900725,0.888430142579,-0.106938689554,-0.0047254644913,0.0107619806388,-1.45696446741
1385575320430407364,0.262320664572,0.888478213174,-0.106932321925,-0.00491508518563,0.0107710496261,-1.45706641913
1385575320440256226,0.262334440551,0.888447982056,-0.106896440804,-0.00420079561089,0.0107079384801,-1.45730241504
1385575320450223246,0.262267262131,0.888473062303,-0.1067493158,-0.00318102491527,0.011772492011,-1.4558435793
1385575320460217567,0.262338887194,0.888555617542,-0.106871364382,-0.0024352353611,0.0108537010566,-1.45777262439
1385575320470184450,0.262400836209,0.888481588597,-0.106954058889,-0.00219661800272,0.0110289680316,-1.45666044929
1385575320480218642,0.262383450205,0.888477223633,-0.106889016913,-0.00243421386966,0.0106888446245,-1.45740796698
1385575320490193148,0.262402754909,0.888417339549,-0.106920551167,-0.00317469378022,0.0108824468982,-1.4572318931
1385575320500204152,0.262257770249,0.888509900583,-0.106874356691,-0.00389081606198,0.0110201108683,-1.45653711881
1385575320510197008,0.262291748731,0.888412257503,-0.106877709695,-0.00484480170003,0.0114072108995,-1.45656800177
1385575320520310931,0.262314988136,0.888525672867,-0.106984231598,-0.00485901568098,0.0109448570197,-1.45748558535
1385575320530252794,0.262311073669,0.888386539648,-0.106907202178,-0.00446571235589,0.0106427254755,-1.45619145162
1385575320541332049,0.262314623045,0.888492797484,-0.106832128803,-0.00328441661181,0.0111667988954,-1.45691594776
1385575320550273284,0.262384848653,0.888433228982,-0.106877544264,-0.00249455863015,0.0120648153338,-1.45666236135
1385575320560231974,0.262424698549,0.888495443562,-0.106980011281,-0.00153962426218,0.0110312383729,-1.45652886754
1385575320570268196,0.262432262896,0.888409197284,-0.107100244775,-0.000898673930934,0.0105354926948,-1.45766603588
1385575320580157035,0.262449906701,0.888532472998,-0.106897496527,-0.00108345013896,0.0111979585267,-1.4566592247
1385575320590429672,0.262418753509,0.888535588624,-0.106706629655,-0.00204371188528,0.0125081105904,-1.45704336319
1385575320600166013,0.262404875058,0.88849643833,-0.106762789608,-0.0030916715349,0.0111263608645,-1.45714416851
1385575320610252887,0.262339664659,0.888515920655,-0.106907325438,-0.00365692690419,0.0105739001236,-1.45726202577
1385575320620330731,0.262268230457,0.888433102874,-0.107001803556,-0.00423162498004,0.0105099697956,-1.45735575472
1385575320630287304,0.26239299012,0.888508291073,-0.107011534194,-0.00477142707707,0.0108754666091,-1.4578768137
1385575320642453541,0.262379050433,0.888377137116,-0.106888691815,-0.00434206529145,0.0108660062302,-1.4568429591
1385575320650286736,0.262422976915,0.888440901844,-0.106869043691,-0.0045646054962,0.0110027319186,-1.4574361776
1385575320660452517,0.262307907375,0.888435745939,-0.106860685136,-0.0037578529571,0.0116238171474,-1.45682915315
1385575320670223419,0.262490326155,0.888517116778,-0.107009372874,-0.00312833279696,0.0109006382999,-1.45730173321
1385575320680246333,0.262485889339,0.888504975194,-0.106853827745,-0.00261627138494,0.0109207618895,-1.45814509024
1385575320690294017,0.262543972247,0.888527773185,-0.106899226844,-0.00191678752988,0.011180875602,-1.45662100888
1385575320700247329,0.262438304578,0.888486019407,-0.106925475105,-0.000956826149938,0.0102256076651,-1.456751743
1385575320710244651,0.262501935555,0.888517992915,-0.107023828906,-0.000783627148721,0.010421456499,-1.45639105753
1385575320720259983,0.262461974841,0.888557567384,-0.106907687975,-0.00138246809206,0.0109195939713,-1.45656998902
1385575320730303713,0.262410031844,0.888505289422,-0.1068199046,-0.00246943624909,0.0112595666343,-1.4565616486
1385575320740334634,0.262314900127,0.888544558075,-0.106862331485,-0.00395525786527,0.0113837800453,-1.45645677267
1385575320750195079,0.262202031357,0.888471986438,-0.106926601773,-0.00472474773939,0.0110743120637,-1.45608050982
1385575320760241721,0.262317909126,0.888585004566,-0.107049423555,-0.00555349555062,0.0110354806738,-1.45701885181
1385575320770247549,0.262264831154,0.888513912061,-0.106900072514,-0.00554510309924,0.01144486978,-1.4568156085
1385575320780298412,0.262251813195,0.888568919264,-0.106831553471,-0.00456542014942,0.0111740578336,-1.45702713192
1385575320790430795,0.262240609324,0.8885173142,-0.10684548024,-0.00366760600483,0.0119063760869,-1.45661083519
1385575320800253834,0.262271270108,0.888641903906,-0.107017310859,-0.00276128876332,0.0114069555292,-1.45643442742
1385575320810285375,0.262199634168,0.888622656133,-0.107010673142,-0.00234153512408,0.0111264757166,-1.45684902299
1385575320820269166,0.262290574386,0.888658609955,-0.106945276324,-0.00229543184435,0.0108507143002,-1.45563590253
1385575320830371714,0.262290574386,0.888658609955,-0.106945276324,-0.00229543184435,0.0108507143002,-1.45563590253
1385575320840368748,0.262239252054,0.888662042658,-0.106892124997,-0.00199728899229,0.0117161201421,-1.45517862943
1385575320850274068,0.262096402999,0.888741377699,-0.106993749901,-0.00225431671494,0.0119564849441,-1.45611882
1385575320860318047,0.2621276776,0.88875794264,-0.107085073371,-0.00267900969582,0.0113678634838,-1.45554016884
1385575320870283906,0.262126430635,0.888829589894,-0.10699388739,-0.00298492574561,0.0107215446891,-1.45493354163
1385575320880761687,0.262091449986,0.888880011476,-0.106815706622,-0.00285961633648,0.0111672557794,-1.45475808325
1385575320890265910,0.262110243287,0.888917145492,-0.106832835725,-0.00252555679208,0.0118161611705,-1.45413030991
1385575320900190474,0.262300426296,0.888962968159,-0.107125311481,-0.00128800708846,0.011177874701,-1.45375053746
1385575320910348354,0.262260394293,0.889023220214,-0.107241905454,-0.000626560298453,0.0107651817226,-1.45354837765
1385575320920226388,0.262075965179,0.888950181767,-0.107091655782,-0.000769307003391,0.0110174245486,-1.4525147936
1385575320930200306,0.262159150793,0.889050886923,-0.107043244452,-0.000763399672335,0.0109329786275,-1.4526921928
1385575320940498176,0.26211413061,0.888919045154,-0.106969842933,-0.0014768688859,0.0114763120084,-1.45143792439
1385575320950164020,0.261984630753,0.889044401851,-0.107005456627,-0.00202279547666,0.0114722867136,-1.45205147725
1385575320960340504,0.261943082455,0.888970141501,-0.107056557707,-0.00182002097006,0.0114877157765,-1.45146232031
1385575320970221500,0.261914130579,0.88909834051,-0.107192547769,-0.000667956476527,0.00951961047508,-1.45216704941
1385575320980331852,0.261963634843,0.889026972844,-0.107045495182,-4.6399321503e-05,0.0106600525272,-1.45108860137
1385575320990205954,0.261928147825,0.889193126184,-0.106966008381,0.0011793798234,0.0113582952992,-1.45148814801
1385575321000187013,0.261935047113,0.889208513658,-0.107051700992,0.00128393768157,0.0116964223209,-1.45075634639
1385575321010241840,0.261880536347,0.889257980911,-0.107180273021,0.00125947421293,0.0109528276227,-1.45070475943
1385575321020183501,0.261876191104,0.889276013055,-0.107182678208,0.000401341002576,0.0104421341734,-1.44977154869
1385575321030214407,0.26196335359,0.889342540181,-0.107200512086,0.000331886903347,0.0110344419633,-1.44905952211
1385575321040438788,0.261762124938,0.889335591972,-0.107078843371,-0.000598617068112,0.0111928344696,-1.44883104019
1385575321050247163,0.261760407628,0.889431985146,-0.107146843926,-0.00087440742367,0.0114683547489,-1.44850254114
1385575321060236340,0.261873812796,0.889548046224,-0.107053890788,-0.000558108564176,0.011689694585,-1.44860188654
1385575321070237745,0.261828669389,0.88963051235,-0.106833330889,-0.000782438463863,0.0113738637973,-1.44835709399
1385575321080194416,0.261759130072,0.889730204594,-0.107104211171,-0.00142848684098,0.0110660215465,-1.44846248729
1385575321090324665,0.261790363911,0.889844272642,-0.107296906426,-0.00112412597187,0.0100635102604,-1.44797646496
1385575321100203734,0.261728622896,0.889935410235,-0.107260413202,-0.000919754632745,0.00960829552921,-1.44775170489
1385575321110421932,0.261715684381,0.890130709773,-0.107059833654,-0.00128007624735,0.0109249758186,-1.4471131165
1385575321120236638,0.261595546331,0.890172809288,-0.107109434973,-0.00142563082642,0.0120997281366,-1.44750183077
1385575321130256892,0.261721018237,0.890398622956,-0.107206007811,-0.00128402427897,0.0105879229458,-1.44702848204
1385575321140280663,0.261506841623,0.890423598439,-0.106980645032,-0.00122302154267,0.0112379008144,-1.4474845404
1385575321150295897,0.261461523759,0.89064249442,-0.10707655942,-0.000735809297469,0.0123175236366,-1.4474382156
1385575321160240176,0.261317359052,0.890655187975,-0.107363956843,-0.000587621803737,0.0116987271445,-1.44740329931
1385575321170267079,0.261292350806,0.890855553882,-0.107578579116,-8.18945037934e-05,0.00977743489964,-1.44824880418
1385575321180193684,0.261162354984,0.890961977646,-0.1072588828,0.00138422406545,0.00930695434931,-1.44788787954
1385575321190299778,0.261102155271,0.891192083205,-0.106914413025,0.00151578296066,0.0103890057976,-1.44837741271
1385575321200216790,0.260957053439,0.891444886719,-0.107116082257,0.00219538706047,0.0113228097033,-1.44880408185
1385575321210235578,0.260813652601,0.891621234117,-0.107328074925,0.00148635273359,0.0136398451935,-1.45006589879
1385575321220238664,0.260592281045,0.891822541843,-0.107471828164,0.000166867738189,0.0140952882835,-1.45075395163
1385575321230244312,0.260398109814,0.891972416357,-0.107464818013,-0.00122272573904,0.0136713745894,-1.45146874582
1385575321240330350,0.260142714954,0.892195449452,-0.10759858695,-0.00276991395785,0.0127616722293,-1.45184956031
1385575321250270121,0.260066586241,0.892375987406,-0.107772031739,-0.00330628330104,0.010207974187,-1.45192940568
1385575321260218271,0.259864524886,0.892650804122,-0.107845226787,-0.0033529055967,0.0101020651755,-1.45267689372
1385575321270248391,0.259737360929,0.892862512945,-0.107712343697,-0.00229661334797,0.00855462105779,-1.453455496
1385575321280215683,0.259490669264,0.893283296456,-0.107575850912,-0.000368987518691,0.00837956185659,-1.45380090477
1385575321290302202,0.259421211516,0.893592858235,-0.10777913743,0.00232605878666,0.00956343733611,-1.45513247356
1385575321300174332,0.259176243124,0.89411107593,-0.1077986603,0.00445310208852,0.0111599319727,-1.45668870425
1385575321310231039,0.259139885122,0.894501594003,-0.10786368212,0.00520122281467,0.0123308625009,-1.45693563791
1385575321320190572,0.258979180659,0.895006815329,-0.107769049848,0.00591448343314,0.0128554450991,-1.45769460646
1385575321330196400,0.258882881741,0.895346003491,-0.107694252928,0.0051608985769,0.0128743495084,-1.45751769085
1385575321340186719,0.258662364932,0.895867692081,-0.1078635187,0.00400251466374,0.0118466294319,-1.45774428798
1385575321350232391,0.258466575793,0.896301210888,-0.108023924529,0.00222089527536,0.0113568523741,-1.4581904086
1385575321360190874,0.258336810053,0.896795084967,-0.108033083711,0.000402571794622,0.0115249367751,-1.45870470677
1385575321370190945,0.258088359471,0.897312770677,-0.10802316682,-0.000862558394169,0.0103816723693,-1.45933489768
1385575321380191987,0.257948268344,0.897862303771,-0.108248464062,-0.000600976887934,0.0106010297519,-1.45981641494
1385575321390162223,0.257821584304,0.898392724408,-0.10846209138,5.9898441185e-05,0.0112048614283,-1.4606136574
1385575321400237552,0.257885573495,0.89903939915,-0.108783528631,0.00248518147886,0.0109643226207,-1.46073196254
1385575321410248373,0.257646486658,0.899721517135,-0.108863966783,0.00533715244276,0.011708954714,-1.4623212754
1385575321420234577,0.257579539671,0.90045953393,-0.109127762461,0.00792998352814,0.0142028475382,-1.46254492149
1385575321430199987,0.257484145365,0.901170293084,-0.109645074307,0.0112543597566,0.0149832999942,-1.46356782697
1385575321440301286,0.257483605479,0.901954042101,-0.110228945956,0.0139513013931,0.0169607384738,-1.46433607951
1385575321450230055,0.257167302199,0.902765249802,-0.110407875917,0.0152160308111,0.0184170055683,-1.46550233363
1385575321460193522,0.257165615759,0.903521799789,-0.110931429718,0.0163398249981,0.0201675184203,-1.46634727869
1385575321470617109,0.256747957686,0.904492053459,-0.111613708258,0.0183771573434,0.0216261137818,-1.46705148668
1385575321480224895,0.256767820236,0.905361422741,-0.11243751501,0.019850561272,0.0228693078142,-1.46854893376
1385575321490191246,0.256522411284,0.90645399767,-0.113187733605,0.0226070649557,0.0243256856462,-1.46961208569
1385575321500257514,0.256158952904,0.90749631134,-0.113964372831,0.0251405108758,0.0271324018968,-1.47116966194
1385575321510214355,0.255883474298,0.908586646598,-0.114851637793,0.0276992066894,0.0295433149034,-1.47266341563
1385575321520236930,0.255589466854,0.909770161494,-0.115943451616,0.031160155745,0.0303169866033,-1.47391471371
1385575321530261587,0.255331538098,0.910983490512,-0.11700615197,0.0331659447358,0.0327028749294,-1.47505791477
1385575321540352662,0.255165440162,0.912274501671,-0.118158969073,0.0352488390033,0.0330712248473,-1.47638421625
1385575321550307730,0.2548074771,0.913630320552,-0.119290266945,0.0360361819809,0.0355120737816,-1.47712982804
1385575321560173987,0.254500404624,0.914962604484,-0.120895121339,0.0369705063144,0.0361369707684,-1.47850372143
1385575321570307358,0.254211339332,0.916405456258,-0.122354695631,0.0384172337521,0.0381249196258,-1.47919545896
1385575321580252846,0.253995846846,0.917883256191,-0.123698761334,0.03971307637,0.0399427266916,-1.48080589551
1385575321590216653,0.253615684553,0.919434200936,-0.125604818248,0.0410140816361,0.040458004495,-1.48219483473
1385575321600293623,0.253446636406,0.920915923075,-0.127540520329,0.0421702655472,0.0429967753875,-1.48350545083
1385575321610383584,0.253247374888,0.92260251795,-0.129442927978,0.0430734723512,0.0437440717004,-1.48483530361
1385575321620200502,0.252879648419,0.92412333423,-0.131376372761,0.0440540269602,0.0450447575803,-1.485645797
1385575321630239190,0.252868245774,0.926029874133,-0.133487456813,0.0433039408657,0.0467372382247,-1.48667689374
1385575321640347523,0.252566271682,0.927745557158,-0.1357610897,0.0434814514771,0.0477978353492,-1.48703250489
1385575321650286781,0.252513927617,0.929601862417,-0.138344883921,0.0428625118577,0.0472013454891,-1.48806308108
1385575321660377209,0.252422736641,0.931463925166,-0.14079449934,0.0424085105079,0.0480273357379,-1.48857295321
1385575321670254762,0.252385217521,0.933519213715,-0.143191585208,0.0433736623361,0.0496210157159,-1.4887727281
1385575321680270694,0.25241784615,0.935529192265,-0.146037093313,0.0446544775296,0.0505087444894,-1.48889911144
1385575321690231551,0.252602081923,0.93763532765,-0.149142085182,0.0455593217864,0.0510725894988,-1.48867677629
1385575321700270201,0.252786418234,0.939794763111,-0.151829729002,0.047155858153,0.0531557345864,-1.48825425642
1385575321710228009,0.253002425937,0.942004813825,-0.154857392223,0.0477338237489,0.0535469934663,-1.4882801652
1385575321720173240,0.253399654572,0.944236111606,-0.157943254226,0.0479367989259,0.0535370966887,-1.48871780304
1385575321730208195,0.253541685069,0.946543234811,-0.161227120054,0.0483537781294,0.0546184945559,-1.48912819327
1385575321740208482,0.253908526122,0.948886163983,-0.164751073335,0.0486520959094,0.0545433616382,-1.49003718123
1385575321750312459,0.254277644459,0.951225606846,-0.16798400869,0.0506994168728,0.0554358771096,-1.49068549099
1385575321760261078,0.254663499107,0.95369610999,-0.171307203503,0.0513419303433,0.0575651303883,-1.49109900321
1385575321770334568,0.255207994301,0.956258430895,-0.174956824954,0.0524498508412,0.0594480739682,-1.49157232811
1385575321780230731,0.255425131886,0.958814638622,-0.178559245893,0.0532735556376,0.061207691989,-1.49185167525
1385575321790238790,0.25630019557,0.961574594628,-0.182336101755,0.054035481113,0.0625719862174,-1.49171153957
1385575321800427411,0.256666692518,0.964156395825,-0.186021243436,0.0545515324421,0.0658257563229,-1.49236872163
1385575321810211302,0.257446730683,0.966943732089,-0.190008621608,0.0548052329063,0.0667649928388,-1.49357130369
1385575321820204509,0.258296808161,0.969832178262,-0.194129967731,0.0566214981803,0.0691105897954,-1.49400005439
1385575321830309229,0.258871411135,0.972698175365,-0.197875892874,0.0598254372682,0.0685505806938,-1.49437593943
1385575321840358986,0.259962002102,0.975635129297,-0.202112003583,0.0605608307399,0.0700369259701,-1.49429813412
1385575321850245268,0.260589962718,0.978586641947,-0.206029050849,0.061849845439,0.0705550775206,-1.49441493701
1385575321860337044,0.261617143303,0.981648157214,-0.210142630182,0.0624725990956,0.0710231327113,-1.49445041495
1385575321870275294,0.2623781767,0.984670504847,-0.214376986668,0.0630139315218,0.0701767230821,-1.49511895903
1385575321880275357,0.263175197777,0.987804476104,-0.218569532338,0.0624469889657,0.0691994199908,-1.49602955527
1385575321890280977,0.264153359308,0.99099475114,-0.222662363751,0.0609574544015,0.0718774884785,-1.49603179367
1385575321900267208,0.265193010605,0.994199638762,-0.227121703806,0.0601777735615,0.0691465444694,-1.4967426942
1385575321910281420,0.266521300437,0.997533296728,-0.231668358528,0.0595540028882,0.0676504385413,-1.49759043049
1385575321920239433,0.267540268331,1.00092341987,-0.235941060101,0.0569276983176,0.06902595534,-1.49631209845
1385575321930301496,0.268802678272,1.00429616619,-0.240264647569,0.0548490846188,0.0677584419696,-1.49691876921
1385575321940310042,0.26980941366,1.0076920795,-0.244530145141,0.053114471319,0.0689481335052,-1.49720421412
1385575321950244998,0.271090822135,1.01122152182,-0.249137915085,0.0515752296682,0.0672730306154,-1.49802744075
1385575321960348313,0.272099448016,1.01476109161,-0.253614634606,0.0503699551665,0.0660071027366,-1.49897371507
1385575321970252636,0.273989153582,1.01834099686,-0.258299906899,0.0490678162953,0.0637421573208,-1.49924822065
1385575321980204549,0.275240617597,1.02192035189,-0.262783856093,0.048584669939,0.0629780595721,-1.49965421739
1385575321990255892,0.276537484182,1.02553361591,-0.267161632875,0.0471329427554,0.0623170070974,-1.50022805133
1385575322000192439,0.277980768968,1.02933601381,-0.271924921102,0.0452141656499,0.0612811599325,-1.5009993572
1385575322010233160,0.279418862537,1.03299730323,-0.276377096522,0.0442111568161,0.0593478667971,-1.50145564565
1385575322020416525,0.280937105208,1.03687328179,-0.280933268132,0.0416988660667,0.0589216603813,-1.50261327117
1385575322030282917,0.282181127684,1.04061655122,-0.285399330659,0.0394380325564,0.0581964117025,-1.50338349747
1385575322040380476,0.283380887366,1.04446032838,-0.290041198938,0.0367794859192,0.0590519951436,-1.50397301127
1385575322050323553,0.284970747873,1.04846936753,-0.29468227671,0.03387093539,0.0577210111,-1.50425840609
1385575322060293648,0.286614255544,1.05240411833,-0.299301694542,0.0321467624501,0.0560581549412,-1.50483747507
1385575322070212539,0.287961720874,1.05632702578,-0.303901507054,0.0306095129049,0.0546667989112,-1.50534866686
1385575322080414295,0.289508733172,1.06044475473,-0.308645304428,0.0280804231567,0.053910209974,-1.50589650726
1385575322090287846,0.291037601544,1.06445838324,-0.313438869222,0.0260552963486,0.0530581716704,-1.50653084846
1385575322100168767,0.292747022629,1.06854639302,-0.318061451932,0.0245502406761,0.0519875694243,-1.50744183431
1385575322110193036,0.294011894298,1.07264935013,-0.322606796898,0.022334162495,0.0490333948714,-1.5083542626
1385575322120187615,0.2955450173,1.07673432841,-0.327242736575,0.0189844665877,0.0506418703504,-1.50812348358
1385575322130239273,0.296976382088,1.08089530615,-0.33207696453,0.016263866033,0.0466148756409,-1.50909743818
1385575322140254414,0.29863555754,1.08492966208,-0.337152160376,0.0134074586718,0.0432133521841,-1.5096613409
1385575322150342166,0.300176475449,1.08914135479,-0.341761810427,0.0105512146347,0.0403760428954,-1.50972871497
1385575322160253280,0.301663238572,1.09331077721,-0.346693500484,0.00828558957933,0.0392049020513,-1.51007772926
1385575322170288626,0.303234864729,1.09744769693,-0.351719095702,0.00675159031595,0.0358132954715,-1.51089988492
1385575322180250710,0.304695194283,1.10159775212,-0.356681171479,0.00608369926301,0.0338097578581,-1.51119537841
1385575322190230624,0.305984041114,1.1058360223,-0.361630706269,0.00568385608827,0.0306109926202,-1.51139441807
1385575322200183900,0.307644518288,1.1099308322,-0.366553082176,0.00422210190683,0.0278091228918,-1.51123223068
1385575322210161039,0.309124893492,1.11402728479,-0.371680896634,0.00327785176505,0.0238312511538,-1.51157416647
1385575322220399386,0.310397388611,1.11819719526,-0.37695155523,0.00156354260251,0.0191999836673,-1.51152595649
1385575322230191309,0.311980052156,1.12228490621,-0.382360680056,-0.00138945404802,0.0164590398319,-1.51151822989
1385575322240228863,0.313242336874,1.12648784473,-0.387655550726,-0.00326322477825,0.0133015781007,-1.51175335005
1385575322250192718,0.31462771482,1.13057052362,-0.392977326362,-0.00659700205549,0.0105010945864,-1.51241583271
1385575322260241553,0.315843968238,1.13465933125,-0.397862448825,-0.00889481993947,0.00801550048115,-1.51194357424
1385575322270317721,0.317065238611,1.13881604385,-0.402779305797,-0.0104122236145,0.0048934950038,-1.51295782328
1385575322280190715,0.318407380092,1.1428031727,-0.407629611833,-0.0124728472433,0.00328684300915,-1.51321807131
1385575322290287221,0.319536501883,1.14689967576,-0.412088288664,-0.0139065336493,0.00107111135528,-1.51324226131
1385575322300205113,0.320778719295,1.15082330852,-0.416710462703,-0.0143240784275,-0.00196595098272,-1.51379025871
1385575322310250098,0.322160971552,1.15476613904,-0.421011023328,-0.0148832339209,-0.00452344103514,-1.51330832222
1385575322320392258,0.323229923086,1.15878438373,-0.425293193784,-0.0159171077228,-0.00644327836142,-1.51421885693
1385575322330254788,0.324435734412,1.16259560278,-0.429538323562,-0.0169445594448,-0.00787762642382,-1.51419733361
1385575322340195565,0.325488926231,1.16651824239,-0.433377559742,-0.0177441127426,-0.0119198568575,-1.51419513773
1385575322350233376,0.326620908604,1.17020596806,-0.437229763932,-0.0192188787025,-0.014324047988,-1.51493393556
1385575322360271219,0.327614906881,1.17394707563,-0.440874239945,-0.0198690547864,-0.0166435595076,-1.5151567912
1385575322370230327,0.328531389718,1.17771234253,-0.444385175498,-0.0209718293958,-0.0202336174444,-1.51567698936
1385575322380253839,0.329773247624,1.18139795486,-0.447846406929,-0.0225523718822,-0.0229880616117,-1.5157211785
1385575322390218392,0.330813959249,1.18495378827,-0.451090174416,-0.0235135086748,-0.0271406235296,-1.51657169176
1385575322400200906,0.331591052977,1.18844199105,-0.4541523939,-0.0248058385387,-0.0302512142346,-1.51661009221
1385575322410171534,0.332521334668,1.19192496367,-0.456986442034,-0.0260902951306,-0.0339555187944,-1.5170506154
1385575322420194595,0.333445242022,1.19538111609,-0.459937404832,-0.0275861283115,-0.0377648578867,-1.51779946995
1385575322430406215,0.334074820959,1.19875947911,-0.462637037475,-0.0283331335527,-0.040427968975,-1.51761715573
1385575322440296279,0.33488179229,1.20202535086,-0.465078235714,-0.0299852272796,-0.0436948374712,-1.51828575717
1385575322450264080,0.335844287451,1.20533732756,-0.467452987088,-0.0319805738102,-0.0471711089309,-1.51836586831
1385575322460337171,0.336544512803,1.20850904763,-0.469652262627,-0.0331569366112,-0.0518638906801,-1.51893467371
1385575322470234851,0.337296092512,1.21156664132,-0.471703882814,-0.0340529274856,-0.0560563426924,-1.51899681296
1385575322480275770,0.33783878597,1.21460292122,-0.473565851531,-0.0346945663251,-0.0595648895496,-1.5191103255
1385575322490197501,0.338532563983,1.21754413116,-0.475347748887,-0.035392349262,-0.0636902168642,-1.51945390649
1385575322500224170,0.339111244915,1.22038340209,-0.477014211456,-0.035431957738,-0.0668182680405,-1.51956056365
1385575322510245327,0.339682094234,1.22319245777,-0.478547261556,-0.0360986559829,-0.0708929004636,-1.52056480798
1385575322520194919,0.340340648146,1.22586108417,-0.479912635109,-0.0365984601996,-0.0741647942833,-1.52027654743
1385575322530269456,0.341005686196,1.22858999463,-0.481009386378,-0.0369023304582,-0.0774987901106,-1.520905325
1385575322540218603,0.341582822921,1.23105114503,-0.482094079794,-0.0364325969609,-0.0814182270106,-1.52099259297
1385575322550206276,0.341865947829,1.23343762627,-0.48321397631,-0.0379971337685,-0.0849660557001,-1.5213871977
1385575322560242387,0.342275299259,1.23573188343,-0.484022478455,-0.0385524901958,-0.0881682247401,-1.52198262579
1385575322570218572,0.342619841406,1.23800734479,-0.484738083972,-0.0394047598811,-0.0925297217924,-1.52222807402
1385575322580178238,0.343090489675,1.24010888203,-0.485385049099,-0.0400992635029,-0.0961761516333,-1.52272049719
1385575322590247531,0.343422459172,1.24208476746,-0.485869884684,-0.0409602887162,-0.10024652131,-1.52269733032
1385575322600220260,0.34368956658,1.24400526347,-0.486226554927,-0.041755279895,-0.103928434613,-1.52316932753
1385575322610254125,0.343922590548,1.24580832161,-0.486467974315,-0.0423540046565,-0.107343966834,-1.5231380442
1385575322620203505,0.343972873553,1.2474363746,-0.486759473948,-0.0429094437458,-0.110771008547,-1.52329311702
1385575322630236600,0.344260637129,1.24902187826,-0.486801236732,-0.0439609333602,-0.114701073898,-1.52384063696
1385575322640305994,0.344408614786,1.25049141716,-0.486771676545,-0.0446619983884,-0.118277374116,-1.52405525567
1385575322650212825,0.344461882479,1.251790488,-0.486687981683,-0.0452980404227,-0.121451791991,-1.52454394771
1385575322660272095,0.344564115081,1.252962604,-0.48653285221,-0.0466069616909,-0.125703205162,-1.52499078517
1385575322670339034,0.344451990164,1.25400529336,-0.48623085705,-0.0475198133027,-0.128702799487,-1.52532045269
1385575322680289266,0.344392625622,1.25495511179,-0.485911317546,-0.0477446932212,-0.13146152553,-1.52561395458
1385575322690226351,0.344384019687,1.25581857615,-0.485387357172,-0.0490029065687,-0.135120042625,-1.52604945273
1385575322700221837,0.344353269875,1.25642624298,-0.484825425792,-0.0499511131615,-0.137804417852,-1.52627823542
1385575322710250356,0.344199404264,1.25693209746,-0.484265149515,-0.0504632131629,-0.140355273703,-1.52673527435
1385575322720222765,0.343914171056,1.25735907981,-0.483488371408,-0.0514284762672,-0.14205824209,-1.52710535187
1385575322730246190,0.343724472505,1.25761663399,-0.482779546752,-0.0520078800773,-0.144964878089,-1.52760445778
1385575322740168317,0.343429924454,1.25768424986,-0.4821377573,-0.0511475755148,-0.147582126201,-1.52767343864
1385575322750243387,0.343123725366,1.25770238949,-0.481099482401,-0.0523107297362,-0.150199518741,-1.52851765707
1385575322760207414,0.342931575502,1.25752332853,-0.480214549473,-0.0521538982132,-0.152561366857,-1.52836968407
1385575322770235021,0.34243507999,1.25714825457,-0.478998359212,-0.0530308914733,-0.15523727377,-1.52895475684
1385575322780214969,0.342102955639,1.25665330796,-0.477997301519,-0.0533013538053,-0.157000495706,-1.52918867659
1385575322790187225,0.341540133946,1.25592714882,-0.476806223901,-0.0542314343209,-0.15940196636,-1.52969559866
1385575322800245365,0.340999151705,1.25512642287,-0.475616657106,-0.0546904873997,-0.16248030936,-1.52989002882
1385575322810270578,0.340416188934,1.25416138901,-0.474276896583,-0.0553182291985,-0.164322406502,-1.53003728483
1385575322820193850,0.33998377211,1.25302964815,-0.472933724819,-0.0561953242091,-0.166725490343,-1.53061099126
1385575322830214006,0.339217679149,1.25164971664,-0.471664381791,-0.0563049320158,-0.169427998993,-1.53086011504
1385575322840291454,0.338586169717,1.2501390266,-0.470206207103,-0.056784159338,-0.172416466912,-1.53122287105
1385575322850202554,0.337899569205,1.24854627609,-0.468792300469,-0.0570248181534,-0.174144840702,-1.53180511865
1385575322860269769,0.337199932615,1.24680273785,-0.467346211254,-0.0577395901799,-0.177654194622,-1.53250691304
1385575322870276055,0.336289635943,1.24474160548,-0.465790929755,-0.058131174828,-0.179156725841,-1.53251371421
1385575322880269573,0.33542327303,1.24257103618,-0.464355044184,-0.0579861507117,-0.1811445678,-1.53313297091
1385575322890370297,0.334522318096,1.24024202421,-0.462767831951,-0.0588036493734,-0.183267100551,-1.53317810275
1385575322900239843,0.33363992301,1.2377704514,-0.461137779328,-0.0591787588781,-0.184625516806,-1.53348263139
1385575322910252049,0.332699503148,1.23501857265,-0.459637648375,-0.0595394949754,-0.187036201991,-1.53331432867
1385575322920212723,0.331535264147,1.23225156876,-0.457909725539,-0.0609546262126,-0.187547453206,-1.5337574454
1385575322930239026,0.330507748756,1.22922139662,-0.456356523122,-0.0613916446844,-0.189689749197,-1.53457614286
1385575322940242243,0.329375864965,1.22601909841,-0.454495791355,-0.0632894535356,-0.190771988551,-1.53431380954
1385575322950252143,0.328212612415,1.22273489157,-0.452815036991,-0.0641116139441,-0.190464802885,-1.53504146802
1385575322960184395,0.326816497915,1.21911034108,-0.451215711515,-0.0645887542728,-0.192833261408,-1.5353847653
1385575322970237560,0.325751670176,1.21541011368,-0.44940197013,-0.0659428289036,-0.193402968793,-1.5353544177
1385575322980155894,0.324386340631,1.21148262739,-0.447713314527,-0.0659486380195,-0.194510737877,-1.53578703995
1385575322990264660,0.32316232063,1.20732604839,-0.446003751404,-0.0662748218825,-0.194550198156,-1.53599658661
1385575323000189985,0.321611179774,1.20315275144,-0.444131100953,-0.0661146518896,-0.19491469902,-1.53660444711
1385575323010204781,0.320218986621,1.19862826303,-0.44238638666,-0.0662627233571,-0.195594715723,-1.53683655671
1385575323020225226,0.318765056089,1.19415736904,-0.440523660424,-0.0663558531641,-0.195246604213,-1.5373920201
1385575323030237437,0.317133562087,1.18932023216,-0.438791831569,-0.0656080319353,-0.196000252888,-1.53747355903
1385575323040271063,0.315758752319,1.1843413425,-0.436900235082,-0.0659519421841,-0.19565630767,-1.53781909563
1385575323050421552,0.314098683267,1.17921012908,-0.435108706332,-0.0661070171368,-0.195600581175,-1.5376831489
1385575323060218415,0.312311170668,1.17389262886,-0.433249276162,-0.0661341247219,-0.195547120806,-1.53808200245
1385575323070312306,0.310675778524,1.168399001,-0.431394785029,-0.0664874976996,-0.194672598187,-1.53823186955
1385575323080228966,0.308895191234,1.16279945526,-0.429705691502,-0.0660255279287,-0.194051575107,-1.53884800801
1385575323090175697,0.307083152947,1.15692501856,-0.427800103004,-0.0664383463206,-0.194184126516,-1.53917792212
1385575323100163037,0.305200089688,1.15094626919,-0.426014884269,-0.0664608208594,-0.192950555761,-1.5390921124
1385575323110215139,0.303305083795,1.14472851672,-0.424360870507,-0.0658484499463,-0.192566655194,-1.53899570011
1385575323120245290,0.301313020194,1.13844126229,-0.422468833536,-0.0663380322419,-0.191607805478,-1.53910404301
1385575323130225719,0.299314903199,1.13188096579,-0.420744556753,-0.0662269279247,-0.191020120553,-1.53920506908
1385575323140225359,0.297093554854,1.12513797689,-0.419039885878,-0.0657841669223,-0.189917941731,-1.53992774057
1385575323150243201,0.295178749782,1.11832631702,-0.417304774014,-0.0658587680167,-0.189276950583,-1.53982513919
1385575323160212899,0.292878916371,1.11129866883,-0.415531425989,-0.0650218860794,-0.189247021428,-1.54031712598
1385575323170206555,0.29063547537,1.104081942,-0.41379214366,-0.0658767471858,-0.188676948231,-1.5403183599
1385575323180155417,0.288362304133,1.09675642132,-0.412077008279,-0.0663000052538,-0.187653869234,-1.54000858449
1385575323190168021,0.28603170724,1.08918044037,-0.410463389871,-0.0666476252773,-0.187153971985,-1.54028145969
1385575323200289672,0.283709774735,1.08159659086,-0.408927493537,-0.0664573186917,-0.185875093948,-1.54024316882
1385575323210227618,0.281317939022,1.0736948161,-0.407239281937,-0.0665544459769,-0.185090584385,-1.5405561869
1385575323220215029,0.278757631223,1.06568243226,-0.405620249208,-0.0666169004129,-0.184169606515,-1.54052524827
1385575323230212262,0.276261479673,1.05751421101,-0.404149025262,-0.0660766953352,-0.182645716177,-1.54086210755
1385575323240263157,0.273641373174,1.04920623885,-0.402676781108,-0.0650744712191,-0.181384142396,-1.54138528461
1385575323250248766,0.270982809024,1.04071766467,-0.401291245313,-0.0644243614253,-0.179501253007,-1.54083512283
1385575323260166865,0.26849185926,1.03218269156,-0.399638526325,-0.0644142058104,-0.178364169791,-1.54102221011
1385575323270323703,0.265732225253,1.02339361002,-0.398313163261,-0.0634960295518,-0.177501678739,-1.54119917965
1385575323280179100,0.263036159441,1.01445471533,-0.396991433977,-0.062304220328,-0.176069290529,-1.54109043416
1385575323290227033,0.260219728454,1.00541765535,-0.395637734588,-0.0617329495075,-0.174723369344,-1.5417320078
1385575323300152761,0.25738603288,0.996193825489,-0.394338182408,-0.0607927449141,-0.173884372893,-1.54154954279
1385575323310240550,0.254576121263,0.986811552943,-0.392947539732,-0.0608028396439,-0.173334690068,-1.54173999252
1385575323320215020,0.251594494703,0.977259658002,-0.391705973057,-0.0604783387064,-0.172233536991,-1.54175449825
1385575323330193373,0.248684081967,0.967581474481,-0.390611004062,-0.060162044586,-0.171573016264,-1.54160726321
1385575323340184600,0.245665582848,0.957723272545,-0.389400753942,-0.0597662508372,-0.170667740644,-1.54114773393
1385575323350237282,0.242765117193,0.94787686294,-0.388200950548,-0.0602084015125,-0.16918386306,-1.54137881208
1385575323360147544,0.239667026316,0.93776994838,-0.387134075612,-0.0593785102439,-0.169182001586,-1.54097432798
1385575323370217251,0.23659843903,0.927588187767,-0.385990460635,-0.0588915543622,-0.167567169129,-1.54148805109
1385575323380150288,0.233544334129,0.91721843162,-0.385072648967,-0.0578252201832,-0.166540141888,-1.54134335713
1385575323390414980,0.230207101319,0.906679987046,-0.384137589967,-0.0560759079079,-0.164992764226,-1.5409085227
1385575323400200780,0.227224759635,0.896267465625,-0.38312858094,-0.0553144101167,-0.164212885786,-1.54143385678
1385575323410166583,0.224009963853,0.885489117552,-0.382297056474,-0.05386585318,-0.163331606287,-1.54091771276
1385575323420256652,0.220786545196,0.874597253233,-0.381275341364,-0.0527668682675,-0.162214803148,-1.54051351886
1385575323430207072,0.217670672623,0.86371282094,-0.380588241959,-0.0518573536382,-0.161147630875,-1.54074754688
1385575323440190113,0.214277479344,0.852577335486,-0.379766780742,-0.0508676968067,-0.159130203371,-1.53993123923
1385575323450256437,0.210914596024,0.841390000152,-0.379039917997,-0.050057079915,-0.157712451806,-1.54002479436
1385575323460176166,0.207756728781,0.830133771557,-0.37840890959,-0.0496198050724,-0.158691997242,-1.5401183016
1385575323470251614,0.204398200826,0.818657197933,-0.377767428227,-0.0487903470717,-0.157425890502,-1.53954572363
1385575323480196711,0.200704095751,0.807045061339,-0.377053630554,-0.04770059344,-0.15568186243,-1.53967042596
1385575323490237339,0.197490045205,0.795392683764,-0.376571312613,-0.0474423012788,-0.154192758435,-1.53905034048
1385575323500190869,0.194079563721,0.78362805613,-0.376253080943,-0.0463501531663,-0.152553943493,-1.53898332281
1385575323510260624,0.190490497976,0.771717634753,-0.375718639672,-0.0457369177806,-0.152061295143,-1.53890915388
1385575323520220713,0.187272971601,0.759737178791,-0.375393922157,-0.0450522401347,-0.15096294003,-1.53835669427
1385575323530304786,0.183775671072,0.747586071034,-0.375224336245,-0.042568978759,-0.149898657236,-1.53858096764
1385575323540230698,0.180198824768,0.735401688656,-0.374816270515,-0.0426228562921,-0.148495003058,-1.53839295874
1385575323550229247,0.176902595526,0.723080700183,-0.374500574571,-0.0414193284094,-0.147366662754,-1.53815420941
1385575323560233613,0.173185961615,0.710695496496,-0.37416955214,-0.0396690844355,-0.146073119393,-1.53756371061
1385575323570238181,0.169756760936,0.698268481224,-0.373968954932,-0.0385409921875,-0.143986082165,-1.53618551185
1385575323580200568,0.166469800206,0.685686863454,-0.373924011791,-0.0368384068035,-0.143345946363,-1.53587126094
1385575323590262545,0.162825441785,0.672987415331,-0.373768084868,-0.0352504771798,-0.141096127851,-1.53525724215
1385575323600166026,0.159457051304,0.660205654987,-0.373726032564,-0.0338078943226,-0.138619011135,-1.53497148175
1385575323610243728,0.155814051635,0.647322830101,-0.373660983182,-0.0322431896092,-0.137863154851,-1.53535379585
1385575323620221165,0.152204946183,0.63439767175,-0.373633529722,-0.0308751431971,-0.134592575125,-1.53502009742
1385575323630177071,0.148743991793,0.621394306453,-0.373528389368,-0.0304007871849,-0.132305264616,-1.5348424732
1385575323640287086,0.145128160097,0.60831686599,-0.373664055781,-0.0296996709643,-0.129723945357,-1.53454924602
1385575323650451166,0.141747050998,0.595077522298,-0.373798379498,-0.0284427996464,-0.126433382627,-1.53403656776
1385575323660240739,0.13798114031,0.581896709304,-0.373672350445,-0.0283854208775,-0.124650059298,-1.53380309988
1385575323670248642,0.134354440384,0.568566254333,-0.37394178684,-0.0282544702589,-0.121810751044,-1.53357324348
1385575323680274778,0.130836432678,0.555164089208,-0.374041964612,-0.0269708127551,-0.119596856934,-1.53351830727
1385575323690498789,0.127220646526,0.541703061913,-0.374196019339,-0.0260683237755,-0.116423251685,-1.53335943278
1385575323700210176,0.123818558873,0.528159672211,-0.374483244555,-0.0250837078182,-0.11423274825,-1.53314394867
1385575323710259753,0.120196109014,0.514563480198,-0.3747073719,-0.0234107362596,-0.11214621637,-1.53292038893
1385575323720166346,0.116698604966,0.500966823731,-0.374977619437,-0.0238676662163,-0.109543074794,-1.53266522945
1385575323730264435,0.11301960211,0.487295134871,-0.375310737342,-0.0229468340489,-0.107855462461,-1.53247876687
1385575323740225245,0.109361015226,0.473604914667,-0.375680647204,-0.0218515145653,-0.105756078283,-1.53198321813
1385575323750220077,0.106007443212,0.459758480667,-0.376089286719,-0.0223445220641,-0.103044537311,-1.53181572717
1385575323760256010,0.10239405155,0.445941081001,-0.376648601308,-0.0203704215655,-0.100786127224,-1.53133970996
1385575323770226348,0.0989211972016,0.432097339835,-0.377127030053,-0.0193917511298,-0.0980326144888,-1.53154938634
1385575323780175866,0.0957040606246,0.418163728826,-0.377701649189,-0.0180967746183,-0.0953030500211,-1.53136927014
1385575323790215532,0.0921495042777,0.404247439573,-0.378365015109,-0.0152319835535,-0.0928989014347,-1.53119914278
1385575323800209543,0.0886639223428,0.390189358013,-0.378867043522,-0.0139997870989,-0.0914224441081,-1.53115758621
1385575323810267618,0.0853138650284,0.376263043971,-0.379486371157,-0.0124924479103,-0.088820825142,-1.53026660445
1385575323820190466,0.0817902537911,0.362184502822,-0.380277744539,-0.0104563323157,-0.0861017157633,-1.53003224418
1385575323830217180,0.0786366771004,0.348120321991,-0.380915055964,-0.00932072859643,-0.0836200885579,-1.5300352079
1385575323840298831,0.0751579810984,0.334052783127,-0.381622073925,-0.00716779279358,-0.0817292076342,-1.52964705044
1385575323850196064,0.0718279206089,0.319878414735,-0.382592275723,-0.005057449624,-0.07953313997,-1.52991515284
1385575323860235099,0.0684484460544,0.305704683485,-0.383295241768,-0.00465698541251,-0.0767962993808,-1.52954068267
1385575323870364543,0.0652106488656,0.291636710262,-0.384222750909,-0.00298858093864,-0.0741970166879,-1.52927467175
1385575323880184069,0.0618723643142,0.277405834519,-0.385007478378,-0.0031414561752,-0.0724160719789,-1.52922796745
1385575323890421788,0.0584681020093,0.263228176765,-0.38580708531,-0.00278464783916,-0.0704326142227,-1.52862874798
1385575323900258890,0.0552332343486,0.249023886505,-0.386929167638,-0.00234917666512,-0.0664542783732,-1.52852448346
