%time,field.linear.x,field.linear.y,field.linear.z,field.angular.x,field.angular.y,field.angular.z
1385576812968089648,-0.0,0.0,0.0,1.0,0.0,0.0
1385576813459093681,-0.0,0.0,8.49023056973e-08,1.0,0.0,0.394684440864
1385576813959101609,0.235847483001,-0.0826719207993,-0.00325828890211,1.0,0.0,-0.0681882247677
1385576814459120075,-0.0786003950612,0.0282601830777,0.0200056741537,1.0,0.0,0.0183101018354
1385576814958159676,-0.0221441942028,0.00781406205538,0.0429971071911,1.0,0.0,-0.00171807485183
1385576815459157819,-0.0446766042897,0.0161689901061,0.068558926316,1.0,0.0,0.00549641763514
1385576815958296773,0.10192453638,-0.0440020043142,0.0937122120048,1.0,0.0,-0.0027176326464
1385576816457183578,0.040715602668,-0.0144796269031,0.115412097879,1.0,0.0,-0.00880841845251
1385576816958183453,0.0676284436181,-0.0062467061948,0.0983758503004,1.0,0.0,-0.0126822176647
1385576817457191248,0.0180269511126,0.0272827632863,0.0824860153126,1.0,0.0,-0.0100796051801
1385576817958141970,0.0530018477515,0.0146993819246,0.114107429915,1.0,0.0,-0.00908406051889
1385576818458361748,0.0326271752465,0.00614630172954,0.141433687138,1.0,0.0,-0.00698961774682
1385576818958395333,0.0475516784186,-0.0121692528562,0.13789763716,1.0,0.0,-0.00553350048083
1385576819458640818,0.0318958683517,0.00223426892444,0.130021270388,1.0,0.0,-0.0038345836011
1385576819958386874,0.0421595381315,0.0105122604114,0.113494618069,1.0,0.0,-0.00305418451428
1385576820458404977,0.0347153449164,0.0212168869867,0.097605630472,1.0,0.0,-0.00145079326842
1385576820958470685,0.0355559757049,0.00799422731702,0.084694529854,1.0,0.0,-0.00085115468389
1385576821458509109,0.0237121692408,0.00208032105642,0.0722830935452,1.0,0.0,5.66815231849e-05
1385576821958415692,0.0187670078057,-0.00207761832765,0.0604018133377,1.0,0.0,0.000763469237623
1385576822458460871,0.0174685439369,0.0078920902815,0.0502946030579,1.0,0.0,0.0013166472088
1385576822958447940,0.0213907115827,0.0121244393563,0.0428491230895,1.0,0.0,0.00167964418141
1385576823458430674,0.0183400163053,0.0129423362698,0.036887419815,1.0,0.0,0.00209124065727
1385576823958402704,0.0141967526861,0.00662247038763,0.0310231610951,1.0,0.0,0.00237938724589
1385576824458426985,0.0128538095317,0.00265417065745,0.0267294585054,1.0,0.0,0.00289559577027
1385576824957843800,0.0194875853945,0.00116000806379,0.0236844919685,1.0,0.0,0.0028486364211
1385576825458715860,0.0229945393261,0.000808589679212,0.0208480084041,1.0,0.0,0.00328067552017
1385576825958709657,0.0264690808168,0.00246569192272,0.0179866116225,1.0,0.0,0.00392679829919
1385576826458650850,0.0298527991259,0.00575681937386,0.0167921172671,1.0,0.0,0.00501921323339
1385576826958658121,0.0307320656103,0.00305614691728,0.0171055943356,1.0,0.0,0.0059973524671
1385576827458619741,0.0267603907672,-0.0017717337241,0.0180919235621,1.0,0.0,0.00612578351402
1385576827958469887,0.0138120090574,-0.00199592089866,0.0169177586564,1.0,0.0,0.00616033910309
1385576828458565269,0.00388985197087,0.00177840800242,0.0149220234673,1.0,0.0,0.00624682252679
1385576828957627294,0.00474830522356,0.00263712755174,0.0134456599751,1.0,0.0,0.00652539664363
1385576829458566723,0.0136397195618,0.00539842207282,0.0114062305887,1.0,0.0,0.00729604958941
1385576829958575605,0.0206740585241,0.00587775476909,0.0104093170203,1.0,0.0,0.0087860437271
1385576830458718951,0.0206328265121,0.00527277709619,0.00966762091449,1.0,0.0,0.00874700430366
1385576830958539998,0.0134447905241,0.00424386394563,0.00821393704092,1.0,0.0,0.00869122680687
1385576831459190609,0.00608377548966,0.00069410226126,0.00689425975642,1.0,0.0,0.00931191268406
1385576831958630534,0.00262179960589,0.000436407437594,0.00581899751417,1.0,0.0,0.0084609192955
1385576832458775596,0.00342581428405,0.00624012219643,0.00510700214065,1.0,0.0,0.00791372812392
1385576832958762576,0.00733486321551,0.00460057159316,0.00405910636669,1.0,0.0,0.00795007477132
1385576833458635059,0.011085089686,-0.00310155949192,0.00325048046228,1.0,0.0,0.00702199103427
1385576833958621125,0.00799027675023,-0.00984421493935,0.00190618364032,1.0,0.0,0.00542250271302
1385576834458748497,-0.00191790141977,-0.0117707776876,0.00189424535332,1.0,0.0,0.00410396936697
1385576834958725610,-0.0112399661114,-0.00817653199175,0.00180916202523,1.0,0.0,0.00254158113883
1385576835458719571,-0.0114922144277,0.00242740081068,0.00161110432091,1.0,0.0,0.00126067020814
1385576835958725460,-0.00412175336971,0.00603732225157,0.00295540851668,1.0,0.0,-9.44465725903e-05
1385576836458721280,0.000831016563439,0.00488224116619,0.00431000086546,1.0,0.0,-0.000951942834028
1385576836958751787,-0.000488309514893,0.000308833730982,0.00469747147747,1.0,0.0,-0.00162853714263
1385576837459002374,-0.0120782125743,-0.00111880711051,0.0049183309723,1.0,0.0,-0.00247751903064
1385576837958398684,-0.019781449434,0.00310676851711,0.00407669688941,1.0,0.0,-0.00384166305413
1385576838458385140,-0.0169894302683,0.0107449587921,0.00357534960433,1.0,0.0,-0.00484745704552
1385576838958577647,-0.00791605940803,0.0103372279605,0.00352503968224,1.0,0.0,-0.00529672905791
1385576839458576764,0.00502310317193,0.00699020162395,0.00297538786355,1.0,0.0,-0.00643438685213
1385576839958495654,0.0105793465274,0.000879623820161,0.0020649648686,1.0,0.0,-0.00713053970245
1385576840458514442,0.00539357144575,-0.00679638686591,0.00177381752969,1.0,0.0,-0.00831283677987
1385576840958579465,-0.00123551627795,-0.0128454213531,0.00111426650413,1.0,0.0,-0.00874953039566
1385576841458583325,-0.00576562156268,-0.0161603827959,-0.000273959481795,1.0,0.0,-0.00907383117975
1385576841958568612,-0.00302095020947,-0.0142128166488,-0.000965259239117,1.0,0.0,-0.00877809197317
1385576842458716147,0.00239747486649,-0.00534857605777,-0.00118187077163,1.0,0.0,-0.00904914671352
1385576842958724461,0.00696949137199,0.0045720918441,-0.000925989096099,1.0,0.0,-0.00793987609951
1385576843460429143,0.0108842789083,0.00402001856278,-0.00066892734551,1.0,0.0,-0.00640997549341
1385576843958261036,0.0146978091093,-0.0112653069011,-0.000115021842359,1.0,0.0,-0.00597473574975
1385576844459659741,0.0149613940262,-0.0260198380128,0.000857913367597,1.0,0.0,-0.00543536581586
1385576844958622704,0.0137343707226,-0.020854808227,0.00113709703389,1.0,0.0,-0.00435338158484
1385576845458658421,0.0138171018059,-0.00454282727221,0.0014518663744,1.0,0.0,-0.00313824504043
1385576845958396975,0.0198708062075,0.00609489144084,0.00108486164472,1.0,0.0,-0.00186364012146
1385576846458658970,0.0204445348034,-0.00232826029445,-0.000605660901958,1.0,0.0,0.000483955319248
1385576846958520593,0.018377899887,-0.0184479153453,-0.00314354135119,1.0,0.0,0.00232868188171
1385576847458931907,0.0202474403171,-0.0308449136878,-0.00448260141709,1.0,0.0,0.00389509749487
1385576847958645943,0.0238527818195,-0.0305607495132,-0.00488957158048,1.0,0.0,0.00412775752015
1385576848458508461,0.0282351317143,-0.0231329130962,-0.0042274297316,1.0,0.0,0.00325489462677
1385576848958569563,0.0268789884104,-0.00983888199244,-0.00298298686449,1.0,0.0,0.00172707991607
1385576849458446110,0.0249806681078,-0.00915028313534,-0.0029893086615,1.0,0.0,-0.000441107582466
1385576849957753408,0.0231448868661,-0.0130419569135,-0.00258660595604,1.0,0.0,-0.00223903808782
1385576850458192140,0.0272039484493,-0.0230221885629,-0.00158955567725,1.0,0.0,-0.00374792478589
1385576850959072977,0.0298960342651,-0.0227598014485,-0.00118903417992,1.0,0.0,-0.0044783273511
1385576851458323628,0.030303345565,-0.0173832823715,-0.000574650514092,1.0,0.0,-0.00547347724561
1385576851958445058,0.0256879686546,-0.00718766770291,0.000714356624913,1.0,0.0,-0.00614930633144
1385576852458303414,0.0212768788852,-0.00270208720617,0.00142661220708,1.0,0.0,-0.00687719321797
1385576852958510915,0.0216064900276,-0.00123667292996,0.000727926301912,1.0,0.0,-0.00642335730755
1385576853458476621,0.0259964865677,-0.00943533948941,0.00145463769392,1.0,0.0,-0.00638775553728
1385576853958490215,0.0260150418759,-0.0151071995918,0.000638470280019,1.0,0.0,-0.00630635561311
1385576854458327878,0.0205314667699,-0.0187101923914,0.00128466683894,1.0,0.0,-0.00630399749559
1385576854958470875,0.013867760944,-0.015747120075,0.000955266104324,1.0,0.0,-0.0069969945976
1385576855458405183,0.0126358454615,-0.0114013457836,0.0017421436791,1.0,0.0,-0.00751195175758
1385576855957813953,0.0167903859193,-0.00939782826912,0.00136235898766,1.0,0.0,-0.0081165896954
1385576856457874688,0.0235516343321,-0.00954739633501,0.000544830600173,1.0,0.0,-0.00836674970409
1385576856958638157,0.0284319638062,-0.011148815525,0.00161030391568,1.0,0.0,-0.0092381403112
1385576857458579166,0.0242425013979,-0.0134464159762,0.00192856770711,1.0,0.0,-0.00964637279765
1385576857958522042,0.0171355515441,-0.0078845008355,0.00285906284951,1.0,0.0,-0.00953172376739
1385576858458491005,0.0122634504084,-0.00452361266139,0.00305863281853,1.0,0.0,-0.00830676140848
1385576858958580452,0.015719473459,0.000366412527926,0.00269912151029,1.0,0.0,-0.00664482319859
1385576859458688207,0.021284553651,-0.0010960992948,0.00273477750511,1.0,0.0,-0.00546855665485
1385576859958418656,0.0248677554875,0.00219248052989,0.00239678804873,1.0,0.0,-0.00393412296007
1385576860458453976,0.0240332085859,0.00104788532102,0.00239342463452,1.0,0.0,-0.00216117484332
1385576860958542360,0.0202076641598,0.00109871518707,0.0012736125028,1.0,0.0,-0.000850909637504
1385576861458446135,0.020641526516,-0.00569028478602,0.00157495859577,1.0,0.0,0.000979415116198
1385576861958627767,0.0199515492307,-0.0121651038454,-0.000178652482293,1.0,0.0,0.00239677130245
1385576862457829236,0.0244288634908,-0.0097245674228,-0.00292357173307,1.0,0.0,0.00496770867681
1385576862958541516,0.0263487301257,-0.00383504988662,-0.00412659278224,1.0,0.0,0.00674045391124
1385576863458278665,0.0233521012164,0.00342643346698,-0.0044839807891,1.0,0.0,0.00802621639998
1385576863958303823,0.0144173643534,0.000683318905939,-0.00501651613492,1.0,0.0,0.00940841533279
1385576864458368176,0.0115169870126,-0.00387869251299,-0.00476093891647,1.0,0.0,0.0105094812408
1385576864958272513,0.0148710244311,-0.00802923397152,-0.00404223286179,1.0,0.0,0.0104816580032
1385576865457418312,0.0253698356771,-0.0054592369881,-0.00363242186188,1.0,0.0,0.0106627322016
1385576865958514917,0.0303676910918,0.000904437868372,-0.00351972597039,1.0,0.0,0.0115451624454
1385576866458415805,0.0284801430346,0.00421346206389,-0.00262648111065,1.0,0.0,0.0124897766995
1385576866958456629,0.0252079450667,0.00321519987274,-0.000767196661884,1.0,0.0,0.0129089438787
1385576867458498460,0.019921044893,0.00158328701152,0.00135687026624,1.0,0.0,0.0135797787538
1385576867958654844,0.0188554451796,5.32883555502e-05,0.00345569659281,1.0,0.0,0.014579792328
1385576868458444291,0.0196542460453,3.2954209483e-05,0.00441206645763,1.0,0.0,0.0159835206406
1385576868957792752,0.022712246759,0.00226008102507,0.00455015694072,1.0,0.0,0.0176714476171
1385576869458923630,0.0219145649627,-0.000471635632277,0.00399861486016,1.0,0.0,0.0183509681901
1385576869958816057,0.0214096822541,0.000772360656164,0.00272903212524,1.0,0.0,0.0193403108374
1385576870458975468,0.0217839339985,-0.00283903400885,0.0017397820867,1.0,0.0,0.0192666469428
1385576870958841498,0.0195823119805,-0.00104947290799,0.00211130728033,1.0,0.0,0.0197675060575
1385576871458733424,0.0182406325067,-0.00246668995606,0.00244109960119,1.0,0.0,0.0199875706047
1385576871958843569,0.0202843293913,-0.00645122129359,0.00255577542835,1.0,0.0,0.0206685227065
1385576872458812302,0.0203588255718,-0.00699541484505,0.00169599274379,1.0,0.0,0.0210952431717
1385576872958913537,0.0203111704367,-0.00357883799415,-0.00078018243152,1.0,0.0,0.022043623137
1385576873458745510,0.021001374783,-0.00415117714589,-0.00118977243644,1.0,0.0,0.0228953701395
1385576873958749894,0.0210407134008,-0.0018108989397,-0.00158916914039,1.0,0.0,0.0233644503513
1385576874458884899,0.0187432578727,-0.00637535551985,-0.000694538590199,1.0,0.0,0.0235284070089
1385576874958636499,0.019490685828,-0.00846752900162,0.000507877257844,1.0,0.0,0.0233725937784
1385576875457611271,0.0198004746439,-0.00714208101185,0.00151221706135,1.0,0.0,0.0231611276855
1385576875958616032,0.0175629525073,-0.00284353319326,0.000869926524841,1.0,0.0,0.0230419642885
1385576876458620321,0.0172780611461,-0.00286003930567,3.06284902903e-05,1.0,0.0,0.0231340468196
1385576876958561590,0.0161360599915,-0.00483458347273,-0.00143759146184,1.0,0.0,0.0232598799442
1385576877457578209,0.018173671154,-0.0117638962022,-0.00222582935945,1.0,0.0,0.023438399721
1385576877958590330,0.0166749015038,-0.0145925667363,-0.00210067180169,1.0,0.0,0.0233588992786
1385576878458614630,0.014715040022,-0.0116163174302,-0.00125397300307,1.0,0.0,0.0233452866112
1385576878958517273,0.0144295206836,-0.00602030236682,-0.00109616787465,1.0,0.0,0.0226781901136
1385576879458600712,0.016332349049,-0.00523508755913,-0.00127698265025,1.0,0.0,0.0227760887311
1385576879958611290,0.0206951060385,-0.00993474456034,-0.000402842900596,1.0,0.0,0.0229744358563
1385576880458506509,0.0208070202083,-0.0150524773604,-0.000516824826117,1.0,0.0,0.0238010526414
1385576880958553674,0.0156837945701,-0.017202147247,-0.00148249272517,1.0,0.0,0.0250213314423
1385576881457890372,0.0134551576095,-0.0103731061443,-0.00167888500206,1.0,0.0,0.0269598067358
1385576881958626212,0.0148058181718,-0.00370779198363,-0.00157961193445,1.0,0.0,0.0290209879868
1385576882458401633,0.0191469804539,-0.00363143216674,-0.00168072826839,1.0,0.0,0.030315124687
1385576882958403461,0.0222374935612,-0.00957900152027,-0.00137409444848,1.0,0.0,0.0321244415789
1385576883458359815,0.0177058183103,-0.0167192278752,-0.000918266970302,1.0,0.0,0.0323794878257
1385576883958425089,0.0130543769792,-0.0163210654189,-0.000196236647257,1.0,0.0,0.0321641299102
1385576884458408723,0.00920007896317,-0.00881076258677,0.00134055128333,1.0,0.0,0.0308026276477
1385576884958394714,0.0122598864216,0.00458966999359,0.00219786786169,1.0,0.0,0.0307391626595
1385576885458339913,0.0175503505769,0.00469978092908,0.00230579567322,1.0,0.0,0.030707458724
1385576885958423799,0.0184261041963,-0.00121409820225,0.0027670329552,1.0,0.0,0.0309683109196
1385576886458489208,0.0138153059971,-0.0143173341227,0.00232960124022,1.0,0.0,0.0309811081836
1385576886957960612,0.0105611947371,-0.0184306048355,0.00213101210955,1.0,0.0,0.031202429726
1385576887458927040,0.00994471688037,-0.0122147653241,0.00193794673354,1.0,0.0,0.0307526460835
1385576887958383894,0.0120118354776,-0.00144006398799,0.00121157027458,1.0,0.0,0.0292683290048
1385576888459005385,0.0126898479395,0.00684942798776,0.000652223741599,1.0,0.0,0.0272603252202
1385576888958769626,0.013790362396,0.00315224556005,0.000942283922181,1.0,0.0,0.0260869303204
1385576889458784438,0.0125826590333,-0.00406376796275,0.000343505685367,1.0,0.0,0.0254585667117
1385576889958946996,0.0105798032222,-0.0131086528888,1.72447065909e-05,1.0,0.0,0.0252261256163
1385576890458801231,0.0112784378237,-0.0111796169053,-0.000341253027443,1.0,0.0,0.0252909758498
1385576890959015114,0.0125083039523,0.000445223737889,0.00035774882776,1.0,0.0,0.0256527435628
1385576891458803489,0.0106312457917,0.00927685850273,-0.000122520540442,1.0,0.0,0.0257957513593
1385576891958803098,0.0115314673122,0.00704797266533,-0.00177975165846,1.0,0.0,0.0270149144826
1385576892458873374,0.0140507454402,-0.000961553021751,-0.00300194122189,1.0,0.0,0.0284844045808
1385576892958875410,0.0210772984768,-0.00790542813192,-0.00342285108442,1.0,0.0,0.0299319650884
1385576893458445304,0.0236608302024,-0.0117075838533,-0.00136605845456,1.0,0.0,0.031301676748
1385576893959503182,0.0209087247499,-0.00760110368122,0.000384074830294,1.0,0.0,0.0328767277492
1385576894458572570,0.0140257224994,-0.00433462833851,0.00189771813348,1.0,0.0,0.0339171856039
1385576894958578994,0.0086102871371,-0.000776449749802,0.00137317530468,1.0,0.0,0.0345480499672
1385576895458619489,0.00798653963158,0.0019475672043,0.000444296168748,1.0,0.0,0.0348568559633
1385576895959597434,0.0142499408131,0.00109073410632,-6.1702594424e-05,1.0,0.0,0.0344187193114
1385576896458571057,0.0196232932761,-0.00317491323238,0.000336504282671,1.0,0.0,0.0341299336671
1385576896958649358,0.021633874304,-0.00712069883019,0.000752272526232,1.0,0.0,0.0332511940805
1385576897458625325,0.0166533613125,-0.00734839178797,0.00195753927449,1.0,0.0,0.0314195050266
1385576897958661858,0.0111473271842,-0.00168589216933,0.00282726302367,1.0,0.0,0.0304709151823
1385576898458573815,0.0118020002968,-0.000310348432829,0.00343333726281,1.0,0.0,0.0295361474752
1385576898958618781,0.0177456956439,-0.000208861370443,0.00183546562097,1.0,0.0,0.0281595330922
1385576899457872965,0.022081370627,-0.00476374219835,0.00204438501556,1.0,0.0,0.026841381124
1385576899957991830,0.0186890892543,-0.00961055682778,0.00176330074586,1.0,0.0,0.0259000127448
1385576900458794713,0.0137685397862,-0.00945370353794,0.000904560046423,1.0,0.0,0.0254347291954
1385576900958667487,0.0116305095847,-0.00526262312776,-0.000624965469584,1.0,0.0,0.0246795366926
1385576901458787037,0.0153365796667,-0.000623279922275,-0.00124165325945,1.0,0.0,0.0242549015191
1385576901958632921,0.020706787021,-0.00143211096177,-0.0021794950015,1.0,0.0,0.0243552768454
1385576902458594652,0.0215059319309,-0.00752625850392,-0.00185911619524,1.0,0.0,0.0246929844904
1385576902958671666,0.0127988007493,-0.0140243822614,-0.00192195239962,1.0,0.0,0.0246994154793
1385576903458717969,0.00746421359189,-0.0100792743846,-0.0019475121193,1.0,0.0,0.0247053323137
1385576903958749658,0.00606184438583,-0.00261831749449,-0.00167407940709,1.0,0.0,0.0242421253773
1385576904458723528,0.015954211269,0.00566991070328,-0.00111042186842,1.0,0.0,0.0241286091495
1385576904958584035,0.0279120767609,0.00395185060533,5.17082149739e-05,1.0,0.0,0.0241486680554
1385576905458600739,0.0336688542512,-0.00896209514025,0.000506919852271,1.0,0.0,0.0251366050459
1385576905958300884,0.0239111917911,-0.0257154674938,-0.000552893727751,1.0,0.0,0.0259070893338
1385576906458044902,0.0101989456189,-0.0265150019512,-0.00177576077942,1.0,0.0,0.0266519041163
1385576906959165945,0.00134415302367,-0.0131833924479,-0.0023903408009,1.0,0.0,0.0280330367172
1385576907459153072,0.00573461881547,0.00513859144314,-0.00255118378771,1.0,0.0,0.0295461969122
1385576907959128960,0.0234733459579,0.0153111214211,-0.00256733951679,1.0,0.0,0.0322544021069
1385576908459112850,0.0393103746153,-0.000595593029436,-0.00235402634575,1.0,0.0,0.0344627494679
1385576908959280747,0.041333817492,-0.0212378216251,-0.00195395598086,1.0,0.0,0.0370941507495
1385576909459282968,0.0266381161425,-0.0374368259325,-0.00106944285503,1.0,0.0,0.0401891359205
1385576909959060488,0.00641117471002,-0.0269526454781,0.000349122177203,1.0,0.0,0.0430995150856
1385576910459109582,0.0031557952504,0.000462300917563,0.00209461927304,1.0,0.0,0.0457048772795
1385576910959119604,0.0174765323435,0.0224270698908,0.00190669623141,1.0,0.0,0.0472669481389
1385576911459114066,0.0343640729685,0.0202991965765,0.000847064134495,1.0,0.0,0.0483021181821
1385576911958572955,0.0399524816548,-0.00624978823594,0.000662390921145,1.0,0.0,0.0498989731938
1385576912458347479,0.0242146303751,-0.0372179822473,0.000915559014565,1.0,0.0,0.0510604050583
1385576912958015313,0.00420495226831,-0.0398795815928,0.00271882547115,1.0,0.0,0.051986056726
1385576913458455760,-0.00509122317218,-0.0126846705587,0.000986192349167,1.0,0.0,0.0519799193451
1385576913959512979,0.00469623988056,0.0233610010241,-0.000799823901663,1.0,0.0,0.0519253238309
1385576914459416263,0.0265023968774,0.037878811288,-0.00132692291823,1.0,0.0,0.05206806594
1385576914958614425,0.0432671879591,0.0142088113265,0.00111169504353,1.0,0.0,0.0513500978587
1385576915458354261,0.040101341794,-0.0313686848562,0.00399747329339,1.0,0.0,0.0510313612555
1385576915958414739,0.0144887396699,-0.0587780012674,0.00393571750943,1.0,0.0,0.050480831569
1385576916457640300,-0.00451688044055,-0.0450884904593,0.00329882819157,1.0,0.0,0.0493799316297
1385576916958449366,-0.00353856052528,0.000490424569572,0.000399481448777,1.0,0.0,0.0486257083294
1385576917458575067,0.0237801831644,0.0331979294565,-0.00266025831708,1.0,0.0,0.0481897048034
1385576917958565082,0.0448654501186,0.0252564622187,-0.00380638333713,1.0,0.0,0.0479216812058
1385576918458022527,0.0452624005475,-0.0253971513784,-0.00205831863692,1.0,0.0,0.0481157807559
1385576918958199796,0.0174608311547,-0.0725664957799,6.00578465188e-05,1.0,0.0,0.0475946503358
1385576919458279787,-0.00261873946682,-0.0702271099119,0.000203685206342,1.0,0.0,0.0457639185522
1385576919958305946,-0.00339653100013,-0.0178275389226,-0.000925395423359,1.0,0.0,0.0441502532104
1385576920458280728,0.0187052771302,0.0322572700823,-0.00254498860293,1.0,0.0,0.0428139351496
1385576920957424903,0.0426899633052,0.0350050490952,-0.00477758884075,1.0,0.0,0.0419947998866
1385576921458326157,0.0475857080047,-0.0130699273643,-0.00262041865106,1.0,0.0,0.0418871603998
1385576921958353563,0.0244158350636,-0.0656962102931,0.000474161100894,1.0,0.0,0.0413335920989
1385576922459304200,-0.00550882967911,-0.0669877613983,0.00353719082623,1.0,0.0,0.0414916354694
1385576922957231343,-0.0184572270406,-0.00887310918037,0.00611170140186,1.0,0.0,0.0427948317749
1385576923458375164,0.00724530929433,0.0568217744031,0.00589582805746,1.0,0.0,0.0445356902631
1385576923958220905,0.0481551863634,0.068001921382,0.00356019498446,1.0,0.0,0.045458296256
1385576924458550628,0.0730115284587,0.0108673345044,0.00398127812892,1.0,0.0,0.0476011152004
1385576924959113690,0.0512576614832,-0.0668329347995,0.00578317368751,1.0,0.0,0.0498981791882
1385576925458452250,0.00173935810322,-0.0917659315268,0.00781174882703,1.0,0.0,0.0523010321374
1385576925958456658,-0.0362544724885,-0.0276343803862,0.00744508577117,1.0,0.0,0.0540425908276
1385576926458462883,-0.020367154348,0.0715708536912,0.00332126127605,1.0,0.0,0.0554781459199
1385576926958456684,0.0410172513424,0.113477509053,-0.00124131911078,1.0,0.0,0.056479825592
1385576927458464658,0.0978515022638,0.0527386984272,-0.00603613292817,1.0,0.0,0.0570380432132
1385576927958631654,0.107262908163,-0.0818463447537,-0.00547421291439,1.0,0.0,0.0593347880434
1385576928458456296,0.0385923156229,-0.159805314956,0.00200509751325,1.0,0.0,0.0609801777591
1385576928958569548,-0.0589878922763,-0.0877696333699,0.0104458730732,1.0,0.0,0.061390826426
1385576929458610730,-0.0825293083139,0.0712158385047,0.0114753874453,1.0,0.0,0.0625977022285
1385576929958666371,-0.00434128539295,0.183713161661,0.00292182529365,1.0,0.0,0.0617428144679
1385576930458625478,0.113536373806,0.135236130789,-0.00297001817952,1.0,0.0,0.061534593302
1385576930958655578,0.17243235517,-0.0758184348747,0.000103166196282,1.0,0.0,0.0644089733838
1385576931457871560,0.0992710358319,-0.261286923609,0.00616507728089,1.0,0.0,0.0671963336587
1385576931958981082,-0.0791024069884,-0.214961270231,0.0161278950023,1.0,0.0,0.0624221129445
1385576932459006810,-0.178923514397,0.0264077002034,0.0232151931813,1.0,0.0,0.0577641558217
1385576932959001882,-0.101888539792,0.251142527338,0.00993436925691,1.0,0.0,0.0546377003653
1385576933459003143,0.0990457177676,0.26395170113,-0.00369660612825,1.0,0.0,0.0489619984943
1385576933959007123,0.230536738497,0.0358533877292,0.00141014141716,1.0,0.0,0.0480691812484
1385576934459061301,0.182660617573,-0.244599877339,0.00837794123694,1.0,0.0,0.0549103407343
1385576934959005797,-0.00408469423312,-0.35224116636,0.00938417132112,1.0,0.0,0.0523236960536
1385576935459062315,-0.189203261061,-0.131304830612,0.0246016466667,1.0,0.0,0.0486982304325
1385576935959048851,-0.177683041464,0.177671446851,0.0237884060654,1.0,0.0,0.0471324626294
1385576936458986331,-0.00632928163331,0.318882509292,-0.000551046174252,1.0,0.0,0.0406042188041
1385576936958529235,0.202404783649,0.183546272891,-0.0096005281318,1.0,0.0,0.037888899902
1385576937457391383,0.233720714616,-0.127702663684,0.00260204218571,1.0,0.0,0.0432676439485
1385576937958684618,0.0666063648571,-0.335753086568,0.000254694864741,1.0,0.0,0.0503466505797
1385576938457654785,-0.14722902803,-0.271699790973,0.00868793257485,1.0,0.0,0.0452333632309
1385576938958731662,-0.206409891901,0.0596219866787,0.0213897393786,1.0,0.0,0.0458535105064
1385576939458670753,-0.0575825776691,0.301615271984,0.00557142952885,1.0,0.0,0.0429761140826
1385576939958601924,0.153015199205,0.289752729279,-0.0140616730745,1.0,0.0,0.0355746287472
1385576940458693068,0.248178463174,-0.000170742587848,-0.00122119910096,1.0,0.0,0.0403500452296
1385576940958548616,0.122992351517,-0.301057966049,0.00685267679792,1.0,0.0,0.0495257948754
1385576941458644808,-0.0764694872993,-0.362967419721,0.00426129679954,1.0,0.0,0.0487940006665
1385576941958559256,-0.200379689724,-0.0894292203702,0.020026160714,1.0,0.0,0.0472267473108
1385576942458786264,-0.103947011418,0.241851955356,0.019394862448,1.0,0.0,0.0485485159253
1385576942958682159,0.0863755564608,0.337621388843,-0.00991052917345,1.0,0.0,0.0411741466784
1385576943458567627,0.227520349954,0.154581967509,-0.0157750711841,1.0,0.0,0.0394803066759
1385576943960365367,0.164754343939,-0.189885816499,0.00066704380075,1.0,0.0,0.0470365939935
1385576944458614232,-0.00993757345718,-0.384792796911,-0.00326098105173,1.0,0.0,0.0504057272384
1385576944958698282,-0.175861998072,-0.254422297593,0.00416464658384,1.0,0.0,0.0460518397962
1385576945458464447,-0.141337104966,0.104224217609,0.0257508967116,1.0,0.0,0.0475034090438
1385576945958761079,0.0215068413605,0.323556842224,0.00532051988892,1.0,0.0,0.0438567383593
1385576946458659092,0.189007880478,0.261072661259,-0.0180841943861,1.0,0.0,0.0400354525533
1385576946958701385,0.184980667014,-0.0290160279147,-0.00689581672449,1.0,0.0,0.0464153816395
1385576947458683020,0.028498530215,-0.342935331697,0.000758296551048,1.0,0.0,0.0513102073698
1385576947958590803,-0.147294757125,-0.343651660133,-0.00543096505416,1.0,0.0,0.0498359392484
1385576948459492303,-0.173435279509,-0.0468591971879,0.0158780576392,1.0,0.0,0.0482182829657
1385576948958530785,-0.0241625499852,0.283549364618,0.0154855726178,1.0,0.0,0.0458356582531
1385576949458147417,0.140675054741,0.327375281705,-0.0134187466191,1.0,0.0,0.0366419741636
1385576949957623980,0.208699726595,0.125047452199,-0.0114800332513,1.0,0.0,0.0386038979953
1385576950458577609,0.0872581733957,-0.236113945102,0.0079648634955,1.0,0.0,0.046614783592
1385576950958662351,-0.0912219676145,-0.365327088752,-0.00580706874549,1.0,0.0,0.0515147016064
1385576951458547691,-0.181523723793,-0.200745588728,-0.0011180857603,1.0,0.0,0.0506295579977
1385576951958547763,-0.0865290272661,0.163895131596,0.0168261648485,1.0,0.0,0.0514619114312
1385576952458744202,0.0965400769396,0.332612575869,-0.00346683423465,1.0,0.0,0.0458524648838
1385576952958541292,0.209093625284,0.232708465936,-0.0205490375715,1.0,0.0,0.0400125523112
1385576953458523795,0.15357357924,-0.0956563898997,0.00246108961505,1.0,0.0,0.0477878183182
1385576953958613312,-0.0237371779413,-0.37147340135,0.00222670807688,1.0,0.0,0.0528621531062
1385576954458537596,-0.165380320196,-0.319912761233,-0.00282979528121,1.0,0.0,0.0517502900489
1385576954958628061,-0.139222176482,0.0196405954402,0.0238994272299,1.0,0.0,0.0502956679111
1385576955458656439,0.0328610793239,0.325747481206,0.0130754001425,1.0,0.0,0.0465357095941
1385576955957622091,0.186185406395,0.322043204302,-0.0160358265522,1.0,0.0,0.040957236781
1385576956460262710,0.19087760016,0.0415950758315,-0.00228465412667,1.0,0.0,0.0445695562606
1385576956957729434,0.0228259373638,-0.319108065126,0.00632997797684,1.0,0.0,0.0500585649204
1385576957458658757,-0.12466224253,-0.377113160871,-0.00564184821619,1.0,0.0,0.0485506525622
1385576957958736113,-0.164657607646,-0.100609437343,0.0107575847309,1.0,0.0,0.051237377751
1385576958458704678,-0.023888700184,0.274903050709,0.0153091831228,1.0,0.0,0.0461711368113
1385576958958747780,0.136477900565,0.356363554936,-0.0211535294825,1.0,0.0,0.0374298156933
1385576959458755547,0.19485963556,0.157034689279,-0.0296260533207,1.0,0.0,0.0354685117551
1385576959958755558,0.0744221097254,-0.203828632984,-0.0216575736825,1.0,0.0,0.0434258952762
1385576960458715431,-0.0602052470718,-0.387653604024,-0.0453044089409,1.0,0.0,0.0472436199392
1385576960958658737,-0.1591382835,-0.238329729277,-0.0500281224918,1.0,0.0,0.0475420462317
1385576961458805978,-0.0845451738288,0.156889883944,-0.0417275563592,1.0,0.0,0.0453792377704
1385576961958643585,0.070890272797,0.372972887759,-0.0658522621504,1.0,0.0,0.0364798459158
1385576962458768641,0.194089769174,0.306396900502,-0.0804327091446,1.0,0.0,0.0325532610485
1385576962958234577,0.139623508261,-0.0713690537284,-0.0542401708814,1.0,0.0,0.0399453362309
1385576963459350327,-0.00170505911628,-0.407295492455,-0.0632387137606,1.0,0.0,0.0409207928525
1385576963958527787,-0.158822166888,-0.39145805596,-0.0852562497471,1.0,0.0,0.0425700002657
1385576964457377309,-0.128592426486,-0.039401252231,-0.0624877853935,1.0,0.0,0.0441856795264
1385576964958237383,0.0164352442539,0.339814252724,-0.0704383375992,1.0,0.0,0.0439926811995
1385576965458388843,0.172172319704,0.35585801496,-0.104393126551,1.0,0.0,0.0393933251071
1385576965958265841,0.209198506663,0.1439916839,-0.0999101650251,1.0,0.0,0.0409294692205
1385576966458348124,0.0552705822614,-0.32459129142,-0.0903449686128,1.0,0.0,0.0421580049133
1385576966958265781,-0.10115228196,-0.418231577405,-0.107449398984,1.0,0.0,0.0442152538755
1385576967457331735,-0.158876791414,-0.25768255656,-0.0939576820004,1.0,0.0,0.0478733870711
1385576967958226819,-0.0586166114538,0.229576687807,-0.0712562104061,1.0,0.0,0.0500265327766
