%time,field.header.seq,field.header.stamp,field.header.frame_id,field.child_frame_id,field.transform.translation.x,field.transform.translation.y,field.transform.translation.z,field.transform.rotation.x,field.transform.rotation.y,field.transform.rotation.z,field.transform.rotation.w
1385576809501356260,1321211,1385576809501356260,/world,vicon/Archie/Archie,-0.113087450175,-0.303340729155,0.111418470411,0.00362616663336,0.00105309893144,0.699940221229,0.714191450945
1385576809511691095,1321212,1385576809511691095,/world,vicon/Archie/Archie,-0.113112464947,-0.303340145377,0.111495703091,0.00398154606365,0.000734191079234,0.699940067897,0.714190107469
1385576809521569772,1321213,1385576809521569772,/world,vicon/Archie/Archie,-0.113084984556,-0.303347703295,0.111433402138,0.003726710413,0.000963710234409,0.69993388948,0.714197264941
1385576809531673990,1321214,1385576809531673990,/world,vicon/Archie/Archie,-0.113092597751,-0.303339315591,0.111415226874,0.0036423876019,0.00103200162526,0.699929206849,0.714202193629
1385576809541530101,1321215,1385576809541530101,/world,vicon/Archie/Archie,-0.113113764445,-0.303327533886,0.11146497181,0.00389250928989,0.000783741696994,0.699950128557,0.714180685578
1385576809551646708,1321216,1385576809551646708,/world,vicon/Archie/Archie,-0.113076359864,-0.303334338399,0.111406102221,0.00362862893692,0.00101815040051,0.699926639329,0.714204799746
1385576809561665783,1321217,1385576809561665783,/world,vicon/Archie/Archie,-0.11309112995,-0.303334833655,0.111412931253,0.00365533819102,0.00101984911785,0.699925480266,0.714205797012
1385576809571581207,1321218,1385576809571581207,/world,vicon/Archie/Archie,-0.11309431844,-0.303345070898,0.111412377497,0.00364003103428,0.00104437074443,0.699929633533,0.714201769506
1385576809581650565,1321219,1385576809581650565,/world,vicon/Archie/Archie,-0.113115952175,-0.303333023405,0.11148292514,0.00397999263428,0.000726779759943,0.699943036964,0.71418721387
1385576809591786607,1321220,1385576809591786607,/world,vicon/Archie/Archie,-0.113084160093,-0.303342908701,0.111429560965,0.00370142592946,0.000965208850313,0.699930724426,0.714200496235
1385576809601584849,1321221,1385576809601584849,/world,vicon/Archie/Archie,-0.113112795601,-0.303328322236,0.111474755183,0.00391162588703,0.000805747046279,0.699943035704,0.714187508099
1385576809611602041,1321222,1385576809611602041,/world,vicon/Archie/Archie,-0.113114540247,-0.303334705428,0.111486480681,0.00391689005802,0.00079892985811,0.699953021742,0.714177699902
1385576809621729887,1321223,1385576809621729887,/world,vicon/Archie/Archie,-0.113085683435,-0.303337690154,0.111416166106,0.00364244862678,0.00101545460238,0.699932443057,0.714199045488
1385576809631672349,1321224,1385576809631672349,/world,vicon/Archie/Archie,-0.113083539016,-0.303336987621,0.111407267675,0.00361813820708,0.00102760079535,0.699923034056,0.714208372613
1385576809641622176,1321225,1385576809641622176,/world,vicon/Archie/Archie,-0.113118337936,-0.303330691043,0.111469109892,0.00390387227136,0.000816690542867,0.699949500514,0.714181202167
1385576809652459432,1321226,1385576809652459432,/world,vicon/Archie/Archie,-0.113107864386,-0.30333020778,0.111458605857,0.00389588728163,0.000799312207353,0.699941931548,0.714188683488
1385576809661751505,1321227,1385576809661751505,/world,vicon/Archie/Archie,-0.113080477911,-0.303344504534,0.11141636464,0.00368047594894,0.000967669738131,0.699925768616,0.714205457932
1385576809671579290,1321228,1385576809671579290,/world,vicon/Archie/Archie,-0.113099425465,-0.30333362661,0.111401318531,0.00362919672754,0.0010189191999,0.699931177152,0.714200348632
1385576809682311477,1321229,1385576809682311477,/world,vicon/Archie/Archie,-0.113085177608,-0.303330533185,0.111408918254,0.00361873080189,0.00103465755487,0.699913374545,0.7142178256
1385576809691616880,1321230,1385576809691616880,/world,vicon/Archie/Archie,-0.11308569223,-0.30333501043,0.111411042048,0.00364475889961,0.00102569766813,0.699934036502,0.714197457447
1385576809701540869,1321231,1385576809701540869,/world,vicon/Archie/Archie,-0.113088118339,-0.30333065281,0.111410779824,0.0036337233763,0.00100204846588,0.699929376146,0.714202114503
1385576809712187197,1321232,1385576809712187197,/world,vicon/Archie/Archie,-0.113130093866,-0.303328813827,0.111473251934,0.00390700436235,0.000802572263729,0.699963471164,0.714167508524
1385576809721536906,1321233,1385576809721536906,/world,vicon/Archie/Archie,-0.113084212095,-0.30333560471,0.111412490582,0.00364399352795,0.00102967269391,0.699936941039,0.714194609091
1385576809731752261,1321234,1385576809731752261,/world,vicon/Archie/Archie,-0.11308045034,-0.303343409875,0.111413783175,0.00364009335845,0.00101583788373,0.699920101797,0.714211151478
1385576809741737799,1321235,1385576809741737799,/world,vicon/Archie/Archie,-0.113123594661,-0.303332982668,0.111471217247,0.00391738291252,0.000820914359913,0.699954011169,0.714176702546
1385576809751938434,1321236,1385576809751938434,/world,vicon/Archie/Archie,-0.113091363863,-0.30333598626,0.111414788449,0.00365233265327,0.00101189442713,0.699926675612,0.714204652255
1385576809761673406,1321237,1385576809761673406,/world,vicon/Archie/Archie,-0.113132005529,-0.303334099007,0.111462380371,0.00390575672483,0.00080989946771,0.699942231524,0.714188323663
1385576809771777108,1321238,1385576809771777108,/world,vicon/Archie/Archie,-0.113126521764,-0.303332366315,0.111461050211,0.0038870159443,0.000783728648605,0.699954107193,0.714176816132
1385576809781694875,1321239,1385576809781694875,/world,vicon/Archie/Archie,-0.113095359625,-0.30334089311,0.111405295737,0.00365316417899,0.00102170619544,0.699932412385,0.714199011902
1385576809791584555,1321240,1385576809791584555,/world,vicon/Archie/Archie,-0.113087515333,-0.303336037627,0.111408012826,0.00362242875756,0.00103251300142,0.699931063796,0.714200474559
1385576809801542364,1321241,1385576809801542364,/world,vicon/Archie/Archie,-0.113091694124,-0.303333124916,0.11140330828,0.00361582072623,0.00102594453625,0.699922607545,0.714208804711
1385576809811613165,1321242,1385576809811613165,/world,vicon/Archie/Archie,-0.113105754418,-0.303336964773,0.11147746851,0.00394950190957,0.000739805473119,0.699943284082,0.714187127573
1385576809821630124,1321243,1385576809821630124,/world,vicon/Archie/Archie,-0.113090203764,-0.303337413153,0.11141244293,0.003635766388,0.00103073540793,0.699936592969,0.714194990609
1385576809831488337,1321244,1385576809831488337,/world,vicon/Archie/Archie,-0.113096580417,-0.303340140361,0.111405624519,0.00363592699774,0.00101178710673,0.699929397807,0.71420206833
1385576809841555141,1321245,1385576809841555141,/world,vicon/Archie/Archie,-0.113097270987,-0.303348158166,0.111421442008,0.00371227005441,0.000955993605958,0.699920111779,0.714210852798
1385576809851509648,1321246,1385576809851509648,/world,vicon/Archie/Archie,-0.113081511705,-0.303334732843,0.111409064183,0.00362773188244,0.00102678721889,0.699926783807,0.714204650348
1385576809861607983,1321247,1385576809861607983,/world,vicon/Archie/Archie,-0.113087492697,-0.303337459748,0.111411860245,0.003630317067,0.00104363805507,0.699923130262,0.714208193275
1385576809871596398,1321248,1385576809871596398,/world,vicon/Archie/Archie,-0.113082848463,-0.303338646701,0.111436467963,0.00373410846457,0.00097332905037,0.699929854626,0.714201167507
1385576809881642529,1321249,1385576809881642529,/world,vicon/Archie/Archie,-0.113099488353,-0.303337526452,0.11140900745,0.00364742360408,0.00102736534852,0.699926946365,0.714204389915
1385576809891423460,1321250,1385576809891423460,/world,vicon/Archie/Archie,-0.113088838871,-0.303336519313,0.11141414883,0.00363868917468,0.00102956291019,0.69992461887,0.714206712263
1385576809901555868,1321251,1385576809901555868,/world,vicon/Archie/Archie,-0.113093572154,-0.30334185651,0.111403276936,0.00363616673453,0.00101206339302,0.69992436756,0.714206996406
1385576809911734187,1321252,1385576809911734187,/world,vicon/Archie/Archie,-0.113083558291,-0.30333897479,0.111408150276,0.00363857445457,0.00103148278213,0.699929367538,0.714202056338
1385576809921507285,1321253,1385576809921507285,/world,vicon/Archie/Archie,-0.113089936229,-0.303342207336,0.111420348555,0.00369085058752,0.000964276520828,0.699919800255,0.714211257965
1385576809931715192,1321254,1385576809931715192,/world,vicon/Archie/Archie,-0.11308262688,-0.30334387926,0.11140944473,0.00362449482943,0.00105070315798,0.699929065342,0.714202396068
1385576809941687014,1321255,1385576809941687014,/world,vicon/Archie/Archie,-0.113077391838,-0.303343852396,0.111412812662,0.00361763876818,0.00104216559569,0.699927133135,0.714204336925
1385576809951726932,1321256,1385576809951726932,/world,vicon/Archie/Archie,-0.113117745589,-0.303333435312,0.111464094664,0.00388471482505,0.000780421200583,0.699944903495,0.714185852566
1385576809961693750,1321257,1385576809961693750,/world,vicon/Archie/Archie,-0.113079728093,-0.303343388986,0.111414970188,0.00364773046139,0.00102768850579,0.699925554157,0.714205752257
1385576809971497307,1321258,1385576809971497307,/world,vicon/Archie/Archie,-0.113091748834,-0.303333484052,0.111407530212,0.00362841030553,0.00104615667711,0.699924519301,0.714206838021
1385576809981690424,1321259,1385576809981690424,/world,vicon/Archie/Archie,-0.113118971577,-0.303334129089,0.111475171725,0.00396520882486,0.000725233543469,0.699942938898,0.714187393785
1385576809991650271,1321260,1385576809991650271,/world,vicon/Archie/Archie,-0.113104464528,-0.303330024724,0.11146185672,0.00388885503354,0.00081714016692,0.699945470807,0.714185232965
1385576810001614509,1321261,1385576810001614509,/world,vicon/Archie/Archie,-0.113094408621,-0.303335642021,0.111402078639,0.00363276255874,0.00102496857749,0.699924468265,0.714206896634
1385576810011717863,1321262,1385576810011717863,/world,vicon/Archie/Archie,-0.113075950039,-0.303336511421,0.111418836244,0.00368749408923,0.000961348719157,0.699929216267,0.714202051532
1385576810021593266,1321263,1385576810021593266,/world,vicon/Archie/Archie,-0.113084054515,-0.303335501977,0.111409068792,0.00362876494012,0.0010205449807,0.699932148362,0.714199396697
1385576810031681319,1321264,1385576810031681319,/world,vicon/Archie/Archie,-0.113088059909,-0.303342035591,0.111412052341,0.00366656546821,0.00101458119704,0.699934164647,0.714197236121
1385576810041842323,1321265,1385576810041842323,/world,vicon/Archie/Archie,-0.113110045001,-0.303331601395,0.111473029964,0.00390270430972,0.000827342464446,0.699947377907,0.714183276593
1385576810051684259,1321266,1385576810051684259,/world,vicon/Archie/Archie,-0.113074366857,-0.303337476392,0.111404586366,0.00363946884836,0.00103054953049,0.699929477501,0.714201945362
1385576810061637795,1321267,1385576810061637795,/world,vicon/Archie/Archie,-0.113083153048,-0.30333858235,0.111409433303,0.0036478432822,0.00103068743276,0.699930606073,0.714200796419
1385576810071661021,1321268,1385576810071661021,/world,vicon/Archie/Archie,-0.113076971496,-0.303340895208,0.11141803863,0.00371815761917,0.000960808181157,0.699922249985,0.714208720282
1385576810081595447,1321269,1385576810081595447,/world,vicon/Archie/Archie,-0.113088497464,-0.303333058293,0.111403445314,0.00364146413682,0.00101280435255,0.699925104464,0.714206246198
1385576810091601250,1321270,1385576810091601250,/world,vicon/Archie/Archie,-0.113104028454,-0.303332366313,0.111462956687,0.00388903186263,0.00080998136624,0.699953451196,0.714177418797
1385576810101550649,1321271,1385576810101550649,/world,vicon/Archie/Archie,-0.113082961115,-0.303343201867,0.111408101901,0.0036300292151,0.00103264838988,0.699925473747,0.714205914093
1385576810111700100,1321272,1385576810111700100,/world,vicon/Archie/Archie,-0.113114433752,-0.303326056755,0.111462669447,0.00386683048689,0.000798207537562,0.699950318286,0.714180623105
1385576810121702028,1321273,1385576810121702028,/world,vicon/Archie/Archie,-0.113093213038,-0.303331690597,0.111409758997,0.00364546629996,0.00100960378155,0.699931720781,0.714199746234
1385576810131682147,1321274,1385576810131682147,/world,vicon/Archie/Archie,-0.113085401676,-0.303341715841,0.111425299476,0.00364173167118,0.00102178303997,0.699939841556,0.714191789335
1385576810141540728,1321275,1385576810141540728,/world,vicon/Archie/Archie,-0.113082322124,-0.303349097281,0.111422887589,0.00369784223155,0.000957042778785,0.699927028718,0.714204147637
1385576810151663451,1321276,1385576810151663451,/world,vicon/Archie/Archie,-0.113082047637,-0.303340352548,0.111412889278,0.0036504981323,0.0010433178439,0.699922973684,0.714208244325
1385576810161622084,1321277,1385576810161622084,/world,vicon/Archie/Archie,-0.113112908679,-0.303329603138,0.111462462487,0.00388946531185,0.000789640425892,0.699946719923,0.714184036364
1385576810171598263,1321278,1385576810171598263,/world,vicon/Archie/Archie,-0.113081469283,-0.303332012141,0.111406912958,0.0036187324989,0.00103235427262,0.699924513056,0.714206913327
1385576810181633149,1321279,1385576810181633149,/world,vicon/Archie/Archie,-0.113111120284,-0.303328542052,0.111462643149,0.00389283494731,0.000774016672796,0.699935522223,0.714195009409
1385576810191737988,1321280,1385576810191737988,/world,vicon/Archie/Archie,-0.113093921655,-0.303337213253,0.111417190284,0.00364931817768,0.00102835504604,0.699926400401,0.714204913861
1385576810201596893,1321281,1385576810201596893,/world,vicon/Archie/Archie,-0.113115596585,-0.303329975587,0.111469364165,0.00391671588845,0.000802103908728,0.699950837325,0.714179838201
1385576810211795820,1321282,1385576810211795820,/world,vicon/Archie/Archie,-0.113089245136,-0.303335359976,0.111413356007,0.00365083406836,0.0010308030357,0.699934300336,0.714197160502
1385576810221622179,1321283,1385576810221622179,/world,vicon/Archie/Archie,-0.11308624823,-0.303345816574,0.111408993925,0.00362093879836,0.00103134018171,0.699934771478,0.714196850186
1385576810231657278,1321284,1385576810231657278,/world,vicon/Archie/Archie,-0.113077993882,-0.303348064327,0.111426346528,0.00373685367968,0.000968526102763,0.699918624183,0.714212165538
1385576810241673577,1321285,1385576810241673577,/world,vicon/Archie/Archie,-0.113076315256,-0.303348109449,0.111422951193,0.00368997292684,0.000953127103232,0.699925203471,0.714205982329
1385576810251692399,1321286,1385576810251692399,/world,vicon/Archie/Archie,-0.113080675186,-0.303339122662,0.111412127178,0.00363626217031,0.0010433252627,0.699933689848,0.714197814954
1385576810261717516,1321287,1385576810261717516,/world,vicon/Archie/Archie,-0.113110529511,-0.303332782979,0.111460765998,0.00388298041749,0.000787717534147,0.699943644918,0.714187087466
1385576810271664308,1321288,1385576810271664308,/world,vicon/Archie/Archie,-0.113078059916,-0.30334193305,0.111417706811,0.00365343402596,0.00101955534535,0.699931653125,0.714199757688
1385576810281660371,1321289,1385576810281660371,/world,vicon/Archie/Archie,-0.113084459463,-0.303336109172,0.11141115828,0.00363365233459,0.00103080761773,0.699932635204,0.714198879992
1385576810291553524,1321290,1385576810291553524,/world,vicon/Archie/Archie,-0.113085409116,-0.303342791919,0.111407240814,0.00362488277364,0.0010160278911,0.699921962482,0.71420940511
1385576810301479315,1321291,1385576810301479315,/world,vicon/Archie/Archie,-0.113093093195,-0.303339841754,0.11140849142,0.00364062653228,0.00103208079622,0.699927362163,0.71420401031
1385576810311781848,1321292,1385576810311781848,/world,vicon/Archie/Archie,-0.113087930057,-0.303334152563,0.111408063843,0.00365213918559,0.00102499278582,0.69992869244,0.714202658052
1385576810321493063,1321293,1385576810321493063,/world,vicon/Archie/Archie,-0.113083939989,-0.303345434537,0.111433623447,0.00371973022678,0.000973638473131,0.699933704755,0.7141974689
1385576810331592626,1321294,1385576810331592626,/world,vicon/Archie/Archie,-0.113077106049,-0.303338641301,0.111408429534,0.00363377218616,0.00102189238682,0.699930788843,0.714200701669
1385576810341656565,1321295,1385576810341656565,/world,vicon/Archie/Archie,-0.113118492942,-0.303330406925,0.111465048919,0.00390339626224,0.000796865575033,0.699957087673,0.714173791118
1385576810351594916,1321296,1385576810351594916,/world,vicon/Archie/Archie,-0.113120353605,-0.303333898358,0.111466106926,0.00391079553958,0.000790472105019,0.699957095582,0.714173749992
1385576810361661299,1321297,1385576810361661299,/world,vicon/Archie/Archie,-0.113116731485,-0.303328911215,0.111468992212,0.00390231142613,0.000804615686317,0.699951926646,0.714178846609
1385576810371658852,1321298,1385576810371658852,/world,vicon/Archie/Archie,-0.113078151588,-0.30333349917,0.111412728258,0.00363959213095,0.00102005712624,0.699927328838,0.714204065515
1385576810381715014,1321299,1385576810381715014,/world,vicon/Archie/Archie,-0.113088419478,-0.303332936458,0.111406481789,0.00362277686482,0.00103913230377,0.69992065986,0.714210659115
1385576810391776255,1321300,1385576810391776255,/world,vicon/Archie/Archie,-0.113127010027,-0.303335232726,0.111481895043,0.00398739131774,0.000740674926395,0.699942174566,0.714188003522
1385576810401597334,1321301,1385576810401597334,/world,vicon/Archie/Archie,-0.11312502597,-0.303328201119,0.111465601412,0.00391895897682,0.000801979591911,0.699949193528,0.714181437079
1385576810411816636,1321302,1385576810411816636,/world,vicon/Archie/Archie,-0.113083408389,-0.30334141202,0.111406474595,0.00363925874184,0.00101949517829,0.699927488009,0.714203912027
1385576810421515743,1321303,1385576810421515743,/world,vicon/Archie/Archie,-0.113114636566,-0.303329880945,0.111458599004,0.0038904923847,0.000797434083749,0.699946872614,0.714183872463
1385576810431836089,1321304,1385576810431836089,/world,vicon/Archie/Archie,-0.113091694275,-0.303342277465,0.111413771815,0.00364290736655,0.00105010638467,0.699922971882,0.7142082749
1385576810441665672,1321305,1385576810441665672,/world,vicon/Archie/Archie,-0.113118748363,-0.303331953059,0.111469570493,0.00391909422193,0.000820958903637,0.699937998523,0.714192386511
1385576810451614848,1321306,1385576810451614848,/world,vicon/Archie/Archie,-0.113120899631,-0.303325861623,0.111468981966,0.00389409075513,0.000816323670444,0.699941592199,0.714189006624
1385576810461780022,1321307,1385576810461780022,/world,vicon/Archie/Archie,-0.113094498353,-0.303340280609,0.111413818033,0.00362837225692,0.00102334518736,0.699930414791,0.714201093621
1385576810471519996,1321308,1385576810471519996,/world,vicon/Archie/Archie,-0.113120752867,-0.303334716235,0.111460296042,0.00388905534433,0.000802272974377,0.699942424257,0.714188234523
1385576810481813397,1321309,1385576810481813397,/world,vicon/Archie/Archie,-0.113093115932,-0.303343824831,0.111411732879,0.00365396189197,0.00104795475962,0.69992795942,0.714203333776
1385576810491565167,1321310,1385576810491565167,/world,vicon/Archie/Archie,-0.113093532134,-0.303345398199,0.111406028923,0.00363209626295,0.0010174029758,0.699933748042,0.714197816519
1385576810501813570,1321311,1385576810501813570,/world,vicon/Archie/Archie,-0.113119078149,-0.30333535782,0.111457298964,0.00387748520659,0.000820779405908,0.699941720344,0.714188966277
1385576810511798495,1321312,1385576810511798495,/world,vicon/Archie/Archie,-0.11309067204,-0.303349688807,0.111427053371,0.0037089361328,0.000959352226343,0.699920724533,0.714210265121
1385576810521523270,1321313,1385576810521523270,/world,vicon/Archie/Archie,-0.113122447987,-0.303333189195,0.111470406278,0.00392274730136,0.000792420228428,0.699953983355,0.714176732546
1385576810531740850,1321314,1385576810531740850,/world,vicon/Archie/Archie,-0.113092968043,-0.303338460076,0.111401296611,0.00365521463513,0.00100249415576,0.699924067413,0.714207206816
1385576810541647228,1321315,1385576810541647228,/world,vicon/Archie/Archie,-0.113123272667,-0.303333189528,0.111467390532,0.00390954996482,0.000791512157116,0.699951960607,0.714178788379
1385576810551625798,1321316,1385576810551625798,/world,vicon/Archie/Archie,-0.113099953541,-0.303337608488,0.111412677176,0.00365269371113,0.00104197904433,0.699928414279,0.714202903238
1385576810561733031,1321317,1385576810561733031,/world,vicon/Archie/Archie,-0.113101338779,-0.30333941778,0.111410676553,0.00364864798986,0.00105287454871,0.69993118878,0.71420018888
1385576810571639751,1321318,1385576810571639751,/world,vicon/Archie/Archie,-0.11308922344,-0.303342429464,0.111411532868,0.00363958583615,0.00102770886368,0.699936880436,0.714194693788
1385576810581690473,1321319,1385576810581690473,/world,vicon/Archie/Archie,-0.113094702309,-0.30333768484,0.111406146675,0.00364303816701,0.00101889584916,0.699929156301,0.714202258666
1385576810591585858,1321320,1385576810591585858,/world,vicon/Archie/Archie,-0.113119191492,-0.303329467147,0.111458901821,0.00390162718502,0.000780830644593,0.699952666888,0.714178151252
1385576810601705302,1321321,1385576810601705302,/world,vicon/Archie/Archie,-0.113087406541,-0.303345226852,0.11142381223,0.00372360864486,0.000966103405109,0.699938195723,0.714193057618
1385576810611599108,1321322,1385576810611599108,/world,vicon/Archie/Archie,-0.113119432042,-0.303329047346,0.111467711011,0.00389583577218,0.000806456293542,0.699941080769,0.714189509545
1385576810621535501,1321323,1385576810621535501,/world,vicon/Archie/Archie,-0.113126224528,-0.303332465189,0.111460427052,0.00389531816079,0.000790974979291,0.699955677787,0.714175223589
1385576810631636952,1321324,1385576810631636952,/world,vicon/Archie/Archie,-0.113124327347,-0.303331039667,0.111461201252,0.00388751151173,0.000806763238776,0.699956986934,0.714173965382
1385576810641628061,1321325,1385576810641628061,/world,vicon/Archie/Archie,-0.113096380957,-0.303339986882,0.111412793942,0.00367007021972,0.00102414698129,0.699928054641,0.7142031924
1385576810651537946,1321326,1385576810651537946,/world,vicon/Archie/Archie,-0.113114340749,-0.303332364313,0.111455696339,0.00388645188258,0.000802115574358,0.699942782169,0.7141878981
1385576810661798529,1321327,1385576810661798529,/world,vicon/Archie/Archie,-0.113075126905,-0.303337451951,0.111420493397,0.00366121654469,0.00104129355501,0.699931489136,0.714199847183
1385576810672080266,1321328,1385576810672080266,/world,vicon/Archie/Archie,-0.113115516023,-0.303324996732,0.11146335941,0.00392137012857,0.000807926175951,0.69994332569,0.714187167999
1385576810681748609,1321329,1385576810681748609,/world,vicon/Archie/Archie,-0.113124565095,-0.30332642164,0.111454986833,0.00389017447446,0.000814608351339,0.699937246269,0.714193289132
1385576810691834490,1321330,1385576810691834490,/world,vicon/Archie/Archie,-0.113089620874,-0.303332877603,0.111408401633,0.00364572255907,0.00102911707607,0.699931071684,0.714200353203
1385576810701654266,1321331,1385576810701654266,/world,vicon/Archie/Archie,-0.113093063365,-0.303340034746,0.111416102196,0.00365066807528,0.00103491145915,0.699921837646,0.714209369
1385576810711749829,1321332,1385576810711749829,/world,vicon/Archie/Archie,-0.113128867092,-0.303327475175,0.111464575851,0.00391052081543,0.000790023071367,0.699944493314,0.714186103177
1385576810721818749,1321333,1385576810721818749,/world,vicon/Archie/Archie,-0.113095350257,-0.303340520266,0.111413177757,0.00364648969238,0.00102697993308,0.699927868291,0.714203491741
1385576810731705145,1321334,1385576810731705145,/world,vicon/Archie/Archie,-0.113122935975,-0.303333545703,0.111468529693,0.00389169368595,0.000788542260783,0.699937108667,0.714193444966
1385576810741756408,1321335,1385576810741756408,/world,vicon/Archie/Archie,-0.113095765859,-0.303344432672,0.111416294363,0.00368835543289,0.000970122533505,0.699928541599,0.714202696404
1385576810751874918,1321336,1385576810751874918,/world,vicon/Archie/Archie,-0.113094679887,-0.303342570729,0.11141696987,0.0036370051663,0.00104537457239,0.699931618133,0.714199838507
1385576810761775055,1321337,1385576810761775055,/world,vicon/Archie/Archie,-0.113125900871,-0.303323099339,0.111464390788,0.00390065736017,0.000805502354958,0.699946476321,0.714184196356
1385576810771700907,1321338,1385576810771700907,/world,vicon/Archie/Archie,-0.113097725241,-0.303334691231,0.111410740049,0.00363490465779,0.0010310673455,0.699920332818,0.714210929681
1385576810781628511,1321339,1385576810781628511,/world,vicon/Archie/Archie,-0.113129186455,-0.30333388426,0.111466809795,0.00388907276813,0.000800399353152,0.699945535666,0.714185187171
1385576810791708605,1321340,1385576810791708605,/world,vicon/Archie/Archie,-0.113104522699,-0.303336281343,0.11141319997,0.00364303283094,0.00104574800284,0.699925353873,0.714205946299
1385576810801740570,1321341,1385576810801740570,/world,vicon/Archie/Archie,-0.113117711024,-0.303333745342,0.111466748774,0.00390973363064,0.000830077996445,0.699943001858,0.714187523766
1385576810811864073,1321342,1385576810811864073,/world,vicon/Archie/Archie,-0.11309951848,-0.30334524389,0.111405243465,0.00366614352608,0.00103236498299,0.699929024682,0.714202250082
1385576810821729693,1321343,1385576810821729693,/world,vicon/Archie/Archie,-0.113123218172,-0.303332712916,0.111461032999,0.00390933452619,0.00079558374397,0.699944888757,0.71418571594
1385576810831083702,1321344,1385576810831083702,/world,vicon/Archie/Archie,-0.113100175297,-0.303334158807,0.11140416332,0.00362312022954,0.00104121343478,0.699926164321,0.714205259973
1385576810841098555,1321345,1385576810841098555,/world,vicon/Archie/Archie,-0.113090580301,-0.303339353677,0.111410762587,0.0036429598674,0.0010486416127,0.699921242689,0.714209971386
1385576810850972295,1321346,1385576810850972295,/world,vicon/Archie/Archie,-0.113093491842,-0.303343009971,0.111414336871,0.00365697235097,0.00105158051028,0.699923638519,0.714207547548
1385576810861738989,1321347,1385576810861738989,/world,vicon/Archie/Archie,-0.113120070277,-0.30333863634,0.111476097051,0.00390387716857,0.000778856601792,0.69995448942,0.714176354878
1385576810871890932,1321348,1385576810871890932,/world,vicon/Archie/Archie,-0.113123503769,-0.303336716045,0.111467470843,0.00389010818112,0.000816412819898,0.699946886935,0.714183839077
1385576810881756548,1321349,1385576810881756548,/world,vicon/Archie/Archie,-0.113086195545,-0.303337265556,0.111399969018,0.00362285988848,0.00104511690336,0.6999197095,0.714211581306
1385576810891779389,1321350,1385576810891779389,/world,vicon/Archie/Archie,-0.113121431348,-0.3033410839,0.111468248372,0.00388432981814,0.000803009403029,0.699948507585,0.714182297378
1385576810901655612,1321351,1385576810901655612,/world,vicon/Archie/Archie,-0.1130999055,-0.303338448792,0.111411100523,0.0036217136836,0.00102835547202,0.69992416464,0.714207245432
1385576810911703349,1321352,1385576810911703349,/world,vicon/Archie/Archie,-0.113133180123,-0.303332654809,0.111468488119,0.00388993302315,0.000801637772614,0.699943138745,0.71418753022
1385576810921668372,1321353,1385576810921668372,/world,vicon/Archie/Archie,-0.113100721166,-0.303342936877,0.11141120626,0.003627942607,0.00103442482932,0.699921922352,0.714209402492
1385576810931782779,1321354,1385576810931782779,/world,vicon/Archie/Archie,-0.113095381793,-0.303342901494,0.111418145411,0.00366530090845,0.00104180029089,0.699926293106,0.714204917681
1385576810941675786,1321355,1385576810941675786,/world,vicon/Archie/Archie,-0.113133366907,-0.303331707889,0.111458561423,0.00389471308514,0.000826085243229,0.699943680706,0.714186945157
1385576810951667503,1321356,1385576810951667503,/world,vicon/Archie/Archie,-0.113098058312,-0.303339680403,0.111405250981,0.00364333970832,0.00103614613929,0.699927619925,0.714203737979
1385576810961739960,1321357,1385576810961739960,/world,vicon/Archie/Archie,-0.113097467063,-0.303337719297,0.111409433108,0.00361836265051,0.00103009489703,0.699929686936,0.714201848011
1385576810971597563,1321358,1385576810971597563,/world,vicon/Archie/Archie,-0.113105156849,-0.303337139115,0.111412583722,0.00365485741934,0.00103983526288,0.699923416654,0.714207792998
1385576810981710323,1321359,1385576810981710323,/world,vicon/Archie/Archie,-0.113128180688,-0.303331968059,0.111470532424,0.00390232667433,0.000813598485105,0.69994468951,0.714185929245
1385576810991751042,1321360,1385576810991751042,/world,vicon/Archie/Archie,-0.11310092649,-0.303339951756,0.111405720613,0.00364761927641,0.00105048861449,0.699927192463,0.714204114101
1385576811001613014,1321361,1385576811001613014,/world,vicon/Archie/Archie,-0.11313349638,-0.303330774691,0.111458278528,0.00389940725167,0.000788024563701,0.699944001785,0.714186647877
1385576811011701110,1321362,1385576811011701110,/world,vicon/Archie/Archie,-0.113085887793,-0.303338318108,0.111406500344,0.00363668582417,0.00103527993154,0.699928221416,0.714203183679
1385576811021568033,1321363,1385576811021568033,/world,vicon/Archie/Archie,-0.113091349798,-0.303339081027,0.111403966533,0.00364267334992,0.001041452902,0.699920092933,0.714211110117
1385576811031884581,1321364,1385576811031884581,/world,vicon/Archie/Archie,-0.113096168823,-0.30333524007,0.111409447547,0.00363337468323,0.00103810224126,0.699934011863,0.714197521677
1385576811041638884,1321365,1385576811041638884,/world,vicon/Archie/Archie,-0.113120394413,-0.303334213081,0.111466791852,0.00390769257694,0.000813423861949,0.699943084892,0.714187472721
1385576811051649763,1321366,1385576811051649763,/world,vicon/Archie/Archie,-0.113092131113,-0.303341623927,0.111412846065,0.00366047782202,0.00103256745473,0.699929343693,0.714201966214
1385576811061652638,1321367,1385576811061652638,/world,vicon/Archie/Archie,-0.113113750777,-0.30333307792,0.111472250926,0.00391511472473,0.000806409881958,0.699942144342,0.714188361816
1385576811071651802,1321368,1385576811071651802,/world,vicon/Archie/Archie,-0.113120658497,-0.30333278724,0.111460211755,0.00387912574101,0.000807483179123,0.699938949707,0.71419168788
1385576811081787052,1321369,1385576811081787052,/world,vicon/Archie/Archie,-0.113101242877,-0.303341780722,0.111410343776,0.00365082165476,0.00104220023582,0.699926514978,0.714204773823
1385576811091689157,1321370,1385576811091689157,/world,vicon/Archie/Archie,-0.11309338336,-0.303344995868,0.111415869165,0.00364017867777,0.00101932846736,0.699926084403,0.714205283123
1385576811101538008,1321371,1385576811101538008,/world,vicon/Archie/Archie,-0.113076079814,-0.303335376155,0.111407082169,0.00362526176628,0.00101875316511,0.699922814724,0.71420856411
1385576811111610140,1321372,1385576811111610140,/world,vicon/Archie/Archie,-0.113086505215,-0.303343426518,0.111407226102,0.0036505507958,0.00102232527628,0.699923369433,0.714207886579
1385576811121895363,1321373,1385576811121895363,/world,vicon/Archie/Archie,-0.113086170336,-0.303341389936,0.111415711103,0.003642506018,0.00105469739724,0.699925821333,0.714205477712
1385576811131727014,1321374,1385576811131727014,/world,vicon/Archie/Archie,-0.113124691995,-0.303328108502,0.111468582818,0.0039056235465,0.000802762455641,0.699942933275,0.714187644696
1385576811141710012,1321375,1385576811141710012,/world,vicon/Archie/Archie,-0.11309491428,-0.303342542898,0.111408955741,0.00366944608786,0.00103561169542,0.699924660398,0.714206505459
1385576811151549864,1321376,1385576811151549864,/world,vicon/Archie/Archie,-0.113105536347,-0.303333428121,0.111476249641,0.00389558812525,0.000800413711878,0.699938481061,0.714192065526
1385576811161793417,1321377,1385576811161793417,/world,vicon/Archie/Archie,-0.113094744883,-0.303334098952,0.111398400618,0.00362102168874,0.00102663805829,0.699927899717,0.714203591012
1385576811171586927,1321378,1385576811171586927,/world,vicon/Archie/Archie,-0.113087795976,-0.303332460353,0.11141384168,0.00362877618856,0.00103030343871,0.699923319758,0.714208034761
1385576811182046633,1321379,1385576811182046633,/world,vicon/Archie/Archie,-0.113076692785,-0.303341881902,0.111406293596,0.0036256711949,0.00103129332192,0.699934478328,0.714197113541
1385576811191725664,1321380,1385576811191725664,/world,vicon/Archie/Archie,-0.113113060232,-0.303340500995,0.111477992373,0.00396534764809,0.000740727191654,0.699946137648,0.714184242148
1385576811201689879,1321381,1385576811201689879,/world,vicon/Archie/Archie,-0.113087759701,-0.303339452045,0.111411887883,0.00363683017644,0.00102877731344,0.699931715362,0.714199768212
1385576811211768781,1321382,1385576811211768781,/world,vicon/Archie/Archie,-0.113114352566,-0.303332303783,0.111470827675,0.00390320269699,0.000813023004598,0.699955443525,0.71417538538
1385576811221738167,1321383,1385576811221738167,/world,vicon/Archie/Archie,-0.113113602496,-0.303334601962,0.111468520265,0.00391108458907,0.000801818049531,0.699950704598,0.714179999466
1385576811231796970,1321384,1385576811231796970,/world,vicon/Archie/Archie,-0.113081857676,-0.30333999549,0.111407032324,0.00364109910755,0.00102400877735,0.699918699421,0.714212508995
1385576811241731712,1321385,1385576811241731712,/world,vicon/Archie/Archie,-0.113082058129,-0.303336650936,0.111402535603,0.00362094152634,0.00104657564836,0.699920222128,0.714211086527
1385576811251569604,1321386,1385576811251569604,/world,vicon/Archie/Archie,-0.113086802402,-0.303332820218,0.111407798136,0.00362596746662,0.0010187578759,0.699921491181,0.714209857588
1385576811261681175,1321387,1385576811261681175,/world,vicon/Archie/Archie,-0.113114208459,-0.303338035142,0.111476351354,0.00390921274978,0.000782370147168,0.699941135352,0.714189409747
1385576811271660536,1321388,1385576811271660536,/world,vicon/Archie/Archie,-0.113106846286,-0.303322039289,0.111463254854,0.00388615139464,0.000800024589823,0.699940857934,0.714189787929
1385576811281777628,1321389,1385576811281777628,/world,vicon/Archie/Archie,-0.113083051933,-0.30333715884,0.11139769892,0.00361344664502,0.00104887850319,0.699922921886,0.71420847536
1385576811291582920,1321390,1385576811291582920,/world,vicon/Archie/Archie,-0.113093815595,-0.303341912239,0.111408163065,0.00363669339743,0.00102812823522,0.699922725174,0.714208580318
1385576811301483153,1321391,1385576811301483153,/world,vicon/Archie/Archie,-0.113094433474,-0.30333205322,0.111403894927,0.00362910278039,0.00103046433332,0.699926288215,0.714205123772
1385576811311661738,1321392,1385576811311661738,/world,vicon/Archie/Archie,-0.11312115426,-0.30332438017,0.111460631379,0.00389480770714,0.000794790934724,0.699951530138,0.714179287181
1385576811321947521,1321393,1385576811321947521,/world,vicon/Archie/Archie,-0.113122924946,-0.303328256249,0.111463557764,0.00389647691546,0.00081406646848,0.699935214848,0.714195246259
1385576811331692763,1321394,1385576811331692763,/world,vicon/Archie/Archie,-0.113122712649,-0.303336391068,0.111469283663,0.00390768269484,0.000816970030729,0.699950896367,0.714179812968
1385576811341544053,1321395,1385576811341544053,/world,vicon/Archie/Archie,-0.113113106097,-0.303325520296,0.111457637502,0.00390299642161,0.000807112304238,0.699938722193,0.714191781221
1385576811351723944,1321396,1385576811351723944,/world,vicon/Archie/Archie,-0.113089536783,-0.303339831285,0.111402497782,0.00363065963037,0.00103150236799,0.699923779955,0.714207572465
1385576811361727634,1321397,1385576811361727634,/world,vicon/Archie/Archie,-0.113103390814,-0.303328087394,0.111466957147,0.00390971338061,0.000815346022227,0.699946913761,0.714183706947
1385576811371580609,1321398,1385576811371580609,/world,vicon/Archie/Archie,-0.113089440469,-0.3033355457,0.111410708805,0.00363205014076,0.00104043639518,0.699925433281,0.714205932173
1385576811381595572,1321399,1385576811381595572,/world,vicon/Archie/Archie,-0.113079186831,-0.303341493462,0.111407309536,0.00363462352193,0.00102927319579,0.699941737996,0.714189956188
1385576811391744292,1321400,1385576811391744292,/world,vicon/Archie/Archie,-0.113123408311,-0.303324424144,0.111464303218,0.00391029417497,0.000795809330665,0.699941980223,0.714188560962
1385576811401641214,1321401,1385576811401641214,/world,vicon/Archie/Archie,-0.113083281056,-0.303351192771,0.111431646798,0.00369059718289,0.000969009858976,0.699927532886,0.714203674886
1385576811411708447,1321402,1385576811411708447,/world,vicon/Archie/Archie,-0.113084419841,-0.303333531564,0.111398270029,0.00362924950046,0.00103018979628,0.699920326202,0.71421096619
1385576811421653213,1321403,1385576811421653213,/world,vicon/Archie/Archie,-0.113107368074,-0.303339970747,0.111479206612,0.00396465236145,0.000726038686461,0.699940873867,0.714189419895
1385576811431870196,1321404,1385576811431870196,/world,vicon/Archie/Archie,-0.113080908432,-0.303340046195,0.111410116706,0.00362287657029,0.00103256025974,0.699932983458,0.714198590906
1385576811441676282,1321405,1385576811441676282,/world,vicon/Archie/Archie,-0.113108651202,-0.303330797754,0.111474767979,0.0039870311233,0.000752292729584,0.699932514666,0.714197460477
1385576811451707182,1321406,1385576811451707182,/world,vicon/Archie/Archie,-0.113093818884,-0.303334249261,0.111409619898,0.00366522636051,0.00102581869866,0.699935003901,0.714196404448
1385576811461663333,1321407,1385576811461663333,/world,vicon/Archie/Archie,-0.113090507279,-0.303333126218,0.111408805191,0.00363656109642,0.0010411094292,0.699916114115,0.714215040948
1385576811471626419,1321408,1385576811471626419,/world,vicon/Archie/Archie,-0.113076807068,-0.303338852001,0.11140906497,0.00365877738349,0.00101647300955,0.699922857655,0.714208354378
1385576811481790344,1321409,1385576811481790344,/world,vicon/Archie/Archie,-0.113084787674,-0.30334173659,0.111406238847,0.00364348444135,0.00102314261265,0.699931930888,0.71419953117
1385576811491822494,1321410,1385576811491822494,/world,vicon/Archie/Archie,-0.113115666742,-0.30332800196,0.111464255594,0.00388857138318,0.000818879095432,0.699942395462,0.714188246532
1385576811501510588,1321411,1385576811501510588,/world,vicon/Archie/Archie,-0.113118435415,-0.303330894306,0.111476781553,0.00392273610833,0.000806986442815,0.699951427863,0.714179220887
1385576811511691102,1321412,1385576811511691102,/world,vicon/Archie/Archie,-0.113122468209,-0.303328284041,0.111456651668,0.0038884937489,0.000817194460361,0.699942409861,0.714188234773
1385576811521633187,1321413,1385576811521633187,/world,vicon/Archie/Archie,-0.113083058624,-0.303340475825,0.111412217802,0.00363577955539,0.00103702408657,0.699924232967,0.714207094472
1385576811531674576,1321414,1385576811531674576,/world,vicon/Archie/Archie,-0.113082125027,-0.303340786326,0.111415871381,0.0036201707534,0.00106005846892,0.699925642634,0.714205758464
1385576811541586579,1321415,1385576811541586579,/world,vicon/Archie/Archie,-0.113115317447,-0.303332410095,0.111458819377,0.00388430646915,0.000805183559875,0.69994170953,0.714188957562
1385576811551547630,1321416,1385576811551547630,/world,vicon/Archie/Archie,-0.113117000992,-0.303332182817,0.111466015817,0.00388913787937,0.000802464736415,0.699951398243,0.714179438765
1385576811561711305,1321417,1385576811561711305,/world,vicon/Archie/Archie,-0.113107280907,-0.303331939828,0.111465188547,0.00390007874243,0.000810562773079,0.699937719913,0.714192775528
1385576811571623286,1321418,1385576811571623286,/world,vicon/Archie/Archie,-0.113082602571,-0.303345772782,0.11142110405,0.00371548953239,0.000967023894249,0.699929305422,0.714201811405
1385576811581701567,1321419,1385576811581701567,/world,vicon/Archie/Archie,-0.113073267908,-0.303335467839,0.111407118955,0.00363964369161,0.00104229973265,0.699928191556,0.714203187664
1385576811591540337,1321420,1385576811591540337,/world,vicon/Archie/Archie,-0.113081806105,-0.303336956708,0.111410097524,0.00363760396409,0.00104099742448,0.699925343846,0.714205990736
1385576811601689423,1321421,1385576811601689423,/world,vicon/Archie/Archie,-0.113116665522,-0.303330846434,0.111464465025,0.003874977405,0.000811027485547,0.699948516826,0.714182330066
1385576811611854683,1321422,1385576811611854683,/world,vicon/Archie/Archie,-0.113080185797,-0.303339744768,0.111410091344,0.00362961878132,0.00103495324775,0.699917795608,0.714213437377
1385576811621619832,1321423,1385576811621619832,/world,vicon/Archie/Archie,-0.113117277593,-0.303332058014,0.111478350571,0.00397984043458,0.000754246616935,0.699943667609,0.714186568172
1385576811632153211,1321424,1385576811632153211,/world,vicon/Archie/Archie,-0.113088098104,-0.303335524925,0.111412216561,0.00364019341459,0.00103286783887,0.699936567773,0.71419498967
1385576811641656368,1321425,1385576811641656368,/world,vicon/Archie/Archie,-0.113087414177,-0.303337001763,0.111413594823,0.00367507298619,0.00103308711654,0.699921810971,0.714209272621
1385576811651513651,1321426,1385576811651513651,/world,vicon/Archie/Archie,-0.113110725631,-0.303327760073,0.111463829494,0.00388923106267,0.000811542135646,0.699956442019,0.714174484672
1385576811661701324,1321427,1385576811661701324,/world,vicon/Archie/Archie,-0.113081873702,-0.3033405156,0.111405415947,0.00362817711219,0.00104685855311,0.699927344522,0.714204069443
1385576811671590548,1321428,1385576811671590548,/world,vicon/Archie/Archie,-0.113105365816,-0.303322546817,0.111461329468,0.00390095771642,0.000799436203541,0.699942386475,0.71418820982
1385576811681796238,1321429,1385576811681796238,/world,vicon/Archie/Archie,-0.113108523214,-0.303328261182,0.111460453691,0.00388645396746,0.00081291374695,0.699946693297,0.714184052741
1385576811691629552,1321430,1385576811691629552,/world,vicon/Archie/Archie,-0.1130910234,-0.303338293986,0.111400227673,0.003630920694,0.00105543217819,0.699931478279,0.714199991733
1385576811701542226,1321431,1385576811701542226,/world,vicon/Archie/Archie,-0.11308375192,-0.303346811393,0.111418160445,0.00369790831513,0.000976219550734,0.699923160927,0.714207911793
1385576811711776643,1321432,1385576811711776643,/world,vicon/Archie/Archie,-0.113121860258,-0.303329643013,0.111462073942,0.00390392479072,0.00078745711483,0.699949745789,0.714180994323
1385576811721671769,1321433,1385576811721671769,/world,vicon/Archie/Archie,-0.113095275474,-0.303333268483,0.111407599149,0.00366220876882,0.00102779750367,0.699920152766,0.71421097136
1385576811731633494,1321434,1385576811731633494,/world,vicon/Archie/Archie,-0.113090479121,-0.303343457426,0.111401328372,0.00364810266772,0.0010319262032,0.699923527331,0.714207730541
1385576811741704182,1321435,1385576811741704182,/world,vicon/Archie/Archie,-0.113092469445,-0.303346258807,0.111403426537,0.00364362196525,0.00102670643685,0.699923023817,0.714208254379
1385576811751562889,1321436,1385576811751562889,/world,vicon/Archie/Archie,-0.113121974369,-0.303332498252,0.111460544091,0.0039075782643,0.000800919451386,0.699942609332,0.714187953554
1385576811762087725,1321437,1385576811762087725,/world,vicon/Archie/Archie,-0.113080324667,-0.303348238827,0.111416666593,0.00368682531907,0.00097141694724,0.699925257912,0.714205920589
1385576811771652269,1321438,1385576811771652269,/world,vicon/Archie/Archie,-0.113079776253,-0.303342424429,0.111414951582,0.00365675097735,0.00102277066639,0.699930067921,0.714201289647
1385576811781710999,1321439,1385576811781710999,/world,vicon/Archie/Archie,-0.113098526853,-0.303341918969,0.111411278812,0.00365402374837,0.00102509204258,0.699930399514,0.71420097531
1385576811791625515,1321440,1385576811791625515,/world,vicon/Archie/Archie,-0.11310532807,-0.303338339869,0.11147490843,0.00395645844609,0.000733608397534,0.699939874246,0.714190437276
1385576811801846125,1321441,1385576811801846125,/world,vicon/Archie/Archie,-0.113087105281,-0.303336939122,0.111412463381,0.00362854667726,0.0010358391455,0.699936480935,0.714195129739
1385576811811697951,1321442,1385576811811697951,/world,vicon/Archie/Archie,-0.11312051088,-0.303340161573,0.111480402856,0.00397410596538,0.000743008025497,0.699942027526,0.714188219256
1385576811821591326,1321443,1385576811821591326,/world,vicon/Archie/Archie,-0.113094186033,-0.303327436179,0.111402516318,0.00365768688357,0.00101778827573,0.699928832841,0.71420250237
1385576811831906697,1321444,1385576811831906697,/world,vicon/Archie/Archie,-0.113092808929,-0.30333642837,0.111404611837,0.00363564468731,0.00105045338287,0.699924523186,0.714206791118
1385576811841717491,1321445,1385576811841717491,/world,vicon/Archie/Archie,-0.113113394603,-0.3033329509,0.111455188796,0.00388730667155,0.00080196291746,0.699943740631,0.714186954273
1385576811851533260,1321446,1385576811851533260,/world,vicon/Archie/Archie,-0.113073801343,-0.303341545588,0.111422572602,0.00365550622516,0.00102822058119,0.699936480174,0.714195004014
1385576811861875458,1321447,1385576811861875458,/world,vicon/Archie/Archie,-0.11310831233,-0.303332697459,0.111462553787,0.00388999699506,0.000794414717217,0.69994561953,0.714185106628
1385576811871543306,1321448,1385576811871543306,/world,vicon/Archie/Archie,-0.113085389306,-0.303337840529,0.111410135002,0.00363934967468,0.00102317364633,0.699921342409,0.714209929005
1385576811882006287,1321449,1385576811882006287,/world,vicon/Archie/Archie,-0.113124466123,-0.303332315971,0.111460535439,0.00391447794421,0.000809324975648,0.699952508935,0.714178204016
1385576811891640974,1321450,1385576811891640974,/world,vicon/Archie/Archie,-0.113088743732,-0.303343835723,0.111408462441,0.00363069924386,0.00103921677045,0.699921158022,0.714210130567
1385576811901548573,1321451,1385576811901548573,/world,vicon/Archie/Archie,-0.113089537162,-0.303345418795,0.111409573032,0.00365018860553,0.00104136984306,0.699929438409,0.714201913271
1385576811912286266,1321452,1385576811912286266,/world,vicon/Archie/Archie,-0.113087082592,-0.303343614239,0.111419456506,0.00372799831758,0.000949374509064,0.699921408185,0.714209509235
1385576811921646723,1321453,1385576811921646723,/world,vicon/Archie/Archie,-0.113121403374,-0.303334218775,0.111471941051,0.00390485075149,0.00079217762627,0.699953468445,0.714177335546
1385576811931764881,1321454,1385576811931764881,/world,vicon/Archie/Archie,-0.113080289675,-0.303338832955,0.111411018563,0.0036408057365,0.00102902248597,0.699921237868,0.714210015631
1385576811941688484,1321455,1385576811941688484,/world,vicon/Archie/Archie,-0.113099875441,-0.303341394815,0.111414591482,0.00364109071247,0.00103211069968,0.699925576444,0.71420575792
1385576811951615820,1321456,1385576811951615820,/world,vicon/Archie/Archie,-0.113088283916,-0.303333579295,0.111412382238,0.00363499087412,0.00101985452956,0.699930487343,0.714200993857
1385576811961824246,1321457,1385576811961824246,/world,vicon/Archie/Archie,-0.11309742118,-0.303338589812,0.111414964998,0.00364127949333,0.00103718295272,0.699937743231,0.714193825888
1385576811971664529,1321458,1385576811971664529,/world,vicon/Archie/Archie,-0.113102392558,-0.303340145891,0.111487614196,0.00399793940742,0.000750714675996,0.699946316045,0.714183875177
1385576811981704642,1321459,1385576811981704642,/world,vicon/Archie/Archie,-0.11312108775,-0.303323717811,0.111462811124,0.00391245268658,0.000817065786163,0.699943337164,0.714187195262
1385576811991714850,1321460,1385576811991714850,/world,vicon/Archie/Archie,-0.113122865348,-0.303331487433,0.111475152168,0.00391333926198,0.000804659437274,0.699956839978,0.714173970729
1385576812001718320,1321461,1385576812001718320,/world,vicon/Archie/Archie,-0.113083939182,-0.303338878265,0.111418410005,0.00364717286049,0.00103826808081,0.699932534813,0.714198898655
1385576812011688759,1321462,1385576812011688759,/world,vicon/Archie/Archie,-0.113075533245,-0.303345274685,0.111433745974,0.00372701949379,0.00096326648861,0.699927801812,0.714203229966
1385576812021555625,1321463,1385576812021555625,/world,vicon/Archie/Archie,-0.113124403978,-0.30332265547,0.111470602825,0.00390323960824,0.000795677739216,0.699943655407,0.714186957927
1385576812031752687,1321464,1385576812031752687,/world,vicon/Archie/Archie,-0.113073584401,-0.303342915208,0.111431753639,0.00371472074752,0.000979210388084,0.699926156221,0.714204885054
1385576812041899503,1321465,1385576812041899503,/world,vicon/Archie/Archie,-0.113091912724,-0.303337636426,0.111415705994,0.00364240022735,0.00106434202391,0.69991528325,0.714215791179
1385576812051557304,1321466,1385576812051557304,/world,vicon/Archie/Archie,-0.113119218864,-0.303328201491,0.111474388216,0.00391501956607,0.000811246343083,0.699948782994,0.714181850571
1385576812061811702,1321467,1385576812061811702,/world,vicon/Archie/Archie,-0.113089805714,-0.303338464673,0.111417539061,0.00364523598925,0.0010327064998,0.699929081323,0.714202301096
1385576812071655805,1321468,1385576812071655805,/world,vicon/Archie/Archie,-0.11309045639,-0.303338647854,0.111415674496,0.00364682852612,0.00102578753701,0.69992974353,0.714201653963
1385576812081664156,1321469,1385576812081664156,/world,vicon/Archie/Archie,-0.11311182994,-0.303329929874,0.111456999403,0.00389438408034,0.000805084284375,0.699949114325,0.714181645639
1385576812091778700,1321470,1385576812091778700,/world,vicon/Archie/Archie,-0.113088456872,-0.3033375048,0.111421098912,0.00365680734637,0.00102485160871,0.699927328531,0.714203971016
1385576812101805182,1321471,1385576812101805182,/world,vicon/Archie/Archie,-0.113116552106,-0.303332444884,0.111466145117,0.00391854185497,0.00078939978994,0.699949782032,0.714180876607
1385576812111724709,1321472,1385576812111724709,/world,vicon/Archie/Archie,-0.113072646224,-0.303343852888,0.11142813617,0.00370056703697,0.000980599011973,0.699932733865,0.714198510425
1385576812121611061,1321473,1385576812121611061,/world,vicon/Archie/Archie,-0.113131394384,-0.303333683928,0.111467652643,0.00391154771406,0.000784697790018,0.699942164618,0.714188385675
1385576812131830753,1321474,1385576812131830753,/world,vicon/Archie/Archie,-0.113085364931,-0.303337039423,0.111413022569,0.00363739833462,0.00104163781902,0.699921099079,0.714210150718
1385576812141717285,1321475,1385576812141717285,/world,vicon/Archie/Archie,-0.113080483899,-0.303337894022,0.111410536769,0.00366109623873,0.00102996561707,0.699918422527,0.714212669554
1385576812151621574,1321476,1385576812151621574,/world,vicon/Archie/Archie,-0.113084996829,-0.303333852559,0.111405652991,0.00364440153138,0.00101661872259,0.699934302705,0.714197211364
1385576812161731469,1321477,1385576812161731469,/world,vicon/Archie/Archie,-0.113087961547,-0.303338235607,0.111412547249,0.0036890285916,0.0010025382408,0.699930624393,0.714200606988
1385576812171677628,1321478,1385576812171677628,/world,vicon/Archie/Archie,-0.113083632101,-0.303332660785,0.111408345644,0.00364984612336,0.00102166805167,0.699934228599,0.714197248982
1385576812181632848,1321479,1385576812181632848,/world,vicon/Archie/Archie,-0.113090056778,-0.303341229377,0.111407745035,0.00365258140216,0.00102142862616,0.699917178819,0.714213944226
1385576812191706499,1321480,1385576812191706499,/world,vicon/Archie/Archie,-0.113117065988,-0.303329878246,0.11146688366,0.00389054610229,0.000824953375467,0.699949848469,0.714180924368
1385576812201553594,1321481,1385576812201553594,/world,vicon/Archie/Archie,-0.113103763704,-0.303336971431,0.111480211354,0.00395359706365,0.000734772785186,0.699949695427,0.714180826577
1385576812211747163,1321482,1385576812211747163,/world,vicon/Archie/Archie,-0.113086558362,-0.303333439197,0.111409933334,0.00361324722169,0.00102490676552,0.699924696736,0.714206771818
1385576812221532952,1321483,1385576812221532952,/world,vicon/Archie/Archie,-0.11310052542,-0.303332749257,0.111478945712,0.00396339919244,0.000738276569413,0.69994494682,0.714185422587
1385576812231938785,1321484,1385576812231938785,/world,vicon/Archie/Archie,-0.113090972974,-0.303343566494,0.111418899918,0.0036453850164,0.00105136149158,0.699929943809,0.714201427867
1385576812241601816,1321485,1385576812241601816,/world,vicon/Archie/Archie,-0.113113869694,-0.303329468254,0.111470351435,0.00392947938876,0.000789058600647,0.699943492247,0.714186981286
1385576812251697799,1321486,1385576812251697799,/world,vicon/Archie/Archie,-0.113079500055,-0.303332571513,0.111417217986,0.00364358280476,0.00103144287202,0.699918956075,0.714212234113
1385576812261770312,1321487,1385576812261770312,/world,vicon/Archie/Archie,-0.113090068097,-0.303346320168,0.111426690256,0.00372208578782,0.000971970083212,0.699924254118,0.71420672067
1385576812271577770,1321488,1385576812271577770,/world,vicon/Archie/Archie,-0.113115433147,-0.30332789997,0.111466014597,0.00390814036094,0.000800104881385,0.699956897972,0.714173947475
1385576812281848428,1321489,1385576812281848428,/world,vicon/Archie/Archie,-0.11308571696,-0.303342875587,0.111403835706,0.00363923378606,0.00102318042544,0.699928084285,0.714203322526
1385576812291593093,1321490,1385576812291593093,/world,vicon/Archie/Archie,-0.113084322042,-0.303344289429,0.111428482283,0.00366291616701,0.00102867772737,0.699932219749,0.714199140733
1385576812302276867,1321491,1385576812302276867,/world,vicon/Archie/Archie,-0.113080111366,-0.303335948405,0.111412285992,0.00362884480111,0.00104698657516,0.699933251605,0.714198276813
1385576812311716503,1321492,1385576812311716503,/world,vicon/Archie/Archie,-0.113095187582,-0.303342763026,0.111403083527,0.00365249729503,0.00100869881873,0.699927406891,0.714203939273
1385576812321970102,1321493,1385576812321970102,/world,vicon/Archie/Archie,-0.113089272924,-0.303340414457,0.111413367511,0.00365066864014,0.00104521165042,0.699931915364,0.714199477741
1385576812331598606,1321494,1385576812331598606,/world,vicon/Archie/Archie,-0.113100765354,-0.303338777597,0.11148864745,0.00396461161825,0.000748932716823,0.699952177539,0.714178318148
1385576812341979299,1321495,1385576812341979299,/world,vicon/Archie/Archie,-0.113069203575,-0.303349025338,0.111421864494,0.00370373746159,0.000965699689972,0.699921405054,0.714209616639
1385576812351638915,1321496,1385576812351638915,/world,vicon/Archie/Archie,-0.113117984864,-0.303327166204,0.111458482696,0.00390181653859,0.000782944275744,0.699948972492,0.714181768693
1385576812361609654,1321497,1385576812361609654,/world,vicon/Archie/Archie,-0.113112824857,-0.303328565527,0.11146840791,0.00393710666433,0.000802538143632,0.699950674415,0.71417988526
1385576812371627521,1321498,1385576812371627521,/world,vicon/Archie/Archie,-0.113112634547,-0.303333702203,0.111463715364,0.00391443130998,0.000822073844821,0.699942487277,0.71418801161
1385576812381818176,1321499,1385576812381818176,/world,vicon/Archie/Archie,-0.113075598353,-0.303339159596,0.111412444861,0.00363896371233,0.00102615995596,0.699929569482,0.714201864114
1385576812391660849,1321500,1385576812391660849,/world,vicon/Archie/Archie,-0.113101223362,-0.303328833892,0.111469923055,0.00387964481453,0.000808430191917,0.699955442778,0.714175519689
1385576812402170640,1321501,1385576812402170640,/world,vicon/Archie/Archie,-0.113078262023,-0.303336310052,0.111404267604,0.00361166401011,0.00103630920931,0.699928517121,0.714203019363
1385576812411752480,1321502,1385576812411752480,/world,vicon/Archie/Archie,-0.113094379549,-0.303347611648,0.111408854831,0.00362613943413,0.00102384457366,0.699933030174,0.714198541112
1385576812421653061,1321503,1385576812421653061,/world,vicon/Archie/Archie,-0.113090859704,-0.303340405477,0.111410853992,0.00366229780273,0.00103668999705,0.699936140386,0.71419528998
1385576812431825923,1321504,1385576812431825923,/world,vicon/Archie/Archie,-0.113091741014,-0.303340969241,0.111409702382,0.00364456632395,0.0010459521458,0.699932446199,0.714198987593
1385576812441619385,1321505,1385576812441619385,/world,vicon/Archie/Archie,-0.113083151089,-0.303341533304,0.1114011375,0.00364122488183,0.00103430554972,0.699927299753,0.714204065204
1385576812452378039,1321506,1385576812452378039,/world,vicon/Archie/Archie,-0.113106464666,-0.30332893601,0.111460201233,0.00387911237703,0.000810197935636,0.699954502842,0.714176441797
1385576812461857390,1321507,1385576812461857390,/world,vicon/Archie/Archie,-0.113072548937,-0.303346531367,0.111424135789,0.00370814571106,0.000958193465743,0.699928445324,0.714202704383
1385576812471665160,1321508,1385576812471665160,/world,vicon/Archie/Archie,-0.113106073826,-0.303326304615,0.111461867624,0.00388622611453,0.000802486353862,0.699947839341,0.714182942574
1385576812481740478,1321509,1385576812481740478,/world,vicon/Archie/Archie,-0.113113916829,-0.303332854414,0.111465373908,0.00390641282846,0.000818012876768,0.699945281277,0.714185321896
1385576812491606624,1321510,1385576812491606624,/world,vicon/Archie/Archie,-0.113110970351,-0.303336696924,0.111477972934,0.00397468135061,0.000718306314475,0.699944078674,0.714186231086
1385576812501629112,1321511,1385576812501629112,/world,vicon/Archie/Archie,-0.113109600554,-0.303326403063,0.111468013863,0.00389967418925,0.000786666786199,0.699942139009,0.714188473539
1385576812511818760,1321512,1385576812511818760,/world,vicon/Archie/Archie,-0.113075705481,-0.303338332366,0.111418235596,0.00364778912488,0.00105580880845,0.699932121086,0.714199275255
1385576812521731006,1321513,1385576812521731006,/world,vicon/Archie/Archie,-0.113080826852,-0.30333535943,0.111409632579,0.00364660694859,0.00106044090673,0.699925454972,0.714205807317
1385576812531639173,1321514,1385576812531639173,/world,vicon/Archie/Archie,-0.113113018104,-0.303333312138,0.111470124089,0.00390284753589,0.00079510356314,0.699956279556,0.71417458811
1385576812541586048,1321515,1385576812541586048,/world,vicon/Archie/Archie,-0.113119986813,-0.303335589333,0.111463669617,0.00389438169961,0.000807541332817,0.699934708955,0.714195760886
1385576812551600576,1321516,1385576812551600576,/world,vicon/Archie/Archie,-0.113085316256,-0.303337329579,0.111406191016,0.00363218634136,0.00101784731593,0.699920199861,0.71421109277
1385576812561793516,1321517,1385576812561793516,/world,vicon/Archie/Archie,-0.113088519729,-0.303336255659,0.111412898897,0.00364762734471,0.00104064059919,0.699924225941,0.714207035685
1385576812571664377,1321518,1385576812571664377,/world,vicon/Archie/Archie,-0.113083536477,-0.30333731592,0.1114083581,0.00362590497517,0.0010365174371,0.699937720976,0.714193926885
1385576812581728698,1321519,1385576812581728698,/world,vicon/Archie/Archie,-0.113089480723,-0.30333147361,0.11141040892,0.00366179726082,0.00101800601245,0.699930419876,0.714200925677
1385576812591684523,1321520,1385576812591684523,/world,vicon/Archie/Archie,-0.113116046012,-0.303336441537,0.111480853477,0.00391235874272,0.000821200992975,0.699942197371,0.714188308094
1385576812601638777,1321521,1385576812601638777,/world,vicon/Archie/Archie,-0.113097843481,-0.303331560544,0.111477927643,0.00393053368063,0.000802951801478,0.699948405816,0.714182144392
1385576812611814455,1321522,1385576812611814455,/world,vicon/Archie/Archie,-0.113083950919,-0.303338677383,0.11141667733,0.00363882779069,0.00105035487248,0.699926834526,0.714204509925
1385576812621691162,1321523,1385576812621691162,/world,vicon/Archie/Archie,-0.113074574445,-0.303339273658,0.111416938207,0.00364916880029,0.00103169852349,0.699920865781,0.714210333732
1385576812631831523,1321524,1385576812631831523,/world,vicon/Archie/Archie,-0.113088572383,-0.303337831408,0.111403805288,0.0036235319266,0.00106027196612,0.699930545583,0.714200936151
1385576812641809514,1321525,1385576812641809514,/world,vicon/Archie/Archie,-0.113084319851,-0.303334810837,0.111413746241,0.0036379193278,0.00105241734642,0.6999338069,0.714197678461
1385576812651695696,1321526,1385576812651695696,/world,vicon/Archie/Archie,-0.113070457671,-0.303347967327,0.111429732255,0.00370478834372,0.000956409942441,0.69992120656,0.714209818212
1385576812661683514,1321527,1385576812661683514,/world,vicon/Archie/Archie,-0.113099003577,-0.30332537499,0.111463799521,0.00389787996271,0.00077387552184,0.699939052668,0.714191522071
1385576812671692654,1321528,1385576812671692654,/world,vicon/Archie/Archie,-0.113083830978,-0.303337899071,0.11141107013,0.00362442139554,0.00105411103303,0.699934305447,0.714197256
1385576812682365453,1321529,1385576812682365453,/world,vicon/Archie/Archie,-0.113081701601,-0.303336445555,0.1114026176,0.00362834770069,0.00103420565158,0.699923796449,0.71420756414
1385576812691685399,1321530,1385576812691685399,/world,vicon/Archie/Archie,-0.113120029824,-0.303327784381,0.111465442581,0.00389266977475,0.000803380809583,0.699943150848,0.714187501488
1385576812701664469,1321531,1385576812701664469,/world,vicon/Archie/Archie,-0.113112479763,-0.30333287474,0.111466523018,0.00389177106878,0.000788160129339,0.699939201258,0.714191394141
