%time,field.linear.x,field.linear.y,field.linear.z,field.angular.x,field.angular.y,field.angular.z
1385576812766746435,0.0,0.0,0.0,0.0,0.0,0.0
1385576812766881673,-0.113084101349,0.303333197104,-0.111415044728,0.00662480987762,0.00361905572612,-1.55059991209
1385576812777053324,-0.113089579975,0.303335838074,-0.111414628702,0.00665594668019,0.0035878493156,-1.55059776522
1385576812787150194,-0.113067934965,0.303351112009,-0.11143474214,0.00660035915654,0.0036378259629,-1.55052767093
1385576812796962746,-0.113089005251,0.303335477954,-0.111403997777,0.00660770028502,0.00361748328402,-1.55060774115
1385576812807053968,-0.1130824204,0.303339876314,-0.111421248617,0.00665583630468,0.00365474789566,-1.55063270191
1385576812816982798,-0.113106133859,0.303331163865,-0.111483762529,0.00673790753662,0.00450591917206,-1.550644778
1385576812826961308,-0.113120892047,0.303328618777,-0.111457763521,0.00665759524228,0.00431495743046,-1.55065400559
1385576812836981557,-0.113086332112,0.303340739567,-0.111412738476,0.00663828242315,0.00359553389788,-1.5505966244
1385576812846895925,-0.113106256353,0.303330874851,-0.111471882385,0.00673589549114,0.00432109725417,-1.55063803347
1385576812856945786,-0.113073578796,0.303340623306,-0.11140743157,0.00664885328334,0.00364571868721,-1.55059829895
1385576812867027321,-0.113084001578,0.303333825418,-0.111413766151,0.00665927347334,0.00364024683495,-1.55061529278
1385576812877381750,-0.113085965306,0.303335320405,-0.111408131786,0.00666190227337,0.00362631178006,-1.55059383967
1385576812887095004,-0.113073175176,0.303343752,-0.111408515082,0.00666101121768,0.0036184241851,-1.55057127375
1385576812897017287,-0.113076547696,0.303336122821,-0.111419484952,0.00666167434591,0.00361146884185,-1.55057820464
1385576812906963584,-0.113084411196,0.30333579099,-0.111405891464,0.00665712662966,0.00360915267576,-1.55062092564
1385576812916984615,-0.113086222639,0.303331592409,-0.111408726211,0.00666615049712,0.00360936009706,-1.55059737422
1385576812927073407,-0.113108744796,0.303333052408,-0.111469055875,0.00672147180062,0.00432921441896,-1.55067261998
1385576812937040661,-0.113079503051,0.303342221422,-0.111411374938,0.00665259148881,0.00361074551107,-1.55061493206
1385576812946991137,-0.113103543869,0.303329929932,-0.111465484222,0.00670071611724,0.00432985899816,-1.55066872734
1385576812957087458,-0.113074093663,0.303332989098,-0.111408106705,0.00664911868117,0.00359258025397,-1.5505923011
1385576812967119186,-0.113081605278,0.30333589999,-0.111418240184,0.00667767613024,0.00363658352486,-1.55059614246
1385576812977029823,-0.113084783214,0.303337616979,-0.11141144253,0.00662863959251,0.00362732657438,-1.55059784323
1385576812987210661,-0.113089136861,0.303336942483,-0.111405537255,0.00660534028612,0.00360605593717,-1.5505810357
1385576812997074717,-0.113089991809,0.303340046679,-0.11140472965,0.00666401842766,0.00362852680729,-1.55060012761
1385576813006943502,-0.113108482924,0.303330075213,-0.111466341284,0.00670394823058,0.00434325646209,-1.55064691486
1385576813017019540,-0.113086560233,0.303341053927,-0.111406170972,0.00663024201881,0.00359088807597,-1.55057720342
1385576813027030071,-0.113101177471,0.303326578958,-0.111458969275,0.00669523235326,0.00428319157847,-1.55067234857
1385576813037018275,-0.113093031641,0.303346355307,-0.111408943961,0.00660870097088,0.00362929149169,-1.55057436126
1385576813047036636,-0.113105165051,0.30333051114,-0.111477286923,0.0067075547959,0.0044703166614,-1.55058546035
1385576813057049574,-0.113120970833,0.303332812299,-0.111467959408,0.00672250360792,0.00431679983638,-1.55065895894
1385576813067029973,-0.113112899308,0.303326758641,-0.111470099664,0.00669957307516,0.00426571953533,-1.5506549763
1385576813077255038,-0.113085196789,0.303335459234,-0.111404204535,0.00661401814794,0.00360676092594,-1.5505999812
1385576813086971354,-0.113072576107,0.30334058755,-0.111416131569,0.0066308784757,0.0037420224262,-1.55057340718
1385576813096921675,-0.113127653357,0.303334285413,-0.11147050056,0.00670135469814,0.00432817207834,-1.55067358661
1385576813107262755,-0.113088976169,0.303341899074,-0.111416702553,0.00667734232903,0.00363310509333,-1.5505930015
1385576813116996052,-0.11308456637,0.303339216975,-0.111413258495,0.00672238509239,0.00360085645232,-1.55057776049
1385576813126925880,-0.113123624827,0.303336168464,-0.111466630391,0.00667572719427,0.0043068511931,-1.55063932689
1385576813136982269,-0.113094659846,0.303336063131,-0.111409234553,0.00669228551531,0.00365024382737,-1.55059872325
1385576813146953055,-0.1130906649,0.303342797906,-0.111414469115,0.00665608864178,0.00365025650673,-1.55060594793
1385576813156990013,-0.113101908048,0.303338448962,-0.111410099378,0.00663775813194,0.00361234750589,-1.55059060683
1385576813167034870,-0.113085859459,0.303340365664,-0.11141025013,0.0066844353434,0.00360932790431,-1.55057027625
1385576813176948276,-0.113087808626,0.30334093049,-0.111414172825,0.00667090665623,0.00362718055659,-1.55062336548
1385576813186997752,-0.113085036442,0.30333205163,-0.111406763234,0.00663196363725,0.00363305243422,-1.55061638171
1385576813196982404,-0.113108322746,0.303333090629,-0.111479610463,0.00668686875018,0.00445408387641,-1.55062864207
1385576813206975547,-0.113084269072,0.303333978186,-0.111415026849,0.00663890801963,0.00360986034695,-1.55060906566
1385576813216989243,-0.113120308623,0.303332174912,-0.111458424882,0.00673902492319,0.00431919906952,-1.55063436947
1385576813227032326,-0.113123541814,0.303332320007,-0.111461576075,0.00668530385825,0.00434034685431,-1.55066728645
1385576813236955371,-0.113085183247,0.303351226921,-0.111425618475,0.00668587586971,0.0037952473975,-1.55057531197
1385576813246990611,-0.113081967419,0.303337226879,-0.111407128841,0.006647251042,0.00363283608383,-1.55057344936
1385576813257065960,-0.113117971764,0.303326316205,-0.111463502629,0.00670410006069,0.00430303982415,-1.55065166999
1385576813266983935,-0.113108092231,0.30333438553,-0.111467437162,0.00667117552462,0.00429966386503,-1.55064962976
1385576813276989956,-0.113110355191,0.303325041907,-0.111466318387,0.00669177146215,0.00430799480688,-1.55063663684
1385576813287003348,-0.113091617001,0.303336398204,-0.111413918112,0.00663850824889,0.00365107607992,-1.55063942856
1385576813296952797,-0.113085246388,0.303336631354,-0.111403156149,0.0066240220665,0.00364177602521,-1.55059307076
1385576813307027409,-0.113070975559,0.303344182088,-0.111422185736,0.00666618830414,0.00380580339435,-1.55060216355
1385576813316917000,-0.113086685093,0.303335805682,-0.111405608233,0.00666473293349,0.00367863998616,-1.55060176747
1385576813326971857,-0.113116617611,0.303329077216,-0.111462156889,0.00671131189014,0.00432092302027,-1.55063037404
1385576813336970287,-0.113109650758,0.30333081563,-0.11146501458,0.00672381409548,0.00433297295631,-1.55065777212
1385576813346978255,-0.113106018064,0.303330716987,-0.111483830773,0.00675202470432,0.00453391552802,-1.55060315073
1385576813356949168,-0.113117365825,0.303311552606,-0.111471354088,0.00681047106303,0.0043651135619,-1.55060304817
1385576813367019965,-0.112983930749,0.303313739381,-0.111493484605,0.00663375305379,0.00324779865853,-1.55096496858
1385576813377018474,-0.11294495214,0.303303199173,-0.111518209648,0.00647978929788,0.00378690464962,-1.54939713379
1385576813386970443,-0.113046816819,0.303345469865,-0.11144229381,0.00667594317613,0.00330264056876,-1.55020822061
1385576813396941608,-0.113110240606,0.303304998932,-0.111522126895,0.00688435629036,0.00383205420618,-1.55167276799
1385576813407128183,-0.113083031286,0.303356426638,-0.11152305597,0.00685486389343,0.00414240222044,-1.5502351227
1385576813417031057,-0.113064354639,0.303331068333,-0.111533614963,0.00672689826165,0.00393925261683,-1.55020749988
1385576813426987342,-0.113087071861,0.303320076786,-0.111410135028,0.00676168657486,0.00347099424358,-1.55096566602
1385576813437125712,-0.113049421321,0.303361458517,-0.111473822561,0.0067240208879,0.00317248507838,-1.5504124503
1385576813447012370,-0.113044602553,0.303339390071,-0.111543483367,0.00676200653519,0.00418141159127,-1.55049563291
1385576813457006570,-0.113020972334,0.303340759619,-0.111472266001,0.00670312972715,0.00334949891042,-1.5505365823
1385576813467086925,-0.113017823328,0.303332278755,-0.1114767869,0.00671410013172,0.003176227151,-1.55050658268
1385576813477085220,-0.113034256884,0.303314523402,-0.111529122478,0.00683787994515,0.0040354851282,-1.55041910865
1385576813487237641,-0.113005298185,0.303253724167,-0.11145962142,0.00709004613793,0.0037147894013,-1.55090121096
1385576813497109546,-0.112954062909,0.303275919244,-0.111464794667,0.00671834458588,0.00314382935173,-1.55108264217
1385576813507056639,-0.11299251225,0.303274732624,-0.111530399489,0.00659036511477,0.0039062922644,-1.55077225509
1385576813516975272,-0.112968709001,0.303292482323,-0.111553937488,0.00672536406007,0.00416847398835,-1.55073475349
1385576813527024874,-0.112954330368,0.303197601997,-0.111524337861,0.00704211755389,0.00375059415863,-1.55043893113
1385576813537020942,-0.112966119874,0.303315378094,-0.111548860413,0.00674976208415,0.0039861885672,-1.55105742493
1385576813546962612,-0.112969677505,0.303294500195,-0.111551830744,0.00682432800341,0.00407631160268,-1.55061234692
1385576813556962871,-0.113082811368,0.303294049058,-0.111470190465,0.00690714190102,0.00440885595505,-1.55084783062
1385576813566952566,-0.113008099632,0.303287619923,-0.111554556306,0.00676735439934,0.00412504410863,-1.5511670828
1385576813576985842,-0.112946936287,0.303299778708,-0.11150567226,0.00659650938805,0.00342152943945,-1.55063879513
1385576813586963944,-0.112953603362,0.303294235649,-0.111478034066,0.00673191134824,0.00333452359154,-1.55067902753
1385576813596989113,-0.112954676474,0.303283094362,-0.111488860351,0.0065922469622,0.00328311319864,-1.55110306981
1385576813607024396,-0.112996585718,0.303293706795,-0.111536037174,0.00690738473145,0.0033411150489,-1.55104498821
1385576813616924156,-0.112951556867,0.30328988521,-0.111489675204,0.00662288129533,0.00322663028378,-1.55055154333
1385576813626932352,-0.113041573397,0.303318518144,-0.111566720545,0.0070168156282,0.00362642773182,-1.55078400477
1385576813636998075,-0.112953651767,0.303284038491,-0.111485211395,0.00673558690021,0.00326357588712,-1.55116907584
1385576813646974825,-0.112955194078,0.303281747662,-0.11148967118,0.00686826786372,0.00334574341677,-1.55083829307
1385576813656993360,-0.112968973067,0.303317104265,-0.111579934352,0.00679154953962,0.00408059969666,-1.55071421814
1385576813666951345,-0.112985364928,0.303294910573,-0.111559296907,0.00670636925146,0.00387508299834,-1.55106552629
1385576813677014211,-0.112924083782,0.303276451604,-0.111523317332,0.00653813879287,0.00358630129657,-1.55108295357
1385576813686988220,-0.11298349614,0.303291200518,-0.111564907357,0.00670021467888,0.00410711078236,-1.55072473024
1385576813696977216,-0.113000433972,0.303282851283,-0.111558642109,0.00671302734234,0.00402033336325,-1.55075855364
1385576813706989648,-0.112987054685,0.303212405881,-0.11157972474,0.00694726212918,0.00432179001863,-1.55050557549
1385576813716966834,-0.112956470867,0.303282732423,-0.111492575906,0.00669778075496,0.00333820455953,-1.5509459797
1385576813726997468,-0.113079018476,0.303289207499,-0.111479496529,0.00708482177668,0.00441554387942,-1.55054772144
1385576813736989649,-0.112987288165,0.3032794948,-0.111567114184,0.00681747670617,0.00388364281815,-1.55095057666
1385576813746984916,-0.112999346596,0.303261915129,-0.111518300375,0.00693449936698,0.00376776625573,-1.55113038115
1385576813757103997,-0.112969297053,0.303286778837,-0.111551504401,0.00672519220433,0.00411320396419,-1.55074669652
1385576813767025677,-0.11300546126,0.303312154621,-0.111494373103,0.00685856963835,0.00303036759887,-1.55066202085
1385576813777012042,-0.112966002951,0.303295852975,-0.111496122181,0.00658816174618,0.00320984940618,-1.55086214019
1385576813786979496,-0.11300896745,0.303195545201,-0.111557821331,0.00698013163363,0.00431377319512,-1.55036599086
1385576813797161614,-0.112970838279,0.303285159261,-0.11147124695,0.0065332597003,0.00331189031503,-1.55091071222
1385576813806979881,-0.113026066103,0.303312203125,-0.111485556569,0.00677645673494,0.00289141007746,-1.55083206317
1385576813816946638,-0.112976289012,0.303266969707,-0.111466421804,0.00689986766927,0.0032273445505,-1.55074312042
1385576813826970301,-0.112970752395,0.303294691265,-0.111526162191,0.00669030682355,0.00387815558485,-1.55115494289
1385576813836999960,-0.112970249898,0.303294617675,-0.111545534719,0.00688119617323,0.00416918156537,-1.55100062268
1385576813846996658,-0.112982628739,0.303291167015,-0.111541827332,0.0068652456869,0.00418741152671,-1.55061593919
1385576813857009650,-0.112937065887,0.303343891122,-0.111496204864,0.00660583809045,0.00369428514673,-1.55101665741
1385576813866939868,-0.112948948233,0.303282133464,-0.111498142752,0.00689594203151,0.00324866307912,-1.55105812675
1385576813876966837,-0.112993823173,0.303256341709,-0.111511263238,0.00694232107203,0.00389232754022,-1.55135048328
1385576813886972759,-0.112961223067,0.303311400828,-0.111548439401,0.00677665566796,0.00370576400052,-1.55057846188
1385576813897017274,-0.112977288671,0.303289785845,-0.111571014294,0.00659600757788,0.00411682313592,-1.55079480187
1385576813907186880,-0.112972114371,0.303277645594,-0.111504594084,0.00659733765095,0.00317356521611,-1.55116018532
1385576813917012847,-0.112988381816,0.303282947805,-0.111573822675,0.00661213925494,0.00394623361173,-1.5508905032
1385576813926973410,-0.112997690486,0.303179980908,-0.1116839302,0.00728825096988,0.00453968436812,-1.5502699424
1385576813937043376,-0.112989128021,0.303249133392,-0.111583240865,0.00701334268404,0.00367251636906,-1.55110962674
1385576813946983562,-0.11297273337,0.303276224761,-0.111624615662,0.00682627341064,0.00401871618054,-1.55093844226
1385576813956981226,-0.112982497893,0.303291636273,-0.111603652369,0.0066481873144,0.0039871742694,-1.55054982756
1385576813967030804,-0.112983361237,0.303263629612,-0.11152358642,0.00618162642176,0.00325700930941,-1.5510950912
1385576813977015089,-0.112974435176,0.303238763934,-0.111462180543,0.00574669038691,0.00318166188091,-1.55123942668
1385576813987014899,-0.11300167517,0.303265974939,-0.111630184884,0.00573731977534,0.00433032959006,-1.55075085849
1385576813996991558,-0.112995845724,0.303278559582,-0.111637836439,0.00567588643297,0.00411057276147,-1.55086073077
1385576814006935795,-0.112960203746,0.303260900784,-0.111575682393,0.00609567436113,0.0029683994133,-1.55126005532
1385576814016958426,-0.112994329781,0.303258810136,-0.111629464038,0.00650107179064,0.0038514637395,-1.55078302784
1385576814026993347,-0.112940478222,0.303233335031,-0.11160294816,0.00629413017947,0.0042415685748,-1.55097744161
1385576814036974237,-0.112978986732,0.303283688885,-0.111609159534,0.00663595192733,0.00420500409262,-1.55102213054
1385576814046984003,-0.11296877082,0.303289687742,-0.111671420394,0.00635759644759,0.00397074976427,-1.55068078322
1385576814057005489,-0.112970662054,0.303246008424,-0.111588828171,0.00606508882439,0.00281911347884,-1.55130310298
1385576814066967352,-0.113019128814,0.303257623365,-0.111665151892,0.00646795190738,0.00431721764719,-1.55101708773
1385576814077014835,-0.112999622371,0.303299927915,-0.111634874541,0.00591311909626,0.00418929062553,-1.55069785893
1385576814087031009,-0.11300497859,0.303261526214,-0.111634028689,0.00622253923667,0.00357388559835,-1.55128983743
1385576814097216908,-0.113026013077,0.303288318207,-0.11156005728,0.00643538061024,0.00285001178587,-1.5507985812
1385576814107135346,-0.113017477896,0.303172153737,-0.111673877252,0.0062037313906,0.004356275063,-1.55040075038
1385576814117154142,-0.112984012048,0.303289516759,-0.111549236029,0.0059136769948,0.00314991187435,-1.55114806074
1385576814126956043,-0.1130100477,0.303292427971,-0.111605231441,0.00600974794123,0.00384204932725,-1.55091513688
1385576814137020441,-0.112997927429,0.303289536868,-0.111599342564,0.00621177646767,0.0037404488297,-1.55125431288
1385576814146933666,-0.11299868548,0.303288221715,-0.111664092984,0.00665125823593,0.00373908206104,-1.55128217157
1385576814157036634,-0.112979055968,0.303290810256,-0.111684811032,0.006800830473,0.00405079487688,-1.55073218378
1385576814166986773,-0.11303788397,0.303306370175,-0.111600411523,0.00671253214023,0.00380244044859,-1.55111059612
1385576814177043555,-0.113054179518,0.303182549908,-0.111685047084,0.0064244929593,0.00440598968344,-1.55059194198
1385576814187181164,-0.112996765452,0.303188111984,-0.111679518758,0.00541842038691,0.00441057757886,-1.55018351371
1385576814196977599,-0.113097894873,0.303273803046,-0.111618408737,0.00523918502454,0.00434414897275,-1.55127556428
1385576814207158669,-0.11302775338,0.303292843644,-0.111663490985,0.00534248850924,0.00395790317327,-1.55113827285
1385576814217101066,-0.113000484823,0.303197499824,-0.111669873995,0.00567216215046,0.00410724112607,-1.55012875123
1385576814226994615,-0.113030114547,0.303270075494,-0.111583817427,0.00614967852703,0.00374127641598,-1.55134762859
1385576814236957366,-0.113050370692,0.303316831073,-0.111589591039,0.00645094951036,0.00376398687293,-1.55077556496
1385576814247095753,-0.113000198666,0.303334871645,-0.111621092224,0.00609823955963,0.00394619090748,-1.55099106335
1385576814257067156,-0.11297712057,0.303307144558,-0.111606179201,0.00564745347525,0.00337105926154,-1.5513147511
1385576814266974382,-0.113028513574,0.303304312786,-0.111628222013,0.005796478557,0.00395854330363,-1.55097887852
1385576814277221660,-0.113017125673,0.303345353734,-0.111601193159,0.00512658547972,0.00348891805421,-1.55105734451
1385576814286995389,-0.113060982824,0.303338501357,-0.111583582326,0.00544825216235,0.00336922620583,-1.55150109144
1385576814297008014,-0.113035335907,0.303349709169,-0.111526485812,0.00553364275394,0.00332254119133,-1.55104993028
1385576814307162133,-0.113060215567,0.303336306381,-0.111537970587,0.00591035089054,0.00263702133066,-1.55123529421
1385576814317124082,-0.113026681011,0.303301608709,-0.111632574402,0.00587189655558,0.0036385007175,-1.55119870955
1385576814326965343,-0.113029786335,0.303248981151,-0.111693715983,0.00596210906819,0.0041026418309,-1.55036159802
1385576814336984994,-0.113100733847,0.303298371128,-0.111514074937,0.00576855151473,0.0043875980784,-1.55159594234
1385576814346977282,-0.11310558238,0.303346929627,-0.111544108882,0.00571506312781,0.00386813957868,-1.55127580426
1385576814356951446,-0.1131827234,0.303313414862,-0.111547729051,0.00529349841727,0.004714893199,-1.55080078745
1385576814366972236,-0.113078719389,0.30330270033,-0.111620213367,0.00551675339718,0.00373340951727,-1.55171684073
1385576814377053354,-0.113175336744,0.303284783311,-0.111530037744,0.00585440530249,0.00487090824401,-1.55109106279
1385576814386986264,-0.113166717505,0.303298205398,-0.111501190901,0.00621209425889,0.0046031145053,-1.55112279304
1385576814396959412,-0.113085088649,0.303316563797,-0.111640138805,0.00660784887019,0.00399234178824,-1.55160957778
1385576814406942704,-0.113053302831,0.303341864036,-0.11160997791,0.00634592466756,0.00397512854327,-1.5512195047
1385576814416989520,-0.113125188551,0.303364428388,-0.111593455918,0.00607786626282,0.00345251542111,-1.55160066836
1385576814426968192,-0.113090669375,0.303340520502,-0.111565797096,0.00565676747491,0.00384695026824,-1.55165643331
1385576814437056070,-0.11321057802,0.303197688988,-0.111611631949,0.00589563655707,0.00539701536238,-1.55018654987
1385576814447015252,-0.113089496647,0.30336113159,-0.111593333387,0.0057076240332,0.00373519563859,-1.551701726
1385576814457028268,-0.113053296703,0.303312595299,-0.111584062144,0.00613770184579,0.0039798767217,-1.55157416352
1385576814466998193,-0.113061193861,0.303365890807,-0.111551545312,0.00656591150592,0.00390704366962,-1.55145321853
1385576814477047644,-0.113068020876,0.303220303018,-0.111557316354,0.00708999606232,0.00407640889219,-1.5512839725
1385576814486972097,-0.113046383396,0.30334800492,-0.111567200447,0.00687554201575,0.00388177893316,-1.55126898882
1385576814496965655,-0.113057219678,0.303347864732,-0.111609748803,0.00685318006306,0.00361680278168,-1.5515212843
1385576814506994395,-0.113186050524,0.303273106737,-0.111459740707,0.00638990369729,0.00466132926902,-1.55175012591
1385576814516939959,-0.113120166627,0.30334263938,-0.111468412573,0.00592060606121,0.00478650590814,-1.5513182308
1385576814526982822,-0.113147934784,0.30340588955,-0.111612829084,0.00592383511983,0.00325556645515,-1.55159953844
1385576814536970685,-0.113176969899,0.303279891413,-0.111664304522,0.0060128014224,0.00402241065072,-1.55132557292
1385576814547013242,-0.11304563007,0.303342662079,-0.111650136445,0.00653841671054,0.00351543796349,-1.55184770826
1385576814557080306,-0.113054480459,0.303249310039,-0.111522645939,0.00714780426619,0.00366112417199,-1.55199007476
1385576814566992880,-0.113019634611,0.303380433671,-0.111355005106,0.0066812320418,0.0033956811609,-1.55215115238
1385576814576975268,-0.11300375755,0.30341222473,-0.111513726901,0.00637109512915,0.00256222321414,-1.5520400093
1385576814587205335,-0.113054489135,0.303336021802,-0.111667348837,0.00613782647667,0.00269513166826,-1.5522952141
1385576814596932610,-0.113099071758,0.303437244912,-0.111632453495,0.00611061143488,0.0036083937193,-1.55187170411
1385576814607057892,-0.113088050993,0.303368000058,-0.111412080409,0.00595392972666,0.00359309924574,-1.55220571261
1385576814617060683,-0.113093109771,0.303378023456,-0.111401706898,0.00615328536344,0.00297977888786,-1.55244576848
1385576814626915700,-0.11305232061,0.303400500522,-0.111569444822,0.00615522309488,0.00284189738507,-1.5517629992
1385576814637147005,-0.1130561163,0.303301404621,-0.111666632335,0.00663146000948,0.00388562017227,-1.55227495551
1385576814646976295,-0.113062016344,0.303402521019,-0.111565360571,0.00722954167665,0.00328299913276,-1.55211612638
1385576814656902153,-0.113091627587,0.303340618254,-0.111477262218,0.00744394739287,0.00369410400099,-1.55217269889
1385576814666967131,-0.113062568761,0.303330022234,-0.111482163845,0.00724266986711,0.00306506207065,-1.55251768543
1385576814677002276,-0.113107603415,0.303435457906,-0.111560770822,0.00679579007962,0.00270092320971,-1.55184475038
1385576814687023343,-0.113106754439,0.303327512562,-0.111542183021,0.00620715830674,0.00315249436409,-1.55237340764
1385576814696975064,-0.113091813819,0.303390768108,-0.111449261387,0.00599855130206,0.00303284948969,-1.55214143113
1385576814707363947,-0.113150093674,0.303315029446,-0.111539510346,0.00658767677801,0.00340288750752,-1.55141016631
1385576814716969106,-0.113110856011,0.303332168322,-0.111578936898,0.00595237648694,0.00345927857567,-1.55246762321
1385576814726928555,-0.113268388706,0.303434616718,-0.111593685207,0.00631440120674,0.00399548828797,-1.55181509613
1385576814736991869,-0.113126034824,0.303404351912,-0.111506750559,0.00670701748556,0.00293976528137,-1.55266178958
1385576814747018904,-0.113088545582,0.303425473851,-0.111457809975,0.00729928753134,0.00317355409514,-1.55249901563
1385576814757113487,-0.113076368661,0.303487139746,-0.111621495736,0.00755365606218,0.00398040205108,-1.5524384632
1385576814766982230,-0.113035773453,0.303395265305,-0.111676152358,0.00838594394855,0.00347283270964,-1.55324421092
1385576814776974933,-0.113080523508,0.303438095017,-0.1118381323,0.00927768427392,0.00437271955487,-1.55204499322
1385576814787018052,-0.113117263798,0.303446399571,-0.111615435656,0.0085672013486,0.00374825559796,-1.55314204736
1385576814796965525,-0.11316425818,0.303538969535,-0.11158985104,0.00746875593485,0.00365257839787,-1.5528771744
1385576814806968127,-0.113212120067,0.303502115701,-0.111624007548,0.00696702335132,0.00373100654876,-1.55312143048
1385576814817029397,-0.113284450518,0.30348127156,-0.111686668122,0.00642813007569,0.00409170709119,-1.55417947587
1385576814827002121,-0.11325979706,0.30355966452,-0.111648909797,0.0061333071804,0.00396996366175,-1.55352767287
1385576814836946747,-0.113356536221,0.303532486075,-0.111672112811,0.00607780650898,0.00493630999268,-1.55496165693
1385576814846974075,-0.113317863686,0.303616563408,-0.111715060988,0.00572012800573,0.00433892321718,-1.55422723818
1385576814856985738,-0.113381569291,0.303623426268,-0.111790182748,0.00567212540714,0.00458915134101,-1.55459639312
1385576814867005198,-0.113379819177,0.303616562108,-0.111720144576,0.00564033189064,0.0033537743476,-1.55424394623
1385576814877040362,-0.11340711816,0.303688572583,-0.111603060729,0.00604526085274,0.00262263019163,-1.55505049973
1385576814887134122,-0.113354880625,0.30376623977,-0.111584490129,0.00601103450709,0.00366928826933,-1.55622950513
1385576814896949447,-0.113371772747,0.303801436299,-0.111661039359,0.00608833958994,0.00440250819564,-1.55658779099
1385576814907079143,-0.113424400702,0.303878412553,-0.111753616954,0.00588260421423,0.00367511442879,-1.5570173616
1385576814917145663,-0.113498043603,0.303904327154,-0.111722752628,0.00565996989261,0.00317773199687,-1.55723113777
1385576814926973795,-0.113513570469,0.303980377884,-0.111619501976,0.00549693306693,0.00362010681702,-1.5578047622
1385576814937385885,-0.113583811627,0.304029875968,-0.111612569414,0.00493068275524,0.00565628936067,-1.55848010762
1385576814946998802,-0.113707642285,0.303959461696,-0.111718483127,0.00437782829308,0.0052243261841,-1.55918509555
1385576814956955344,-0.113792066241,0.304040666486,-0.111726476021,0.00447600129066,0.00395632753196,-1.55938551727
1385576814967134126,-0.113838247418,0.304019523356,-0.111645277019,0.0045162541263,0.00419469207894,-1.56045368832
1385576814977054844,-0.113942928349,0.304264628752,-0.111743543286,0.0049677680926,0.00496362411834,-1.56112330251
1385576814987095569,-0.113973373857,0.304230412286,-0.111711731106,0.00456298987447,0.00598120828744,-1.56215197116
1385576814997032116,-0.114040432479,0.304419065914,-0.111849324557,0.00441459197079,0.00534786570091,-1.56305818112
1385576815006982040,-0.11411306688,0.304396216073,-0.111764930268,0.00445619760051,0.0048996453966,-1.56376893014
1385576815016987853,-0.114069016017,0.304465969967,-0.11168406421,0.00476640332548,0.00462856359371,-1.5638960583
1385576815026971514,-0.114148562148,0.304488803502,-0.111771375889,0.00439111450481,0.00656933646604,-1.56536929162
1385576815036978746,-0.114204215113,0.304411618648,-0.111962544174,0.00448469856465,0.0055856905789,-1.56591621058
1385576815046940403,-0.114162921823,0.304445043341,-0.111883175269,0.00452130553766,0.00384329130902,-1.56626317574
1385576815056974078,-0.114307598385,0.304283963547,-0.111646367844,0.00398906462116,0.00344436287479,-1.56737726595
1385576815066995345,-0.114153047968,0.304563787197,-0.111658150573,0.00475625913288,0.00444438884749,-1.5673931932
1385576815076948552,-0.114154551368,0.304380718418,-0.111764033275,0.00504047811623,0.00573335213959,-1.56847243528
1385576815086981819,-0.114292993001,0.304540925473,-0.111701616069,0.00514832988907,0.00562003387658,-1.56918851106
1385576815096928391,-0.114187553307,0.304420664308,-0.11175319782,0.00526850354533,0.00408315626155,-1.56994439034
1385576815106985753,-0.114183145335,0.304546733219,-0.111763844586,0.00529657888896,0.00400418019012,-1.56998427963
1385576815116979489,-0.114176081027,0.304558915805,-0.111670321604,0.00492376627152,0.0051434430691,-1.57061699562
1385576815126953083,-0.114244492604,0.30461855457,-0.11161823775,0.00469718730274,0.00508501885451,-1.57038382869
1385576815136926326,-0.114228446634,0.304742001234,-0.11176312918,0.00424997454715,0.00406609248005,-1.57163794893
1385576815146971685,-0.114210858415,0.304772560728,-0.111870156116,0.00381209680894,0.00481335941873,-1.57144386441
1385576815156964029,-0.114321810358,0.305034604054,-0.111697554381,0.00396288380234,0.00596352015423,-1.57287130911
1385576815166959013,-0.114300661863,0.305002759568,-0.111662258538,0.00439021548401,0.00587722338672,-1.57302456095
1385576815176958927,-0.114326265102,0.305089942777,-0.111925221509,0.00487464066196,0.00511473596769,-1.57354816347
1385576815186959531,-0.114356668654,0.305023425226,-0.11200639502,0.00454291995915,0.00408275158965,-1.57329122429
1385576815196972601,-0.114490648435,0.30513632109,-0.112088973995,0.00446296186832,0.00303139276579,-1.57405936423
1385576815206970065,-0.114523238916,0.305186025095,-0.112099542422,0.00445394608507,0.00284465941283,-1.57437186394
1385576815217003139,-0.114524195004,0.305448254504,-0.111821523858,0.00370984543,0.00479210970653,-1.57572888306
1385576815226942849,-0.114598588852,0.305588091464,-0.111647118762,0.0034429481196,0.00677144592258,-1.57640599697
1385576815236954978,-0.11455609062,0.305658971433,-0.11151178583,0.00292326482649,0.00651349071075,-1.57673008545
1385576815246977745,-0.114705677208,0.305711173978,-0.111796553437,0.00313218237279,0.00540771440811,-1.57665650652
1385576815257037590,-0.114829699392,0.306045411636,-0.112060062588,0.0025770193882,0.0047585001235,-1.57696829092
1385576815266968210,-0.114943467081,0.306235394176,-0.112023965678,0.00258478280327,0.00515374451754,-1.57786944927
1385576815277016350,-0.114901336791,0.306454615396,-0.111682011633,0.00256634227546,0.00700057372596,-1.57841661288
1385576815286986398,-0.115105763907,0.306546618026,-0.111462206608,0.00251707140206,0.00603865973068,-1.57967506313
1385576815296987547,-0.115323783066,0.306712939066,-0.111685978934,0.00228492761552,0.00616811816726,-1.58038094942
1385576815306972571,-0.115426755795,0.306915565877,-0.112045161174,0.00269727301453,0.00379430695705,-1.58135979137
1385576815316945812,-0.115602696686,0.307286624351,-0.112087370319,0.00296675257822,0.00520972278046,-1.58225812096
1385576815327003341,-0.115819259147,0.307613629117,-0.111875802274,0.0028648055652,0.00591155678057,-1.58391970056
1385576815337015686,-0.116086439941,0.307893903295,-0.111574265378,0.00290417906746,0.00739738485362,-1.58467961651
1385576815346952877,-0.116168659292,0.308257580711,-0.111801953288,0.00299335705853,0.00790577522518,-1.5859111012
1385576815357049316,-0.116424180894,0.308614828741,-0.111912277809,0.00192804462398,0.00467235969445,-1.58637812392
1385576815366979576,-0.116693066742,0.308958992857,-0.112105979174,0.000970514733033,0.00441979438951,-1.58675361859
1385576815376992809,-0.116887063347,0.30941969972,-0.112060268649,-0.000326267264697,0.00723283767084,-1.58778743796
1385576815386971038,-0.117123826994,0.30982102144,-0.111598880132,-0.000604670157845,0.00787643816554,-1.58787061094
1385576815396936295,-0.117255450692,0.310130433332,-0.111642248045,-0.000334209138676,0.00637921729487,-1.58833353053
1385576815407078800,-0.117590256837,0.310576403227,-0.111796821145,-5.33982045855e-05,0.00405260339426,-1.58938688701
1385576815416957152,-0.117676951648,0.310913812082,-0.112016210331,0.000810889083099,0.00318753381976,-1.58981383223
1385576815426943860,-0.117836888827,0.311307198653,-0.112004273983,0.00222774315049,0.00333525173804,-1.59017306228
1385576815437060452,-0.117782720361,0.311772477978,-0.111983938745,0.00306886162816,0.00641272527115,-1.59004846853
1385576815446968037,-0.117914875152,0.312271079042,-0.112091219021,0.00431581587625,0.00877661404284,-1.59063281834
1385576815456913426,-0.117953994707,0.312640909607,-0.112196819922,0.00480642755571,0.0080237376239,-1.5903541497
1385576815466975947,-0.11797593226,0.313034338407,-0.112184672249,0.00444388138283,0.00800432488075,-1.590411982
1385576815476976925,-0.118046102759,0.313499325193,-0.112112306743,0.00313736720036,0.00724347247938,-1.58983627951
1385576815486985936,-0.117978027735,0.313869372069,-0.112339385363,0.00108570031818,0.00508253520236,-1.59022133075
1385576815496971256,-0.118076071652,0.314322476111,-0.112437574463,0.000162393661243,0.00503879575539,-1.58991516335
1385576815506974728,-0.117891590002,0.314843692217,-0.112354166282,0.000232404732598,0.00524152084555,-1.59031071241
1385576815516996709,-0.117903047261,0.315341770538,-0.112031668193,-0.000242307149205,0.00452428806736,-1.59042788494
1385576815526968675,-0.117800882092,0.315905461841,-0.112117980075,-0.000822602087055,0.00512284704392,-1.59035581698
1385576815536953702,-0.117781744384,0.316504199623,-0.112203993069,-7.60617249222e-06,0.00750344884158,-1.59086318129
1385576815546950592,-0.117652968341,0.317056778919,-0.112066558125,-1.99335557547e-05,0.00618603767955,-1.59176319982
1385576815556991137,-0.117530685862,0.317664545864,-0.112033787017,-0.000502506228772,0.00648625043156,-1.59298208783
1385576815566950969,-0.117504961704,0.318305578986,-0.112269841,-0.000545960065181,0.00606496733226,-1.59455203886
1385576815576910695,-0.117334717204,0.318906825795,-0.112492372834,-0.000729992228356,0.00757832598961,-1.59551456945
1385576815586972717,-0.117317469087,0.319513488886,-0.112616604024,-0.000243758618779,0.00681813475925,-1.59634410559
1385576815596941750,-0.117325421938,0.320136133718,-0.112947511761,-0.000895170223944,0.00676113085389,-1.59702783007
1385576815606944952,-0.117345522284,0.32084157872,-0.113226817033,-0.00159845990638,0.00782367331603,-1.59814336503
1385576815616941159,-0.1174226415,0.321509581228,-0.113649454488,-0.00254629496266,0.00939709929175,-1.5983714667
1385576815626939447,-0.117211689489,0.322413427998,-0.11392587431,-0.00492020640995,0.0100253040051,-1.5994705372
1385576815636940801,-0.117274200575,0.323166039367,-0.11430783419,-0.0058308642661,0.0110755746058,-1.60028198926
1385576815646945389,-0.117130931036,0.323978773785,-0.114761313387,-0.0061887181917,0.0123581975675,-1.60017254431
1385576815656951102,-0.117004702809,0.324797629131,-0.115509451893,-0.00586174668244,0.0133214835665,-1.60103185162
1385576815666945021,-0.116785466967,0.32553897844,-0.11598556413,-0.00521796808262,0.0146519213705,-1.60065923135
1385576815676946405,-0.116626766449,0.326292272896,-0.116669857391,-0.00373594227714,0.0163688974302,-1.6003959824
1385576815686974864,-0.116459170145,0.327243620883,-0.117260448041,-0.00441304362082,0.0167315479427,-1.60166459224
1385576815696951825,-0.116313321504,0.328096084631,-0.118002520612,-0.00483916785493,0.0174741383435,-1.6023982243
1385576815707020822,-0.116147206303,0.328897601265,-0.118895156612,-0.00428798832307,0.0158253734033,-1.60282684162
1385576815716982400,-0.115725338023,0.329811799424,-0.119852357173,-0.00375202333095,0.0158970955998,-1.60341110308
1385576815726950928,-0.115663478716,0.330642787092,-0.120618016992,-0.00375792240635,0.0168402203382,-1.60402574519
1385576815736936378,-0.115505647191,0.331479031943,-0.121713751569,-0.00347747973166,0.0147777247558,-1.60440051689
1385576815747011030,-0.115431657674,0.332602584911,-0.123084937078,-0.00371047514812,0.0150758177589,-1.60599902761
1385576815757193965,-0.115113667623,0.333639387346,-0.124420207427,-0.00529822680983,0.0154621094872,-1.60794801112
1385576815766950657,-0.115154785777,0.334578968113,-0.125806969936,-0.00615976979315,0.0153055314942,-1.60919272725
1385576815776949350,-0.115068520112,0.335762644695,-0.127010124084,-0.00765876228619,0.0174033468558,-1.61021703299
1385576815786932233,-0.114983154711,0.336810745963,-0.128949796541,-0.00792409661566,0.0192975139013,-1.61127781346
1385576815796932030,-0.115058057951,0.338140119227,-0.130494517705,-0.0106317838409,0.020491939955,-1.61256100232
1385576815806950328,-0.114971714574,0.339327337657,-0.132467738369,-0.0116808801139,0.0205615884108,-1.61291299689
1385576815816906874,-0.114906822695,0.340631013056,-0.134293233903,-0.0119705005416,0.0213348562386,-1.61399739751
1385576815826973298,-0.114942018056,0.342008933709,-0.136426200447,-0.0116727594371,0.0225573889082,-1.61469449836
1385576815836989880,-0.114895492634,0.343360238662,-0.138845709018,-0.0114405696386,0.0238716629636,-1.61591677389
1385576815846957714,-0.11492520088,0.344757432862,-0.140994593261,-0.0114994768639,0.0274323272102,-1.61725738886
1385576815856946922,-0.115113818824,0.346251886715,-0.143294032805,-0.0106637576457,0.0263656539765,-1.61874933203
1385576815866943559,-0.115062166129,0.347651939885,-0.145964960865,-0.0103399110393,0.0259603816542,-1.62011833687
1385576815877009304,-0.115138752346,0.349222870278,-0.148727544059,-0.0101091800087,0.0269534497209,-1.62002729147
1385576815887029610,-0.115237733708,0.350545971968,-0.15163221782,-0.0103766063685,0.0259289285771,-1.62037251099
1385576815896965680,-0.115292480598,0.352136473906,-0.154192707661,-0.0110165597909,0.025691163185,-1.62051289244
1385576815906957877,-0.115465339553,0.353593364456,-0.157103811281,-0.0112064917085,0.0270484608451,-1.6201207032
1385576815916957092,-0.115143973204,0.355119377906,-0.160390881537,-0.0122144109737,0.0238242192122,-1.6205724709
1385576815926999274,-0.115390457032,0.356578681012,-0.163695143418,-0.0114841651755,0.0223161612996,-1.62135167385
1385576815936979771,-0.115522570879,0.358237023808,-0.166888066311,-0.0112993905274,0.0218580719515,-1.62163316975
1385576815946972789,-0.115586962433,0.359750270139,-0.170242004276,-0.0123129825533,0.0224657348806,-1.62255942196
1385576815956954129,-0.11599741553,0.361293192544,-0.173917620929,-0.0131518349525,0.0202749610909,-1.62295016465
1385576815966956512,-0.116067562558,0.362863145318,-0.177573462165,-0.0164311804946,0.0210489677437,-1.6231434142
1385576815977092078,-0.116321389958,0.364538833509,-0.18125826033,-0.0185758359738,0.0213690111108,-1.62399610378
1385576815987005638,-0.116715797968,0.366183089938,-0.185089993626,-0.0202396074829,0.0233961730716,-1.62463669054
1385576815996953476,-0.116796102588,0.367858617549,-0.189189987547,-0.021093310577,0.0257508160021,-1.62443802963
1385576816007134126,-0.117079105053,0.369555516209,-0.193360359804,-0.0209487172032,0.0261608486858,-1.62507837326
1385576816016957421,-0.117282545966,0.371238155065,-0.197281171247,-0.0207755668951,0.0312967649005,-1.62496024
1385576816026946468,-0.117345292332,0.3730139271,-0.2013346767,-0.019111184555,0.0323126909628,-1.62516270059
1385576816037187359,-0.117771111294,0.374695672482,-0.205496864584,-0.01799022477,0.0354152034089,-1.62555743718
1385576816047048581,-0.117909340599,0.376562983023,-0.2099473871,-0.0171312131106,0.0382495122309,-1.62576992316
1385576816056950054,-0.118309497881,0.378302242516,-0.21421885715,-0.0158391279224,0.0404591326348,-1.62644291674
1385576816066956975,-0.118665889678,0.380173522236,-0.218405178893,-0.015423544103,0.0436463045608,-1.62699495355
1385576816076947843,-0.118920537983,0.382024531144,-0.222731955409,-0.0152852596506,0.0455376729566,-1.62760945094
1385576816086967257,-0.119548314823,0.383805840941,-0.227017119453,-0.0150111841196,0.0477455787092,-1.62766706278
1385576816096948982,-0.119848871898,0.38579813268,-0.231658223655,-0.0144684693407,0.0482396074116,-1.62762395751
1385576816107022872,-0.120028443769,0.387706290321,-0.236163957778,-0.0141084062059,0.049633154719,-1.6273853736
1385576816116946690,-0.120739029862,0.389586869366,-0.240370704565,-0.0139661379902,0.0499128695197,-1.62770359563
1385576816126989378,-0.121001213294,0.391558499548,-0.245119892772,-0.0128860156292,0.0486178829175,-1.62779185401
1385576816136945337,-0.121444579852,0.393487205549,-0.24979521474,-0.0106453125398,0.0479345876454,-1.62812480875
1385576816147036290,-0.121985683268,0.395495889548,-0.25428911721,-0.00858038119596,0.0472791255835,-1.62783634185
1385576816157002141,-0.122331169618,0.397575419546,-0.258758436328,-0.00631888261691,0.0465758992926,-1.62801159762
1385576816166996241,-0.122784865956,0.399545006108,-0.263439242237,-0.00316858476278,0.0438089955224,-1.62781592056
1385576816176978798,-0.123287438667,0.401601607899,-0.26811158096,-0.000438228277244,0.0427737251538,-1.62771730473
1385576816186952983,-0.123571816725,0.403657093741,-0.273053069693,0.00368182517271,0.0409076420371,-1.62738603544
1385576816197000516,-0.124101193412,0.405798220837,-0.277482145863,0.00630811605079,0.0386294465071,-1.62742167033
1385576816207004328,-0.124457348274,0.408032210408,-0.282212494386,0.00939030211719,0.0375169088553,-1.62721144122
1385576816216939628,-0.124861191159,0.410166003365,-0.287067918663,0.0138782349947,0.0359750071641,-1.62781485314
1385576816226938630,-0.12531139588,0.412280497681,-0.291890542752,0.0172798079505,0.0340297438255,-1.62667924635
1385576816236942019,-0.125582496086,0.41453665986,-0.296657103672,0.0203371631991,0.0310096353453,-1.62788418357
1385576816246985189,-0.12598391457,0.416774779984,-0.301278902919,0.0237574150077,0.0298229169247,-1.62786449464
1385576816257055948,-0.126280685187,0.418947264297,-0.306213261568,0.0271812131765,0.026884665673,-1.62758700103
1385576816266944449,-0.126745312994,0.421264170362,-0.311127852708,0.0304577791844,0.0255699469956,-1.62767108073
1385576816276966653,-0.127067299484,0.423414089718,-0.315879785534,0.0333809103371,0.0222021042568,-1.62722184933
1385576816286946085,-0.127383893486,0.425640399146,-0.320688754193,0.0364893799813,0.0209080546274,-1.62660471154
1385576816296928192,-0.12767639216,0.427783165349,-0.325686173712,0.0393843238021,0.0160160387086,-1.62665772
1385576816306948671,-0.127872448699,0.430114708183,-0.330459585311,0.0406736979119,0.0147114399611,-1.62664453764
1385576816317010843,-0.127856059412,0.432389458028,-0.335403095373,0.0428263920364,0.0126591970456,-1.62691067093
1385576816326999082,-0.128250162885,0.434549996467,-0.340319210695,0.0445400359483,0.0103478723336,-1.62686296145
1385576816336917561,-0.128620448283,0.436863218523,-0.345056278535,0.045204897753,0.0115203997312,-1.62612702974
1385576816346946828,-0.128473305421,0.439015876386,-0.350244989656,0.04685938076,0.00724244515953,-1.62627597629
1385576816356984931,-0.128752308966,0.44122311512,-0.355246693456,0.0480332684557,0.00699142448445,-1.6260639604
1385576816366962018,-0.128540971542,0.443411961517,-0.360267029853,0.0481973202199,0.00560875219668,-1.62559272741
1385576816377003841,-0.128649560976,0.445628502282,-0.365306565192,0.0495435309182,0.00392111050609,-1.62558113293
1385576816387008579,-0.128644946045,0.447904719552,-0.37038177806,0.0501654016316,0.00474508351237,-1.62571233739
1385576816396959909,-0.128553286963,0.450078798284,-0.375613503053,0.0513360065321,0.00425119431234,-1.6256599715
1385576816406944296,-0.128367579023,0.452213247451,-0.38074790276,0.0527003887955,0.00185479039531,-1.62597518562
1385576816416955692,-0.128130874796,0.454327098686,-0.386322045741,0.0530600010216,0.00134758237222,-1.62529459964
1385576816426938406,-0.127793673353,0.456521843646,-0.3918328197,0.0545495637666,0.00211696177965,-1.6253714988
1385576816436916488,-0.127604021662,0.458656430987,-0.39699414625,0.0545047235468,-0.000148940691025,-1.62530715047
1385576816446966503,-0.127299434944,0.460724239524,-0.402129399428,0.0542435122051,-0.000441692804501,-1.62480628168
1385576816456982480,-0.127002152287,0.462832781026,-0.40701428035,0.0533632655145,-0.000469147117838,-1.6250958034
1385576816467041463,-0.126768832485,0.464948522005,-0.411761440869,0.0526060246588,0.000150357004295,-1.62438658544
1385576816477026565,-0.126182627335,0.46694820138,-0.416549137889,0.0521650323818,-0.00115138317316,-1.62499654827
1385576816487060132,-0.125934439114,0.468952792369,-0.421118249154,0.0515081030826,-0.00132926402486,-1.62504397078
1385576816497087931,-0.125335441353,0.470935110398,-0.425555920867,0.0501795453828,-0.000584758436426,-1.62490994528
1385576816506985575,-0.125053685177,0.472950538739,-0.429687827159,0.0507489085634,-0.00196068533686,-1.62483752228
1385576816516959626,-0.124506110212,0.47484546746,-0.433896374635,0.0494819502103,-0.000789006300419,-1.62434696377
1385576816526945528,-0.123776249881,0.476839108995,-0.437844171772,0.0483622761107,-0.00134882054566,-1.62414447497
1385576816536992135,-0.123368615675,0.478759767504,-0.441688808691,0.0478756427133,-0.00228313057685,-1.62458235664
1385576816546971560,-0.122713226781,0.480663782321,-0.445278895565,0.0460526141308,-0.0017153855964,-1.62400881835
1385576816556965158,-0.1221282349,0.48248108578,-0.448864339222,0.0459944478071,-0.00309655981784,-1.62406792138
1385576816567043628,-0.121466684256,0.484330038952,-0.452318003795,0.0444307252815,-0.00323522704904,-1.62397850484
1385576816576987353,-0.120764223216,0.486201086537,-0.455503819254,0.0435508145842,-0.00307951237047,-1.62368738008
1385576816586991844,-0.120142871075,0.488126346961,-0.458635965413,0.041872976113,-0.00299964375516,-1.62355429359
1385576816596989186,-0.119235204424,0.489815215074,-0.461487441575,0.0406884176247,-0.00228935493879,-1.62310309868
1385576816606939985,-0.118606112806,0.491695895702,-0.464384848118,0.0398830688432,-0.00176187936101,-1.62308589372
1385576816616938734,-0.117675090754,0.49347897615,-0.466925136864,0.0380490473017,-0.00109126849022,-1.6227556091
1385576816627019437,-0.117175363037,0.495224607879,-0.469471924608,0.0382027914722,-0.0013403441747,-1.6226137287
1385576816636980080,-0.116238490089,0.49699814941,-0.471828828265,0.0367400042047,-0.000492697316654,-1.62265231258
1385576816646976270,-0.115411869661,0.498720022932,-0.474096755216,0.035781210551,0.00113697990192,-1.62216848647
1385576816657041212,-0.114487539968,0.500398107222,-0.476164256707,0.0348923601002,0.00131142272921,-1.62202036501
1385576816666966417,-0.113549606931,0.502097639411,-0.478025402204,0.0333901858548,0.00239603010986,-1.6219406742
1385576816676979347,-0.112829605894,0.503749409269,-0.47985020318,0.0331200787313,0.00206356021395,-1.62187511473
1385576816686944758,-0.111770924804,0.505379006352,-0.481567173771,0.0315035224521,0.00304985942635,-1.62166808101
1385576816696963457,-0.111126009567,0.507132616042,-0.483058045929,0.030665592156,0.00364847850428,-1.62129416092
1385576816706979292,-0.110167306513,0.508718701894,-0.484408369598,0.0292738584858,0.00470524763758,-1.62098739583
1385576816716982452,-0.109145329112,0.510285438784,-0.485773081515,0.0282553420725,0.00517983252188,-1.6211752014
1385576816726952809,-0.108386843027,0.511907345277,-0.486901857617,0.0269087727862,0.00557169275521,-1.62110894462
1385576816737017359,-0.107167675655,0.513498216313,-0.487979087674,0.0253354027321,0.00600130628024,-1.62104113127
1385576816746993934,-0.106380018725,0.515053922425,-0.488928113956,0.0247231470966,0.00575814854873,-1.62055793344
1385576816757155199,-0.105544476575,0.516631201223,-0.489641469697,0.0229798859162,0.00679729892015,-1.62030970799
1385576816766942320,-0.104583978919,0.518224643984,-0.490395953041,0.0222157908832,0.00726571577496,-1.62009362248
1385576816776994633,-0.103539808588,0.519700717708,-0.491159260229,0.0211297571169,0.00750726636452,-1.62046099443
1385576816786956338,-0.102411583968,0.521272633748,-0.491668025269,0.0196831556964,0.00766306489804,-1.62046655782
1385576816796951149,-0.101581384026,0.522740170706,-0.492028029289,0.018954379568,0.00818935022393,-1.62028691173
1385576816806946695,-0.100544688928,0.524210115706,-0.492444540155,0.0168027858087,0.00889465648831,-1.62031489997
1385576816816953015,-0.0996105306134,0.525767256613,-0.492596560489,0.0161839370058,0.00930568586442,-1.62010389721
1385576816826938141,-0.0986540148038,0.527250980409,-0.492651942207,0.0149802009226,0.00926122559388,-1.61970584308
1385576816836935206,-0.0975667324264,0.52876083212,-0.492721585569,0.0138852269166,0.00974840956912,-1.61974110131
1385576816846977953,-0.0967820846338,0.530209624915,-0.492630543203,0.012859670094,0.0103884306702,-1.61999958143
1385576816856944528,-0.0956545554255,0.531639936457,-0.492548349559,0.0120412379139,0.00972939098176,-1.61987774078
1385576816866958524,-0.0948252139335,0.533114566564,-0.492329062502,0.0111987422832,0.0100170229913,-1.61964105816
1385576816876958414,-0.0938322152183,0.534572307196,-0.491889371652,0.00974275036826,0.0102784840628,-1.61948135492
1385576816886945523,-0.0928868748928,0.535998963367,-0.491618494078,0.00901995581407,0.00954695952756,-1.6195791336
1385576816896957656,-0.0920468754338,0.537365970917,-0.491105396482,0.00786953912047,0.0111584093316,-1.61934383692
1385576816906945152,-0.0908396818969,0.538892853097,-0.490601875225,0.00631581525386,0.0115273465859,-1.61969504095
1385576816916939831,-0.090118914837,0.540247585642,-0.489900792369,0.00595409193622,0.0105516159026,-1.61894199066
1385576816926973937,-0.0890841008094,0.541691502641,-0.489267132732,0.00461562589025,0.0114180051147,-1.61909098551
1385576816936943902,-0.0882078257818,0.543118970245,-0.488562150629,0.0045120468538,0.0113523780937,-1.61880590269
1385576816946945080,-0.0872309493648,0.544477681081,-0.487680901317,0.00389311402336,0.0101880452379,-1.61843448423
1385576816957046218,-0.0862876896335,0.545893849915,-0.48692442925,0.00346633417045,0.0105405254888,-1.61824028668
1385576816966988320,-0.0854692435778,0.547300107587,-0.485901133431,0.00289208872016,0.0106932075438,-1.61829688366
1385576816977019403,-0.084416060222,0.548688464855,-0.48483543438,0.00252033369515,0.0104826658331,-1.61841121935
1385576816987084471,-0.0836004290932,0.550064416411,-0.483791683919,0.0025606462731,0.0106020902832,-1.61810177956
1385576816997039612,-0.0828055367538,0.551511195226,-0.482561392923,0.00223712725309,0.0116633775055,-1.61740944036
1385576817007024874,-0.0817467990486,0.552850799413,-0.481571545786,0.00324106063744,0.0104913035903,-1.61760721096
1385576817016994455,-0.080833955601,0.554159165681,-0.480320479562,0.00306150188522,0.0106319081532,-1.61715607079
1385576817026951054,-0.0799777148469,0.555603179468,-0.479115823479,0.00357526761752,0.0114988941536,-1.61747201727
1385576817036969726,-0.0790331521693,0.556911107277,-0.477924121017,0.00462778733588,0.0104758485593,-1.61690356311
1385576817046974317,-0.078041921091,0.55832929275,-0.476537525651,0.00394253537397,0.0118679695796,-1.61678661125
1385576817056944284,-0.0773194207881,0.559653601032,-0.475268313901,0.00466088667661,0.0105930807336,-1.6169196078
1385576817066967772,-0.0764843061062,0.561010792776,-0.473851406276,0.0041757960642,0.0104846232901,-1.61657274443
1385576817076971149,-0.0755993455611,0.562326529152,-0.472501847984,0.00444176130678,0.0104061087869,-1.61653540936
1385576817087056338,-0.0749127712485,0.563631573221,-0.471148989045,0.00414847549958,0.0106202514433,-1.61637578544
1385576817096962184,-0.0739940276836,0.565061124005,-0.469615138898,0.00385122452082,0.0108803529719,-1.61661620088
1385576817106985447,-0.0732907383201,0.566426133133,-0.468412168411,0.00471753809029,0.0112497368968,-1.61638107376
1385576817116978898,-0.0724492160004,0.567655791282,-0.466780860743,0.00405249864227,0.00979287760199,-1.61606635868
1385576817126941996,-0.0716758576927,0.56899663772,-0.465290808391,0.00432274882168,0.00994624130811,-1.61599655208
1385576817136948608,-0.0708966823646,0.570272336106,-0.463957538072,0.0048008565734,0.0101697981816,-1.61560913465
1385576817146952641,-0.0699277668191,0.571542471415,-0.462533252262,0.00435668841289,0.00937446796823,-1.6158402709
1385576817156964894,-0.0692629993547,0.572830740478,-0.461174647202,0.00516784265496,0.0081428893728,-1.61582681242
1385576817166925472,-0.0683596610172,0.574063468715,-0.459604341459,0.0049179086241,0.00725560436034,-1.61544811404
1385576817176955661,-0.0676030910286,0.575342262214,-0.458180849911,0.00454125003879,0.00756167612868,-1.61526452439
1385576817186955573,-0.066804505267,0.576572988803,-0.456816190854,0.00500773327213,0.00652094037431,-1.61535459475
1385576817196999147,-0.0660116382,0.577744884858,-0.45542465627,0.00501417425756,0.00636153674929,-1.61541934325
1385576817206997803,-0.0652894884009,0.579018597022,-0.45396876873,0.00635866096316,0.00503701682029,-1.61511783495
1385576817216947284,-0.0644698069213,0.580229922698,-0.452425244808,0.00565010612643,0.00374261348994,-1.61467612839
1385576817226968757,-0.0636657037406,0.581394497008,-0.450957260921,0.00606225048557,0.0031686017699,-1.61486782889
1385576817236953785,-0.0629254847957,0.582636697948,-0.4495884719,0.00670455729077,0.00253422828572,-1.614665888
1385576817246915259,-0.0622602249219,0.583720563932,-0.448088407681,0.00669368768966,0.00362503051412,-1.61448986817
1385576817257126892,-0.0615273760943,0.584938447092,-0.446766876605,0.00764701805361,0.0010166806059,-1.6145920482
1385576817266973638,-0.0607382272906,0.586111849437,-0.445232094551,0.00804469459902,0.00148258276497,-1.613962288
1385576817276953301,-0.0599236850734,0.587254230621,-0.443937537895,0.00875789531144,0.00112373465485,-1.61404818614
1385576817286946401,-0.0591923520146,0.588432584725,-0.442460840536,0.00898789289746,-0.000343274750857,-1.61408701531
1385576817296947476,-0.0583094058869,0.589477818611,-0.441043231768,0.00953016684788,-0.00027006690628,-1.61372696529
1385576817306948298,-0.0576729372241,0.590686140451,-0.439641288108,0.00972047060153,-0.000770085909499,-1.61401977488
1385576817316931818,-0.0567769140968,0.591779182568,-0.438393500428,0.0105441185191,-0.000690228976404,-1.61352170378
1385576817326961773,-0.0559969343417,0.592803020469,-0.437119185428,0.0116329077178,-0.00178656211867,-1.61345374704
1385576817336954213,-0.055268772136,0.593844476675,-0.435842023401,0.0125191816691,-0.00245197114461,-1.61353139684
1385576817346966426,-0.0544974217547,0.594939083858,-0.434540835144,0.0131717082927,-0.00266272177626,-1.61244103526
1385576817356975557,-0.0538699275136,0.596009546469,-0.433296568882,0.0138114004534,-0.00239450371715,-1.6132740497
1385576817366965944,-0.0528220047628,0.5969628701,-0.432265358116,0.0139788340055,-0.00391468666764,-1.61295832833
1385576817377029365,-0.0521009786284,0.597922689356,-0.431092278573,0.0140983283475,-0.00436866108586,-1.61317588781
1385576817386954137,-0.0513803267357,0.598958861502,-0.429990002986,0.0140416667348,-0.00462986346173,-1.61276578142
1385576817397003258,-0.0505716890565,0.599907044111,-0.428986845041,0.0141815844352,-0.00406966750598,-1.61211519888
1385576817407004177,-0.049657042185,0.600886967376,-0.427923847966,0.0146481631359,-0.00437772071483,-1.61225562772
1385576817416946285,-0.0488909172256,0.601758560526,-0.427106827373,0.0150251946048,-0.00510760465955,-1.61203753381
1385576817426919520,-0.0480571992284,0.602702493988,-0.426171549189,0.0153949443343,-0.00498514794512,-1.6117087188
1385576817436945815,-0.0473700698155,0.603639004373,-0.425381744674,0.0158562209929,-0.00535972828234,-1.61177861498
1385576817446952860,-0.0463370983795,0.60452658143,-0.424593139507,0.0162893650618,-0.00563268896299,-1.61106030502
1385576817456950358,-0.0455741270229,0.605344639299,-0.423960885444,0.0164865251589,-0.00535975336005,-1.61124206439
1385576817466969727,-0.0447706027878,0.606186489117,-0.423342507213,0.0167482169212,-0.00576417253545,-1.61076662632
1385576817477004186,-0.0438443253145,0.607001166656,-0.422506979705,0.0157900745147,-0.00493371030884,-1.61025541594
1385576817486965315,-0.0431337134226,0.607822811822,-0.422040169181,0.0167751180757,-0.00629481122453,-1.61049068139
1385576817496959625,-0.0422421267621,0.608537078685,-0.421571576501,0.0159366956235,-0.00594133216955,-1.60982134943
1385576817506952424,-0.041406209189,0.609328627007,-0.421017959389,0.0158218359222,-0.00622396919287,-1.60995039548
1385576817516954553,-0.0406323688009,0.610065214948,-0.420541539387,0.0159140184658,-0.00622925513147,-1.60966548366
1385576817526962947,-0.0397241120568,0.610734934074,-0.420001766853,0.0155912780866,-0.00705199517501,-1.60920918543
1385576817536953183,-0.0389156608044,0.611486642834,-0.419659699751,0.0158356148045,-0.00824399353384,-1.60918465949
1385576817546949709,-0.038090159016,0.612106732399,-0.4192996635,0.0157458225216,-0.00935312347752,-1.60896683331
1385576817556922996,-0.037155296089,0.612710579633,-0.418760187695,0.0151167829748,-0.00959858925442,-1.60901922952
1385576817566983646,-0.0364045784514,0.613381473595,-0.418434919245,0.0146866256924,-0.0108716054856,-1.60888400131
1385576817576952467,-0.0355977705406,0.613975430675,-0.418144330035,0.013997758627,-0.0114497729428,-1.60846088317
1385576817586995564,-0.0346754175723,0.61463560666,-0.417915639419,0.0138079103322,-0.0118008769538,-1.60830609958
1385576817596935936,-0.0338777219895,0.615096435428,-0.417664654486,0.0131381053282,-0.012951765505,-1.60787007196
1385576817606992830,-0.0330422170746,0.615681167516,-0.417475444958,0.011852676396,-0.0126172073248,-1.60796749627
1385576817617013019,-0.0321272115329,0.61630819697,-0.417136704802,0.0106144531568,-0.0126096463022,-1.60779906371
1385576817626980649,-0.0311700362319,0.616791194959,-0.417002590652,0.00950929296387,-0.0122325600333,-1.60740421597
1385576817636998572,-0.0303407394215,0.617333345226,-0.416875300749,0.00866551536978,-0.0115355041937,-1.6074841142
1385576817647025752,-0.02954144283,0.617838708018,-0.416775409514,0.00763210032465,-0.0106326979961,-1.60725542781
1385576817656951092,-0.0285876922913,0.618331530752,-0.416603546332,0.00609798516666,-0.00905812586681,-1.60689645354
1385576817666949746,-0.0277605817291,0.618876238828,-0.416563283572,0.00580542746422,-0.00679101165016,-1.60675607085
1385576817676998576,-0.0268134317524,0.61937811246,-0.416562092076,0.00481704722724,-0.00501910817318,-1.60622085846
1385576817686956002,-0.0261740477847,0.619786642013,-0.416534133185,0.00453612272423,-0.00380987839822,-1.6064458135
1385576817697037454,-0.02538407145,0.620331135202,-0.416704158946,0.00424348830931,-0.00203999919924,-1.60661272514
1385576817707015796,-0.0246330145563,0.6208113497,-0.416615606761,0.00283371459046,-0.000552943008886,-1.60587175746
1385576817716991923,-0.0237385299102,0.621188116414,-0.416839536065,0.00171605661057,0.00121187259197,-1.60619390013
1385576817726982195,-0.0230862498297,0.621559444621,-0.416938657167,0.000483535750867,0.00248476033234,-1.60617271433
1385576817736994494,-0.0222893484445,0.622044245763,-0.417153054909,-0.00102616737517,0.00499383736477,-1.60569620719
1385576817747038828,-0.0215438026883,0.62241411265,-0.417364291887,-0.00195869889561,0.00759014338387,-1.60608055073
1385576817756980471,-0.020769962533,0.622831538388,-0.417606539124,-0.00289525722917,0.00850120522077,-1.60565874128
1385576817767403967,-0.0199867717754,0.623272561227,-0.417868451361,-0.00368017544684,0.0088062441908,-1.60575313334
1385576817777137407,-0.0193606444369,0.623628346572,-0.418094068537,-0.00428814856398,0.00962035783363,-1.60568385955
1385576817786968643,-0.018558346758,0.623964287092,-0.418358583824,-0.00494068966007,0.0108503767017,-1.60531708051
1385576817796957900,-0.0177830457181,0.624406898294,-0.418658927255,-0.00525460223419,0.012060043037,-1.60583005852
1385576817806977094,-0.01701873396,0.624835091361,-0.418975046078,-0.00526682596007,0.0137248940789,-1.60529405485
1385576817816969689,-0.0163711637622,0.625206864435,-0.419192911786,-0.00488342084066,0.0144770236237,-1.60525364901
1385576817826949770,-0.0158048203381,0.625544695847,-0.419502627363,-0.00470459230243,0.0153302526662,-1.60512961595
1385576817836966738,-0.0149142984134,0.626019609473,-0.419850484226,-0.0050515519748,0.0156156286515,-1.60477720013
1385576817846946821,-0.0143763230535,0.626401214501,-0.420083981483,-0.00483246499297,0.0168762376262,-1.60465070659
1385576817857036109,-0.0137428596063,0.626894259538,-0.420535159216,-0.00475077330282,0.0188457080561,-1.60432717442
1385576817866952100,-0.0130022689833,0.627279594401,-0.420889516423,-0.00485641578017,0.0192913248603,-1.60453720954
1385576817876988129,-0.0125508644667,0.62777338115,-0.421256877314,-0.00465341430239,0.0205644657875,-1.60433100681
1385576817886965574,-0.011586173471,0.628188559188,-0.421556610652,-0.00581372957428,0.0201425115444,-1.60408053693
1385576817896972495,-0.0110168867395,0.628687662857,-0.42191054992,-0.00514391358236,0.0208134567826,-1.60380088716
1385576817906988146,-0.0105454164584,0.629141303386,-0.422430259367,-0.0050662308662,0.0211385515095,-1.60344600297
1385576817916946151,-0.00982032588233,0.629577476798,-0.422806181266,-0.0053461954562,0.0218950210945,-1.60338465837
1385576817926955621,-0.00937538947524,0.630086406321,-0.42318435588,-0.00497608268593,0.0215865822732,-1.6038036103
1385576817936976641,-0.00887467797249,0.630582377861,-0.423606256734,-0.00518851428094,0.022560924056,-1.60305378686
