%time,field.linear.x,field.linear.y,field.linear.z,field.angular.x,field.angular.y,field.angular.z
1385568899722952334,-0.0,0.0,0.0,1.0,0.0,0.0
1385568899761892348,-0.0,0.0,4.469468313e-08,1.0,0.0,0.104693428311
1385568899811940945,0.0169582403573,0.055704598375,-0.00987789620525,1.0,0.0,0.0318875569406
1385568899861920676,0.0135796963293,0.0444511240261,-0.0116576978339,1.0,0.0,0.0731128961328
1385568899912172897,0.0170251148461,0.0557003546778,-0.0119070485209,1.0,0.0,0.0627691767391
1385568899962896595,0.0172942809427,0.0564880438334,-0.0117267978608,1.0,0.0,0.0744255244915
1385568900011913323,0.0181402893515,0.0592339297872,-0.0113350907075,1.0,0.0,0.0754951404077
1385568900061952946,0.0182980564036,0.0595844611746,-0.0107233286658,1.0,0.0,0.0805221629426
1385568900111923234,0.0182521522705,0.0593241090817,-0.00994822982834,1.0,0.0,0.0833042319657
1385568900161938476,0.0178952234838,0.0580103998281,-0.00901357259903,1.0,0.0,0.086543668638
1385568900211987549,0.0173176895821,0.0560535135124,-0.00794642762828,1.0,0.0,0.089133220597
1385568900262924850,0.0165754141055,0.0534855656871,-0.0067441706499,1.0,0.0,0.0915903409063
1385568900311881074,0.0156988442635,0.0504936137587,-0.00541701843271,1.0,0.0,0.0937439981
1385568900361887658,0.0146753534563,0.047199484825,-0.00398004045825,1.0,0.0,0.0957241660053
1385568900411914441,0.0136344672033,0.0437114255033,-0.0024491438011,1.0,0.0,0.0974755037558
1385568900461954406,0.0126272341757,0.0401247211929,-0.000790176369825,1.0,0.0,0.0990032860047
1385568900511939936,0.0115259453495,0.036540224856,0.000949222831102,1.0,0.0,0.100436361457
1385568900561892641,0.0105635900017,0.0330125585358,0.0027731908599,1.0,0.0,0.101623849403
1385568900612861186,0.00946777237066,0.0296192925001,0.00466884564793,1.0,0.0,0.102796267268
1385568900662957150,0.00851843881797,0.026415723927,0.00664026168746,1.0,0.0,0.103801344839
1385568900712917571,0.00767454531208,0.0233992569102,0.00865957384807,1.0,0.0,0.104676387899
1385568900762941881,0.00682723399039,0.0206359169854,0.0107791839026,1.0,0.0,0.105510677064
1385568900812842174,0.00609666867522,0.0181789010367,0.0129340383452,1.0,0.0,0.106232330529
1385568900861954216,0.00539013082482,0.0159493615841,0.0151503861945,1.0,0.0,0.106915990824
1385568900911866331,0.00485551493881,0.0140153488299,0.0174175130444,1.0,0.0,0.107434906709
1385568900961917250,0.00432198671067,0.0123637094498,0.0197142956245,1.0,0.0,0.108045257213
1385568901011903226,0.00392683874277,0.0108823826628,0.022068607991,1.0,0.0,0.108499567595
1385568901061921804,0.00356274493214,0.00974732464341,0.0244898944473,1.0,0.0,0.108927697729
1385568901112408574,0.00327706698768,0.00881545455565,0.0269239928779,1.0,0.0,0.109282502526
1385568901161868315,0.00305448625648,0.008095920153,0.0294119771958,1.0,0.0,0.109652744865
1385568901212058345,0.00293468121763,0.00758518663316,0.0319241174855,1.0,0.0,0.109958704965
1385568901262079381,0.00282354780174,0.00729499831246,0.0344493263981,1.0,0.0,0.110239695611
1385568901312002927,0.00279866503526,0.00706912922639,0.0370339915243,1.0,0.0,0.110484671472
1385568901362967655,0.00280932396328,0.0070192397425,0.0396512856429,1.0,0.0,0.110713576419
1385568901412998014,0.00283376569046,0.00717303469046,0.042252624429,1.0,0.0,0.110900621683
1385568901461868737,0.00292011793038,0.0073705057246,0.0448899515155,1.0,0.0,0.111106095842
1385568901511888581,0.00299295433344,0.00755237952994,0.0475740503283,1.0,0.0,0.111178695039
1385568901561880577,0.0033761408457,0.00791762552971,0.0502341844111,1.0,0.0,0.11126979679
1385568901611888511,0.00345997200022,0.0082522104209,0.0529557085665,1.0,0.0,0.111238943571
1385568901661874029,0.00366968689659,0.00859455390661,0.0556912351274,1.0,0.0,0.111247317498
1385568901711900061,0.00383382436994,0.00909685330148,0.0584017035865,1.0,0.0,0.111300535419
1385568901761925023,0.00392632377621,0.00949916484765,0.061175466732,1.0,0.0,0.11129681148
1385568901811913998,0.00409410583681,0.00981096856931,0.0639633234898,1.0,0.0,0.111289410343
1385568901862102839,0.00426879934464,0.0103285561305,0.0667375222037,1.0,0.0,0.111292293755
1385568901912171442,0.00433914895251,0.0107049088829,0.0695276737341,1.0,0.0,0.11127892517
1385568901961926423,0.0045114745795,0.0110042478759,0.0723277391443,1.0,0.0,0.111234410538
1385568902012953966,0.00474262194965,0.0112166679582,0.0751437699754,1.0,0.0,0.111141464239
1385568902062938503,0.00495624027094,0.0114784353849,0.0779604530724,1.0,0.0,0.11099739607
1385568902112906044,0.00527244809742,0.0117260253626,0.0807683532011,1.0,0.0,0.11079628307
1385568902162935777,0.00548230950739,0.0117944564721,0.0836268881337,1.0,0.0,0.110616450095
1385568902211971478,0.00592851512628,0.0120985412671,0.0864506864861,1.0,0.0,0.110296002946
1385568902262018181,0.00628628195054,0.0121029812358,0.0892984037066,1.0,0.0,0.109953727148
1385568902312059690,0.00650916890912,0.0118575593904,0.0921861647853,1.0,0.0,0.1094520514
1385568902361899454,0.00710101444366,0.0117875349212,0.0950250274529,1.0,0.0,0.108793585248
1385568902411961340,0.00751203175814,0.01179416649,0.0978471177765,1.0,0.0,0.108044900948
1385568902461929020,0.00845015736813,0.0115197073601,0.100677124046,1.0,0.0,0.107088340883
1385568902512987700,0.00937022236584,0.0106070824176,0.103587252997,1.0,0.0,0.105889803188
1385568902562102223,0.0102978680615,0.00998534825755,0.106470314252,1.0,0.0,0.104466988508
1385568902612966043,0.0103772008276,0.00986430439451,0.109251416274,1.0,0.0,0.102992124793
1385568902662855556,0.00971103485158,0.0107254002889,0.111806863276,1.0,0.0,0.10141158025
1385568902712869050,0.00898343131221,0.0108974077914,0.114146302927,1.0,0.0,0.0996190515808
1385568902761893463,0.00835597265941,0.0107794149441,0.11623601314,1.0,0.0,0.0976041142915
1385568902813347115,0.00795970854186,0.010899818593,0.117947614172,1.0,0.0,0.0955082627921
1385568902862670410,0.00830458333479,0.0114790957108,0.119118690474,1.0,0.0,0.0934499358996
1385568902912758771,0.00933417334677,0.0120128835603,0.119744200017,1.0,0.0,0.0914771802555
1385568902962579553,0.00956437089309,0.012066286754,0.119963510225,1.0,0.0,0.0895407416349
1385568903012591022,0.00960942600345,0.0127873858085,0.119772383083,1.0,0.0,0.0876411064818
1385568903062599798,0.00928175447208,0.0137331952255,0.119222981209,1.0,0.0,0.0857424897538
1385568903112673524,0.00914480346529,0.0146062609559,0.118367254074,1.0,0.0,0.0839178689869
1385568903162593539,0.00844663396193,0.0160037479354,0.117207948409,1.0,0.0,0.0819780344436
1385568903212609532,0.00784562782553,0.0168607009044,0.115840052615,1.0,0.0,0.0801880049573
1385568903262568923,0.00690885366754,0.0180936729069,0.114234141496,1.0,0.0,0.0783145358305
1385568903312567172,0.00590920520387,0.0191650410925,0.112439038631,1.0,0.0,0.0764465723671
1385568903362627444,0.00425892714241,0.0206252174234,0.110414994545,1.0,0.0,0.0745659716453
1385568903412500443,0.00223549891991,0.0226339909356,0.108077230045,1.0,0.0,0.0727053938792
1385568903462654790,0.000434541781084,0.0247829501341,0.105436617388,1.0,0.0,0.0708417691402
1385568903512583134,-0.00112916976489,0.0267925265684,0.102984134351,1.0,0.0,0.0690218818263
1385568903562701556,-0.00284621701825,0.0290264127126,0.100806829307,1.0,0.0,0.0671768100069
1385568903613637026,-0.00430272021588,0.0310822264004,0.0990350825833,1.0,0.0,0.0653857118009
1385568903662559487,-0.00548843997399,0.0327210727972,0.0979191015523,1.0,0.0,0.0636597881828
1385568903712620696,-0.00720031543916,0.0351570898576,0.0969807323012,1.0,0.0,0.061825872302
1385568903761845150,-0.00825232041045,0.0370645275251,0.0965849686277,1.0,0.0,0.0600127132123
1385568903812807824,-0.00959541542947,0.0392696482439,0.0966309343757,1.0,0.0,0.0582896962838
1385568903862617770,-0.0106611124333,0.0413367029295,0.0970956834567,1.0,0.0,0.0565393333017
1385568903911796746,-0.0114074554217,0.0432772079086,0.0979611879114,1.0,0.0,0.0547785940448
1385568903961718845,-0.0122746875793,0.0450339453663,0.0992535729985,1.0,0.0,0.0530725346694
1385568904011663226,-0.0129405266158,0.0469340376681,0.100813711938,1.0,0.0,0.0513791610863
1385568904061646675,-0.0134920259018,0.0483941719351,0.10272513021,1.0,0.0,0.0496753347164
1385568904111826035,-0.0137951954567,0.0500497295942,0.104832583581,1.0,0.0,0.0480203178547
1385568904161631444,-0.0145266874635,0.0511824720353,0.107205257463,1.0,0.0,0.0463664537176
1385568904212390976,-0.0148550021327,0.0525722813494,0.109713919583,1.0,0.0,0.0447121400196
1385568904261637392,-0.0156357932379,0.0536384110498,0.112344749553,1.0,0.0,0.0430850753321
1385568904311608163,-0.0161512664635,0.0544258774982,0.115161911664,1.0,0.0,0.0415235515898
1385568904361637459,-0.0165855229813,0.0545409634154,0.118168403102,1.0,0.0,0.0398831677261
1385568904411678732,-0.0170325917069,0.0556817922627,0.121069604616,1.0,0.0,0.0383823253603
1385568904461644143,-0.0177778419119,0.0563092112601,0.123943747106,1.0,0.0,0.0368659664558
1385568904511636238,-0.018869734992,0.0568879235562,0.126845217704,1.0,0.0,0.0353281648191
1385568904561806989,-0.0200909830207,0.0565904040689,0.129842826938,1.0,0.0,0.0339488022994
1385568904611687836,-0.0209090629681,0.0567778938043,0.132743332056,1.0,0.0,0.0325162339647
1385568904661720660,-0.021724559681,0.0567811729782,0.135548489936,1.0,0.0,0.0311509229493
1385568904711659277,-0.0227166665359,0.056192109454,0.138359292146,1.0,0.0,0.029757874773
1385568904761716022,-0.0240851118225,0.0547016589207,0.141263398206,1.0,0.0,0.0283930000502
1385568904811621912,-0.0249967334975,0.0533222393844,0.14335404511,1.0,0.0,0.0270839190232
1385568904861694455,-0.0253062017851,0.052242264466,0.144920764727,1.0,0.0,0.0258273139099
1385568904911723126,-0.0258265559328,0.0507594967551,0.146285892541,1.0,0.0,0.0245656654484
1385568904961807858,-0.0259064993688,0.0498276921262,0.147376978192,1.0,0.0,0.0233792901665
1385568905012614400,-0.0261484224593,0.0485994849206,0.148292954507,1.0,0.0,0.0221926747222
1385568905061704055,-0.0268616820536,0.0471766248052,0.149051252128,1.0,0.0,0.0210584074149
1385568905112658162,-0.0276909987987,0.0463148832673,0.14950342572,1.0,0.0,0.019961833842
1385568905161666538,-0.0288641912498,0.0449999414987,0.149783244833,1.0,0.0,0.0189269428378
1385568905211694143,-0.030375596177,0.0432447802139,0.149970129936,1.0,0.0,0.0179421699877
1385568905261587953,-0.0313896876122,0.04109661252,0.150160924854,1.0,0.0,0.0170307097106
1385568905311699391,-0.0319659193436,0.0390788436568,0.150301275999,1.0,0.0,0.0161692087903
1385568905362646342,-0.0329553580464,0.0366149676108,0.150335248851,1.0,0.0,0.0152991964133
1385568905411647111,-0.0336483186976,0.0345112760074,0.150227391976,1.0,0.0,0.0144911411344
1385568905461611329,-0.0345589485167,0.0322298245012,0.150003920583,1.0,0.0,0.0137266159224
1385568905511571077,-0.0349848022086,0.0305771384461,0.14958765074,1.0,0.0,0.0129991329679
1385568905562771554,-0.0358754187792,0.0285984329513,0.149077766917,1.0,0.0,0.0123246510191
1385568905611752467,-0.0364147387348,0.026597974171,0.148533701603,1.0,0.0,0.011626113005
1385568905662739956,-0.0377827070064,0.0239093502966,0.147999599703,1.0,0.0,0.0110433714162
1385568905712620547,-0.0386549378075,0.0219857903717,0.147306041894,1.0,0.0,0.0104718530573
1385568905761633669,-0.0394933584798,0.0197529175237,0.146566785923,1.0,0.0,0.00995392912633
1385568905811616134,-0.0397061118568,0.0177704885151,0.145810392867,1.0,0.0,0.00943159545161
1385568905861597901,-0.0403687058351,0.015521102384,0.145032586604,1.0,0.0,0.00896168073479
1385568905911732794,-0.041181042026,0.0135291093292,0.144124795904,1.0,0.0,0.00851338412422
1385568905961895702,-0.0414387461899,0.0118172748802,0.143174935582,1.0,0.0,0.00811522207538
1385568906011603720,-0.0420517116545,0.00990783483706,0.142163140486,1.0,0.0,0.00772120372652
1385568906061692842,-0.0429925416598,0.00793263989846,0.141107953959,1.0,0.0,0.00736113977253
1385568906112843175,-0.0432523267427,0.00610032088418,0.140049970698,1.0,0.0,0.00703418092165
1385568906161710603,-0.0443248116935,0.00463751628658,0.138842185868,1.0,0.0,0.0067418866413
1385568906211594804,-0.0448365933872,0.00299114770762,0.137660051553,1.0,0.0,0.00648083463874
1385568906261687472,-0.0453651243042,0.00146609121996,0.136504767471,1.0,0.0,0.00622588061518
1385568906311611453,-0.045919215414,-2.98072457613e-05,0.135354203192,1.0,0.0,0.00606172070313
1385568906361750324,-0.046685522561,-0.00127410375319,0.134097740015,1.0,0.0,0.00589246202663
1385568906411690465,-0.0472843376097,-0.0024825346373,0.132809877501,1.0,0.0,0.00573840605444
1385568906461762187,-0.0477067591014,-0.00366472978484,0.131583352093,1.0,0.0,0.00566769576281
1385568906511689842,-0.0480622653104,-0.00453566668005,0.130334540238,1.0,0.0,0.00555940945011
1385568906561630468,-0.0487604938749,-0.00571489528099,0.129034891614,1.0,0.0,0.00555084221201
1385568906611737568,-0.0490907956523,-0.00665561130116,0.127744647006,1.0,0.0,0.00545437560869
1385568906662644087,-0.0494467155579,-0.00750142432152,0.126422979447,1.0,0.0,0.00551826360761
1385568906712602144,-0.0495413727548,-0.00806130004351,0.125044142383,1.0,0.0,0.00546901828154
1385568906762813118,-0.0500457865874,-0.00869260319615,0.123554491873,1.0,0.0,0.00556865166467
1385568906812719173,-0.0501060431212,-0.00925532676505,0.122077162381,1.0,0.0,0.00561332897404
1385568906861587378,-0.0500965094821,-0.00925202576532,0.120523271866,1.0,0.0,0.0056824333282
1385568906911778860,-0.050216398579,-0.00966237941257,0.118863002289,1.0,0.0,0.00572371191478
1385568906962789330,-0.0501260407136,-0.00956453666625,0.117087164653,1.0,0.0,0.00583702142371
1385568907011799576,-0.0499964298098,-0.00954188730116,0.115268592017,1.0,0.0,0.00589449165756
1385568907062718428,-0.0496226972493,-0.00914800032214,0.113409795142,1.0,0.0,0.00592177917655
1385568907112844791,-0.0494787700993,-0.00887135612248,0.111448740032,1.0,0.0,0.0060056287124
1385568907162772852,-0.0490686724842,-0.00846721611345,0.109460116224,1.0,0.0,0.00604930294879
1385568907212640432,-0.0488036210767,-0.00782393366993,0.107392975574,1.0,0.0,0.00609278168564
1385568907261728081,-0.0482499765782,-0.00731771080217,0.105406084205,1.0,0.0,0.00614663223511
1385568907312668546,-0.0479021769791,-0.00662360752099,0.103368359531,1.0,0.0,0.0062913566138
1385568907361683035,-0.0472689692033,-0.00576866550909,0.101353823277,1.0,0.0,0.00631018659992
1385568907412655693,-0.047296290647,-0.00514141691236,0.0991012071422,1.0,0.0,0.00638262111295
1385568907461610216,-0.0466320649714,-0.00433851277149,0.0970348153166,1.0,0.0,0.00654728050597
1385568907511612863,-0.0460745451322,-0.0030634241258,0.0949870708621,1.0,0.0,0.0065258334488
1385568907561787381,-0.0454757745748,-0.00217046587629,0.0929737000757,1.0,0.0,0.00672027572544
1385568907611588232,-0.0441843319692,-0.000480727131512,0.091265794339,1.0,0.0,0.00677089937266
1385568907661783309,-0.0438975921551,0.000475815466789,0.0893199016501,1.0,0.0,0.00692934620049
1385568907711728729,-0.0430503868684,0.00202902978118,0.0874097586398,1.0,0.0,0.00700025455017
1385568907761841358,-0.0425581381881,0.00331227657614,0.0854781108004,1.0,0.0,0.00713112650719
1385568907812052555,-0.0417164693324,0.00494173238206,0.0836103180954,1.0,0.0,0.00720807982996
1385568907861940044,-0.0415489844605,0.00605935236097,0.0814886636221,1.0,0.0,0.00735107604211
1385568907911816439,-0.0403125563896,0.00800288810441,0.0798190156355,1.0,0.0,0.0074175580913
1385568907961845060,-0.039725433097,0.00942578392342,0.0780804839307,1.0,0.0,0.00751218842512
1385568908011840301,-0.0389799609696,0.0111682075725,0.0762542313691,1.0,0.0,0.0076315752439
1385568908061924740,-0.0383396687279,0.0126705681693,0.074482004375,1.0,0.0,0.00770691053306
1385568908111964725,-0.0376534859974,0.014164029088,0.0727483489212,1.0,0.0,0.00787151929619
1385568908161790484,-0.0368739157597,0.0156726026935,0.0711336247686,1.0,0.0,0.00796931396314
1385568908211778988,-0.0361280543574,0.0170504934025,0.069525500592,1.0,0.0,0.00809587876199
1385568908261979124,-0.0354559270517,0.01838359474,0.0679093564725,1.0,0.0,0.0082403632479
1385568908311797461,-0.0345004268096,0.019879245607,0.06637789725,1.0,0.0,0.00834634528895
1385568908361866664,-0.0338145926464,0.0210600994815,0.0648433308854,1.0,0.0,0.00853250191832
1385568908411819570,-0.0329639880171,0.0222160784933,0.0633423539468,1.0,0.0,0.00869505716043
1385568908461838627,-0.0320979233785,0.0234953535137,0.0617818129781,1.0,0.0,0.00881405613748
1385568908511735218,-0.0312520522113,0.0245330980038,0.0603154265304,1.0,0.0,0.00896616914752
1385568908561913988,-0.0303095485053,0.0254831408871,0.0588544508348,1.0,0.0,0.00913045573529
1385568908611899987,-0.0294399445925,0.0264055484291,0.0573515403806,1.0,0.0,0.00930886445654
1385568908661866804,-0.0284133539168,0.0273327641659,0.0559402481067,1.0,0.0,0.00945152949727
1385568908712012392,-0.0275440680246,0.0281686920592,0.0544895037619,1.0,0.0,0.00959223386092
1385568908762752478,-0.0265579103296,0.0288781963127,0.0530955157193,1.0,0.0,0.00973671476068
1385568908812016230,-0.0255838594352,0.0295973752288,0.0517359381961,1.0,0.0,0.00983163453232
1385568908862772861,-0.0246001095361,0.0301608566648,0.0504156093041,1.0,0.0,0.00995654889704
1385568908912815932,-0.0237187269158,0.0306508181225,0.0491289498873,1.0,0.0,0.0100806624409
1385568908962806143,-0.0228325197825,0.0310267517654,0.0478846096422,1.0,0.0,0.0102287178944
1385568909012770033,-0.0218281802514,0.0313583063972,0.0467343377381,1.0,0.0,0.0103249506001
1385568909062786698,-0.0210621110272,0.0315154196795,0.0455661735974,1.0,0.0,0.0104556271121
1385568909111956452,-0.0202275802259,0.0316398001653,0.0444633470893,1.0,0.0,0.0105970943877
1385568909161762075,-0.0195019132584,0.0316289290769,0.0433958083994,1.0,0.0,0.0107725694956
1385568909211826241,-0.0187908785035,0.03165449176,0.0423320498565,1.0,0.0,0.010914402335
1385568909261825597,-0.0180386624068,0.0315375791493,0.0413081632418,1.0,0.0,0.0110846458911
1385568909311771761,-0.0174899926071,0.0313313905663,0.0402745814919,1.0,0.0,0.0112787904958
1385568909362744930,-0.0167629776424,0.0311475252749,0.0393131281042,1.0,0.0,0.0114415290416
1385568909411829830,-0.0163787082477,0.0307194145238,0.0383453476999,1.0,0.0,0.0116549427563
1385568909462880671,-0.0158929512462,0.0303710586006,0.0374087432686,1.0,0.0,0.0118973042175
1385568909511778326,-0.0153347231608,0.0300518789704,0.0365407198015,1.0,0.0,0.0120155527594
1385568909562803744,-0.015049475037,0.0295508275493,0.035678314237,1.0,0.0,0.0122941698563
1385568909612785711,-0.0146247595231,0.0291192957016,0.0348592537758,1.0,0.0,0.0124084033975
1385568909662011357,-0.0144886106657,0.0284914133312,0.0339957234996,1.0,0.0,0.0126224370239
1385568909711754086,-0.0142734042936,0.0279292728411,0.033239967402,1.0,0.0,0.0128041296606
1385568909761723800,-0.0141472782352,0.0272338429216,0.0325035094206,1.0,0.0,0.0129838242751
1385568909811776106,-0.0142235352122,0.0264543569735,0.0317021149778,1.0,0.0,0.0132267079512
1385568909861820689,-0.0141987992259,0.0257912534018,0.0310250844657,1.0,0.0,0.0133783386652
1385568909912890649,-0.0142385231729,0.0250166921742,0.0304229540063,1.0,0.0,0.0135997012263
1385568909962784822,-0.0144794250776,0.024129219282,0.0297787270165,1.0,0.0,0.0138238302128
1385568910012848896,-0.0146596869445,0.0232612942993,0.0291488387273,1.0,0.0,0.0140869997261
1385568910061811154,-0.0149913186222,0.0224432623296,0.0284750022601,1.0,0.0,0.0142954827234
1385568910112826572,-0.0153811380123,0.0213685982132,0.0278734378567,1.0,0.0,0.0145716926869
1385568910161724586,-0.0156691583474,0.0205686621938,0.0273078490253,1.0,0.0,0.0147910495652
1385568910211910659,-0.0163283267062,0.0195795169765,0.0266670609228,1.0,0.0,0.0150920692542
1385568910261785519,-0.0166941348596,0.0186513943147,0.0260010265734,1.0,0.0,0.0152937662313
1385568910312010465,-0.0172934698432,0.0176781821869,0.025396609346,1.0,0.0,0.0156150538957
1385568910361814575,-0.0178236888852,0.0168132638788,0.0248422640439,1.0,0.0,0.015854687702
1385568910411865151,-0.018443312999,0.0158063993171,0.0243025907445,1.0,0.0,0.0161780742046
1385568910461725708,-0.0190895614061,0.0149401587007,0.0237586139002,1.0,0.0,0.016442449575
1385568910511953017,-0.0198441459251,0.0139635950002,0.0231783350886,1.0,0.0,0.0167897386497
1385568910561735953,-0.020532370884,0.0131637487477,0.0226291822384,1.0,0.0,0.0170569618392
1385568910611931901,-0.0213157645883,0.0123701512185,0.0221375770158,1.0,0.0,0.0173247144857
1385568910661875339,-0.0219669179691,0.0116520091267,0.0216767202089,1.0,0.0,0.0175943854495
1385568910711931139,-0.022710076443,0.0109531285567,0.0212205579987,1.0,0.0,0.0178570333516
1385568910761800925,-0.023544390669,0.0101058116527,0.0207762525678,1.0,0.0,0.0181677934445
1385568910813152522,-0.0242998623479,0.00957379652148,0.0202879490974,1.0,0.0,0.0183862114294
1385568910861974156,-0.0251528343112,0.00893824674875,0.0198066515184,1.0,0.0,0.0187002268446
1385568910911817083,-0.0258968470554,0.00848177424827,0.0193528534811,1.0,0.0,0.0188767258189
1385568910961793095,-0.0267108373827,0.00811934794497,0.0189219398655,1.0,0.0,0.0190844173837
1385568911012764727,-0.0274108212362,0.00776644661042,0.0184453311994,1.0,0.0,0.0192212999145
1385568911061803390,-0.0281375012716,0.00756418477244,0.0180556393436,1.0,0.0,0.0194128072485
1385568911112907591,-0.0290616661038,0.00706430093547,0.0176386398019,1.0,0.0,0.0195880943132
1385568911161831794,-0.029733858432,0.007035503284,0.0172612926974,1.0,0.0,0.0197088496897
1385568911212996206,-0.0305034457323,0.00688859715898,0.0169281935206,1.0,0.0,0.0198155882462
1385568911262794116,-0.0311923229911,0.00678253425273,0.0165559496108,1.0,0.0,0.0199263902239
1385568911312901585,-0.0319540923172,0.0066890045097,0.0162215502477,1.0,0.0,0.0200484320121
1385568911361764163,-0.0325865176191,0.00673401994514,0.015797164645,1.0,0.0,0.020118350373
1385568911412806194,-0.0333270212351,0.00675651626775,0.0153693263109,1.0,0.0,0.0202171867953
1385568911461799046,-0.0338308968766,0.00688188675795,0.015089467595,1.0,0.0,0.020238547507
1385568911511800193,-0.0345132944512,0.00695311132854,0.0147618754961,1.0,0.0,0.0203165396093
1385568911561866510,-0.0349551017625,0.00723099575383,0.0144774185988,1.0,0.0,0.020303062277
1385568911611995380,-0.0355827300976,0.00727208611854,0.0141702212187,1.0,0.0,0.0203547385289
1385568911662822247,-0.0358722696502,0.00754658049943,0.0139928330608,1.0,0.0,0.0203811663932
1385568911711797563,-0.0366950535648,0.00751130752685,0.013693531035,1.0,0.0,0.0204402941437
1385568911761791101,-0.0370316779012,0.0077386828345,0.0134195769898,1.0,0.0,0.0203998295895
1385568911811794618,-0.0375260577584,0.00775677794319,0.0131814904056,1.0,0.0,0.0204661448799
1385568911862388100,-0.0378533501121,0.00788089960154,0.0129641565468,1.0,0.0,0.0204813190597
1385568911911991973,-0.0380551469693,0.0080462799175,0.0127477740195,1.0,0.0,0.0205112939685
1385568911962092850,-0.0384375055125,0.00806113943238,0.0125158247433,1.0,0.0,0.0205717701947
1385568912011949327,-0.0386786246076,0.0081088329453,0.0122082558605,1.0,0.0,0.0206020330927
1385568912061948974,-0.0389086257117,0.00816368807909,0.0119010255263,1.0,0.0,0.0206335012518
1385568912111869252,-0.0389134470403,0.00828642730167,0.0116704008287,1.0,0.0,0.0206442343329
1385568912162085460,-0.0390409689158,0.00841266170324,0.0114376810703,1.0,0.0,0.0206283070593
1385568912211958798,-0.0391140166124,0.00843870534006,0.0112403155818,1.0,0.0,0.0206037078972
1385568912261933962,-0.039033947885,0.00864760784706,0.0110970753046,1.0,0.0,0.0205322501961
1385568912312421109,-0.0388881252602,0.00886049980817,0.0109337552871,1.0,0.0,0.0204591351262
1385568912362008855,-0.0388573437473,0.00901726102223,0.0107188697599,1.0,0.0,0.0203491238122
1385568912411897559,-0.0386482085678,0.00916096026012,0.0105445794669,1.0,0.0,0.0202126679393
1385568912461954733,-0.0385442912226,0.00921602636623,0.010421547275,1.0,0.0,0.0201106305527
1385568912511898997,-0.0381646193152,0.00949206056044,0.0103186276784,1.0,0.0,0.019915812855
1385568912561931670,-0.0380374721575,0.009478184291,0.0102331096306,1.0,0.0,0.0198052842867
1385568912611950629,-0.0375957103943,0.00954734707473,0.010106034579,1.0,0.0,0.0196766181559
1385568912662941154,-0.0374136967605,0.00952762662475,0.0100054079359,1.0,0.0,0.0195027535923
1385568912711883079,-0.0370521732658,0.00944441414993,0.0098825999333,1.0,0.0,0.0194475979028
1385568912762116766,-0.036627685286,0.00944392812938,0.00973748502754,1.0,0.0,0.0192464234763
1385568912812085660,-0.0361742412681,0.00938731735589,0.00965478872299,1.0,0.0,0.0190986939435
1385568912861906926,-0.0356365832662,0.00918953535723,0.00957908885009,1.0,0.0,0.0189863052463
1385568912911903547,-0.0350806206415,0.0090901922081,0.00950323934187,1.0,0.0,0.0187897605816
1385568912961928426,-0.034555036781,0.00887700036034,0.0093918619835,1.0,0.0,0.018654930581
1385568913012948376,-0.03405798488,0.00864241330065,0.00928705300463,1.0,0.0,0.0184352081221
1385568913061913101,-0.0334606335409,0.00829360488867,0.00920790643525,1.0,0.0,0.0183082547092
1385568913112168431,-0.0328236255212,0.00792526384301,0.00917614783339,1.0,0.0,0.0181286725253
1385568913162004634,-0.0323272655215,0.00767577321652,0.00910101220992,1.0,0.0,0.0179982835655
1385568913212034921,-0.0315859123232,0.00704819981954,0.00900349104117,1.0,0.0,0.0178582481511
1385568913261865260,-0.030960060341,0.00665512363569,0.00896012604437,1.0,0.0,0.017708711128
1385568913312233937,-0.0302958339772,0.00607983953837,0.00893618163434,1.0,0.0,0.0175773209617
1385568913362965045,-0.0295672138998,0.00552587201219,0.00885888224841,1.0,0.0,0.0174306491756
1385568913411973010,-0.0288955547481,0.00494149964008,0.00882490936358,1.0,0.0,0.0172841716626
1385568913462023616,-0.028227732243,0.00436355427509,0.0086901817995,1.0,0.0,0.0170891906491
1385568913513065322,-0.0274555976015,0.00372626134681,0.00862306278363,1.0,0.0,0.0169915024986
1385568913563459670,-0.0267890226827,0.00293313045999,0.00861858178122,1.0,0.0,0.0168712157672
1385568913612098545,-0.0259152502674,0.0023006396975,0.00861535202827,1.0,0.0,0.0167487791413
1385568913662951930,-0.0252841576982,0.00146450021608,0.00856683066255,1.0,0.0,0.0166494722592
1385568913712027651,-0.0244446942151,0.000736720275722,0.00857864544088,1.0,0.0,0.0165452903818
1385568913762020831,-0.0235414886087,0.000183780401206,0.00858455076294,1.0,0.0,0.0163429331648
1385568913811969026,-0.0228722898116,-0.000722076192284,0.00851055835209,1.0,0.0,0.0162516152353
1385568913863028625,-0.0219595257031,-0.00146188198757,0.00844396708685,1.0,0.0,0.0161301577631
1385568913912866348,-0.0211415208646,-0.00219629924614,0.00836876335897,1.0,0.0,0.0159938092516
1385568913962940701,-0.0203191546473,-0.00301814607267,0.00827015588087,1.0,0.0,0.0159206105144
1385568914012894831,-0.0196188357269,-0.00385511452456,0.00822765652426,1.0,0.0,0.0158130589981
1385568914061998597,-0.0187849215762,-0.00460391236868,0.00814071873365,1.0,0.0,0.015732851567
1385568914111956158,-0.0179627402852,-0.0052983012031,0.008034690258,1.0,0.0,0.0156209027617
1385568914162096657,-0.0171956767436,-0.00595469620346,0.00786597742543,1.0,0.0,0.0155197673268
1385568914211972924,-0.0164908498969,-0.00665271465212,0.00764118147372,1.0,0.0,0.0153971683756
1385568914261971217,-0.0159452257188,-0.00711953877497,0.00752251509168,1.0,0.0,0.0153677636743
1385568914311920324,-0.0149184240717,-0.00814908547772,0.00735150930021,1.0,0.0,0.0152867219471
1385568914361910205,-0.0144350790229,-0.00879503564483,0.00714061205521,1.0,0.0,0.0152820620367
1385568914412106089,-0.0139586990124,-0.00925894306467,0.00697088852225,1.0,0.0,0.0152225695568
1385568914461993526,-0.0131306636585,-0.0103728959585,0.00674344362674,1.0,0.0,0.015142478312
1385568914512086233,-0.0125663645443,-0.0108032678193,0.00649486995842,1.0,0.0,0.0150403560448
1385568914562969279,-0.0120139470164,-0.0117346155718,0.0062577049353,1.0,0.0,0.0150299737371
1385568914612955496,-0.0115637859924,-0.0125070558361,0.00601406927595,1.0,0.0,0.0149927755026
1385568914662051658,-0.0109842862981,-0.013167284428,0.00577265838635,1.0,0.0,0.0149181961114
1385568914712037835,-0.0105365546613,-0.0139622439605,0.00555976161824,1.0,0.0,0.0148662355721
1385568914761982000,-0.0103963575614,-0.0142641741263,0.00538555227321,1.0,0.0,0.0147606472584
1385568914812042058,-0.00973902995176,-0.0154785966101,0.0052167485886,1.0,0.0,0.0146872642927
1385568914862071565,-0.00945621990296,-0.0161168011703,0.00490648000192,1.0,0.0,0.014628840648
1385568914911968915,-0.00915865288393,-0.0169095778877,0.00478055838125,1.0,0.0,0.0145254645215
1385568914962107420,-0.00892184543921,-0.017608224277,0.00491530210843,1.0,0.0,0.0143697919724
1385568915011926558,-0.00867779122712,-0.0182628868456,0.00499682146843,1.0,0.0,0.0142017069278
1385568915061985308,-0.00860847726331,-0.018961311627,0.00498530247678,1.0,0.0,0.0140421876192
1385568915111957770,-0.00857810368738,-0.0196571321227,0.00508391526531,1.0,0.0,0.0138772999548
1385568915162940856,-0.00880881086565,-0.0198716851938,0.0051456282804,1.0,0.0,0.0136877714028
1385568915212959076,-0.00874894985274,-0.0209880788855,0.0053177880942,1.0,0.0,0.0134565557752
1385568915262078380,-0.0091595406915,-0.0210265947076,0.00542541415517,1.0,0.0,0.0132439611182
1385568915312963394,-0.0092379896434,-0.0220828412416,0.00564867019427,1.0,0.0,0.0129999934546
1385568915361912991,-0.00974740486899,-0.0221687613382,0.00584323619187,1.0,0.0,0.0127977271468
1385568915412958300,-0.00996787979246,-0.0231146875074,0.00607045551903,1.0,0.0,0.0124989942582
1385568915462084177,-0.0104447446816,-0.0234502579268,0.00631239280105,1.0,0.0,0.0122299317103
1385568915512102262,-0.0109249824598,-0.0238133432923,0.00652378946834,1.0,0.0,0.0119167239111
1385568915562095630,-0.0115153824614,-0.0242089478474,0.00667347938495,1.0,0.0,0.01160285811
1385568915611958505,-0.0119351980938,-0.0244072973447,0.00690805866207,1.0,0.0,0.0113277382491
1385568915662052222,-0.0125584549835,-0.0244547831203,0.00713938087173,1.0,0.0,0.0109296483392
1385568915713042703,-0.0131152541147,-0.0246121318878,0.00715058294208,1.0,0.0,0.0106089711342
1385568915761945788,-0.0137214149652,-0.0243614667417,0.00749625364948,1.0,0.0,0.0102251175883
1385568915812075250,-0.0143288019961,-0.0242239184321,0.00767708824034,1.0,0.0,0.00987119704616
1385568915862098953,-0.0149988357396,-0.0237367582413,0.00777639008525,1.0,0.0,0.00957224869994
1385568915913074659,-0.0156366629615,-0.0233693170293,0.00793453461526,1.0,0.0,0.00909426397337
1385568915961875293,-0.0163125667614,-0.0227531379594,0.00800499654149,1.0,0.0,0.0087339195025
1385568916012026715,-0.0171026334176,-0.0220301469743,0.00799532395879,1.0,0.0,0.00832073891859
1385568916061988443,-0.0177890499863,-0.021169349874,0.00806720541716,1.0,0.0,0.00794401561036
1385568916111992251,-0.0185955969821,-0.0201687958604,0.00808738385599,1.0,0.0,0.00751339173845
1385568916162936239,-0.0194444453591,-0.0189933125824,0.00806340686263,1.0,0.0,0.00708829877872
1385568916211946847,-0.0202626942998,-0.0177520149649,0.00808465356702,1.0,0.0,0.00665377336664
1385568916262922919,-0.0211863244247,-0.0162921945128,0.00808837724024,1.0,0.0,0.00618684395924
1385568916312084103,-0.0220869953668,-0.0147611992537,0.00805754731058,1.0,0.0,0.00569631307318
1385568916362077112,-0.0229521138569,-0.013139421749,0.00807195271722,1.0,0.0,0.00527101033678
1385568916411990193,-0.023864942846,-0.0114372243958,0.00802116252908,1.0,0.0,0.00483847041183
1385568916462022696,-0.0247337571394,-0.00955493850918,0.00802394869088,1.0,0.0,0.00441513473091
1385568916513039219,-0.0256190433849,-0.00764325243543,0.00795410979201,1.0,0.0,0.0039825731207
1385568916562850616,-0.0264846824564,-0.00552787701573,0.00787761190908,1.0,0.0,0.00357037361161
1385568916611934204,-0.0272694427329,-0.00343698788898,0.00780121057553,1.0,0.0,0.00319689636378
1385568916661952714,-0.0279981602601,-0.0011511895978,0.00777496797961,1.0,0.0,0.00277598009629
1385568916712188490,-0.0286679853318,0.0011494684962,0.00767826066381,1.0,0.0,0.00242480385637
1385568916761942686,-0.0293031706546,0.0035447299254,0.00752819163122,1.0,0.0,0.00202177048698
1385568916812154486,-0.0298128945481,0.00601082045388,0.00738026464235,1.0,0.0,0.00168272192544
1385568916862195248,-0.0302809614645,0.00859578217877,0.00718054863769,1.0,0.0,0.0012919153824
1385568916911971778,-0.0306572927013,0.0111579345767,0.00692575267695,1.0,0.0,0.000970329274235
1385568916962155666,-0.0309390537504,0.0138355646869,0.0067685638528,1.0,0.0,0.00057216961692
1385568917011942607,-0.0311314137706,0.0163328779259,0.00637741466638,1.0,0.0,0.00035789221951
1385568917061998224,-0.031263279306,0.0190560533292,0.0060140209442,1.0,0.0,-1.32901752935e-07
1385568917112249852,-0.0313122811848,0.0218046739302,0.00566238925852,1.0,0.0,-0.000332402620721
1385568917161950196,-0.0312421565623,0.0243483240789,0.00530797742743,1.0,0.0,-0.000578950780168
1385568917212038761,-0.0311342237201,0.0270313270347,0.00493277810283,1.0,0.0,-0.000878459658269
1385568917262961715,-0.0309276627843,0.0295817940018,0.00456667486345,1.0,0.0,-0.00112231886729
1385568917311908987,-0.0307059339681,0.0320932817684,0.00424554244318,1.0,0.0,-0.00140849978982
1385568917362084235,-0.030406135881,0.0344463418767,0.00394639454699,1.0,0.0,-0.00160559462307
1385568917412073646,-0.0300455649712,0.0366984774445,0.00373695063122,1.0,0.0,-0.00183437659688
1385568917461968783,-0.0296161130143,0.038880943622,0.00346028596168,1.0,0.0,-0.00208445197036
1385568917511916608,-0.0291941271848,0.0407902296454,0.00326694555025,1.0,0.0,-0.00222034056489
1385568917562949282,-0.0286099825369,0.0418678816772,0.00314145882759,1.0,0.0,-0.00235695517566
1385568917613115925,-0.0280338465081,0.0442298653686,0.00293971260522,1.0,0.0,-0.00246762901743
1385568917662102125,-0.027374136655,0.0453992520789,0.00286817474224,1.0,0.0,-0.00257209694995
1385568917712002147,-0.0266069976537,0.0467503172894,0.00281398515006,1.0,0.0,-0.00266238311376
1385568917761900321,-0.0258234671003,0.0477492120097,0.00274022877567,1.0,0.0,-0.00272031489719
1385568917812958486,-0.0249962490155,0.0480384280035,0.00265482802651,1.0,0.0,-0.00276079270043
1385568917862349038,-0.0239852533756,0.0493570940749,0.00261692766389,1.0,0.0,-0.00272660795379
1385568917911984400,-0.023105099558,0.0490006001298,0.00255637404347,1.0,0.0,-0.00273852010094
1385568917962334628,-0.0217557857449,0.0502279717898,0.00257457342143,1.0,0.0,-0.00276344986972
1385568918011954365,-0.0207186727092,0.049898721188,0.00255243437536,1.0,0.0,-0.00267328191593
1385568918062112899,-0.0193778770327,0.0500634745635,0.00255478405639,1.0,0.0,-0.0027148983632
1385568918112955983,-0.0182894671751,0.0493308768399,0.00254480916676,1.0,0.0,-0.00265548486005
1385568918161937638,-0.0166496456612,0.0495781848376,0.00255369212115,1.0,0.0,-0.00263014455088
1385568918212044185,-0.0152205353631,0.0488478109267,0.00258779933119,1.0,0.0,-0.00262139997069
1385568918262197332,-0.0136431471677,0.0482494437446,0.00259182356097,1.0,0.0,-0.00255308278007
1385568918312921099,-0.0120698512299,0.0474761647461,0.00258646373395,1.0,0.0,-0.00255842474644
1385568918361970055,-0.0103629398244,0.0466825554938,0.00264017229134,1.0,0.0,-0.00256535516847
1385568918412007307,-0.00875416076971,0.0455945142205,0.00261518504511,1.0,0.0,-0.00249087503469
1385568918461926176,-0.00708154615242,0.0444735448388,0.00259805631416,1.0,0.0,-0.00243442881278
1385568918512072242,-0.00542997502191,0.0431798731027,0.00258859384465,1.0,0.0,-0.00238527854587
1385568918562937500,-0.00375514832202,0.0418293362619,0.00266522951603,1.0,0.0,-0.0023176987042
1385568918612138158,-0.00215037236956,0.0402832672935,0.00273157241829,1.0,0.0,-0.00223856141032
1385568918661891617,-0.000532596377087,0.0386628682626,0.00283717303486,1.0,0.0,-0.00217165821671
1385568918712951636,0.000997372155083,0.0369265534094,0.00292299369655,1.0,0.0,-0.00207831882596
1385568918763127789,0.00255814900265,0.0350286833352,0.00301497378644,1.0,0.0,-0.00200391167031
1385568918813081580,0.00376376306152,0.0329081672815,0.00307557598984,1.0,0.0,-0.00179268393156
1385568918862219266,0.00512922277144,0.0307228372977,0.0031894854759,1.0,0.0,-0.00164288697555
1385568918911970877,0.00590391500055,0.0285636280448,0.00326714726662,1.0,0.0,-0.00151074578341
1385568918961910177,0.00752709171168,0.0260192477229,0.00332616312116,1.0,0.0,-0.00127872926479
1385568919013246992,0.00839780892278,0.0235880272704,0.00339661947778,1.0,0.0,-0.0010831097177
1385568919063056847,0.00899554142645,0.0212025088381,0.00344885301747,1.0,0.0,-0.000909348291629
1385568919111874339,0.010186273976,0.0182830064095,0.00347704837128,1.0,0.0,-0.000605105878716
1385568919161982476,0.0108415942847,0.0157193249676,0.00348490533373,1.0,0.0,-0.000431371543397
1385568919211931553,0.0113823257105,0.0128970414342,0.00350087473652,1.0,0.0,-7.72487806903e-05
1385568919262983193,0.0118840646122,0.0101368678515,0.00355814478378,1.0,0.0,0.000199552000311
1385568919311911863,0.0121674168925,0.00734868008908,0.00361371429697,1.0,0.0,0.000560291516676
1385568919361977460,0.012110039082,0.00512282092691,0.00368759131554,1.0,0.0,0.000832462644679
1385568919411974725,0.0122988834667,0.00234947143373,0.0037064147415,1.0,0.0,0.00123558583884
1385568919462910124,0.0126666154332,-0.000397215882476,0.00370295705433,1.0,0.0,0.00160759510591
1385568919512048272,0.0127139238943,-0.00267493014335,0.00374221369271,1.0,0.0,0.00191643953179
1385568919561885316,0.0127044126446,-0.00495464605355,0.00377439242619,1.0,0.0,0.00227774419367
1385568919612115025,0.0125027451834,-0.00701754838378,0.00378399380494,1.0,0.0,0.00264401059161
1385568919663021336,0.012415913849,-0.00873256929667,0.00381985555837,1.0,0.0,0.00296108127497
1385568919712017365,0.0118579324449,-0.00999447573001,0.0038716570401,1.0,0.0,0.00329372205242
1385568919761871968,0.011825673417,-0.0118730232933,0.00395502972683,1.0,0.0,0.00363934942478
1385568919811439800,0.0113919315302,-0.0128760199045,0.00406832103331,1.0,0.0,0.00397023957851
1385568919861994763,0.010936218997,-0.0138791477751,0.00414520168272,1.0,0.0,0.00428423645108
1385568919912101856,0.0104199142965,-0.0145693815279,0.00433087477577,1.0,0.0,0.00463767555679
1385568919962123090,0.00983410285177,-0.0150913350992,0.00452698596383,1.0,0.0,0.00496273346687
1385568920013085986,0.00919637670341,-0.0152581314296,0.00471047632049,1.0,0.0,0.00535635549231
1385568920061959423,0.00822608251606,-0.0150823139264,0.00482450036133,1.0,0.0,0.00569626669819
1385568920111965165,0.00755297596639,-0.0148950510659,0.00494389659153,1.0,0.0,0.00603630674402
1385568920161931106,0.00666221595067,-0.0148164290472,0.00501607980638,1.0,0.0,0.00640689181099
1385568920212053871,0.00574250089552,-0.0141039162164,0.00505771337384,1.0,0.0,0.00676578275258
1385568920262975290,0.00464106301676,-0.0134197969078,0.00508524057652,1.0,0.0,0.00715639266318
1385568920312973769,0.00353838687675,-0.0124861451581,0.0051027625802,1.0,0.0,0.0076193757927
1385568920362115852,0.00236215417362,-0.0114167105105,0.00509167591449,1.0,0.0,0.00802195033962
1385568920412015294,0.00116641043202,-0.0101903012645,0.00508665944049,1.0,0.0,0.00846023722312
1385568920462923427,-0.000146821551456,-0.00884940115468,0.0050401411998,1.0,0.0,0.00890680649567
1385568920512099239,-0.00135093360922,-0.00730454373263,0.00501322231454,1.0,0.0,0.009347711435
1385568920561927121,-0.00278331470778,-0.00578826068682,0.00495351900299,1.0,0.0,0.0097892492082
1385568920612051896,-0.00396461239294,-0.0042203403092,0.0049063610241,1.0,0.0,0.010226778372
1385568920661880054,-0.00531690826423,-0.00251042111491,0.00482811222607,1.0,0.0,0.0106108594002
1385568920712016227,-0.00665357891705,-0.00081089401314,0.00476910173435,1.0,0.0,0.0110294351321
1385568920761930958,-0.00794537088158,0.000915181370201,0.00469185586033,1.0,0.0,0.0114730284686
1385568920811868321,-0.00913392832135,0.00264145587623,0.00458388099207,1.0,0.0,0.0118687453765
1385568920861884227,-0.0102372964815,0.0043728906704,0.00448716120398,1.0,0.0,0.0122489204582
1385568920912950155,-0.0113827719782,0.00603619351992,0.00440336363659,1.0,0.0,0.0126691180988
1385568920961963853,-0.0124242203994,0.00764328330031,0.00431432276382,1.0,0.0,0.0131008562634
1385568921012898648,-0.0132911677722,0.00935292833656,0.00418635372981,1.0,0.0,0.0134725382566
1385568921061931877,-0.0140784243298,0.0106916781274,0.00406235803739,1.0,0.0,0.0138732795315
1385568921112006101,-0.0148771611873,0.0122679095416,0.0038947881383,1.0,0.0,0.0142860915598
1385568921162019621,-0.0155735975135,0.0136699271866,0.00371334050752,1.0,0.0,0.0146742139935
1385568921211961850,-0.0163286461243,0.0152664768114,0.00350065466962,1.0,0.0,0.0150882102372
1385568921261979134,-0.0166670635949,0.016383666655,0.00330525860354,1.0,0.0,0.0154278925281
1385568921312402084,-0.0172354290566,0.0176474750247,0.00308967396553,1.0,0.0,0.0158148239205
1385568921362355265,-0.0177988751282,0.0190321344448,0.00288668340353,1.0,0.0,0.0161874350126
1385568921412450180,-0.0181742949849,0.0200652237443,0.00270506623091,1.0,0.0,0.0165561993015
1385568921462791903,-0.0183219353124,0.0208432387332,0.00253530658278,1.0,0.0,0.0168677309055
1385568921512360337,-0.0186828200761,0.0218202865167,0.00239489127142,1.0,0.0,0.0171906786976
1385568921562335362,-0.0189454354651,0.0226068046694,0.0022758801226,1.0,0.0,0.0175222120351
1385568921612324057,-0.0193437644563,0.023624020142,0.00211917294035,1.0,0.0,0.0178026416927
1385568921662365960,-0.0193241623389,0.0239833546234,0.00198902867696,1.0,0.0,0.018087395445
1385568921712432955,-0.0197531686088,0.0247689961245,0.00187426151778,1.0,0.0,0.018358955486
1385568921762419027,-0.0198276725002,0.0251768647314,0.00175949480626,1.0,0.0,0.0185845152767
1385568921812348886,-0.0200201525533,0.0255936674179,0.00162183862074,1.0,0.0,0.0188114762004
1385568921862486948,-0.0199586912221,0.0256546930176,0.00150185611252,1.0,0.0,0.0190558769876
1385568921912770095,-0.0201418250357,0.0261613329578,0.00138977612066,1.0,0.0,0.0192232295987
1385568921962417759,-0.0199606773002,0.0260284080191,0.00128604136106,1.0,0.0,0.019432323317
1385568922012485180,-0.019990659712,0.0261323692929,0.00117161515039,1.0,0.0,0.0196121943381
1385568922062335676,-0.0198272350056,0.0260572762731,0.00110591865664,1.0,0.0,0.0198116478837
1385568922112674695,-0.0195993553154,0.0260088707017,0.00107010797089,1.0,0.0,0.019934217931
1385568922161410486,-0.0193867445545,0.0258082656721,0.000966875266207,1.0,0.0,0.0201332290005
1385568922211597565,-0.0190857777854,0.0255177415346,0.000869615766007,1.0,0.0,0.0202830338671
1385568922261371329,-0.0186922321289,0.025343331345,0.000791302425009,1.0,0.0,0.0204048450851
1385568922311574226,-0.0182741464628,0.024892748252,0.0006948212624,1.0,0.0,0.0205656811293
1385568922362494832,-0.0176599471426,0.0243229958119,0.000598948121828,1.0,0.0,0.0206803734847
1385568922412482412,-0.0171104626118,0.023873207606,0.000492403251309,1.0,0.0,0.0207657061255
1385568922462337402,-0.0164561378233,0.0231838675555,0.000406078400916,1.0,0.0,0.0208987208823
1385568922512346608,-0.015770090006,0.0224702669414,0.000319239168076,1.0,0.0,0.0209960541682
1385568922562430224,-0.014978536481,0.0217524392987,0.00022978073564,1.0,0.0,0.0210586266028
1385568922611413180,-0.0142010731189,0.0209627355796,0.000124044145459,1.0,0.0,0.0211563956912
1385568922662304357,-0.0133418698904,0.0201311151745,-1.17722536972e-05,1.0,0.0,0.0211947170858
1385568922713322144,-0.0123897316883,0.0192343442907,-0.000138648033554,1.0,0.0,0.0212188013722
1385568922761406582,-0.0116482313481,0.0182913897229,-0.000227509789072,1.0,0.0,0.0213012144935
1385568922811669111,-0.0105498063875,0.0173584545774,-0.00032164784302,1.0,0.0,0.021269626408
1385568922861444831,-0.00966268037265,0.0163952047648,-0.000437608901536,1.0,0.0,0.0212755438706
1385568922912405443,-0.00881134747845,0.015481966214,-0.000538490014095,1.0,0.0,0.021283778517
1385568922962441147,-0.0079274715691,0.0144770839726,-0.00069441064877,1.0,0.0,0.0212302524993
1385568923012302696,-0.00706733433784,0.0135637921457,-0.000834989463221,1.0,0.0,0.021203842378
1385568923061581019,-0.00619071690728,0.0126305928568,-0.0010006037093,1.0,0.0,0.02115330936
1385568923111496584,-0.00524891181379,0.0115888838579,-0.00120548174019,1.0,0.0,0.0211366130125
1385568923163550863,-0.00463172549032,0.0109088020261,-0.00136532437852,1.0,0.0,0.021048281497
1385568923212466197,-0.00382336463974,0.0100639190854,-0.00152402380233,1.0,0.0,0.0210583946262
1385568923261469055,-0.0029520724078,0.00910439993904,-0.00171332694852,1.0,0.0,0.0210234571286
1385568923311678296,-0.00222737583732,0.00844240688591,-0.00186515919709,1.0,0.0,0.020998206652
1385568923361380810,-0.00170394174125,0.0078340755903,-0.00199668087909,1.0,0.0,0.0210340371191
1385568923412378560,-0.000773712877503,0.00708105367886,-0.00211151606448,1.0,0.0,0.0210462007871
1385568923461330555,-0.00016735807784,0.00652307578749,-0.002279364428,1.0,0.0,0.0210993941509
1385568923511691612,0.000349951004403,0.00610126150032,-0.0024188143174,1.0,0.0,0.0211310407787
1385568923561502838,0.000987936416584,0.00558470360197,-0.00256544708607,1.0,0.0,0.0212204200683
1385568923612382131,0.00182501527742,0.00493518100328,-0.00269403327139,1.0,0.0,0.0212495821697
1385568923662410383,0.00213849316876,0.00465359156393,-0.00281332336501,1.0,0.0,0.0213652776555
1385568923711555651,0.00279333228115,0.00420433642796,-0.00294507345678,1.0,0.0,0.0214144643866
1385568923762355134,0.00328268112814,0.00374563331981,-0.00312391526372,1.0,0.0,0.0215426063564
1385568923811564182,0.00398916462928,0.00317789901669,-0.00334643165722,1.0,0.0,0.0216438094488
1385568923862399517,0.00444971819018,0.00277388068235,-0.00358279548827,1.0,0.0,0.0217271011131
1385568923911418745,0.00471642474968,0.00250478758768,-0.0038161120609,1.0,0.0,0.0218409895787
1385568923961362115,0.00513433398618,0.00204548144859,-0.00404243565312,1.0,0.0,0.0219974733804
1385568924011862641,0.0055280497273,0.00166533480909,-0.00427943907531,1.0,0.0,0.0220957155016
1385568924061611935,0.00583546166782,0.00115393255783,-0.00454693728106,1.0,0.0,0.0222320681896
1385568924111565041,0.00635229581094,0.000629579619603,-0.00481922697687,1.0,0.0,0.0223655872508
1385568924161644997,0.00654929622048,0.000189534238557,-0.00503129142669,1.0,0.0,0.0225257441425
1385568924211714926,0.00656918196342,6.95702237782e-07,-0.00521297697844,1.0,0.0,0.0226996530196
1385568924261640387,0.00678658188727,-0.000346045884616,-0.00538572065089,1.0,0.0,0.0228954565187
1385568924311727422,0.00678488609287,-0.000698072944773,-0.00559656432817,1.0,0.0,0.0230803387147
1385568924361641233,0.00682011258053,-0.00100303065235,-0.00577727962487,1.0,0.0,0.0233299375523
1385568924411629122,0.00669020912013,-0.00124386234295,-0.00595728878143,1.0,0.0,0.023599633449
1385568924461563952,0.00656820373733,-0.0013887890777,-0.0061294775374,1.0,0.0,0.0238401729323
1385568924511595536,0.00632682026763,-0.00150436205517,-0.00628209647934,1.0,0.0,0.0241561446602
1385568924561789319,0.00608906076319,-0.001750081617,-0.00643273059433,1.0,0.0,0.0244493656899
1385568924611521239,0.00567223697012,-0.00171035302307,-0.00656061351806,1.0,0.0,0.0247435383144
1385568924661553316,0.0051243275397,-0.00160917535184,-0.00666003206046,1.0,0.0,0.0250578129261
1385568924711538620,0.00471073411242,-0.00166845750026,-0.00672129191923,1.0,0.0,0.0253795391086
1385568924761519558,0.00403057483943,-0.00150446460925,-0.00674510842283,1.0,0.0,0.0256801898003
1385568924812715538,0.00332071919884,-0.00122076709349,-0.00673837642811,1.0,0.0,0.0260016583373
1385568924862577517,0.00261556680513,-0.00104054301636,-0.00666693333894,1.0,0.0,0.0264009633484
1385568924912702986,0.00184519802618,-0.000685707729841,-0.00657950038278,1.0,0.0,0.0267051528804
1385568924962717919,0.00105170871165,-0.00031584484687,-0.00646023767865,1.0,0.0,0.0271112650947
1385568925011526117,0.000216773691324,0.00011684074735,-0.00631181339238,1.0,0.0,0.0275067920938
1385568925061492644,-0.000681739399682,0.000547759104015,-0.00614675944538,1.0,0.0,0.0279256271027
1385568925111813773,-0.00157460307761,0.00103650816045,-0.00597085938352,1.0,0.0,0.0283311074374
1385568925161535625,-0.00261423764706,0.00149984233362,-0.00576608042402,1.0,0.0,0.028791188152
1385568925211714466,-0.00346190764422,0.0020277649238,-0.00557272719746,1.0,0.0,0.0292220396022
1385568925261542495,-0.00443241931923,0.00254034341909,-0.00535906709399,1.0,0.0,0.0296551515871
1385568925312672196,-0.00558257557218,0.00309373606896,-0.00513216854395,1.0,0.0,0.0301873635559
1385568925361550650,-0.00635350018855,0.00355828184636,-0.00490308443684,1.0,0.0,0.0306332447171
1385568925411810309,-0.00737130653548,0.0041836936062,-0.00466871899144,1.0,0.0,0.0311097616398
1385568925461819351,-0.008318910165,0.00457092982995,-0.00447505889679,1.0,0.0,0.0315650369635
1385568925511705620,-0.00927613690098,0.00505469051564,-0.00425713360012,1.0,0.0,0.0320777731697
1385568925561619213,-0.0103870695262,0.00541286517536,-0.00405243233607,1.0,0.0,0.0325559932327
1385568925611593190,-0.0110720796694,0.00578983649908,-0.00388054203889,1.0,0.0,0.0330005755348
1385568925661671722,-0.0120520928238,0.00610057549186,-0.00370818106792,1.0,0.0,0.0335168059998
1385568925711594025,-0.0128552098717,0.00637065909234,-0.00352252260615,1.0,0.0,0.0339901393357
1385568925761684667,-0.0137207722109,0.00663671673208,-0.00335766090528,1.0,0.0,0.0344731455545
1385568925811613279,-0.0144448849689,0.00678789707385,-0.00318252469868,1.0,0.0,0.0349345223273
1385568925861479452,-0.0151811052551,0.00696032021975,-0.00301531784868,1.0,0.0,0.0354118515378
1385568925912535612,-0.0160251063805,0.00719058925002,-0.00280535174925,1.0,0.0,0.0358993222763
1385568925962565209,-0.0164397089365,0.00721681612753,-0.00267617822153,1.0,0.0,0.0363273514519
1385568926011549775,-0.0170863475517,0.00741481528851,-0.00255216879294,1.0,0.0,0.0367833319171
1385568926061669809,-0.0174767679782,0.00744684318223,-0.00241443687104,1.0,0.0,0.0372268354652
1385568926111594852,-0.0179343916124,0.00765253526751,-0.0022934904585,1.0,0.0,0.037602582074
1385568926161652162,-0.0183437138806,0.00778848070433,-0.00216862282495,1.0,0.0,0.0379614941533
1385568926212500082,-0.0183882789734,0.00791123844848,-0.00204011529007,1.0,0.0,0.0383232347606
1385568926261526006,-0.0186173126498,0.00809827186545,-0.00193305163449,1.0,0.0,0.0386791920449
1385568926311566771,-0.0186779208292,0.00827086240018,-0.0018261808151,1.0,0.0,0.0390067215746
1385568926361588621,-0.0186696844678,0.00849998646774,-0.00174928063682,1.0,0.0,0.0393250697851
1385568926411665204,-0.0186287843139,0.00881498715687,-0.00170322815441,1.0,0.0,0.0396629670008
1385568926462538049,-0.018536806074,0.00918787615904,-0.00158111030777,1.0,0.0,0.0398810934272
1385568926511920456,-0.018243636958,0.00936543841154,-0.00149603110025,1.0,0.0,0.0401104042572
1385568926561555131,-0.0181302255907,0.00980981217039,-0.00138595288385,1.0,0.0,0.0403597445742
1385568926611824808,-0.0176594022722,0.0100858142388,-0.00128055201646,1.0,0.0,0.0404967584933
1385568926661524232,-0.0174784031355,0.0105942890455,-0.00122371617793,1.0,0.0,0.0406578814497
1385568926711578791,-0.0170027681265,0.0109303204878,-0.00111792570354,1.0,0.0,0.0408170503975
1385568926762559966,-0.0166168858547,0.0112718525515,-0.00101021737533,1.0,0.0,0.0409757183861
1385568926811652219,-0.0160331222128,0.0115694333238,-0.000825148601935,1.0,0.0,0.0411155378854
1385568926862645050,-0.0156169880722,0.0120154720195,-0.00066972259489,1.0,0.0,0.0411913761347
1385568926911552569,-0.015041901273,0.0122527240054,-0.000522699815611,1.0,0.0,0.0412669020444
1385568926961738954,-0.0145071273708,0.0126683517828,-0.000342927862948,1.0,0.0,0.0413028948427
1385568927011870651,-0.0139886658515,0.0129233375482,-0.000195035797901,1.0,0.0,0.0413649320068
1385568927061785324,-0.0134082199805,0.0132773603159,-5.13630479767e-05,1.0,0.0,0.0414020837612
1385568927111829901,-0.0128514038097,0.0137127680715,6.82120436545e-05,1.0,0.0,0.0413881985858
1385568927162571543,-0.0122916541387,0.0139057906486,0.000183093106847,1.0,0.0,0.0414117565723
1385568927212781600,-0.0117279887285,0.0143277512181,0.000261235039889,1.0,0.0,0.0414003327658
1385568927261515648,-0.0110650385095,0.0146406671932,0.000354846545755,1.0,0.0,0.04132478894
1385568927312598994,-0.0104704322515,0.0150287127636,0.000474353677474,1.0,0.0,0.0412798219879
1385568927362742965,-0.0098080651677,0.0155575979545,0.000586235007974,1.0,0.0,0.041096502821
1385568927411630757,-0.00915466418739,0.0158224590916,0.000729466513892,1.0,0.0,0.0410365538619
1385568927461633287,-0.00851896714507,0.0161128828857,0.000836612034652,1.0,0.0,0.0408198611898
1385568927511552277,-0.00774941867505,0.0166106787123,0.00097019125839,1.0,0.0,0.0406438538047
1385568927561627388,-0.00721239090185,0.0167384732163,0.00105856194229,1.0,0.0,0.0404506014255
1385568927611574681,-0.00651449098424,0.0169837678644,0.00115062260666,1.0,0.0,0.0402751671358
1385568927661540925,-0.0058521787549,0.0172013814161,0.00126282229117,1.0,0.0,0.0399869802096
1385568927712515017,-0.00510130820452,0.01735346001,0.00138163951897,1.0,0.0,0.0397831140995
1385568927762597727,-0.00457044069009,0.0173626598818,0.00146077735924,1.0,0.0,0.0395156011933
1385568927811895406,-0.00386961719666,0.0174966847112,0.00155558214336,1.0,0.0,0.0392862624215
1385568927862664362,-0.00335234310424,0.01741310904,0.00160888461174,1.0,0.0,0.0390554938436
1385568927911769910,-0.00270247798595,0.0173859366945,0.0016681665929,1.0,0.0,0.0387774676949
1385568927961608676,-0.00217456885172,0.01731808001,0.00171739585792,1.0,0.0,0.0385185201501
1385568928012562146,-0.00159816010399,0.0172592522406,0.0017541341984,1.0,0.0,0.0382428944286
1385568928061593310,-0.00107814018765,0.0171920714259,0.00176193423722,1.0,0.0,0.0379224812644
1385568928111934617,-0.000622613897895,0.017085954638,0.00177451083099,1.0,0.0,0.0376438848119
1385568928161563677,-0.000140365250496,0.0170199356413,0.00177435702927,1.0,0.0,0.0372869090777
1385568928211610616,0.000271019956296,0.016875091005,0.00178536858791,1.0,0.0,0.0369584772467
1385568928262550027,0.000619225664146,0.0167803913116,0.00182845582991,1.0,0.0,0.036630390577
1385568928312613168,0.000954109081019,0.0166914876255,0.00187932782238,1.0,0.0,0.0362923509051
1385568928362538964,0.00117863241409,0.0165328148318,0.00191726931936,1.0,0.0,0.0359563205853
1385568928411555617,0.00136295195373,0.016345435154,0.00194134399949,1.0,0.0,0.0356957862893
1385568928462649895,0.00153351331301,0.0161974159559,0.00198900371549,1.0,0.0,0.0353412700078
1385568928511796520,0.00158615508116,0.0159615073617,0.00207373382966,1.0,0.0,0.0351307213153
1385568928561644648,0.00167541699078,0.0157525943034,0.00214868182279,1.0,0.0,0.034808513559
1385568928612554961,0.001568982593,0.0153626912753,0.00223134160336,1.0,0.0,0.0345652492013
1385568928661489782,0.0015550246812,0.015081100077,0.00234215207401,1.0,0.0,0.0342480097899
1385568928712545357,0.0013835747104,0.0147046182266,0.0024520652064,1.0,0.0,0.0339837216714
1385568928762071630,0.00128888293863,0.0142332086229,0.0025512807657,1.0,0.0,0.0336983934699
1385568928811722480,0.00109043291917,0.0137877742785,0.00264796019047,1.0,0.0,0.0334230966204
1385568928861995434,0.000772976457777,0.0132627704925,0.00273101264033,1.0,0.0,0.0331719559437
1385568928912481121,0.000483442485317,0.0126684897388,0.00281714317699,1.0,0.0,0.0329364785581
1385568928961750769,0.000112448234963,0.0120532026291,0.00291394906097,1.0,0.0,0.0327242100349
1385568929012722662,-0.000317653883817,0.0114678265632,0.00300084710289,1.0,0.0,0.0324940708282
1385568929061520883,-0.000781923677074,0.0108170097528,0.00306202167116,1.0,0.0,0.0323465419124
1385568929111745979,-0.00134209822099,0.0101335093074,0.00313008974683,1.0,0.0,0.0321527803935
1385568929161470978,-0.00191048952552,0.00948329904133,0.00320844916495,1.0,0.0,0.0320039270765
1385568929211800328,-0.00259343503809,0.00873372205721,0.00324572771264,1.0,0.0,0.0318742152118
1385568929261505092,-0.00324440693988,0.00803576494867,0.00326813216975,1.0,0.0,0.0316851667079
1385568929311763656,-0.00401664963141,0.00732217129262,0.00327442916641,1.0,0.0,0.0315801647136
1385568929361759446,-0.0049136167848,0.00643567432091,0.00329223437178,1.0,0.0,0.0314564504034
1385568929411739103,-0.00561482215684,0.00586190768858,0.00331141854218,1.0,0.0,0.031332385026
1385568929461677126,-0.00655357842918,0.00503546688704,0.00332776507367,1.0,0.0,0.0312864586005
1385568929512570246,-0.00745143002156,0.00433646014489,0.00336628113072,1.0,0.0,0.0311972816452
1385568929562706317,-0.00845375627564,0.00355145232562,0.00338287489061,1.0,0.0,0.0311886282899
1385568929612518159,-0.00935229769822,0.00286912179094,0.00342871425514,1.0,0.0,0.031104569689
1385568929661650489,-0.0103971998647,0.00209674254745,0.00344664049374,1.0,0.0,0.0310957939147
1385568929711860810,-0.0113901900426,0.0014236088838,0.00348476127215,1.0,0.0,0.0310564519315
1385568929761719585,-0.0124044173132,0.000750108987476,0.003480067982,1.0,0.0,0.0309960054692
1385568929811806458,-0.0133698790716,-1.69532474903e-05,0.00352242417215,1.0,0.0,0.0309989917012
1385568929861839332,-0.0143721713306,-0.00066827057602,0.00352037069571,1.0,0.0,0.030961200104
1385568929911803653,-0.01551218275,-0.00150094225086,0.00353197319078,1.0,0.0,0.0309213445736
1385568929961746568,-0.0162480171187,-0.0018671130449,0.00350260651284,1.0,0.0,0.0308841122942
1385568930011519250,-0.0172601020845,-0.00254076161129,0.0034823119491,1.0,0.0,0.0308591306168
1385568930062596501,-0.0180621697803,-0.00299371940085,0.00347541141474,1.0,0.0,0.0308139004565
1385568930112586055,-0.0189385077366,-0.00352185654285,0.00342716831368,1.0,0.0,0.0307507784278
1385568930161607621,-0.0197223234937,-0.00399180949963,0.00340215706649,1.0,0.0,0.0307517339958
1385568930212547588,-0.0205058762803,-0.00427742208685,0.00337688866161,1.0,0.0,0.0306941411307
1385568930261745255,-0.0212008042979,-0.00466199617898,0.00337607961943,1.0,0.0,0.0306759747703
1385568930312526794,-0.0219370321856,-0.00492252529792,0.00335460875285,1.0,0.0,0.0306614783299
1385568930361552469,-0.022522394572,-0.0051173126093,0.00331019968215,1.0,0.0,0.0306290089816
1385568930411712289,-0.0231071574825,-0.00531516732003,0.00326726509687,1.0,0.0,0.0306565719075
1385568930462587238,-0.0235797963157,-0.00538209453807,0.00319232618165,1.0,0.0,0.0305773991575
1385568930512545251,-0.0240258160213,-0.00544651755845,0.00314980124047,1.0,0.0,0.0305373330589
1385568930561927692,-0.0244921820339,-0.00557910294031,0.00304788462352,1.0,0.0,0.0305183552643
1385568930612610865,-0.0248426288105,-0.00554916199348,0.00294786756304,1.0,0.0,0.0305479623164
1385568930662586353,-0.0251407109733,-0.00556359345914,0.00285299272294,1.0,0.0,0.0304647869748
1385568930712697053,-0.0254093819524,-0.00553029152721,0.00277554045271,1.0,0.0,0.0305136686859
1385568930762584053,-0.0255982958263,-0.00546630825108,0.00269909231582,1.0,0.0,0.0304674845044
1385568930812576614,-0.0257664577563,-0.00539676890994,0.00262188529344,1.0,0.0,0.0304542130739
1385568930861557919,-0.0258611516662,-0.00523282717183,0.00257955446018,1.0,0.0,0.0303528502247
1385568930911497550,-0.0259653397334,-0.00512020817223,0.00251141595939,1.0,0.0,0.0302788131309
1385568930962591909,-0.0260053916447,-0.00493923970529,0.00242599390411,1.0,0.0,0.0301524711099
1385568931011885450,-0.0260311618495,-0.00474342758731,0.0023652375303,1.0,0.0,0.0300266622533
1385568931061563747,-0.0259673101286,-0.00463229009811,0.00231317573958,1.0,0.0,0.0299171355844
1385568931111564632,-0.0258763315075,-0.00447890602897,0.00228070787427,1.0,0.0,0.0297937735203
1385568931162579403,-0.0257349931167,-0.00427825975786,0.00224470578367,1.0,0.0,0.0296285303739
1385568931212491439,-0.0255357250453,-0.00407126911127,0.00220586000036,1.0,0.0,0.0294817066949
1385568931262571108,-0.0251936474944,-0.00377289724804,0.00219071353192,1.0,0.0,0.0292801797456
1385568931311524480,-0.0249374668714,-0.00363748429313,0.00212452750108,1.0,0.0,0.0291323512948
1385568931361662508,-0.0245381190449,-0.00343392292807,0.00206900460258,1.0,0.0,0.0289818033072
1385568931411591647,-0.0241305227876,-0.00315448444847,0.00197813395334,1.0,0.0,0.0287548280564
