%time,field.linear.x,field.linear.y,field.linear.z,field.angular.x,field.angular.y,field.angular.z
1385568898921391318,0.0,0.0,0.0,0.0,0.0,0.0
1385568898921644448,0.13703055627,0.122667493705,-0.113148390076,-0.0149124877908,0.00628462973794,-1.14204406717
1385568898930824501,0.137003324549,0.122656377614,-0.11323161052,-0.0148310470259,0.00706239761554,-1.14212639141
1385568898940827029,0.137001894963,0.122656623778,-0.113123192911,-0.0147112982578,0.00610402707161,-1.14207010258
1385568898950928599,0.13700237259,0.122660702118,-0.113123573776,-0.0147056881157,0.00609849386688,-1.14205980422
1385568898960847700,0.137031867798,0.122667224004,-0.113147866566,-0.0149190945487,0.00621782357912,-1.14203702724
1385568898970828681,0.137020003956,0.122669752493,-0.113149720508,-0.0148935841727,0.00626779372001,-1.14205279221
1385568898980856805,0.137025232581,0.122676953593,-0.113143762278,-0.0149348879355,0.00622478729684,-1.14203591379
1385568898990866874,0.13702309757,0.122670611497,-0.113141661096,-0.0149120077484,0.00625788410672,-1.14204254033
1385568899000826879,0.137044313651,0.122662945621,-0.11315362774,-0.0145861803471,0.00622735053322,-1.1419601201
1385568899010835610,0.13699640545,0.122660837281,-0.113119044717,-0.0147500787596,0.00607496343588,-1.14206182377
1385568899020828028,0.137020104676,0.122667898605,-0.113146886118,-0.0149318556019,0.00619907177791,-1.14205436744
1385568899030827763,0.136994460203,0.122659239138,-0.113124347946,-0.0147194727471,0.00613648453465,-1.14208121047
1385568899040842729,0.137027949828,0.122663706998,-0.113148053993,-0.0149044732699,0.00626090874586,-1.14202566904
1385568899050827551,0.13706739882,0.122666889018,-0.113178081973,-0.0147569518384,0.00635620570166,-1.14191038791
1385568899060840723,0.136998484367,0.122653355388,-0.113121740321,-0.0146878702653,0.00609149573471,-1.14205110653
1385568899070858865,0.137062862664,0.122667839907,-0.113166865898,-0.0147990488132,0.00633433487694,-1.14192084673
1385568899080839147,0.13705585397,0.122660210612,-0.113152943043,-0.0146127042548,0.00615474047045,-1.14192390575
1385568899090834042,0.137079345618,0.122668258354,-0.113177248886,-0.0147966898621,0.00635186888206,-1.14190471688
1385568899100854152,0.137054282456,0.122645260129,-0.113250398786,-0.0146685779425,0.00720131169764,-1.14196669467
1385568899110857868,0.137023552839,0.12266924514,-0.113143139809,-0.014927037654,0.006292785889,-1.14206315587
1385568899120838055,0.1370673297,0.12267213885,-0.113166582281,-0.014770069117,0.00630521636267,-1.14191619227
1385568899131122082,0.137030430845,0.122669285674,-0.113141844992,-0.014931234063,0.00627710679338,-1.14204019693
1385568899140868498,0.137018582434,0.122663859831,-0.113121207929,-0.0146894790051,0.00619039539073,-1.14201384536
1385568899150872267,0.137026223492,0.122674681707,-0.113137492586,-0.0148649886861,0.00622239986316,-1.14202607274
1385568899160843503,0.137024157511,0.122642706826,-0.113237038451,-0.0145013110701,0.00715799258864,-1.14200816788
1385568899170838368,0.137030887324,0.122673200405,-0.113142889236,-0.0148713901781,0.0061920958314,-1.14203452097
1385568899180841090,0.137070592554,0.122673677077,-0.113171421137,-0.0147978432809,0.00635157683028,-1.1418901764
1385568899190849161,0.137061989714,0.12267160793,-0.113158648998,-0.0148037124534,0.00632582066086,-1.14189039806
1385568899200837644,0.137002270373,0.122661973509,-0.113120913741,-0.0147659672158,0.00607014646949,-1.14203223082
1385568899210843545,0.137048507948,0.122656457645,-0.113149334138,-0.0146161149433,0.00621334696203,-1.14190764451
1385568899220842116,0.137020970046,0.122666153908,-0.113144991665,-0.0149169205281,0.00625322676549,-1.14201727424
1385568899230845993,0.137001456793,0.122658952484,-0.113121860477,-0.0147076112714,0.00613860366511,-1.1420613302
1385568899241280255,0.136997667972,0.122655609451,-0.113233247768,-0.0147650523024,0.00709378662049,-1.14210649305
1385568899250857227,0.137068891556,0.122663241278,-0.113170395471,-0.0147681168106,0.00635454914305,-1.1419123525
1385568899260838229,0.137046159925,0.122664532325,-0.113149595674,-0.0146000991335,0.00623115476736,-1.14195006681
1385568899270841970,0.136997113563,0.122661153602,-0.113122162851,-0.0146931847384,0.00613969602492,-1.14206671119
1385568899280837420,0.137001517405,0.122658837996,-0.113133314379,-0.0146852879571,0.00607629980536,-1.14204443366
1385568899290835593,0.137048258183,0.122659910945,-0.113148577594,-0.014540598354,0.00619993706418,-1.1419517286
1385568899300835320,0.137069925517,0.122659478389,-0.11317734239,-0.0147600443026,0.00638583611143,-1.14189197303
1385568899311133527,0.137031020678,0.122665331215,-0.113146091027,-0.0148648304139,0.00623804310127,-1.14201687261
1385568899320891716,0.137026774496,0.122663455777,-0.113154404867,-0.0148915996078,0.00623719972724,-1.14204879781
1385568899330859138,0.137009345064,0.122663675434,-0.1131253839,-0.0146784253746,0.00613040860487,-1.14207793599
1385568899340836087,0.137070741431,0.122662777063,-0.113166170854,-0.0147693864558,0.00638408254442,-1.14191577403
1385568899351296207,0.13703046234,0.122675551048,-0.113143665362,-0.0148541001453,0.0063223195033,-1.14205872935
1385568899360873687,0.137072674005,0.122665971351,-0.11317493493,-0.0147632017209,0.00639727935074,-1.14192876156
1385568899370855768,0.137061988732,0.122723646723,-0.113134020903,-0.0148509754401,0.00618963001676,-1.14180948119
1385568899380860054,0.13706691158,0.122669083358,-0.113176802179,-0.0147612052011,0.00641911449763,-1.14192966996
1385568899390857002,0.137078565504,0.122667237231,-0.113176611289,-0.014723357948,0.00638152483384,-1.1419401224
1385568899400849515,0.137024937645,0.12266793989,-0.113138197481,-0.0148989360132,0.00628757996428,-1.14206219664
1385568899411003221,0.137071843825,0.122669311916,-0.113167657373,-0.0147450855658,0.00639458364484,-1.14191665925
1385568899420843002,0.137070436044,0.122672247249,-0.113167912458,-0.0147535707356,0.00638550149089,-1.14193589582
1385568899430852379,0.137034340161,0.122668644181,-0.11314344947,-0.0148802192562,0.00628473262551,-1.14214977745
1385568899440836447,0.137064329555,0.122666493767,-0.113174990934,-0.0147427767457,0.00642255877729,-1.14201495544
1385568899450846084,0.137026214445,0.122679550506,-0.113168691786,-0.0148421775612,0.00633371630855,-1.14148860896
1385568899460863992,0.137036404156,0.122683292501,-0.113127366178,-0.0145718499964,0.00595808849926,-1.14178636638
1385568899470840664,0.137057699992,0.12262394656,-0.113086296523,-0.0151662241937,0.00622416000554,-1.14214109711
1385568899480960757,0.137031274573,0.122672220293,-0.113242106021,-0.0147004506745,0.00715605102422,-1.14129115419
1385568899490840326,0.137019047013,0.122638420211,-0.113178686723,-0.0147756085574,0.0063324954906,-1.14200344873
1385568899500867032,0.137089620523,0.122606025422,-0.113122750116,-0.0151291744217,0.00622695755115,-1.14203466263
1385568899510875726,0.137051389036,0.122599824997,-0.113171990287,-0.0151227919011,0.00707895824074,-1.1413235659
1385568899520859667,0.137052852594,0.122635293959,-0.113274746556,-0.0145503614061,0.00729752064568,-1.14132653577
1385568899530859659,0.137092541516,0.122594732904,-0.113121038235,-0.015230239896,0.00635570375357,-1.14219164058
1385568899540868096,0.137048433208,0.122608053131,-0.113085328033,-0.0150601039972,0.00619533414109,-1.14205226513
1385568899550856409,0.137041400997,0.122614963356,-0.113094310436,-0.0150167776387,0.00615121121168,-1.14154970715
1385568899560839033,0.137055182621,0.122561282133,-0.113232775857,-0.0146368937349,0.00674381338859,-1.14117555393
1385568899570839845,0.137036604353,0.122623874932,-0.113104872379,-0.0151276403877,0.00629454261161,-1.14224360349
1385568899580848647,0.137000988663,0.122639814837,-0.113125476269,-0.0152942383459,0.00625084731679,-1.14215473506
1385568899590853366,0.137025510562,0.122647635175,-0.11311230355,-0.0152145832827,0.00621868579228,-1.14159167767
1385568899600843569,0.13705204133,0.122655232491,-0.113112017466,-0.0152742053952,0.00642588730239,-1.14193927827
1385568899610842620,0.137056565848,0.122638943268,-0.113125466693,-0.0151693274129,0.0063592383058,-1.14191917919
1385568899620850223,0.137020778279,0.122655743698,-0.113173837356,-0.0147720109369,0.00631839690901,-1.14180316729
1385568899630842857,0.137044619651,0.122609650012,-0.113053583541,-0.0152189638082,0.00667699547648,-1.14152801784
1385568899640835562,0.137125084175,0.122690044884,-0.113201876965,-0.0154687396861,0.00680446343979,-1.14296069325
1385568899650833840,0.137085123302,0.122640715361,-0.113120348475,-0.0149785458923,0.00623611147718,-1.14183052616
1385568899660826682,0.137044584526,0.122638267929,-0.113114273956,-0.0152631951119,0.00628971685533,-1.14157563858
1385568899670835531,0.137055239114,0.1226550183,-0.113114107857,-0.0151529354623,0.00628433441599,-1.14197645342
1385568899680834060,0.137025005935,0.122636490999,-0.113083716709,-0.0149281522528,0.00619768351392,-1.14224877384
1385568899690820598,0.137059596891,0.122657179077,-0.113114679718,-0.015101045032,0.00626104789235,-1.14174772828
1385568899700838266,0.137168776548,0.122663968026,-0.11312172236,-0.0151960522746,0.00622692520588,-1.14089154896
1385568899710915210,0.137029862759,0.122724654765,-0.113065249987,-0.0151076700992,0.00598418218215,-1.14247474271
1385568899720840476,0.137049338915,0.122673765379,-0.113115717375,-0.0151659766433,0.00637895657233,-1.14226363174
1385568899730859219,0.137108416823,0.122632983337,-0.113140433079,-0.0150926848973,0.00636858865419,-1.14155021672
1385568899740911182,0.137074434291,0.122684190433,-0.113092447446,-0.0148896461257,0.00598766106571,-1.14137738462
1385568899750850708,0.137061621224,0.122678343714,-0.113080354477,-0.0148353549045,0.005996945294,-1.14186557391
1385568899760843297,0.137026872973,0.122609353861,-0.113085231883,-0.0149713097143,0.00594504258043,-1.14189110342
1385568899770851393,0.13699349994,0.12269030986,-0.113196394313,-0.0148195188823,0.00624550947336,-1.14200204357
1385568899780848594,0.136996909233,0.122636255836,-0.113089503821,-0.0151952192267,0.00668323223902,-1.14177478662
1385568899790840387,0.137058317724,0.122640792326,-0.113110756893,-0.0150838389247,0.00632236222121,-1.14199451146
1385568899800840012,0.137053024941,0.122653445545,-0.11311880599,-0.0150674717613,0.00633793865154,-1.14191068983
1385568899810847769,0.137062450437,0.122597168908,-0.113093980701,-0.0150502872821,0.00609157355807,-1.14162021597
1385568899820842860,0.137009991087,0.122654053184,-0.113110547072,-0.0150237833414,0.00609975218601,-1.14204662472
1385568899830833507,0.137014339921,0.122623185149,-0.113094127218,-0.0148990846473,0.00617198253311,-1.14194966657
1385568899840833181,0.137053188434,0.122643456446,-0.113116149591,-0.0150957239861,0.00625778632323,-1.14180139284
1385568899850832175,0.136992094875,0.122602898023,-0.113160785891,-0.0144970629103,0.00611301287347,-1.14181455774
1385568899860843100,0.136953817004,0.1226645839,-0.11319155919,-0.014281874506,0.00583069403447,-1.14220975304
1385568899870851927,0.136996668126,0.122640236362,-0.113078702705,-0.0150312012225,0.0066610529753,-1.14173155769
1385568899880840147,0.137105778355,0.122703659656,-0.113129591578,-0.0150837990562,0.00624605048563,-1.14148393009
1385568899890844335,0.137086845614,0.122620261232,-0.113095657709,-0.0151937007609,0.00627756410262,-1.14172805078
1385568899900843233,0.137048515308,0.122651721377,-0.113124328688,-0.0151161289287,0.00635366963272,-1.14191055417
1385568899910902694,0.136973708953,0.122627236233,-0.113051377732,-0.0149533958177,0.00658511736353,-1.14189206798
1385568899920816451,0.137068383396,0.122682265709,-0.113090287043,-0.0147484924894,0.00603020081262,-1.1415348629
1385568899930838144,0.136985557624,0.122665157784,-0.113163882269,-0.0144159397816,0.0062839093007,-1.14208202777
1385568899940858823,0.137055348217,0.122647821532,-0.113112646921,-0.0150738498004,0.00637779010918,-1.14201121675
1385568899950844373,0.137090069564,0.122634130663,-0.113092019907,-0.0150428484699,0.00649239972058,-1.14203884294
1385568899960844828,0.137019850504,0.122732654427,-0.113136455337,-0.0145542767647,0.00596491831013,-1.14182478379
1385568899970860058,0.137134726744,0.122645676685,-0.113158607048,-0.0148852810508,0.00613778308549,-1.14103203015
1385568899980845487,0.136971944941,0.122618908902,-0.11306457425,-0.0149856030107,0.00659438997244,-1.14191646215
1385568899990839509,0.137053034109,0.122582073248,-0.113157963116,-0.0151010860859,0.0063822782273,-1.14158042545
1385568900000876364,0.137093339166,0.122615288827,-0.113144205154,-0.0152640249727,0.00663543254932,-1.14198224039
1385568900010854439,0.13710114327,0.122640858605,-0.113176019316,-0.014950892884,0.00659299792804,-1.1414267914
1385568900020844340,0.137045469568,0.122642047266,-0.113142031003,-0.0151493745933,0.00636591742268,-1.14187886258
1385568900030858094,0.137083886356,0.122611506742,-0.113130964509,-0.0151297875517,0.00639786126119,-1.14193685768
1385568900040857920,0.137103260864,0.122712926348,-0.113153106321,-0.0146674175779,0.00612209333153,-1.14125339651
1385568900050896001,0.137032789071,0.122709221721,-0.113175633072,-0.0138964282215,0.00591536071212,-1.14149646874
1385568900060855794,0.137181692622,0.122654599076,-0.113199808339,-0.0148513862248,0.00624052608714,-1.14242898467
1385568900070880367,0.137049467842,0.122645707816,-0.113155710737,-0.01485552898,0.00616372231034,-1.14186273501
1385568900080890150,0.137013956359,0.122674351526,-0.113290972201,-0.0150008756284,0.00725538458262,-1.14134845163
1385568900090864453,0.13709455263,0.122615664867,-0.113067460617,-0.015529041944,0.00671321526158,-1.1418430529
1385568900100842213,0.137055873768,0.122713280584,-0.113095199744,-0.0145231561619,0.00584342114111,-1.14148386944
1385568900110937297,0.137139615399,0.122649323844,-0.113252410234,-0.0142990630677,0.00729411441207,-1.14130533375
1385568900120989140,0.137010524387,0.122644015347,-0.11333792887,-0.0141950786498,0.00782043789278,-1.14257184625
1385568900130839385,0.137082335884,0.122643178603,-0.113127360778,-0.0143819380013,0.0057838165747,-1.14153348105
1385568900140836474,0.137067486471,0.122642685236,-0.113225108874,-0.0147098187998,0.00705753168587,-1.14161564262
1385568900150860558,0.137005352758,0.122621592353,-0.113129256197,-0.014743993059,0.00612611140215,-1.1418395032
1385568900161208590,0.136884844722,0.122660978909,-0.113282571847,-0.0141776582141,0.00679057892364,-1.14125980098
1385568900171024361,0.137036681734,0.12263355511,-0.113258735378,-0.0147163505604,0.00712004366079,-1.14181605191
1385568900180948531,0.137039736375,0.122727512552,-0.113188745387,-0.0144792533597,0.00621075371894,-1.14153910255
1385568900191065520,0.137097338556,0.122714913685,-0.113175354663,-0.0144873221728,0.00600505095786,-1.1410861685
1385568900200899226,0.137051960223,0.122642136112,-0.113118307114,-0.0145152643078,0.00597359470673,-1.14139311521
1385568900210892756,0.13699726435,0.122711592146,-0.113190104148,-0.014727066553,0.0061966197163,-1.14155190864
1385568900220897879,0.137096687923,0.122677743001,-0.113301910524,-0.0147255180386,0.00727605077566,-1.14100479777
1385568900230873537,0.136863335365,0.122644458217,-0.11318906211,-0.0142310538534,0.00622282741202,-1.14206478102
1385568900241102349,0.137014225148,0.122710264213,-0.113175569826,-0.0144158997168,0.00598755764268,-1.14147184532
1385568900250951268,0.137051440327,0.122702194863,-0.113190875695,-0.0143093690356,0.0060231180178,-1.14116486674
1385568900260864029,0.136990460938,0.122655148525,-0.113247948355,-0.0142009041582,0.00569885312398,-1.14197632419
1385568900271170817,0.137117008283,0.122717960451,-0.113212025103,-0.0152174364275,0.00636378075864,-1.14176820476
1385568900280891002,0.137051347086,0.122698888986,-0.113158553188,-0.0145473487561,0.00639248528611,-1.14126286352
1385568900290836950,0.137053731385,0.122746423977,-0.113151664616,-0.0144446916866,0.0062579754117,-1.14140987558
1385568900300936155,0.136927683359,0.122736750669,-0.11319755822,-0.0142532717844,0.00618970168174,-1.14138869356
1385568900310979517,0.137045885322,0.122618645147,-0.113198043493,-0.0147783408397,0.00624868001326,-1.14156812597
1385568900320871756,0.137094641213,0.122779469835,-0.113214066361,-0.0144342158191,0.00627593956903,-1.14135119053
1385568900331133141,0.137035140279,0.122712898613,-0.113227905393,-0.0145167223918,0.00613154291746,-1.14131514237
1385568900340848660,0.136983937969,0.122763988023,-0.113218104291,-0.0140276008404,0.00587757751611,-1.14172676065
1385568900350862027,0.136987940629,0.12274317404,-0.113202367619,-0.0147440510586,0.00609275438937,-1.14145557239
1385568900361137311,0.136990843456,0.122706706338,-0.113214983323,-0.0147635772275,0.00633440424643,-1.14143911652
1385568900370870424,0.13691150393,0.122671903205,-0.113154275186,-0.0145545089431,0.00641051006987,-1.14197646499
1385568900380840174,0.137027602978,0.122714882195,-0.113221002718,-0.0147883151471,0.00604101738235,-1.14119411307
1385568900390923594,0.136993876294,0.122698898274,-0.113192019679,-0.0147026816401,0.00641440132769,-1.14147159533
1385568900400881411,0.137017554789,0.122727788602,-0.113209743971,-0.0143503136176,0.00589201441325,-1.14137529803
1385568900410988078,0.136917706671,0.122785006647,-0.113279200575,-0.0138258089726,0.00566345209677,-1.14145823612
1385568900420870401,0.137025520632,0.122657764599,-0.113205184297,-0.0145613359302,0.00622526108396,-1.14135468815
1385568900430868966,0.137042990802,0.122799221189,-0.113184148801,-0.0143092939665,0.00626165036244,-1.14133774063
1385568900440931019,0.136911230764,0.122747560589,-0.113125518506,-0.014392025451,0.00643766486412,-1.14139579497
1385568900450885540,0.136949635279,0.12273082664,-0.11327505989,-0.0146138740354,0.00633187918671,-1.14205989464
1385568900461089384,0.136977800823,0.12276077275,-0.113238168655,-0.0147490121383,0.00615108602593,-1.14152884632
1385568900470848620,0.137042244085,0.122814967519,-0.113220420419,-0.0143593048208,0.00617838314459,-1.14111859071
1385568900480873903,0.137097798291,0.122722125788,-0.113212288924,-0.0140012973577,0.00634894543148,-1.14186228438
1385568900490867775,0.137039499304,0.122752383494,-0.113235146483,-0.0143259806801,0.00625533041148,-1.14124518924
1385568900500878391,0.136968681112,0.122732532289,-0.113255963442,-0.014866453026,0.00595669331443,-1.14145403208
1385568900510983923,0.136929074653,0.122771937248,-0.1131083235,-0.0150027043913,0.00640621163379,-1.14146808804
1385568900520865161,0.137099951928,0.122822671856,-0.113251493651,-0.0152094492244,0.00654992745965,-1.1420644844
1385568900530943708,0.13701369033,0.1227610409,-0.113248503947,-0.0141465819967,0.00622005241424,-1.14137495335
1385568900541163770,0.137072874309,0.122833902269,-0.113213333884,-0.0140249612752,0.00616776491421,-1.1413507192
1385568900550943225,0.137000804089,0.12279605861,-0.113215374167,-0.0140610439521,0.00595563498744,-1.14135309757
1385568900561150250,0.136992248359,0.122812871554,-0.113276267334,-0.0141570252342,0.00613533210351,-1.14165498634
1385568900570883518,0.136972222949,0.122774300129,-0.113187254892,-0.014525185917,0.00580981925985,-1.14155821331
1385568900580857813,0.136948353738,0.122797128185,-0.11311611748,-0.0146306940861,0.00658765279323,-1.14127447273
1385568900590845284,0.137031384923,0.122787100443,-0.113166464555,-0.0142947806334,0.00597283617129,-1.14136874736
1385568900601269284,0.137090224804,0.122888394495,-0.113327352999,-0.0144478553806,0.00675040249937,-1.14110750481
1385568900611000387,0.137095776618,0.122862567513,-0.113313888748,-0.0141877806256,0.00673729104196,-1.14128864941
1385568900620889032,0.136965437038,0.122838934489,-0.113091872013,-0.0142149376665,0.00643160295934,-1.14122015368
1385568900630888726,0.137124770189,0.122878302537,-0.113220917336,-0.0152944119335,0.00656524699117,-1.14129100272
1385568900640926271,0.137047067832,0.122765857358,-0.113170187632,-0.0155039888952,0.00609739460599,-1.14112299916
1385568900650914455,0.136986202546,0.122769889057,-0.113258213453,-0.0149857272955,0.00574435458087,-1.14180021742
1385568900660995658,0.137015000076,0.122839040214,-0.113262107998,-0.0145851701629,0.0056383302131,-1.14255769993
1385568900670897382,0.137101140693,0.122834332955,-0.113238367925,-0.0142815338628,0.00638545052099,-1.14287720549
1385568900680877507,0.137160005831,0.12293794609,-0.113190089956,-0.0138133067804,0.0063318544361,-1.14258795053
1385568900690932099,0.137144591862,0.122940951285,-0.113219251155,-0.013987161623,0.00576612666644,-1.1431746496
1385568900700875324,0.137217700687,0.122878355225,-0.113325316907,-0.0142971538707,0.00687225833056,-1.14377820641
1385568900710991296,0.137047664946,0.122952445506,-0.113418776572,-0.0143624036689,0.00824786626896,-1.14344717179
1385568900720864924,0.137163121694,0.122890518327,-0.113341718048,-0.0145900422446,0.00759716055116,-1.14458315781
1385568900730916766,0.137145264809,0.122967185914,-0.113210667136,-0.0137862251538,0.00609151737256,-1.14409762794
1385568900740854495,0.137144608766,0.122977074065,-0.113214261011,-0.0139061849763,0.0067291675396,-1.14515543737
1385568900750861030,0.137106943998,0.123013217224,-0.11328190231,-0.0139367073566,0.00674113229639,-1.14449543975
1385568900761004558,0.137052738372,0.122992190357,-0.113232944649,-0.0141251397143,0.00704392731487,-1.14533277976
1385568900770920336,0.137100293439,0.123077149333,-0.113347565106,-0.0137803865166,0.00623690704256,-1.14612868737
1385568900780886864,0.137161862356,0.123009378451,-0.113272683204,-0.0140172332698,0.00649186739231,-1.14509749067
1385568900790886547,0.136970036654,0.123057205765,-0.113366989526,-0.0139273410089,0.00737000441073,-1.14611087549
1385568900800921920,0.136972681665,0.123050834273,-0.113248450167,-0.0141135760545,0.00644774309381,-1.14568214999
1385568900811039595,0.136987023104,0.123004948335,-0.113229481595,-0.0143957915542,0.00661830222393,-1.14632888071
1385568900820866988,0.137046352269,0.123073283099,-0.113265598289,-0.0144685443967,0.00619864599821,-1.1460409007
1385568900831176389,0.136877528448,0.123028336832,-0.113162630843,-0.0142739792687,0.00778491645415,-1.14571411585
1385568900840870873,0.137055209108,0.123134371019,-0.113267986727,-0.0141091872185,0.00679632221813,-1.14632744174
1385568900851080808,0.136954006304,0.123102990138,-0.113229034119,-0.0137573891666,0.00707566794298,-1.14653323711
1385568900860855744,0.136973184632,0.123036425153,-0.113405671713,-0.0135079470908,0.00720138414503,-1.14581029493
1385568900870845296,0.136876975148,0.123034562078,-0.113208172587,-0.014257178796,0.00686386503621,-1.14653869483
1385568900881054674,0.137025348432,0.123076906031,-0.113314031222,-0.0143831966511,0.00616484471263,-1.14652669024
1385568900890846716,0.136954174417,0.12308264038,-0.113217800951,-0.0142517949984,0.00671613601667,-1.14586854293
1385568900900856198,0.136946447979,0.123050517089,-0.113180113599,-0.0139633551445,0.00678304334351,-1.14703100012
1385568900911320165,0.137081266466,0.123112898141,-0.113278378562,-0.0137500238309,0.00634286250117,-1.14604780906
1385568900920850635,0.137155595977,0.123121381157,-0.113366168114,-0.0136415652417,0.00612762491743,-1.14703917423
1385568900930869387,0.136913489402,0.123112000529,-0.113370390886,-0.0137467022858,0.0066508842904,-1.14690095664
1385568900940997701,0.136980916068,0.123116299385,-0.1132137756,-0.0144993573062,0.00594661294126,-1.14680124478
1385568900951013303,0.13687483993,0.12306271182,-0.113251259927,-0.0143592994894,0.00655390460806,-1.14688011311
1385568900960881537,0.136968467037,0.123112441674,-0.113267685305,-0.0145217208884,0.00607738656608,-1.14654930596
1385568900971064626,0.136966855209,0.123156694483,-0.11328560086,-0.0142575570799,0.00640121909984,-1.14644993967
1385568900980890272,0.136866628775,0.123080438469,-0.113258192875,-0.0129243129388,0.00623034976369,-1.14617947387
1385568900990978628,0.136934442887,0.123171535039,-0.113357631607,-0.0129923138747,0.00596803639626,-1.14654586456
1385568901000864273,0.13703041808,0.123106380253,-0.113303154065,-0.0133790866365,0.00622352730631,-1.14632957196
1385568901011021750,0.13694239714,0.123182674428,-0.113239536489,-0.0135366488144,0.00643097617668,-1.14664414725
1385568901020900329,0.136897914009,0.123194053502,-0.11315770893,-0.0137581217772,0.00632137510074,-1.14582970753
1385568901030865937,0.13693018587,0.123129766249,-0.113264724649,-0.0142104079312,0.00709400610817,-1.14626269966
1385568901041099428,0.136948527146,0.123154172628,-0.113301066564,-0.0139238478291,0.00648905250719,-1.14633935094
1385568901050859394,0.136972029515,0.123171964267,-0.113308768338,-0.0133889282614,0.00643254247822,-1.14675818509
1385568901060865939,0.136859801188,0.123180559233,-0.113233878281,-0.0129535900833,0.00584377147904,-1.1468594471
1385568901071003480,0.136819659748,0.123211211642,-0.113375020436,-0.0132133367023,0.00658274472082,-1.14731760815
1385568901080884564,0.136809110078,0.123221026087,-0.113366262959,-0.0139539095886,0.00656700619064,-1.14738767779
1385568901091034353,0.136616539119,0.12317437089,-0.113258037184,-0.0142021362488,0.00680039367186,-1.14766388679
1385568901101015779,0.136635196293,0.12315786709,-0.113245051332,-0.0140713426964,0.00685383969217,-1.14743048995
1385568901111129857,0.136564217976,0.123175397476,-0.11328690923,-0.0127420731899,0.00563784933272,-1.14754288698
1385568901120902951,0.136697852846,0.123200560968,-0.113371395666,-0.0134577587627,0.00607338567343,-1.1482246354
1385568901130867179,0.136617697889,0.123146233724,-0.113388073539,-0.0138798321852,0.00656962131115,-1.14806453709
1385568901141053055,0.136435212976,0.123210798427,-0.113277767396,-0.0144889191801,0.00679874470527,-1.14885095204
1385568901151069788,0.13638065405,0.123128186566,-0.113321742306,-0.0138292228006,0.00632758736799,-1.14896757598
1385568901160915333,0.13631085567,0.123219368751,-0.113361252184,-0.0132310832938,0.00603829442029,-1.14884054473
1385568901171006296,0.136285648703,0.123195575495,-0.113540440968,-0.0128333561308,0.0064347981795,-1.14992629135
1385568901181068875,0.136272889102,0.123357483724,-0.113507334528,-0.0124268057958,0.0061062198956,-1.14938910188
1385568901190872965,0.136098196773,0.123275316527,-0.113346014923,-0.0125405151525,0.00599943047073,-1.15036867698
1385568901200841529,0.136044997038,0.123367668418,-0.113338539885,-0.0129902488617,0.00654496388805,-1.15012944227
1385568901211221469,0.136106700441,0.123362573191,-0.113457984649,-0.0131230357905,0.00592347535192,-1.1506478337
1385568901220894526,0.136019855206,0.123485740461,-0.113468063891,-0.0129696424638,0.00494085198695,-1.15089924942
1385568901230869809,0.135937667615,0.123425225275,-0.113332248043,-0.01322974459,0.00724046719384,-1.15068997836
1385568901241021305,0.135957786283,0.12346892177,-0.113289461254,-0.0131846362264,0.00746432819407,-1.15206857648
1385568901250860789,0.135874561522,0.123434410445,-0.113429831149,-0.0129493451041,0.00672080755335,-1.15151236004
1385568901261145476,0.135787877482,0.123443616647,-0.113529340218,-0.0121361873077,0.00648652196905,-1.15288497092
1385568901271223022,0.135632046475,0.123516714527,-0.113480422894,-0.0115134775385,0.00748303390916,-1.1523318043
1385568901280868115,0.135630585695,0.123519683803,-0.113445375372,-0.0115897176542,0.00703384619933,-1.15302345776
1385568901290846371,0.135561618671,0.123650963838,-0.113393197891,-0.0116062126647,0.00539311463221,-1.15343870089
1385568901300848413,0.1354924641,0.123817151263,-0.113381127286,-0.0122048022684,0.00571184424065,-1.15307868143
1385568901310876348,0.135414595644,0.123819489595,-0.113453560619,-0.0127924659002,0.00591429041339,-1.15428593142
1385568901320850086,0.135351216639,0.123872926296,-0.113480937517,-0.0121128934027,0.00600488585974,-1.15410547581
1385568901330836001,0.13522895065,0.123920144507,-0.1133908936,-0.0117823072444,0.00640249626041,-1.15493144945
1385568901340833140,0.135214021765,0.124058215878,-0.113453340694,-0.0111849070967,0.00664824798379,-1.15558841828
1385568901350832724,0.135100491046,0.124088663366,-0.11345799265,-0.0111638668551,0.0059492405784,-1.15595356172
1385568901360849488,0.134904428119,0.124249817734,-0.113442400927,-0.0109291919719,0.00612689901136,-1.15724414771
1385568901370849867,0.134794331077,0.124269596866,-0.113344377796,-0.0116694870287,0.00691342500921,-1.156934985
1385568901380850901,0.134661979696,0.124289792705,-0.113462601932,-0.0117046050765,0.00555250301573,-1.15759153716
1385568901390853232,0.134428099098,0.124424307613,-0.113513345326,-0.0119205737557,0.00743919316308,-1.1577443395
1385568901400837655,0.134435999971,0.124319267419,-0.113486791123,-0.0112254442609,0.00758447062275,-1.15929948716
1385568901410885455,0.134283340956,0.124512877252,-0.113365521297,-0.0102913791896,0.00635766502798,-1.16035952266
1385568901420952649,0.13417010823,0.124336653341,-0.113481773003,-0.0102713664111,0.00482492860594,-1.1618566415
1385568901430842097,0.133958239467,0.124529907895,-0.113532799112,-0.0108863650486,0.00617189573231,-1.16299542247
1385568901440840005,0.133720700719,0.124439685604,-0.113472151268,-0.0110228136747,0.00756269785031,-1.16424777724
1385568901450866514,0.133648840848,0.124538413913,-0.113379412113,-0.0114227088271,0.00697544775852,-1.16473441724
1385568901460850941,0.133501785355,0.124428570593,-0.113310654945,-0.0111931861245,0.00518938612618,-1.16493992307
1385568901470844642,0.133411180446,0.124630926972,-0.113542875209,-0.0109212481361,0.00522128657826,-1.16540620234
1385568901480862583,0.133045230278,0.124630554371,-0.113592072686,-0.0112760669032,0.00619478790729,-1.16659715858
1385568901490848814,0.132780187797,0.124715062867,-0.113497133292,-0.0105096391872,0.0065748134893,-1.16890236934
1385568901500846077,0.132694417687,0.124658217375,-0.113426769823,-0.0104922436019,0.00480266522522,-1.16896793617
1385568901510846514,0.132516001309,0.124749078998,-0.113552730045,-0.0102675556672,0.00500573091846,-1.17127278876
1385568901520841961,0.132339414519,0.124915705738,-0.113611430093,-0.0105791265864,0.00665194983555,-1.17134054005
1385568901530842717,0.132129781817,0.124918766577,-0.113710732189,-0.0122404652601,0.00876735405533,-1.17327021662
1385568901540834735,0.131843826242,0.125036402547,-0.11363680897,-0.0124896347876,0.00686266447725,-1.1743605862
1385568901550848731,0.131633895183,0.125062417079,-0.113669101527,-0.00932258784865,0.00458066695278,-1.17600147864
1385568901560841065,0.131218152202,0.125152224071,-0.113613883604,-0.00724520755732,0.00381178621573,-1.1776714158
1385568901570838287,0.130794755753,0.125116959591,-0.113827192744,-0.00829365416519,0.00237046692877,-1.17908812139
1385568901580837092,0.130709827912,0.125364714448,-0.113862020528,-0.00912343233817,0.00381959848445,-1.1811833705
1385568901590838957,0.130284091897,0.125554495196,-0.113548985271,-0.00924100870847,0.00414396800433,-1.18233332485
1385568901600851883,0.130083977935,0.125757632928,-0.113698807371,-0.00677591160392,0.00470791677818,-1.18450814053
1385568901610840184,0.129876349506,0.126032560223,-0.113774488158,-0.00622969665721,0.00444966699831,-1.1856540824
1385568901620840603,0.129436469892,0.126235185839,-0.113773559382,-0.00612940010945,0.0045729424164,-1.1880151709
1385568901630839263,0.129055895067,0.12648701838,-0.113642023905,-0.00683373471641,0.0044088562116,-1.18923604426
1385568901640862375,0.128565955864,0.126721177339,-0.113562129178,-0.00856894505853,0.00493649264851,-1.19208038095
1385568901650909299,0.128220318162,0.127053396717,-0.11377666701,-0.00954436868483,0.00549607804608,-1.1936595717
1385568901661022157,0.127896465022,0.127397807293,-0.113842438884,-0.00892019994604,0.00341958019464,-1.19597738094
1385568901673069156,0.127427115835,0.127761093519,-0.11364749886,-0.00830191708559,0.00185492009749,-1.1978798516
1385568901680893487,0.127110287678,0.128104716712,-0.113912240631,-0.00768641704679,0.0016936109735,-1.19990155058
1385568901690888368,0.1266169126,0.128518545577,-0.114106291338,-0.00895496479064,0.00125443772083,-1.20256311518
1385568901700892198,0.12626974258,0.129012258563,-0.114303308572,-0.00976312334696,0.00190555873519,-1.20456755554
1385568901711147344,0.125780173179,0.129474341468,-0.114336723665,-0.00990273006763,-5.4055557544e-05,-1.20775590735
1385568901720985622,0.125638503606,0.129999851964,-0.114571666337,-0.00798987186969,-0.00151971061471,-1.20933315077
1385568901730969453,0.125245151186,0.130448118385,-0.114698836907,-0.0062848398069,-0.00279655804951,-1.21207001276
1385568901741075949,0.124897194964,0.131003032986,-0.114961049623,-0.00621898729038,-0.00583532781838,-1.21367263395
1385568901750946911,0.124519846366,0.1314735325,-0.115376154147,-0.00724779054741,-0.00676193520457,-1.21549770677
1385568901761088890,0.124136368039,0.132007528231,-0.115828182409,-0.00745456531044,-0.00941315493279,-1.2179454717
1385568901771070140,0.123863575342,0.132622863875,-0.116125873592,-0.00651790109749,-0.012091012442,-1.21952589589
1385568901780908968,0.123694295067,0.133194016791,-0.116788196735,-0.00428421210357,-0.0148265297478,-1.22141322211
1385568901790875915,0.123630802427,0.133873891604,-0.117537760357,-0.00264978521992,-0.0173453220938,-1.22350942935
1385568901800902865,0.123384384661,0.134460662902,-0.118432806642,-0.000147760030051,-0.0215654087994,-1.22529255211
1385568901811089921,0.123253901841,0.135103731497,-0.11904736148,0.00054565285733,-0.025049135747,-1.22734398379
1385568901820891191,0.123039493615,0.135731711319,-0.119896623692,0.00259088468814,-0.0283004909373,-1.22942824496
1385568901830875341,0.122830104249,0.136372081744,-0.120951386566,0.0039529205017,-0.0318603896035,-1.23133719598
1385568901841299602,0.122729766817,0.137065720285,-0.122295257765,0.00487632506625,-0.0349128590212,-1.23381931649
1385568901850891704,0.122506391469,0.137636519074,-0.123277571819,0.0051224698135,-0.0380194803746,-1.23664911832
1385568901861142059,0.122293973943,0.138305414185,-0.124489180243,0.00502182434239,-0.0416195712435,-1.23855996192
1385568901870962463,0.122030395227,0.138974673857,-0.125852896483,0.00517837704384,-0.0451007186292,-1.24076734462
1385568901880945321,0.121925184167,0.139553981525,-0.127289257773,0.00461163623459,-0.0484724654287,-1.24336277889
1385568901890856779,0.121657357336,0.140247612493,-0.12883255593,0.0060393002555,-0.0506503276406,-1.24616250505
1385568901900967119,0.121437102034,0.140817824945,-0.130478005527,0.00574981538813,-0.0529340223625,-1.24923897381
1385568901911169604,0.121120435495,0.14137160264,-0.132172123743,0.00621556665589,-0.0564919965554,-1.25181401254
1385568901921246988,0.120800127644,0.141901696498,-0.133821373139,0.00712060733549,-0.0595569833626,-1.25536593781
1385568901930983234,0.120526657215,0.142541398012,-0.135733384509,0.00811068388212,-0.0612312051851,-1.25714841593
1385568901940867785,0.12023822256,0.142921192307,-0.137742053945,0.00812704756117,-0.0630376886861,-1.25937756634
1385568901950878145,0.120162554809,0.143450724781,-0.139929952505,0.00858453784114,-0.0649318631376,-1.2624763302
1385568901961163171,0.119735784401,0.14375817856,-0.142127543694,0.00950219444497,-0.0672971531919,-1.26436145959
1385568901970870075,0.119654637938,0.144047194484,-0.144361282362,0.0100256693329,-0.0685759976392,-1.2673828568
1385568901980914189,0.119690110028,0.144347655072,-0.146957681505,0.0109551660045,-0.0694081924406,-1.26943668646
1385568901990838762,0.119458474194,0.144532934528,-0.149534164738,0.0117331830054,-0.0699938685289,-1.27169818379
1385568902001110175,0.119598828682,0.144725301134,-0.152105912084,0.0127784928623,-0.0706674412539,-1.2731806572
1385568902010874415,0.119553928798,0.144886735782,-0.155109546818,0.0145112636427,-0.0684988825661,-1.27415823158
1385568902020847459,0.119683386304,0.14487307385,-0.158047650776,0.0145069639754,-0.0682537819188,-1.27576222661
1385568902030840774,0.120074188426,0.144963981476,-0.161235412362,0.0159186868157,-0.0670921258649,-1.27709459101
1385568902040870934,0.120221346155,0.144917846001,-0.164426372317,0.0176853419488,-0.0642228424264,-1.27858552517
1385568902050838850,0.12050772795,0.14483906534,-0.167553951115,0.0168967402572,-0.0619340433012,-1.28017266275
1385568902060873654,0.120600367638,0.144697206032,-0.170979332965,0.0177018995021,-0.0600831269202,-1.28127722712
1385568902070871823,0.12098986532,0.14445926269,-0.17440053638,0.0178076995743,-0.0585243292678,-1.28314958051
1385568902080844938,0.12141981908,0.14416944505,-0.177967017223,0.0164032219501,-0.0559512484832,-1.28468341216
1385568902090859129,0.121657580532,0.143734100539,-0.181518294528,0.0161086075969,-0.0542421446911,-1.28569671993
1385568902100888350,0.122229539094,0.143378216366,-0.185484435706,0.0144016901121,-0.0534317269477,-1.28699894186
1385568902111017660,0.122663101977,0.142908618962,-0.18935980596,0.0157229498857,-0.0530437432817,-1.28753938935
1385568902120858478,0.123093924712,0.142395313915,-0.19330635541,0.0160713239375,-0.0514158580494,-1.28967705615
1385568902131140764,0.123795028685,0.141821125489,-0.197119011171,0.0153017290566,-0.0501360253422,-1.2907989229
1385568902140882801,0.124276573652,0.141211110142,-0.201217920798,0.0154448481056,-0.0492859516181,-1.2917630131
1385568902150879284,0.124901277585,0.140516009017,-0.205141821354,0.0151078337366,-0.0484717749203,-1.29308479218
1385568902161080702,0.125717527445,0.139878361301,-0.209222222828,0.0161287718684,-0.0464723869695,-1.29366827895
1385568902170865410,0.126231129664,0.13908367306,-0.213319289955,0.0167809101235,-0.0460111984336,-1.2948375538
1385568902181215055,0.127063011158,0.138383359073,-0.217455142767,0.0173448682295,-0.0451080252464,-1.29583415134
1385568902191096146,0.127753423362,0.137486607871,-0.221614648893,0.0178955393059,-0.0435838146781,-1.29737765437
1385568902201032100,0.128375322575,0.136720235415,-0.22560863884,0.0186774873998,-0.0420202966757,-1.29849014788
1385568902211066770,0.129433472092,0.135886923023,-0.229954771727,0.0188711564819,-0.0402315889316,-1.30020969152
1385568902220882378,0.13011398377,0.135082163936,-0.234343578345,0.0199625113159,-0.0388533270884,-1.30093994388
1385568902230873412,0.131066615744,0.134049721662,-0.23861475058,0.0212527244066,-0.0373182223781,-1.30213137552
1385568902240921701,0.131958973133,0.133236198532,-0.2428797154,0.0218439652313,-0.0349932218422,-1.3038601752
1385568902250869873,0.132730082781,0.132160059487,-0.247258627173,0.0210931522428,-0.0333796120609,-1.30491124984
1385568902260838620,0.133750547625,0.131333640351,-0.251517347239,0.0198165847745,-0.0306489549754,-1.30604771415
1385568902270881705,0.134659527375,0.130352358763,-0.255930843731,0.0203167699486,-0.0290006327542,-1.30729553954
1385568902281029963,0.135707856637,0.129355314001,-0.260332541408,0.0214801376875,-0.0281527620175,-1.30827504666
1385568902290904073,0.136663343228,0.128326362258,-0.264779369898,0.0227362945373,-0.0259190264305,-1.31039409679
1385568902300841429,0.137807306929,0.127275078219,-0.269361915107,0.0232719420543,-0.0239925782712,-1.31217512565
1385568902311061726,0.138638453952,0.126254998177,-0.273685392346,0.0236243293429,-0.0231832205494,-1.31382478954
1385568902320904217,0.139770775406,0.125180987729,-0.278248123534,0.0211006981924,-0.0213687433223,-1.31525104662
1385568902330881755,0.14095913979,0.124230469371,-0.282761292515,0.0209371255109,-0.0183831170401,-1.31648039796
1385568902341053296,0.142079066472,0.123074544351,-0.287441979718,0.020901998797,-0.0160781786694,-1.31757261432
1385568902350880982,0.142993140477,0.122151984555,-0.291956126778,0.0215633113073,-0.0149850891519,-1.31861334407
1385568902361056043,0.144411468911,0.121156982301,-0.296748676068,0.0213374885112,-0.0139772894924,-1.31983032712
1385568902371021464,0.14550908947,0.12007781642,-0.30138206961,0.0206198846453,-0.0115074415551,-1.32136750028
1385568902381006346,0.146766582628,0.119042560246,-0.306132540286,0.0192340420253,-0.009920599094,-1.32296449272
1385568902391040834,0.147949578386,0.117992486264,-0.310856585901,0.0190866573618,-0.00821976442,-1.32448420362
1385568902401171710,0.149104718641,0.117047282792,-0.315520322862,0.0190818554381,-0.00734864324948,-1.3258137488
1385568902411174205,0.150481405326,0.116084366427,-0.320417932005,0.019760416593,-0.0063127273048,-1.32666378907
1385568902420903658,0.1516570454,0.115094411636,-0.325200862934,0.0197256140735,-0.0049131145119,-1.32806333232
1385568902431039619,0.152934996189,0.114082246001,-0.329965290324,0.0192874683463,-0.00419004802471,-1.32954917165
1385568902440989545,0.154274080093,0.113205113384,-0.334755498659,0.0185648388939,-0.00264744053288,-1.3306846328
1385568902450934591,0.155553309365,0.11223168664,-0.339630796094,0.0177332318216,-0.00161642165064,-1.3323140341
1385568902461052179,0.156811145384,0.111299234024,-0.344505094671,0.0169344924185,5.91747401627e-05,-1.33409425618
1385568902471062372,0.158351656738,0.110333950663,-0.349621701066,0.0165138324088,0.00193725108515,-1.33550518412
1385568902480889251,0.15970887644,0.109481261773,-0.354492991822,0.0161678907994,0.000673818610046,-1.33737007462
1385568902490956312,0.1612632324,0.108575851559,-0.359377578502,0.0157323149722,0.000897702885131,-1.33872650184
1385568902500959165,0.162684067868,0.107638738686,-0.364366180343,0.0151449457588,0.00111354137804,-1.33994119707
1385568902510859351,0.163917496031,0.106741575816,-0.369545645397,0.0146364861548,0.00117798813279,-1.34150402951
1385568902521065672,0.165566957015,0.105900952947,-0.374516463803,0.0149951728932,0.00113337612137,-1.34253150436
1385568902530863480,0.16717746207,0.105040107099,-0.37974356451,0.0157210601466,0.000979986542937,-1.34408600884
1385568902540851374,0.168570008706,0.104054482644,-0.384779828132,0.0163330634608,-0.00034527742197,-1.34549355343
1385568902550983784,0.17016000493,0.10320745613,-0.390229669427,0.0165948575915,-0.00186669350859,-1.34715763046
1385568902560912104,0.171824683631,0.102358808739,-0.395670909939,0.0159413855665,-0.00213991958895,-1.34854827054
1385568902571073756,0.173323408136,0.101457917867,-0.401310214917,0.0165166190172,-0.00313743636633,-1.35059342012
1385568902581153660,0.174965819349,0.100657287462,-0.406809167214,0.0170144758591,-0.00387555909964,-1.35176661902
1385568902590889580,0.176544935298,0.0998775290454,-0.412323591616,0.0178270032093,-0.00343069133453,-1.35298986539
1385568902600931937,0.178100305331,0.0990551993618,-0.417454365363,0.0192284732214,-0.00407815775677,-1.35465160304
1385568902611112152,0.17983540644,0.0982990529289,-0.422445886003,0.0191431229623,-0.00446661601998,-1.35554410402
1385568902621123059,0.181510376322,0.097522150865,-0.427425219653,0.0178103913507,-0.00399722811937,-1.35718131565
1385568902630874596,0.183141671477,0.0967099763288,-0.432253672437,0.0177673770765,-0.00462572604998,-1.35824667407
1385568902640952718,0.18487824297,0.0960348574496,-0.436796758894,0.0186633309385,-0.00429276890618,-1.3596831257
1385568902650925938,0.186649982582,0.0952684830739,-0.441430240447,0.0193704477201,-0.00420807787129,-1.36049253974
1385568902661064518,0.188347869453,0.0945357767739,-0.445825998493,0.0184436586671,-0.00356440289092,-1.36196096115
1385568902670877418,0.190008556908,0.0937384009753,-0.450123769268,0.0184161566154,-0.00392427465291,-1.3632567445
1385568902680926374,0.191685247345,0.0928939052167,-0.454089049672,0.0184399943113,-0.00479059816151,-1.3644066234
1385568902691119316,0.193555232945,0.0922781777445,-0.458117591036,0.0187567308256,-0.00377674490986,-1.36589354422
1385568902700934578,0.195288662946,0.0915478519157,-0.461954292859,0.018856991143,-0.00405351625728,-1.36712347435
1385568902711150046,0.197112557719,0.0908068276152,-0.465705880863,0.018347059649,-0.00445117294234,-1.3687931625
1385568902720951488,0.198934255688,0.0901270767414,-0.469209020863,0.0192000280704,-0.00405375625448,-1.3693480324
1385568902730888287,0.200674413771,0.0893945508257,-0.472561243151,0.0183063861518,-0.00388042496184,-1.3714696754
1385568902740823983,0.202587235554,0.0886666777385,-0.4758612575,0.0176984068583,-0.0040402792261,-1.3727191677
1385568902750874613,0.204238462899,0.0879957914441,-0.478979594374,0.0165437374415,-0.00322438577919,-1.37385920443
1385568902760847002,0.206080066442,0.0872023355797,-0.481788990611,0.0159763828843,-0.00401295130948,-1.37508405618
1385568902770859363,0.207842203079,0.0865960279812,-0.484457333689,0.0153243727039,-0.00441438113942,-1.37620927588
1385568902780892702,0.209785537555,0.0857898626091,-0.487204098576,0.0142685139587,-0.00420348196443,-1.37773475386
1385568902791017954,0.211596013554,0.085159091918,-0.489630559011,0.0136741811625,-0.00389233530095,-1.37844296022
1385568902800842394,0.213630088327,0.0843538640703,-0.492056340784,0.0126312307369,-0.00376192253546,-1.38038535112
1385568902811209343,0.213630088327,0.0843538640703,-0.492056340784,0.0126312307369,-0.00376192253546,-1.38038535112
1385568902820861113,0.217257792516,0.0829656283139,-0.496185934235,0.0107447496864,-0.00347801638096,-1.38264956068
1385568902831101882,0.219064103257,0.0823086987918,-0.498107393389,0.00973530018442,-0.00458396142091,-1.38388602391
1385568902841342322,0.219064103257,0.0823086987918,-0.498107393389,0.00973530018442,-0.00458396142091,-1.38388602391
1385568902850902901,0.222841618557,0.0809380934816,-0.501345933518,0.00836577420858,-0.00488857139425,-1.38665720507
1385568902861064692,0.224639796561,0.0802705281855,-0.502846109759,0.00735729955529,-0.00557411169194,-1.38765694871
1385568902871086835,0.226557894846,0.0794748980783,-0.504211394122,0.00685290835752,-0.00590025429693,-1.38971037626
1385568902880954992,0.228404200857,0.0788398646939,-0.505457873254,0.00689899982124,-0.00606574765045,-1.39059281518
1385568902892427211,0.230352863131,0.0781091738707,-0.506602922949,0.00550576491875,-0.00574759157056,-1.39247326652
1385568902900858181,0.232242893803,0.0773829093829,-0.507567356724,0.00485392647469,-0.00631098861608,-1.39390986636
1385568902910849760,0.234167268314,0.0767481218861,-0.508426910274,0.00438625587279,-0.00638158751427,-1.39510797996
1385568902920892992,0.236088978128,0.0759980909076,-0.509238359614,0.00374401127495,-0.0061395010388,-1.3963492436
1385568902930874102,0.238027463006,0.075321176861,-0.509800075834,0.00343357883601,-0.00703765973213,-1.3972791895
1385568902940852762,0.239926595514,0.0746343847798,-0.510323651843,0.00368688051345,-0.00798367939161,-1.39832655586
1385568902951127936,0.241798323759,0.0739187582864,-0.510799997641,0.0034009652998,-0.00827662355371,-1.39934865145
1385568902960850063,0.243858896207,0.0732205185538,-0.511170097781,0.00281898700229,-0.00808735822961,-1.40077256876
1385568902970846421,0.24560587269,0.0725187884896,-0.511359783921,0.0026535980349,-0.00822695920707,-1.40224361751
1385568902980876327,0.247624376119,0.071755132365,-0.511540418134,0.00276830792697,-0.00838449104845,-1.40315041701
1385568902990850015,0.249455381589,0.0710539310015,-0.511540209825,0.00244811560271,-0.00886009158754,-1.40457060312
1385568903000835664,0.251266886731,0.0703872720677,-0.511435406291,0.00247834269635,-0.00900086676635,-1.40540156703
1385568903010847512,0.253281910511,0.0696639392001,-0.511246154679,0.00277078680575,-0.00984950758119,-1.40682689652
1385568903020995405,0.25513517708,0.0690448179573,-0.511253160963,0.00275782105756,-0.00893224612767,-1.40816736133
1385568903030899130,0.256957963549,0.0683038961695,-0.510866489109,0.00190603310449,-0.0100370887052,-1.40959212036
1385568903040880439,0.258905658898,0.0675002902586,-0.510445667758,0.00185081848711,-0.0099520163129,-1.41069578267
1385568903050858779,0.260727936876,0.0668239331029,-0.50996754607,0.00187687878623,-0.00997060007434,-1.41230382968
1385568903061104896,0.262739443825,0.0660623769897,-0.509526875835,0.00181806717377,-0.00931427420411,-1.4135576939
1385568903070910607,0.26447560846,0.0654313190255,-0.508863804369,0.00111421600587,-0.00948956314888,-1.41446547656
1385568903080878327,0.266558287949,0.0645515367099,-0.508202749973,0.00111943545684,-0.00974752232211,-1.4159373476
1385568903090849039,0.26832078797,0.0639787220146,-0.507587980684,0.000846445947075,-0.00922190755339,-1.4171626747
1385568903100857325,0.270169794723,0.0630772143007,-0.506803130532,0.000871203429055,-0.010500683325,-1.41761527528
1385568903110844888,0.272103095938,0.0624433409371,-0.505874444879,0.000140474571627,-0.0102422962532,-1.41952138981
1385568903121167323,0.273993361556,0.0616104630306,-0.505030925879,0.000759809540562,-0.0104570912278,-1.42064551552
1385568903130889171,0.275708213094,0.0609138024561,-0.504075777546,0.0005414476419,-0.0107798775143,-1.42190158593
1385568903140855699,0.277722823046,0.0601247514895,-0.503265942462,-0.000152629395135,-0.00998605977528,-1.42301626216
1385568903150892347,0.279537316834,0.0592858863193,-0.502129619689,0.000319672585878,-0.0103273538469,-1.424568107
1385568903160997022,0.281406922757,0.0585691819328,-0.501166695718,0.000960551748599,-0.0103054526578,-1.4252814936
1385568903170879698,0.2832131702,0.0577900368914,-0.500182713929,0.000498524867766,-0.0102944417088,-1.42693151473
1385568903180915455,0.285166242197,0.0570257239237,-0.499093625503,0.000323408489715,-0.00958143295286,-1.42822549051
1385568903190905246,0.286947941616,0.0562564330776,-0.497861987793,-3.16124556832e-05,-0.0101508058983,-1.42926218951
1385568903200887870,0.288831510199,0.0554572803239,-0.496806780419,-0.000188692940451,-0.0100956700181,-1.43042237079
1385568903211021340,0.290602994845,0.0547406940168,-0.49550942395,-0.000375633212694,-0.0106649672703,-1.43152633333
1385568903221200126,0.292446617455,0.053917156951,-0.494557770945,-7.96737183079e-05,-0.00952819784609,-1.43289333004
1385568903230959922,0.294296229048,0.0531646125837,-0.49315080604,0.000109085257257,-0.0101512309616,-1.43387258605
1385568903240944974,0.296177928832,0.052348256268,-0.492007898876,0.000292870006182,-0.0107864500447,-1.43465265373
1385568903250865794,0.297987571402,0.0514881330369,-0.490851322944,0.000205540903971,-0.0101624112609,-1.4362759897
1385568903261593693,0.299895793031,0.0507454609654,-0.489618743782,-0.00012258836461,-0.00903337010667,-1.43724837285
1385568903270901955,0.301524694937,0.0499201454412,-0.488250489751,0.000266819160341,-0.0104942165363,-1.43812154638
1385568903280884247,0.303388833603,0.0491189065455,-0.487070132525,-4.44858536839e-06,-0.0104736033584,-1.4393308144
1385568903290838450,0.305216445186,0.0482567336909,-0.485947470325,-0.00137906575279,-0.0130333330002,-1.44026186127
1385568903300848480,0.306811104049,0.0473725214076,-0.48468663779,-0.00117218933163,-0.0121201787363,-1.44144594416
1385568903311803661,0.308843412498,0.0465753787386,-0.483374475482,-0.0015664872977,-0.0113435918656,-1.44300217376
1385568903320938423,0.310744190148,0.0456560646675,-0.482090410017,-0.00161595978074,-0.0116028201119,-1.44354801992
1385568903330846788,0.312277886424,0.0449141323071,-0.480901752255,-0.0012098818075,-0.0115510932991,-1.44529482454
1385568903340875968,0.314290737982,0.0440135781803,-0.479693086493,-0.0014129616529,-0.0122819463799,-1.44625766288
1385568903350837128,0.315948731086,0.0431306346619,-0.478466020283,-0.0014191611635,-0.01268557744,-1.44807596274
1385568903360843487,0.317969934742,0.0422419962506,-0.477175997673,-0.00139204786456,-0.0119383216715,-1.44907720516
1385568903371209073,0.31958493221,0.0413924549462,-0.476087882445,-0.000710731474162,-0.0127102103868,-1.4506103245
1385568903380901884,0.321498120985,0.0404727877008,-0.474901056909,-0.00138463951413,-0.0132205001039,-1.45140428658
1385568903390846329,0.3232952557,0.0395633852024,-0.473649771502,-0.00108715382775,-0.0141235928096,-1.45252584901
1385568903400900877,0.325001063741,0.0386848128544,-0.472370714047,-0.000603130164041,-0.014537658516,-1.45304749807
1385568903410853710,0.326729936106,0.0377356245002,-0.471240851143,-0.00113414025929,-0.0150492688218,-1.45488251235
1385568903421031640,0.328705811137,0.0368021384428,-0.470001702141,-0.00120928713838,-0.0149647971711,-1.45581610266
1385568903430862208,0.330189621414,0.0360137392415,-0.468861829788,-0.00127836867419,-0.0149794699154,-1.45750599568
1385568903440837716,0.332055498562,0.0349172037451,-0.467748757698,-0.00182039486451,-0.0151526905134,-1.45822246385
1385568903450954397,0.333654123388,0.0340557573534,-0.466496860263,-0.00234602236077,-0.0161707592021,-1.45901122727
1385568903460903591,0.335528718144,0.0330997299251,-0.465445673319,-0.00286175659497,-0.0164732624835,-1.45977244602
1385568903470850021,0.337080420126,0.0320470854284,-0.46432429832,-0.00451555139765,-0.0175584073784,-1.46136840787
1385568903480866113,0.338941108097,0.0311078337708,-0.463384900848,-0.00564453249809,-0.0170719778415,-1.462387774
1385568903491078204,0.340459131666,0.0300338754855,-0.462357260996,-0.00584934201066,-0.0169188498584,-1.46377760426
1385568903500838370,0.342397667445,0.0290987377121,-0.461252765309,-0.00745761355334,-0.0170648221909,-1.46449007469
1385568903511246098,0.343875741602,0.0280953619849,-0.460269921871,-0.00766477671799,-0.0172869143995,-1.46606876321
1385568903521038170,0.34571657152,0.0270724342059,-0.459248874122,-0.00737871884383,-0.0178733182667,-1.46628562315
1385568903530941386,0.347365109371,0.0260508529015,-0.458320671684,-0.00802549376846,-0.0176478713349,-1.46792370423
1385568903540867719,0.349091074472,0.0249539025554,-0.457409900112,-0.0072306851219,-0.0178573066972,-1.46866891683
1385568903550850635,0.350876212115,0.0239194940012,-0.456472813351,-0.00795321995722,-0.0179421649777,-1.4698064903
1385568903561063420,0.352700107116,0.0229825930291,-0.455593703702,-0.00629786570187,-0.016956924147,-1.47072327797
1385568903570859365,0.354337505925,0.0218983963343,-0.454747606285,-0.00675823657379,-0.0165141274526,-1.47185265351
1385568903580857994,0.35607064351,0.0207705130658,-0.453903620305,-0.00661741058463,-0.0175836838176,-1.47304568532
1385568903590852769,0.357588599258,0.0196694022857,-0.453150236392,-0.00577399768006,-0.018027638572,-1.47372985747
1385568903600919048,0.359530872203,0.0185931867657,-0.452259111276,-0.00646383842629,-0.0178786374527,-1.47467336639
1385568903610860672,0.361035577903,0.0174487764131,-0.451646981107,-0.00467700697477,-0.0183247435893,-1.47539309708
1385568903621115890,0.362738990551,0.0163296086344,-0.450887832679,-0.00398690010748,-0.0200145687524,-1.47622308079
1385568903630896641,0.364369788579,0.0151403976046,-0.450048175611,-0.00393283739763,-0.0200628336706,-1.47692508027
1385568903640888929,0.365959493723,0.0140073210421,-0.44955074454,-0.00300986182298,-0.0201340679021,-1.47853222845
1385568903650847806,0.367638937532,0.0127713367748,-0.448802891247,-0.00377790670223,-0.0223998154247,-1.47926977077
1385568903661002992,0.369211364415,0.0116019181049,-0.448261907561,-0.00411927640145,-0.0227474254132,-1.48112382317
1385568903670876950,0.370794674587,0.0103987965754,-0.44765305161,-0.00438201524722,-0.0231011390159,-1.48147803693
1385568903680851246,0.372386492801,0.00915294724791,-0.447200109589,-0.00557192108668,-0.0233004313998,-1.48275229959
1385568903690849784,0.373956595596,0.00791787201913,-0.446680543589,-0.00590081966426,-0.0231960730354,-1.48337726759
1385568903700838901,0.375556396009,0.00669817473196,-0.446332230523,-0.00619863582145,-0.0236015632942,-1.48457022554
1385568903710851479,0.376965109708,0.00532725407205,-0.446017490043,-0.00778232609519,-0.0258892345593,-1.48468838378
1385568903720858389,0.378436790294,0.00396922673131,-0.44569045821,-0.0078999006909,-0.0254064097766,-1.48545605333
1385568903730842662,0.380074468665,0.00269912318123,-0.445376236988,-0.00824759763924,-0.0261383313662,-1.48643535529
1385568903740833156,0.381618147875,0.00136444952949,-0.445104806164,-0.00827872429774,-0.0260003602342,-1.48737271497
1385568903750835673,0.383149258033,0.000197792315153,-0.444889800519,-0.00799636017655,-0.0240583275443,-1.48866391301
1385568903761208057,0.384639569394,-0.00133014107061,-0.444745609481,-0.00902449840275,-0.0262334194324,-1.48908394937
1385568903770855681,0.386238148449,-0.00263213421394,-0.444570244687,-0.00809422941119,-0.0250541078964,-1.49027738926
1385568903780850442,0.387787398738,-0.00405334840767,-0.444505464271,-0.00875856343352,-0.0250567389836,-1.49100776756
1385568903791012427,0.389191615044,-0.00540634243641,-0.444315882259,-0.00893192940494,-0.0254138015493,-1.49165289172
1385568903800860251,0.390676142611,-0.0068388876978,-0.444309788617,-0.00930343826537,-0.0252540326136,-1.49271679951
1385568903810844851,0.392085166072,-0.00828113798131,-0.444327328621,-0.00933564340422,-0.0253650552158,-1.49341325479
1385568903820869197,0.393420141662,-0.00970746218496,-0.444319382677,-0.00979394146069,-0.0248574991505,-1.49449570131
1385568903830839693,0.3948825111,-0.0112199221337,-0.444541222452,-0.00994256141816,-0.0243858367065,-1.49583915179
1385568903840838922,0.396392983252,-0.0126975299345,-0.444598195507,-0.0115552771178,-0.0245198681922,-1.49698971154
1385568903850862332,0.39773159321,-0.0142018354127,-0.44481600052,-0.0121635807893,-0.0243854386141,-1.49738661806
1385568903860846164,0.399114861009,-0.0158250329723,-0.444955503516,-0.0125194514978,-0.0253680247406,-1.49826936293
1385568903870854081,0.400304577139,-0.0174078662968,-0.445097477921,-0.0142214287939,-0.0248948343192,-1.49891484272
1385568903880867144,0.401697277193,-0.0188995949733,-0.445407941466,-0.0154267101233,-0.0262630315148,-1.49996549741
1385568903890917871,0.403001269302,-0.0205654001505,-0.445650144043,-0.0167298099444,-0.0264251428506,-1.50110866524
1385568903900893253,0.404150527181,-0.0221989467644,-0.445963746968,-0.0182035225083,-0.02675660424,-1.50221240467
1385568903911384506,0.405268342527,-0.023887113319,-0.446292326797,-0.0197448698074,-0.0273333636728,-1.50313917176
1385568903921248737,0.406430455059,-0.0255284080399,-0.446551900639,-0.0217180684156,-0.0268936215494,-1.50375814734
1385568903930882944,0.407632830236,-0.0272231155614,-0.447016665745,-0.0229491610532,-0.0283260993993,-1.50405980011
1385568903940867208,0.408697618365,-0.0287536158413,-0.44745004141,-0.0240456209816,-0.0280231912529,-1.50497976896
1385568903950905971,0.409829357707,-0.0305131228894,-0.447787471169,-0.0258635621092,-0.02679418506,-1.50548522076
1385568903961077761,0.410975060812,-0.0321713957949,-0.448313562049,-0.0261646298518,-0.0267142414347,-1.50720117565
1385568903970873407,0.411835461971,-0.0339300689452,-0.44863477169,-0.0282548827364,-0.0270697059082,-1.50757985114
1385568903980884324,0.413071736151,-0.0355773479253,-0.449152901503,-0.0281368892414,-0.0247648588167,-1.50860101644
1385568903990830892,0.414091385939,-0.0373444294035,-0.449515914761,-0.0281531560754,-0.0237029457498,-1.50921512863
1385568904000857749,0.415122168888,-0.0390937890334,-0.449950553807,-0.0290029126505,-0.0216247622206,-1.50994029502
1385568904010848846,0.416058150447,-0.0408719450771,-0.450563862126,-0.0286513680229,-0.0208840760298,-1.51067932033
1385568904020840905,0.416980673968,-0.0425118924997,-0.45094409428,-0.0289857515932,-0.0193414221498,-1.51164857118
1385568904030876569,0.4178585907,-0.0443790250537,-0.451518925653,-0.0295636620303,-0.0177324168354,-1.51230489681
1385568904040899819,0.418795152521,-0.0461067519366,-0.451902055133,-0.0301613287573,-0.017054505834,-1.51347673722
1385568904050967449,0.419473911892,-0.0480403343442,-0.452482114335,-0.031962984768,-0.0166481421878,-1.51378821326
1385568904061100162,0.420345316861,-0.0498127423709,-0.453071131762,-0.0314817892218,-0.0160383179493,-1.51468087239
1385568904070933586,0.421121661638,-0.051640262686,-0.453605187996,-0.0317021618667,-0.0141258499808,-1.51522338837
1385568904080936548,0.422005578807,-0.0532807650181,-0.454191322101,-0.0306705879377,-0.0109540571054,-1.51659661517
1385568904090870350,0.422819788422,-0.0551121219129,-0.454632423066,-0.0302663252563,-0.0101271719281,-1.51675091971
1385568904100863722,0.423411138965,-0.0570273857596,-0.45526748382,-0.03138761924,-0.0113571845329,-1.5176742287
1385568904111296067,0.424024588751,-0.0588529719855,-0.455925533393,-0.0308602212095,-0.00917970780573,-1.51805714316
