%time,field.header.seq,field.header.stamp,field.header.frame_id,field.child_frame_id,field.transform.translation.x,field.transform.translation.y,field.transform.translation.z,field.transform.rotation.x,field.transform.rotation.y,field.transform.rotation.z,field.transform.rotation.w
1385568895690104057,609986,1385568895690104057,/world,vicon/Archie/Archie,0.137086091795,-0.122716177728,0.113140136298,-0.00449507449626,-0.00648121809634,0.540293034832,0.841439970901
1385568895699872748,609987,1385568895699872748,/world,vicon/Archie/Archie,0.136996187989,-0.122679416311,0.113123266155,-0.00455545213954,-0.00654645014668,0.540465087661,0.841328640227
1385568895709904955,609988,1385568895709904955,/world,vicon/Archie/Archie,0.137110429149,-0.122737589713,0.113165465524,-0.00452211153261,-0.00660280152282,0.540280378928,0.841447007045
1385568895719809574,609989,1385568895719809574,/world,vicon/Archie/Archie,0.137001679868,-0.122672518992,0.113220481865,-0.00432649237464,-0.00697926471859,0.540475341575,0.84131978253
1385568895729926041,609990,1385568895729926041,/world,vicon/Archie/Archie,0.137067811431,-0.122674823068,0.113172077043,-0.00450480508641,-0.00668242415694,0.540391192361,0.841375309334
1385568895739971263,609991,1385568895739971263,/world,vicon/Archie/Archie,0.137020272615,-0.122685002947,0.113140708855,-0.00458661816845,-0.00665612779194,0.54043332559,0.841348013303
1385568895749841603,609992,1385568895749841603,/world,vicon/Archie/Archie,0.136976320425,-0.122662053691,0.113198848882,-0.004296980717,-0.00687959259532,0.540484998753,0.841314550739
1385568895759959180,609993,1385568895759959180,/world,vicon/Archie/Archie,0.137031542433,-0.122686876103,0.113142048641,-0.00459034685971,-0.00667409757295,0.540441750138,0.841342439108
1385568895769812622,609994,1385568895769812622,/world,vicon/Archie/Archie,0.137023394015,-0.122690985417,0.113139507695,-0.00460059700031,-0.00666033003732,0.540436841668,0.84134564519
1385568895780018410,609995,1385568895780018410,/world,vicon/Archie/Archie,0.136999346158,-0.122682796283,0.11312317616,-0.00457031427262,-0.00655214667189,0.540450922976,0.84133761443
1385568895789992429,609996,1385568895789992429,/world,vicon/Archie/Archie,0.137022411518,-0.122690099936,0.113147796161,-0.00458633227963,-0.00665644560895,0.540444379737,0.841340911699
1385568895799797720,609997,1385568895799797720,/world,vicon/Archie/Archie,0.137001173941,-0.122681443509,0.113124930326,-0.00455050096784,-0.00656667453514,0.540447139407,0.841340039005
1385568895809830933,609998,1385568895809830933,/world,vicon/Archie/Archie,0.137006297695,-0.122708580457,0.113196521385,-0.00431413200452,-0.0068216246722,0.540384179542,0.841379695621
1385568895819916121,609999,1385568895819916121,/world,vicon/Archie/Archie,0.137004246475,-0.122679713369,0.113119430805,-0.00454178136705,-0.00656922692916,0.540453661054,0.841335876885
1385568895829963796,610000,1385568895829963796,/world,vicon/Archie/Archie,0.137067993656,-0.122691367028,0.113174772812,-0.00451978865505,-0.00665905949348,0.540392399987,0.841374638597
1385568895839885837,610001,1385568895839885837,/world,vicon/Archie/Archie,0.137046856678,-0.122672222232,0.1132608564,-0.00421810949636,-0.00701696193561,0.540417702984,0.841357044363
1385568895849863442,610002,1385568895849863442,/world,vicon/Archie/Archie,0.136994587711,-0.122679532407,0.113127341419,-0.00453756721591,-0.00656475077208,0.5404540612,0.841335677517
1385568895860045303,610003,1385568895860045303,/world,vicon/Archie/Archie,0.137059464656,-0.122734347392,0.113139015987,-0.00459303885718,-0.00662031976588,0.540330100588,0.84141455761
1385568895869787672,610004,1385568895869787672,/world,vicon/Archie/Archie,0.137022714262,-0.122689548245,0.11314851013,-0.00458070977455,-0.00666135863849,0.540448856172,0.841338027942
1385568895879894858,610005,1385568895879894858,/world,vicon/Archie/Archie,0.136996563665,-0.122680585706,0.113126287193,-0.00455083510794,-0.00655327925955,0.540454301037,0.841335541221
1385568895889966891,610006,1385568895889966891,/world,vicon/Archie/Archie,0.137029793147,-0.122691523797,0.113148875694,-0.00457736939468,-0.0066760846915,0.540437586197,0.841345168767
1385568895899707393,610007,1385568895899707393,/world,vicon/Archie/Archie,0.13710698924,-0.122729867694,0.113173731921,-0.00455647974377,-0.00659085093034,0.540282591946,0.841445494382
1385568895909936423,610008,1385568895909936423,/world,vicon/Archie/Archie,0.1369879129,-0.122670508037,0.113130291905,-0.00455038047162,-0.00656561239928,0.540456500893,0.841334034384
1385568895919783452,610009,1385568895919783452,/world,vicon/Archie/Archie,0.137001038434,-0.122664701354,0.113121137794,-0.00454053618684,-0.00654638477647,0.540448365669,0.841339463251
1385568895930287769,610010,1385568895930287769,/world,vicon/Archie/Archie,0.137057189336,-0.122722881431,0.113137330368,-0.00458883990894,-0.0066011027414,0.540350236448,0.841401800546
1385568895939951900,610011,1385568895939951900,/world,vicon/Archie/Archie,0.137023003172,-0.122676268818,0.113147650085,-0.00456514197513,-0.00668113061168,0.540432822983,0.841348254776
1385568895949794154,610012,1385568895949794154,/world,vicon/Archie/Archie,0.137007497817,-0.122667247831,0.113127855429,-0.00453271577783,-0.00654583896417,0.540460140288,0.841331945929
1385568895959908330,610013,1385568895959908330,/world,vicon/Archie/Archie,0.137069400546,-0.122673942121,0.113181062441,-0.00448393795406,-0.00668106967182,0.540392235696,0.841374761451
1385568895969861243,610014,1385568895969861243,/world,vicon/Archie/Archie,0.137030366574,-0.122702368568,0.113222642327,-0.00435722400083,-0.00692532107767,0.54038248187,0.841379716784
1385568895979928764,610015,1385568895979928764,/world,vicon/Archie/Archie,0.137035934491,-0.122715716111,0.113111930972,-0.00454651427779,-0.00647693407306,0.540348420248,0.841404161666
1385568895990085378,610016,1385568895990085378,/world,vicon/Archie/Archie,0.136994458585,-0.122658192123,0.113127294255,-0.00454820462479,-0.00652998506292,0.540457004796,0.841333999727
1385568895999841367,610017,1385568895999841367,/world,vicon/Archie/Archie,0.137030303509,-0.122670335038,0.113147755337,-0.0045870599697,-0.00665614248207,0.540455069679,0.841334043235
1385568896009867369,610018,1385568896009867369,/world,vicon/Archie/Archie,0.137090379356,-0.122711217564,0.113141757649,-0.00446227478198,-0.00648487530645,0.540306818199,0.841431266773
1385568896019842357,610019,1385568896019842357,/world,vicon/Archie/Archie,0.137108810938,-0.122720223948,0.113168869217,-0.00453405980398,-0.0066014649528,0.540281894953,0.841445979816
1385568896029910076,610020,1385568896029910076,/world,vicon/Archie/Archie,0.137069601758,-0.122668896492,0.113169764468,-0.00449026677466,-0.00666340363517,0.540401150614,0.841369141917
1385568896039784618,610021,1385568896039784618,/world,vicon/Archie/Archie,0.137071817457,-0.122665182081,0.113171327694,-0.00449022122368,-0.00667482890413,0.540406517806,0.841365604292
1385568896049867502,610022,1385568896049867502,/world,vicon/Archie/Archie,0.137018629606,-0.122672992161,0.113142009236,-0.00456595619206,-0.00666357814304,0.54045416137,0.841334682649
1385568896060077553,610023,1385568896060077553,/world,vicon/Archie/Archie,0.137053388808,-0.122659716886,0.113151131448,-0.00442780028118,-0.0065783121164,0.540412214546,0.841363036247
1385568896069792659,610024,1385568896069792659,/world,vicon/Archie/Archie,0.137002721815,-0.122662193631,0.113119700737,-0.00452591050258,-0.00655215287102,0.540465884165,0.841328243601
1385568896079816602,610025,1385568896079816602,/world,vicon/Archie/Archie,0.137044130528,-0.122664773363,0.113141917374,-0.00446082637845,-0.006549616255,0.540415975918,0.841360669705
1385568896090032270,610026,1385568896090032270,/world,vicon/Archie/Archie,0.137023494947,-0.122673091497,0.113147030304,-0.00457942783564,-0.0066768065373,0.540453345753,0.841335028487
1385568896099834348,610027,1385568896099834348,/world,vicon/Archie/Archie,0.137027951748,-0.12266869128,0.113140593479,-0.00457571005892,-0.00666697807937,0.540443159394,0.84134167004
1385568896110162965,610028,1385568896110162965,/world,vicon/Archie/Archie,0.137026600931,-0.122670023709,0.11313539097,-0.00455972155418,-0.00667089216272,0.540450551172,0.841336977598
1385568896119770929,610029,1385568896119770929,/world,vicon/Archie/Archie,0.137001825372,-0.122661952717,0.113122352257,-0.00455539017277,-0.00652974036543,0.540467413865,0.841327276071
1385568896129995400,610030,1385568896129995400,/world,vicon/Archie/Archie,0.136993217684,-0.122658058057,0.113216780264,-0.00431520992664,-0.00699197924056,0.540489800824,0.841310445908
1385568896139904786,610031,1385568896139904786,/world,vicon/Archie/Archie,0.137051022529,-0.122658777158,0.113141871242,-0.00445049236804,-0.00655548202697,0.540410078434,0.841364466744
1385568896150016980,610032,1385568896150016980,/world,vicon/Archie/Archie,0.137025228636,-0.12267061028,0.113142892305,-0.00457583407214,-0.00668085165013,0.540457231171,0.841332520017
1385568896159973592,610033,1385568896159973592,/world,vicon/Archie/Archie,0.136992321641,-0.122657330942,0.113216877046,-0.0043100438112,-0.00699244694071,0.540494298453,0.841307579039
1385568896169812625,610034,1385568896169812625,/world,vicon/Archie/Archie,0.137043482071,-0.122661241037,0.113146925087,-0.00445625801428,-0.0065521398302,0.540420942397,0.841357484217
1385568896179893360,610035,1385568896179893360,/world,vicon/Archie/Archie,0.137045771085,-0.122656039415,0.113146384138,-0.00443810208375,-0.00655055474838,0.540407842643,0.841366006618
1385568896190178274,610036,1385568896190178274,/world,vicon/Archie/Archie,0.13697663815,-0.122652293391,0.113194149752,-0.00426110818375,-0.00687322396969,0.540493815356,0.841309121139
1385568896199850975,610037,1385568896199850975,/world,vicon/Archie/Archie,0.136997718685,-0.122662469629,0.113116130165,-0.00453736173852,-0.00654689854999,0.540471456548,0.841324643122
1385568896209994763,610038,1385568896209994763,/world,vicon/Archie/Archie,0.13701674019,-0.122675792504,0.113143972213,-0.00457124846571,-0.00666672448891,0.540459043927,0.841331492522
1385568896219700528,610039,1385568896219700528,/world,vicon/Archie/Archie,0.137050912197,-0.122670350136,0.113146832559,-0.00447063057291,-0.00655405455851,0.540415224208,0.841361065938
1385568896230035794,610040,1385568896230035794,/world,vicon/Archie/Archie,0.136984107238,-0.12265238711,0.113206741408,-0.0042850214871,-0.00685981654743,0.540489489245,0.841311888376
1385568896239934671,610041,1385568896239934671,/world,vicon/Archie/Archie,0.136993157025,-0.122664441852,0.113114197592,-0.00452217287863,-0.00655069109136,0.540460604839,0.841331666476
1385568896249859539,610042,1385568896249859539,/world,vicon/Archie/Archie,0.137093317193,-0.122715146848,0.113137712558,-0.00447089895495,-0.00648558068683,0.540296742885,0.841437685116
1385568896259967598,610043,1385568896259967598,/world,vicon/Archie/Archie,0.137036988642,-0.122716978305,0.113104459724,-0.00455390145838,-0.00647714698195,0.540367389322,0.841391937866
1385568896269789238,610044,1385568896269789238,/world,vicon/Archie/Archie,0.137005878381,-0.122664581829,0.113114722537,-0.00452069154664,-0.0065473323306,0.5404667928,0.841327725484
1385568896280045888,610045,1385568896280045888,/world,vicon/Archie/Archie,0.136995846274,-0.12267205864,0.113116526666,-0.00453927913015,-0.00655649094812,0.540467614027,0.841327026524
1385568896289961341,610046,1385568896289961341,/world,vicon/Archie/Archie,0.137103925467,-0.122725533223,0.11316337713,-0.0045433011474,-0.00660272877764,0.540287681444,0.841442204591
1385568896299783530,610047,1385568896299783530,/world,vicon/Archie/Archie,0.137062474844,-0.122729770403,0.113139491356,-0.00460353740038,-0.00661489154127,0.540347446846,0.841403403452
1385568896309921021,610048,1385568896309921021,/world,vicon/Archie/Archie,0.136994782257,-0.122669504651,0.113119109566,-0.00454257963609,-0.00656102230378,0.540485219251,0.841315663546
1385568896319945099,610049,1385568896319945099,/world,vicon/Archie/Archie,0.137116097185,-0.122730267725,0.113167774975,-0.00455034328776,-0.00658086680466,0.540295215414,0.841437500215
1385568896329860639,610050,1385568896329860639,/world,vicon/Archie/Archie,0.137079476715,-0.122674437948,0.113174000826,-0.00449460986368,-0.00666389344282,0.540402890299,0.841367997468
1385568896339886997,610051,1385568896339886997,/world,vicon/Archie/Archie,0.136999979714,-0.12266262868,0.113117881311,-0.00452595385592,-0.00654799218405,0.540464392086,0.841329234264
1385568896349840098,610052,1385568896349840098,/world,vicon/Archie/Archie,0.137064058423,-0.122723375485,0.113136564205,-0.00458509359695,-0.00661363066482,0.540347893947,0.841403226945
1385568896359850292,610053,1385568896359850292,/world,vicon/Archie/Archie,0.137066176867,-0.122670357404,0.113174572715,-0.00448642814579,-0.00667490603533,0.540402121943,0.841368447347
1385568896369763084,610054,1385568896369763084,/world,vicon/Archie/Archie,0.137000873276,-0.122663307662,0.113123834976,-0.00453167356774,-0.00653692788073,0.540472056372,0.841324365979
1385568896379857667,610055,1385568896379857667,/world,vicon/Archie/Archie,0.13703023541,-0.122715207508,0.113115022222,-0.00453784878431,-0.00650217588935,0.540359967624,0.841396597941
1385568896389963430,610056,1385568896389963430,/world,vicon/Archie/Archie,0.137054969735,-0.12272694443,0.113137865598,-0.00461947089959,-0.00660610159495,0.540343842937,0.841405699595
1385568896399833206,610057,1385568896399833206,/world,vicon/Archie/Archie,0.137021827366,-0.122682088552,0.113146127055,-0.00454943913248,-0.00668267757742,0.540456491847,0.841333123587
1385568896409859828,610058,1385568896409859828,/world,vicon/Archie/Archie,0.136989658017,-0.122668876442,0.113120532866,-0.00451713136083,-0.00658099800944,0.54046606188,0.841327951482
1385568896420492383,610059,1385568896420492383,/world,vicon/Archie/Archie,0.137069191044,-0.122680189479,0.113173047631,-0.00447419903602,-0.00666373100581,0.540399644116,0.841370192526
1385568896429971354,610060,1385568896429971354,/world,vicon/Archie/Archie,0.13701362292,-0.12267405754,0.113137618881,-0.0045753417131,-0.00665998657284,0.540462860503,0.841329071912
1385568896439872249,610061,1385568896439872249,/world,vicon/Archie/Archie,0.137065064254,-0.122720575845,0.113129428871,-0.0045904157507,-0.00658140939408,0.540340752027,0.841408037062
1385568896449878259,610062,1385568896449878259,/world,vicon/Archie/Archie,0.137047033068,-0.122662419751,0.113150150765,-0.00443902211368,-0.00654205309202,0.540408227631,0.841365820635
1385568896459998215,610063,1385568896459998215,/world,vicon/Archie/Archie,0.137100634412,-0.122720994719,0.113162722691,-0.00450884046861,-0.00659690310358,0.540285945264,0.84144355044
1385568896469795554,610064,1385568896469795554,/world,vicon/Archie/Archie,0.137063275697,-0.122676524306,0.113170304501,-0.00448656655616,-0.00669170922679,0.540398850525,0.841370414324
1385568896479823350,610065,1385568896479823350,/world,vicon/Archie/Archie,0.137100486552,-0.122720336266,0.113165908152,-0.00450192486813,-0.00660282327794,0.540295427008,0.841437452786
1385568896490020294,610066,1385568896490020294,/world,vicon/Archie/Archie,0.137015601646,-0.12267062478,0.11314429089,-0.00457610164599,-0.00666421174964,0.540461011609,0.841330222033
1385568896499799718,610067,1385568896499799718,/world,vicon/Archie/Archie,0.137077949277,-0.122666504204,0.11317651815,-0.00449664106,-0.00663798920208,0.54039348468,0.841374232452
1385568896509847193,610068,1385568896509847193,/world,vicon/Archie/Archie,0.137030357247,-0.122659012938,0.1131529379,-0.00442848048078,-0.00655390648467,0.540415590759,0.841361054563
1385568896519693473,610069,1385568896519693473,/world,vicon/Archie/Archie,0.137071878218,-0.122671361488,0.113172042972,-0.00448735196636,-0.00666812034892,0.540394058991,0.841373674921
1385568896530045505,610070,1385568896530045505,/world,vicon/Archie/Archie,0.137018439187,-0.122674551564,0.11314505836,-0.00456726819731,-0.0066672298891,0.540455559934,0.84133374819
1385568896539965086,610071,1385568896539965086,/world,vicon/Archie/Archie,0.137070559814,-0.122667430898,0.113171373505,-0.00448156446477,-0.00666826078512,0.540404933608,0.841366720051
1385568896549986724,610072,1385568896549986724,/world,vicon/Archie/Archie,0.137017397928,-0.122668628864,0.113144031515,-0.00455438347721,-0.00668234039324,0.540441670308,0.841342620406
1385568896560010172,610073,1385568896560010172,/world,vicon/Archie/Archie,0.136996890275,-0.122655030828,0.113123701676,-0.00452059961208,-0.00654557831306,0.540456660443,0.84133424854
1385568896569854430,610074,1385568896569854430,/world,vicon/Archie/Archie,0.136990507069,-0.122659304829,0.113130225021,-0.00452426141328,-0.00654155960976,0.540457368798,0.841333805079
1385568896579826872,610075,1385568896579826872,/world,vicon/Archie/Archie,0.137041364949,-0.122656569369,0.11315824278,-0.00443404513133,-0.00655225528313,0.540408485729,0.841365601713
1385568896589899267,610076,1385568896589899267,/world,vicon/Archie/Archie,0.137038294432,-0.122660011985,0.113151683223,-0.00444309704709,-0.00655837288734,0.540412774417,0.84136275166
1385568896599788889,610077,1385568896599788889,/world,vicon/Archie/Archie,0.137018978926,-0.122668017025,0.113150698325,-0.00457063584082,-0.00667074556723,0.540443952467,0.84134115832
1385568896609849177,610078,1385568896609849177,/world,vicon/Archie/Archie,0.137018582144,-0.122666398603,0.113144303028,-0.00455551905039,-0.0066602538826,0.54043025441,0.841350122353
1385568896619769430,610079,1385568896619769430,/world,vicon/Archie/Archie,0.137035556194,-0.122658791562,0.113151532217,-0.00442577232329,-0.00654809308994,0.540404101898,0.841368493389
1385568896629922997,610080,1385568896629922997,/world,vicon/Archie/Archie,0.137016674538,-0.122670074047,0.113147170751,-0.0045737577826,-0.00667881888276,0.5404544152,0.841334356371
1385568896639822003,610081,1385568896639822003,/world,vicon/Archie/Archie,0.137031324512,-0.122660986895,0.113162733713,-0.004449892741,-0.00656426095421,0.540406069312,0.841366976523
1385568896649850755,610082,1385568896649850755,/world,vicon/Archie/Archie,0.136997587589,-0.122654283446,0.113224707517,-0.0043026738882,-0.00696090071222,0.540469049741,0.841324098746
1385568896659957112,610083,1385568896659957112,/world,vicon/Archie/Archie,0.137041747584,-0.122648941586,0.113255394675,-0.00421630960788,-0.00698345102326,0.54042737539,0.841351119375
1385568896669791078,610084,1385568896669791078,/world,vicon/Archie/Archie,0.137067874454,-0.122666563061,0.113184371477,-0.00447221538729,-0.00666291375874,0.540381208769,0.84138205001
1385568896679908055,610085,1385568896679908055,/world,vicon/Archie/Archie,0.136992204906,-0.122653560729,0.113227487097,-0.00430878555095,-0.0069998798618,0.540481028248,0.84131604891
1385568896689923141,610086,1385568896689923141,/world,vicon/Archie/Archie,0.137082595657,-0.122716575149,0.113141246878,-0.0044706981888,-0.00650499519278,0.540290357519,0.8414416364
1385568896699865376,610087,1385568896699865376,/world,vicon/Archie/Archie,0.137042347575,-0.122665791672,0.113153532819,-0.00444088522954,-0.00654651584116,0.540405147132,0.841367754684
1385568896709887478,610088,1385568896709887478,/world,vicon/Archie/Archie,0.137000712027,-0.12265955146,0.113225243292,-0.00431585310873,-0.00701614486304,0.540479047151,0.841317149899
1385568896719773348,610089,1385568896719773348,/world,vicon/Archie/Archie,0.137017162966,-0.122639782578,0.113237156383,-0.00416910203179,-0.00690058615379,0.540449553179,0.841337792428
1385568896729870914,610090,1385568896729870914,/world,vicon/Archie/Archie,0.137061541975,-0.122671880146,0.113171753708,-0.00449645753438,-0.00665914688473,0.540401302361,0.841369045092
1385568896739903138,610091,1385568896739903138,/world,vicon/Archie/Archie,0.137072776168,-0.122678528943,0.113176360818,-0.00447345746741,-0.00667435696331,0.540397897626,0.841371233986
1385568896749887575,610092,1385568896749887575,/world,vicon/Archie/Archie,0.136973585806,-0.122651980852,0.113208799124,-0.00424886280528,-0.00691232861674,0.540492949865,0.841309418718
1385568896760012403,610093,1385568896760012403,/world,vicon/Archie/Archie,0.136997619161,-0.122671366759,0.113121777362,-0.00451537677264,-0.00656628294164,0.540458294412,0.841333065618
1385568896769859481,610094,1385568896769859481,/world,vicon/Archie/Archie,0.137077785081,-0.122676420631,0.113177865955,-0.004496812586,-0.00665730922934,0.540391702949,0.841375223247
1385568896779837177,610095,1385568896779837177,/world,vicon/Archie/Archie,0.137074992291,-0.122675336569,0.113179748789,-0.00447939657236,-0.00669986296787,0.54039677987,0.841371717583
1385568896789941912,610096,1385568896789941912,/world,vicon/Archie/Archie,0.137025496068,-0.122679030297,0.113136132494,-0.00457396983366,-0.00664280737445,0.540450487673,0.841337163261
1385568896799714395,610097,1385568896799714395,/world,vicon/Archie/Archie,0.137073078237,-0.122673647939,0.113175214073,-0.00447162293543,-0.00665462113924,0.540406899537,0.841365618229
1385568896809925325,610098,1385568896809925325,/world,vicon/Archie/Archie,0.136998259255,-0.122669556463,0.113119192943,-0.00452844713303,-0.00654197002357,0.540470997732,0.841325024236
1385568896819695952,610099,1385568896819695952,/world,vicon/Archie/Archie,0.137075310085,-0.12267624708,0.113168542061,-0.00448037115773,-0.00667558018639,0.540398755885,0.841370636249
1385568896829942348,610100,1385568896829942348,/world,vicon/Archie/Archie,0.137057084403,-0.122728808208,0.113132575795,-0.00458061926918,-0.00660092143024,0.540347164082,0.841403819835
1385568896839994552,610101,1385568896839994552,/world,vicon/Archie/Archie,0.137065733933,-0.122727874551,0.113130047021,-0.00457998930782,-0.00658884408729,0.540338982672,0.841409171947
1385568896850177128,610102,1385568896850177128,/world,vicon/Archie/Archie,0.137030479613,-0.122680805162,0.113145872878,-0.00457758122979,-0.00665151587826,0.540458516208,0.841331917465
1385568896859958853,610103,1385568896859958853,/world,vicon/Archie/Archie,0.136998632214,-0.12266279093,0.113218960922,-0.00431436080375,-0.00698552622992,0.540485254398,0.841313424648
1385568896869821776,610104,1385568896869821776,/world,vicon/Archie/Archie,0.137032375773,-0.122723791961,0.113107807296,-0.0045481249442,-0.00649242999835,0.540353686041,0.841400651826
1385568896879996360,610105,1385568896879996360,/world,vicon/Archie/Archie,0.137065130087,-0.122736465999,0.113134906611,-0.0045876344718,-0.00659461128231,0.540345971377,0.841404597045
1385568896889927175,610106,1385568896889927175,/world,vicon/Archie/Archie,0.137081689997,-0.122720049462,0.113143540061,-0.00445875031817,-0.00649838719817,0.540299329641,0.841435989781
1385568896900069708,610107,1385568896900069708,/world,vicon/Archie/Archie,0.137057607932,-0.122734863556,0.113139572217,-0.0045732838407,-0.00662510910836,0.540347036126,0.841403751806
1385568896909982658,610108,1385568896909982658,/world,vicon/Archie/Archie,0.137117175092,-0.122730790715,0.113165429403,-0.00450427745606,-0.00660907730351,0.540284192229,0.841444604956
1385568896919780252,610109,1385568896919780252,/world,vicon/Archie/Archie,0.137116483375,-0.12272905046,0.113157857796,-0.00449260236824,-0.00661207435023,0.54028298603,0.841445418315
1385568896930007260,610110,1385568896930007260,/world,vicon/Archie/Archie,0.137058904576,-0.122733891158,0.113129910732,-0.00458368614588,-0.00660832884165,0.540343683374,0.841405980279
1385568896939987956,610111,1385568896939987956,/world,vicon/Archie/Archie,0.137060553157,-0.12273012178,0.113127864165,-0.00458961918266,-0.00662127908405,0.540344407397,0.841405381165
1385568896949819488,610112,1385568896949819488,/world,vicon/Archie/Archie,0.137070735265,-0.122732143261,0.113136695035,-0.00460282862859,-0.0065652186208,0.540343820016,0.841406125508
1385568896959833180,610113,1385568896959833180,/world,vicon/Archie/Archie,0.137108959467,-0.12273152708,0.113158819286,-0.00451671545767,-0.00663297213816,0.54028546384,0.841443533771
1385568896969907967,610114,1385568896969907967,/world,vicon/Archie/Archie,0.137039891065,-0.12272644541,0.11310094994,-0.00454904387986,-0.00649373304044,0.540357442587,0.84139822431
1385568896979893440,610115,1385568896979893440,/world,vicon/Archie/Archie,0.137107284236,-0.122728528652,0.113163614863,-0.00450632857995,-0.00661350511504,0.540286867886,0.841442841162
1385568896990008776,610116,1385568896990008776,/world,vicon/Archie/Archie,0.137011976336,-0.12270018961,0.113183740792,-0.00429110380177,-0.00684144206881,0.540398500872,0.841370454291
1385568897000284441,610117,1385568897000284441,/world,vicon/Archie/Archie,0.137010743792,-0.12270080679,0.113200146602,-0.00431542265921,-0.00685158814416,0.540394943869,0.841372531943
1385568897009976909,610118,1385568897009976909,/world,vicon/Archie/Archie,0.137038271209,-0.122723485329,0.11311052863,-0.00454514862084,-0.00646996650211,0.540358403413,0.841397811394
1385568897019870835,610119,1385568897019870835,/world,vicon/Archie/Archie,0.137112265059,-0.122730925492,0.113157162905,-0.00450380615676,-0.00660741838309,0.540285406491,0.841443840839
1385568897029982689,610120,1385568897029982689,/world,vicon/Archie/Archie,0.137007380189,-0.122667888596,0.113214085702,-0.00429998817449,-0.00698624093131,0.540477371238,0.841318556623
1385568897039982407,610121,1385568897039982407,/world,vicon/Archie/Archie,0.137091469972,-0.122719034243,0.113131813013,-0.00444941581317,-0.00649072500901,0.540293637713,0.841439753182
1385568897049835945,610122,1385568897049835945,/world,vicon/Archie/Archie,0.13711356074,-0.122726539518,0.113160125294,-0.00451404357333,-0.00658400304444,0.540269309699,0.841454304946
1385568897059997775,610123,1385568897059997775,/world,vicon/Archie/Archie,0.137065364016,-0.122674039225,0.113165402753,-0.0044868675618,-0.00669483396283,0.540393772752,0.841373649212
1385568897069765384,610124,1385568897069765384,/world,vicon/Archie/Archie,0.137085759135,-0.122715334325,0.113239203034,-0.00422986686454,-0.0069349936814,0.540327054039,0.841415883355
1385568897079962848,610125,1385568897079962848,/world,vicon/Archie/Archie,0.137041662742,-0.122716201897,0.11321061911,-0.00430255330073,-0.00697146767068,0.540390957684,0.841374173318
1385568897089986335,610126,1385568897089986335,/world,vicon/Archie/Archie,0.137031055222,-0.122685325253,0.113135460241,-0.00456483712165,-0.00666987256718,0.540447626206,0.841338836849
1385568897099803364,610127,1385568897099803364,/world,vicon/Archie/Archie,0.13704758085,-0.122728098521,0.113129574895,-0.00458310375858,-0.00663049664225,0.540340444006,0.841407889341
1385568897110028033,610128,1385568897110028033,/world,vicon/Archie/Archie,0.137117773163,-0.122730860674,0.113162203649,-0.00450375598416,-0.0065926969398,0.540280114438,0.841447354546
1385568897119793986,610129,1385568897119793986,/world,vicon/Archie/Archie,0.137097966668,-0.12273281249,0.113157480278,-0.00450745812377,-0.00659018260878,0.540290322637,0.841440799806
1385568897129888430,610130,1385568897129888430,/world,vicon/Archie/Archie,0.13699122857,-0.122658100447,0.11321463547,-0.00431977329171,-0.00697888708632,0.540481619543,0.841315787104
1385568897139848536,610131,1385568897139848536,/world,vicon/Archie/Archie,0.137024641951,-0.122708282063,0.113203308788,-0.00433247012138,-0.00694150574152,0.540385392484,0.841377841871
1385568897149788840,610132,1385568897149788840,/world,vicon/Archie/Archie,0.137103774128,-0.12273110253,0.113160562106,-0.00450942376015,-0.00662945902321,0.540295672438,0.841437045604
1385568897160062182,610133,1385568897160062182,/world,vicon/Archie/Archie,0.136980828649,-0.122660033609,0.113197399174,-0.00425407553659,-0.00688778323771,0.540500110353,0.841304993443
1385568897169906850,610134,1385568897169906850,/world,vicon/Archie/Archie,0.136997708555,-0.122662622284,0.113212338651,-0.00431094604327,-0.00697667930433,0.540479812147,0.841317011805
1385568897179895082,610135,1385568897179895082,/world,vicon/Archie/Archie,0.137081856252,-0.122702155367,0.113235143677,-0.00424303771136,-0.00695203846304,0.540327641425,0.841415299186
1385568897189948721,610136,1385568897189948721,/world,vicon/Archie/Archie,0.137036826295,-0.122683205601,0.11313317162,-0.00457522762715,-0.00664756528164,0.540448315913,0.841338513914
1385568897200269109,610137,1385568897200269109,/world,vicon/Archie/Archie,0.137005838549,-0.122699498487,0.113188732735,-0.00429236872767,-0.00685650191233,0.540404247045,0.841366634546
1385568897210061788,610138,1385568897210061788,/world,vicon/Archie/Archie,0.137013842268,-0.122664373535,0.113219743511,-0.00426774839164,-0.00702527015426,0.540476666707,0.841318848385
1385568897219846353,610139,1385568897219846353,/world,vicon/Archie/Archie,0.13711925869,-0.122726666369,0.113149156148,-0.00452586164524,-0.00661724261934,0.540270223183,0.841453394204
1385568897230157630,610140,1385568897230157630,/world,vicon/Archie/Archie,0.137004059188,-0.122668703939,0.113205953729,-0.00428177572065,-0.00700063671375,0.540485635756,0.841313220521
1385568897239991604,610141,1385568897239991604,/world,vicon/Archie/Archie,0.137058825231,-0.122733547093,0.11313089205,-0.00456469575443,-0.00662463662867,0.540356832142,0.841397511108
1385568897249795751,610142,1385568897249795751,/world,vicon/Archie/Archie,0.137049445154,-0.122718386673,0.113103489974,-0.00452777383733,-0.0065008860781,0.540352465444,0.84140148017
1385568897259988783,610143,1385568897259988783,/world,vicon/Archie/Archie,0.137114927968,-0.122718249955,0.113155029871,-0.00450106485976,-0.00664014492174,0.540292138755,0.841439275106
1385568897269886312,610144,1385568897269886312,/world,vicon/Archie/Archie,0.137065243426,-0.122723108377,0.113126063131,-0.00456607181536,-0.00661965113418,0.540348189953,0.841403092947
1385568897279975274,610145,1385568897279975274,/world,vicon/Archie/Archie,0.137014522519,-0.122702709626,0.113185317041,-0.00428400526701,-0.00682826415879,0.54038718778,0.84137786362
1385568897290150530,610146,1385568897290150530,/world,vicon/Archie/Archie,0.137111365315,-0.122726730303,0.113155382859,-0.00451510711263,-0.00661103204116,0.540293368927,0.841438639211
1385568897299847491,610147,1385568897299847491,/world,vicon/Archie/Archie,0.137037584175,-0.122705766591,0.113209304908,-0.00432295383439,-0.00698271454268,0.540378129929,0.841382214253
1385568897310028225,610148,1385568897310028225,/world,vicon/Archie/Archie,0.137064559108,-0.122717953043,0.113123460485,-0.00459985291197,-0.00660812895656,0.540334673061,0.841411679901
1385568897319947816,610149,1385568897319947816,/world,vicon/Archie/Archie,0.13700822112,-0.122669730879,0.113119683125,-0.00454279002806,-0.00656387768268,0.540459113949,0.841332410358
1385568897330231706,610150,1385568897330231706,/world,vicon/Archie/Archie,0.137031622243,-0.122682271767,0.113139064114,-0.00457523597473,-0.00668865975063,0.540446817786,0.841339150517
1385568897339941235,610151,1385568897339941235,/world,vicon/Archie/Archie,0.13707743432,-0.122719730246,0.113124295535,-0.00457651379484,-0.00662930550571,0.540356611551,0.841397551805
1385568897349785197,610152,1385568897349785197,/world,vicon/Archie/Archie,0.13703191796,-0.122677339929,0.113133283216,-0.00455223301665,-0.00668947274852,0.540453330989,0.84133508494
1385568897360129159,610153,1385568897360129159,/world,vicon/Archie/Archie,0.137031513953,-0.122680768504,0.113139268955,-0.00458046650003,-0.0066443830925,0.540454161543,0.841334755476
1385568897369897075,610154,1385568897369897075,/world,vicon/Archie/Archie,0.137031646854,-0.122673976263,0.113133604384,-0.00454894140316,-0.00669003591444,0.54045800438,0.841332096174
1385568897379910713,610155,1385568897379910713,/world,vicon/Archie/Archie,0.137058885929,-0.122725145304,0.113126855216,-0.00457774936954,-0.00662658352017,0.540339098572,0.841408813334
1385568897390506688,610156,1385568897390506688,/world,vicon/Archie/Archie,0.137057337866,-0.122654962905,0.113252537429,-0.00422529209743,-0.00700324636308,0.540421101925,0.841354939393
1385568897400009022,610157,1385568897400009022,/world,vicon/Archie/Archie,0.13707073581,-0.122720672117,0.113132037984,-0.00458973139923,-0.00663141047791,0.540336340423,0.841410481263
1385568897409999882,610158,1385568897409999882,/world,vicon/Archie/Archie,0.137081475451,-0.122675834789,0.113171508003,-0.00448036584903,-0.00668035713643,0.540397089421,0.841371668703
1385568897419889789,610159,1385568897419889789,/world,vicon/Archie/Archie,0.13703391565,-0.12267626316,0.113144717141,-0.00457060019781,-0.00666551577875,0.540445722795,0.841340062773
1385568897430110154,610160,1385568897430110154,/world,vicon/Archie/Archie,0.137010013491,-0.122655607868,0.113222075081,-0.00431737775007,-0.00699222784743,0.540475476473,0.841319635056
1385568897439972371,610161,1385568897439972371,/world,vicon/Archie/Archie,0.137083858507,-0.122677842349,0.113170242115,-0.00449805596275,-0.00664682903951,0.540409329644,0.841363978068
1385568897449877913,610162,1385568897449877913,/world,vicon/Archie/Archie,0.137055251082,-0.122654472979,0.113250665621,-0.00419665862573,-0.00702478330785,0.540428931794,0.841349873808
1385568897460076907,610163,1385568897460076907,/world,vicon/Archie/Archie,0.137085145826,-0.12266876587,0.113163778219,-0.00451342825252,-0.00665836593394,0.540402106138,0.841368444149
1385568897469750893,610164,1385568897469750893,/world,vicon/Archie/Archie,0.137089799587,-0.122673991348,0.113170060608,-0.00446872928371,-0.0066537945318,0.54039753161,0.841371657062
1385568897479927671,610165,1385568897479927671,/world,vicon/Archie/Archie,0.137031676319,-0.122663274413,0.113144807719,-0.00456829137809,-0.00669904072241,0.540459592139,0.841330899725
1385568897489987048,610166,1385568897489987048,/world,vicon/Archie/Archie,0.137029033227,-0.122668713895,0.113137786623,-0.00455930451339,-0.00666853725941,0.540457343927,0.841332635019
1385568897499993279,610167,1385568897499993279,/world,vicon/Archie/Archie,0.136976290158,-0.122645449678,0.113196548341,-0.00424817129287,-0.00689040374219,0.540500932954,0.841304473334
1385568897509964853,610168,1385568897509964853,/world,vicon/Archie/Archie,0.137028758374,-0.122670310784,0.113140205616,-0.00457232427647,-0.00666761724475,0.540459353187,0.841331280937
1385568897519927017,610169,1385568897519927017,/world,vicon/Archie/Archie,0.13702489443,-0.122671088945,0.113146150516,-0.00455691352379,-0.0066623650767,0.540459980423,0.841331003228
1385568897529886377,610170,1385568897529886377,/world,vicon/Archie/Archie,0.13706657389,-0.122670421093,0.113175483465,-0.00451005574497,-0.00666014530888,0.54040677821,0.841365447309
1385568897539970528,610171,1385568897539970528,/world,vicon/Archie/Archie,0.137028351662,-0.122669817949,0.113141162869,-0.00455819743308,-0.00667107335652,0.5404574894,0.841332527463
1385568897549814684,610172,1385568897549814684,/world,vicon/Archie/Archie,0.137028112119,-0.122666133741,0.113141596074,-0.0045663770221,-0.00668617733371,0.540455909413,0.841333378165
1385568897559886904,610173,1385568897559886904,/world,vicon/Archie/Archie,0.137076932898,-0.122666068335,0.113168025192,-0.00446697882792,-0.00668344033034,0.540397656037,0.841371351471
1385568897569959675,610174,1385568897569959675,/world,vicon/Archie/Archie,0.137025620634,-0.122668962232,0.113144353409,-0.00456434147683,-0.0066808751662,0.540456982169,0.841332742212
1385568897579882489,610175,1385568897579882489,/world,vicon/Archie/Archie,0.137026547772,-0.122675062179,0.113136907314,-0.00457561808223,-0.00667464231843,0.540450653539,0.841336795795
1385568897589880328,610176,1385568897589880328,/world,vicon/Archie/Archie,0.137004552044,-0.12265353137,0.113218514007,-0.00432437677113,-0.00698417012259,0.540484816353,0.841313665897
1385568897599712295,610177,1385568897599712295,/world,vicon/Archie/Archie,0.137050206478,-0.122648836995,0.113256813202,-0.00420864861473,-0.00700017242711,0.540437801924,0.841344321378
1385568897609928305,610178,1385568897609928305,/world,vicon/Archie/Archie,0.137028147484,-0.122671820595,0.113144008343,-0.00456439190263,-0.00664612518203,0.540463822134,0.841328623256
1385568897619944974,610179,1385568897619944974,/world,vicon/Archie/Archie,0.13700260238,-0.122659756236,0.113117280409,-0.00452707676278,-0.00653329819834,0.540459875317,0.841332243982
1385568897629911996,610180,1385568897629911996,/world,vicon/Archie/Archie,0.137054066603,-0.122653143206,0.113248192271,-0.00421372710519,-0.00698507357132,0.540429222844,0.841349932161
1385568897639928481,610181,1385568897639928481,/world,vicon/Archie/Archie,0.137053155083,-0.122651542455,0.11324873401,-0.00421054584973,-0.00701362091395,0.540423056677,0.841353671316
1385568897649899576,610182,1385568897649899576,/world,vicon/Archie/Archie,0.137030506584,-0.12266889074,0.113141072278,-0.0045585613915,-0.00665681321654,0.540448565765,0.841338370763
1385568897660011206,610183,1385568897660011206,/world,vicon/Archie/Archie,0.13701221465,-0.122653687755,0.113223050499,-0.00430000203694,-0.00700806307566,0.540480477437,0.841316379576
1385568897669937226,610184,1385568897669937226,/world,vicon/Archie/Archie,0.137010648398,-0.122658265813,0.113115055556,-0.00452354066198,-0.00655424307771,0.540450809561,0.841337923739
1385568897679911360,610185,1385568897679911360,/world,vicon/Archie/Archie,0.137029817136,-0.122676466097,0.113142014289,-0.00457831149196,-0.00664305427646,0.540460304597,0.84133083151
1385568897689923680,610186,1385568897689923680,/world,vicon/Archie/Archie,0.137008129748,-0.122656842659,0.11321867762,-0.00429715864376,-0.00698891506837,0.540483692968,0.84131448765
1385568897699961643,610187,1385568897699961643,/world,vicon/Archie/Archie,0.137001108357,-0.122661918267,0.113119826558,-0.0045210033232,-0.0065409494555,0.540459363716,0.841332545835
1385568897709908472,610188,1385568897709908472,/world,vicon/Archie/Archie,0.137017568068,-0.122664136066,0.113117345153,-0.00452495010016,-0.00654639187871,0.540454272834,0.841335752572
1385568897719833950,610189,1385568897719833950,/world,vicon/Archie/Archie,0.137115548217,-0.122722975875,0.11315756917,-0.00449372729582,-0.00661808634344,0.540286974767,0.841442803906
1385568897729985686,610190,1385568897729985686,/world,vicon/Archie/Archie,0.13701018145,-0.122662353566,0.113123807961,-0.00453154203388,-0.00653789611967,0.540454381422,0.8413357134
1385568897739920941,610191,1385568897739920941,/world,vicon/Archie/Archie,0.13704447574,-0.122700542587,0.113212334049,-0.00432165479203,-0.00697854616983,0.540382346796,0.841379547211
1385568897749778527,610192,1385568897749778527,/world,vicon/Archie/Archie,0.137123285362,-0.122720280442,0.113159464227,-0.00450154315745,-0.00661615687856,0.540283048289,0.841445298465
1385568897760071800,610193,1385568897760071800,/world,vicon/Archie/Archie,0.13704720095,-0.122721341637,0.11311159798,-0.00455336510381,-0.00647515875032,0.54035241083,0.841401575525
1385568897769949869,610194,1385568897769949869,/world,vicon/Archie/Archie,0.137071242615,-0.122724070477,0.113135829581,-0.00460545956938,-0.00659244061187,0.540329974081,0.84141478985
1385568897780120202,610195,1385568897780120202,/world,vicon/Archie/Archie,0.137067517432,-0.122728112007,0.113132947305,-0.00460848446601,-0.00660872116884,0.540344628985,0.841405234475
1385568897790138623,610196,1385568897790138623,/world,vicon/Archie/Archie,0.137047550999,-0.12271849977,0.113106753719,-0.00453466355489,-0.00649917353592,0.540355454743,0.841399536545
1385568897799843632,610197,1385568897799843632,/world,vicon/Archie/Archie,0.137084599851,-0.122670920861,0.113162396317,-0.00449414085071,-0.00666194639429,0.540398493272,0.841370839546
1385568897810294219,610198,1385568897810294219,/world,vicon/Archie/Archie,0.137044481569,-0.122716739271,0.113104961534,-0.00457164319056,-0.00646336022868,0.540355337712,0.841399687461
1385568897820070165,610199,1385568897820070165,/world,vicon/Archie/Archie,0.137070829079,-0.122730359796,0.11313329133,-0.00461032919045,-0.00657814027025,0.54032797001,0.841416162051
1385568897830028778,610200,1385568897830028778,/world,vicon/Archie/Archie,0.137034132919,-0.12270486068,0.113214810068,-0.0043075976435,-0.00698414354001,0.540377246169,0.841382848746
1385568897840040967,610201,1385568897840040967,/world,vicon/Archie/Archie,0.137032502892,-0.122716792448,0.113114302403,-0.00456526619656,-0.00648798735634,0.540360445951,0.841396251963
1385568897849809837,610202,1385568897849809837,/world,vicon/Archie/Archie,0.137046451341,-0.122715521753,0.113111710065,-0.00454780816352,-0.00650980416383,0.540343966888,0.84140676093
1385568897859879014,610203,1385568897859879014,/world,vicon/Archie/Archie,0.137099127721,-0.122714078309,0.113136936449,-0.00446675515608,-0.0064892173903,0.540287898235,0.84144335827
1385568897869903714,610204,1385568897869903714,/world,vicon/Archie/Archie,0.137091235099,-0.122707706361,0.113247168521,-0.0042475876358,-0.00693417619574,0.540316933238,0.841422299952
1385568897880023839,610205,1385568897880023839,/world,vicon/Archie/Archie,0.137067470727,-0.122722390421,0.11313386932,-0.00458132287249,-0.00659398366121,0.540338072348,0.841409709019
1385568897890082617,610206,1385568897890082617,/world,vicon/Archie/Archie,0.137022582675,-0.122675953128,0.113147184547,-0.00458151759344,-0.00666698533838,0.54044729208,0.841338983696
1385568897899742897,610207,1385568897899742897,/world,vicon/Archie/Archie,0.137111469565,-0.12272605693,0.113165870288,-0.00451060609249,-0.00659177758818,0.540284862622,0.841444276303
1385568897909888667,610208,1385568897909888667,/world,vicon/Archie/Archie,0.137064386428,-0.122698957695,0.113222568492,-0.00420914733305,-0.006845191169,0.540328921469,0.841415523425
1385568897919942998,610209,1385568897919942998,/world,vicon/Archie/Archie,0.137117931822,-0.122730090457,0.113160808714,-0.00450995604381,-0.00662222327865,0.54027832498,0.841448238463
1385568897929997492,610210,1385568897929997492,/world,vicon/Archie/Archie,0.137032683101,-0.122681638799,0.113139878517,-0.00458018597997,-0.00666281349813,0.540434756187,0.84134707649
1385568897939950131,610211,1385568897939950131,/world,vicon/Archie/Archie,0.137058787596,-0.122659917569,0.113245837871,-0.00422231811216,-0.00698989083027,0.540415077477,0.841358934992
1385568897949959535,610212,1385568897949959535,/world,vicon/Archie/Archie,0.137063700244,-0.122721973014,0.113131432723,-0.00458492181225,-0.00661302725972,0.540339625572,0.841408542504
1385568897960014461,610213,1385568897960014461,/world,vicon/Archie/Archie,0.13699861077,-0.122661951589,0.113218949346,-0.00428989091845,-0.00701509886099,0.540486761995,0.841312335184
1385568897969873445,610214,1385568897969873445,/world,vicon/Archie/Archie,0.13702708811,-0.122679433113,0.113139868795,-0.00458982985684,-0.0066486919411,0.540447266006,0.841339099902
1385568897979881688,610215,1385568897979881688,/world,vicon/Archie/Archie,0.137082810978,-0.122675329926,0.113166495849,-0.00449757426791,-0.00663700501435,0.540399904978,0.841370111597
1385568897990062354,610216,1385568897990062354,/world,vicon/Archie/Archie,0.136982151868,-0.122652743437,0.113198381075,-0.00425581396172,-0.00690639281884,0.540496091897,0.84130741375
1385568897999874752,610217,1385568897999874752,/world,vicon/Archie/Archie,0.137005705487,-0.122666151636,0.11312876671,-0.00453507733657,-0.00655049656007,0.540466037126,0.841328108874
1385568898010020247,610218,1385568898010020247,/world,vicon/Archie/Archie,0.137123142018,-0.122720401936,0.11315868623,-0.00450286274611,-0.00661517278089,0.540276805948,0.841449307249
1385568898020027189,610219,1385568898020027189,/world,vicon/Archie/Archie,0.136989066068,-0.122646407868,0.113197138977,-0.00426796023299,-0.00687756394622,0.540487778887,0.841312929
1385568898030054999,610220,1385568898030054999,/world,vicon/Archie/Archie,0.137033730403,-0.122671274461,0.113145905736,-0.00455912498224,-0.00669256466771,0.540450812533,0.841336640822
1385568898040085854,610221,1385568898040085854,/world,vicon/Archie/Archie,0.137045183822,-0.12269010313,0.113212269428,-0.00433223413064,-0.00694792565989,0.540380310273,0.841381054187
1385568898049989480,610222,1385568898049989480,/world,vicon/Archie/Archie,0.137045660355,-0.122716896238,0.113099991406,-0.0045473229784,-0.00648129626025,0.540356292164,0.841399068321
1385568898059922625,610223,1385568898059922625,/world,vicon/Archie/Archie,0.137092620845,-0.122710876187,0.113137465346,-0.00446171716346,-0.0064661829305,0.540307237567,0.841431144296
1385568898069844747,610224,1385568898069844747,/world,vicon/Archie/Archie,0.137081658197,-0.122729486112,0.113130653136,-0.0046176968097,-0.00659681571858,0.540342983225,0.841406334287
1385568898079931986,610225,1385568898079931986,/world,vicon/Archie/Archie,0.137047307926,-0.122704240654,0.113205002701,-0.00432031468397,-0.00696391865191,0.540369874937,0.841387685302
1385568898089957114,610226,1385568898089957114,/world,vicon/Archie/Archie,0.137107549937,-0.122717029033,0.113132531781,-0.00448959538417,-0.00644193102812,0.540296180036,0.841438282286
1385568898099904046,610227,1385568898099904046,/world,vicon/Archie/Archie,0.137018627029,-0.12269254096,0.113187382182,-0.00429688676904,-0.00684756346241,0.540394922803,0.841372673105
1385568898110043944,610228,1385568898110043944,/world,vicon/Archie/Archie,0.137074158788,-0.122720550257,0.113124753039,-0.00459057047757,-0.00658787287851,0.540351807479,0.841400885873
1385568898119927682,610229,1385568898119927682,/world,vicon/Archie/Archie,0.137012338902,-0.122662859379,0.11310949404,-0.00452098471178,-0.0065420196873,0.540456883351,0.841334130957
1385568898130039488,610230,1385568898130039488,/world,vicon/Archie/Archie,0.137099077087,-0.122710518524,0.113131666238,-0.00446013045327,-0.00648972406701,0.540288311122,0.841443124389
1385568898140048481,610231,1385568898140048481,/world,vicon/Archie/Archie,0.137071275019,-0.122724250479,0.113132757437,-0.00458344626614,-0.00661918416337,0.540340680429,0.841407824717
1385568898149915127,610232,1385568898149915127,/world,vicon/Archie/Archie,0.13710242856,-0.122712303134,0.113132583468,-0.00445313030546,-0.00647303417788,0.540287806899,0.841443613783
1385568898160047157,610233,1385568898160047157,/world,vicon/Archie/Archie,0.13707275604,-0.122726787913,0.113116702088,-0.00458253303631,-0.00661810981402,0.540342216697,0.84140685157
1385568898169898513,610234,1385568898169898513,/world,vicon/Archie/Archie,0.13701626798,-0.122677606828,0.113107862539,-0.00452776789499,-0.00653334910826,0.540466149304,0.841328209514
1385568898180183603,610235,1385568898180183603,/world,vicon/Archie/Archie,0.13703680816,-0.12268510891,0.113138918058,-0.00457949017928,-0.00666265288754,0.540443684841,0.84134134621
1385568898189927476,610236,1385568898189927476,/world,vicon/Archie/Archie,0.13703146643,-0.122674292505,0.113137734011,-0.00456447856263,-0.00666045532343,0.540441230495,0.841343021752
1385568898199885305,610237,1385568898199885305,/world,vicon/Archie/Archie,0.137067204949,-0.122735301126,0.113125912077,-0.00456931887761,-0.00661773008021,0.540346398785,0.841404240715
1385568898209941163,610238,1385568898209941163,/world,vicon/Archie/Archie,0.137120611879,-0.122726715234,0.113158079316,-0.00449741886815,-0.0066066292853,0.540268071998,0.841455011307
1385568898219868453,610239,1385568898219868453,/world,vicon/Archie/Archie,0.137121162252,-0.12272963406,0.113160060162,-0.00449998254445,-0.00661282303996,0.540282992642,0.84144536875
1385568898229997182,610240,1385568898229997182,/world,vicon/Archie/Archie,0.137094585223,-0.122726497354,0.113141352848,-0.00448215159225,-0.00649213645873,0.540301134675,0.84143475466
1385568898239950414,610241,1385568898239950414,/world,vicon/Archie/Archie,0.137125825726,-0.122731611336,0.113162472811,-0.00453480783969,-0.00661392469364,0.5402848402,0.841443986827
1385568898249902843,610242,1385568898249902843,/world,vicon/Archie/Archie,0.137084565087,-0.122723141465,0.113138066375,-0.00447354607053,-0.00648135704275,0.540300849538,0.841435066648
1385568898260104305,610243,1385568898260104305,/world,vicon/Archie/Archie,0.137060012323,-0.122734521427,0.113134821961,-0.00456864516183,-0.00664723330127,0.540332616634,0.841412862495
1385568898269871199,610244,1385568898269871199,/world,vicon/Archie/Archie,0.137092482144,-0.122721395449,0.113140778064,-0.00446824640401,-0.00650282522012,0.540298353294,0.841436532049
1385568898280127585,610245,1385568898280127585,/world,vicon/Archie/Archie,0.137065821766,-0.122723519145,0.113141722047,-0.00458031351116,-0.00660952872234,0.540332139789,0.841413402299
1385568898289974415,610246,1385568898289974415,/world,vicon/Archie/Archie,0.137069859898,-0.122734093529,0.113145030163,-0.00461445799264,-0.00660465083318,0.540343624943,0.841405878485
1385568898299888258,610247,1385568898299888258,/world,vicon/Archie/Archie,0.137021690552,-0.122685684755,0.113145069985,-0.00459260895575,-0.00664358520074,0.540456155225,0.841333414883
1385568898309953931,610248,1385568898309953931,/world,vicon/Archie/Archie,0.137036627029,-0.12271556652,0.113114776633,-0.00454671154411,-0.00648771255119,0.540361697313,0.841395550901
1385568898319838373,610249,1385568898319838373,/world,vicon/Archie/Archie,0.137003096697,-0.122670912152,0.113123152086,-0.00453460377847,-0.0065742666735,0.540458302578,0.841332894615
1385568898330019756,610250,1385568898330019756,/world,vicon/Archie/Archie,0.137020522951,-0.122683307255,0.113148829411,-0.0045688317245,-0.00669410890149,0.540456081992,0.841333190906
1385568898340026803,610251,1385568898340026803,/world,vicon/Archie/Archie,0.137036891174,-0.122721603333,0.11310969517,-0.00454120845222,-0.00649955603529,0.540364004833,0.841394007275
1385568898349743174,610252,1385568898349743174,/world,vicon/Archie/Archie,0.137007713527,-0.12267248345,0.113122349815,-0.0045260774875,-0.00656631762391,0.540470338125,0.841325271047
1385568898359861982,610253,1385568898359861982,/world,vicon/Archie/Archie,0.137043624793,-0.122658895015,0.11315599617,-0.00445586729133,-0.00655731061885,0.540413767566,0.841362054498
1385568898369925631,610254,1385568898369925631,/world,vicon/Archie/Archie,0.137062249284,-0.122674876292,0.113176256499,-0.00449352180574,-0.00667346738061,0.54039551344,0.84137266544
1385568898379978944,610255,1385568898379978944,/world,vicon/Archie/Archie,0.137005745384,-0.12266362885,0.113121368166,-0.0045217141859,-0.00655840679023,0.540461711638,0.841330897837
1385568898390094484,610256,1385568898390094484,/world,vicon/Archie/Archie,0.136977326536,-0.122647990443,0.113203591594,-0.00426531055917,-0.0068899390081,0.540484229275,0.841315121564
1385568898399980805,610257,1385568898399980805,/world,vicon/Archie/Archie,0.136994269242,-0.122665678814,0.113122334887,-0.00453798515296,-0.00653513046535,0.540463695118,0.841329717186
1385568898410017411,610258,1385568898410017411,/world,vicon/Archie/Archie,0.137032973124,-0.122670863924,0.113142628513,-0.00456863544527,-0.00665338760394,0.540450008976,0.841337416143
1385568898419923329,610259,1385568898419923329,/world,vicon/Archie/Archie,0.137005964948,-0.122659252307,0.113226804394,-0.00432478666477,-0.00697774381193,0.540478937408,0.841317493893
1385568898430045050,610260,1385568898430045050,/world,vicon/Archie/Archie,0.137000883782,-0.122658529624,0.113129903106,-0.00454148217162,-0.00656381534518,0.540455660758,0.841334636172
1385568898440089624,610261,1385568898440089624,/world,vicon/Archie/Archie,0.137002609609,-0.122666938392,0.113119881864,-0.0045513664528,-0.00655734728378,0.540457622752,0.841333372849
1385568898449971493,610262,1385568898449971493,/world,vicon/Archie/Archie,0.137022952915,-0.122678628453,0.113140547165,-0.0045548747173,-0.0066634559882,0.540453385688,0.841335241963
1385568898459978491,610263,1385568898459978491,/world,vicon/Archie/Archie,0.137002858187,-0.122664669499,0.113123559348,-0.00452274576321,-0.0065744456865,0.540468371258,0.841326489006
1385568898469830436,610264,1385568898469830436,/world,vicon/Archie/Archie,0.137049273375,-0.12266789958,0.113150374594,-0.00443026204989,-0.00655418972845,0.540412979886,0.841362719964
1385568898480032663,610265,1385568898480032663,/world,vicon/Archie/Archie,0.137031656963,-0.122669596549,0.113148681881,-0.00458409515709,-0.00667747527995,0.540465183529,0.841327393343
1385568898489961281,610266,1385568898489961281,/world,vicon/Archie/Archie,0.13704173177,-0.122662634484,0.113149884779,-0.00445786936681,-0.00656961764565,0.540408775199,0.841365154504
1385568898500020466,610267,1385568898500020466,/world,vicon/Archie/Archie,0.136993502487,-0.122662137863,0.11311677394,-0.00453399500202,-0.0065405639705,0.540469348997,0.841326064441
1385568898510006514,610268,1385568898510006514,/world,vicon/Archie/Archie,0.137003118227,-0.12265869347,0.113123190119,-0.0045490913615,-0.00653760522303,0.540471683751,0.841324506091
1385568898519936363,610269,1385568898519936363,/world,vicon/Archie/Archie,0.137023021297,-0.122672343218,0.113145428822,-0.00459682664267,-0.00666343911479,0.540449294426,0.841337642043
1385568898529976901,610270,1385568898529976901,/world,vicon/Archie/Archie,0.137026063171,-0.122671173052,0.11314138425,-0.00455828685265,-0.00665463847945,0.540455676348,0.841333821804
1385568898540043522,610271,1385568898540043522,/world,vicon/Archie/Archie,0.137020368464,-0.122670124061,0.113142770558,-0.00457804033457,-0.00667551815691,0.540455054615,0.841333948528
1385568898549828373,610272,1385568898549828373,/world,vicon/Archie/Archie,0.137047620628,-0.122650294521,0.113259474678,-0.00423121995686,-0.00699953045625,0.540433621278,0.841346898932
1385568898559997617,610273,1385568898559997617,/world,vicon/Archie/Archie,0.137047779281,-0.122660097518,0.113148857322,-0.00444648660278,-0.00656850325241,0.540412777278,0.841362652889
1385568898569936391,610274,1385568898569936391,/world,vicon/Archie/Archie,0.136995027277,-0.122653005612,0.113124616385,-0.00454178975852,-0.00656473468408,0.54047764794,0.84132050283
1385568898580058486,610275,1385568898580058486,/world,vicon/Archie/Archie,0.136992439948,-0.122658596342,0.11311759316,-0.00454194716719,-0.00654839863291,0.540467305198,0.84132727354
1385568898589957050,610276,1385568898589957050,/world,vicon/Archie/Archie,0.137021576703,-0.122668199759,0.113142394199,-0.0045743518449,-0.00667606948359,0.540461269226,0.841329972049
1385568898599992493,610277,1385568898599992493,/world,vicon/Archie/Archie,0.137051456391,-0.122650101248,0.113256129355,-0.00423000603317,-0.00700655616488,0.540433333416,0.841347031463
1385568898609869929,610278,1385568898609869929,/world,vicon/Archie/Archie,0.137044180145,-0.122652905041,0.113254833165,-0.00421004101023,-0.00701381234677,0.540435530133,0.841345660095
1385568898619864242,610279,1385568898619864242,/world,vicon/Archie/Archie,0.137049048724,-0.122660758149,0.113151895728,-0.00446344921513,-0.0065537251521,0.540417694025,0.841359520237
1385568898629964865,610280,1385568898629964865,/world,vicon/Archie/Archie,0.137075552757,-0.122670200942,0.113169450658,-0.0045027445027,-0.00665760066073,0.540404553762,0.841366935361
1385568898640018255,610281,1385568898640018255,/world,vicon/Archie/Archie,0.137071511777,-0.122662754195,0.113175167325,-0.00449262973789,-0.00666886591475,0.540399477685,0.841370160526
1385568898649894597,610282,1385568898649894597,/world,vicon/Archie/Archie,0.137025336947,-0.122668550664,0.11314102936,-0.00458122812591,-0.00665395662055,0.540456669871,0.84133306437
1385568898660355426,610283,1385568898660355426,/world,vicon/Archie/Archie,0.137049624282,-0.122658707307,0.113137787777,-0.00446127408279,-0.00654030694168,0.540411425272,0.841363662666
1385568898669952629,610284,1385568898669952629,/world,vicon/Archie/Archie,0.137079632871,-0.122669508866,0.113175914537,-0.0045049693324,-0.00665224462693,0.540404149763,0.841367225302
1385568898679916414,610285,1385568898679916414,/world,vicon/Archie/Archie,0.137012614376,-0.122671283155,0.11314487399,-0.00458506416701,-0.00667074433801,0.540458016774,0.841332045308
1385568898690051669,610286,1385568898690051669,/world,vicon/Archie/Archie,0.137020241483,-0.122665141605,0.113142546562,-0.00459410508507,-0.00666976652533,0.540450768658,0.841336659768
1385568898699916086,610287,1385568898699916086,/world,vicon/Archie/Archie,0.137029557682,-0.12266617077,0.113143619765,-0.00458500227131,-0.00664987889331,0.540460868428,0.841330378961
1385568898709959385,610288,1385568898709959385,/world,vicon/Archie/Archie,0.13707696205,-0.122670145956,0.113170761522,-0.00448429250814,-0.00663754819633,0.540402805291,0.84136831537
1385568898719769612,610289,1385568898719769612,/world,vicon/Archie/Archie,0.137052781622,-0.122657771895,0.113155994379,-0.00445942967322,-0.00654938710992,0.540416998342,0.841360022178
1385568898730078140,610290,1385568898730078140,/world,vicon/Archie/Archie,0.137026297995,-0.122665939787,0.113153601349,-0.00457737223138,-0.00666949420378,0.54045165011,0.84133618691
1385568898740025286,610291,1385568898740025286,/world,vicon/Archie/Archie,0.136994056804,-0.122660795041,0.113120945265,-0.00453313673521,-0.00654422728296,0.540467589516,0.84132717087
1385568898749894080,610292,1385568898749894080,/world,vicon/Archie/Archie,0.136995039035,-0.122659418878,0.113121169698,-0.00453745796029,-0.00655263801435,0.540465271441,0.841328571235
1385568898759960928,610293,1385568898759960928,/world,vicon/Archie/Archie,0.137019854027,-0.122666747644,0.113147403834,-0.00459460270064,-0.00663788746093,0.540449419,0.841337776151
1385568898769898070,610294,1385568898769898070,/world,vicon/Archie/Archie,0.137071094712,-0.122664476457,0.113175804236,-0.00448728026762,-0.00665518493033,0.54040196463,0.841368700068
1385568898780042706,610295,1385568898780042706,/world,vicon/Archie/Archie,0.137023800872,-0.122669757763,0.113145269661,-0.0045748180284,-0.00666057564264,0.540459149862,0.84133145377
1385568898789968479,610296,1385568898789968479,/world,vicon/Archie/Archie,0.137078009426,-0.122665748619,0.113166226002,-0.00451552096229,-0.00664202120931,0.540399939382,0.84136995379
1385568898799918232,610297,1385568898799918232,/world,vicon/Archie/Archie,0.137023769876,-0.122667732624,0.113145874078,-0.00456149624855,-0.00667638720085,0.540459009575,0.841331490897
1385568898809937886,610298,1385568898809937886,/world,vicon/Archie/Archie,0.137043108216,-0.122663111332,0.113145366408,-0.00458355476933,-0.00665141299634,0.540445163506,0.841340463174
1385568898820064149,610299,1385568898820064149,/world,vicon/Archie/Archie,0.137026532089,-0.122667960338,0.113145936009,-0.0045661952401,-0.00666229911552,0.540445392515,0.841340324328
1385568898829950638,610300,1385568898829950638,/world,vicon/Archie/Archie,0.136999079484,-0.122663077771,0.113124934402,-0.00453037360803,-0.00656090852374,0.540469421869,0.841325878729
1385568898840053498,610301,1385568898840053498,/world,vicon/Archie/Archie,0.13703201129,-0.12267434696,0.113143403404,-0.00456510608954,-0.00667774670502,0.54045251593,0.841335631915
1385568898849865604,610302,1385568898849865604,/world,vicon/Archie/Archie,0.136997885402,-0.122661061971,0.113126288753,-0.00454246406479,-0.00656704382593,0.540467533656,0.841326978659
1385568898859902770,610303,1385568898859902770,/world,vicon/Archie/Archie,0.136999823792,-0.122659123202,0.113119216753,-0.00452817421155,-0.00655666040084,0.540464666208,0.841328978713
1385568898869946762,610304,1385568898869946762,/world,vicon/Archie/Archie,0.137022664645,-0.122666431433,0.113146277702,-0.0045796885773,-0.00666143275592,0.540447889317,0.841338653991
1385568898879969808,610305,1385568898879969808,/world,vicon/Archie/Archie,0.137029320889,-0.12266479138,0.113145837416,-0.00456602442273,-0.00667243039131,0.540442047023,0.841342393977
1385568898889998405,610306,1385568898889998405,/world,vicon/Archie/Archie,0.136994747168,-0.122658383977,0.11312333353,-0.00453668583127,-0.00655216647304,0.540472187048,0.84132413648
1385568898899920202,610307,1385568898899920202,/world,vicon/Archie/Archie,0.137026337087,-0.122662549227,0.113140668354,-0.0045721480862,-0.00667757220589,0.540445650548,0.841340005168
