%time,field.linear.x,field.linear.y,field.linear.z,field.angular.x,field.angular.y,field.angular.z
1385566772561866055,-0.0,0.0,0.0,1.0,0.0,0.0
1385566772651763424,-0.0,0.0,7.66811757041e-08,1.0,0.0,0.118003145458
1385566772750743354,-0.0630331843429,0.134595452323,-0.0129992877211,1.0,0.0,0.0754998017313
1385566772850710631,-0.0554414473924,0.118567468461,-0.0111320992583,1.0,0.0,0.0877988592049
1385566772951690575,-0.0640775623707,0.137107388701,-0.0102759864853,1.0,0.0,0.0866514285222
1385566773051738928,-0.0606704741261,0.129833131979,-0.00849276892482,1.0,0.0,0.0877634270879
1385566773150685267,-0.0565270215573,0.121111245218,-0.00617742614086,1.0,0.0,0.088356172359
1385566773251118264,-0.0495281436177,0.105960429502,-0.00338301586273,1.0,0.0,0.0889030464122
1385566773350769795,-0.0416195607505,0.0894818513915,-0.000171844360807,1.0,0.0,0.0892428241262
1385566773450769673,-0.0336666452453,0.0725821416819,0.0034021057093,1.0,0.0,0.0895585845932
1385566773550778031,-0.0262782995178,0.0567659016972,0.00728980680781,1.0,0.0,0.089821075728
1385566773651711618,-0.0197483695501,0.0430438524108,0.0114355199566,1.0,0.0,0.0900079540501
1385566773750687492,-0.014465292613,0.0317785313803,0.015810281641,1.0,0.0,0.0901543850758
1385566773850761096,-0.010451885421,0.0233539031911,0.0203467236475,1.0,0.0,0.0902696853254
1385566773950763891,-0.00792331977993,0.0172145630394,0.0251605904892,1.0,0.0,0.0904629736146
1385566774051687460,-0.00601439114231,0.0139443568927,0.0300325063526,1.0,0.0,0.0904885838031
1385566774151240399,-0.00542119976464,0.0122995069233,0.0351165715028,1.0,0.0,0.0906264250519
1385566774250814680,-0.00534720371011,0.0125084837878,0.0402165901607,1.0,0.0,0.090648723401
1385566774351669063,-0.00596260914711,0.0137121136148,0.0454640786598,1.0,0.0,0.0907096293765
1385566774450824943,-0.00650823937608,0.0158546116283,0.050732759734,1.0,0.0,0.0905980816282
1385566774550875587,-0.00748222755339,0.0185050936055,0.0559869966622,1.0,0.0,0.0904539435689
1385566774650717404,-0.00850521792683,0.0210292821807,0.0614582297169,1.0,0.0,0.0903537594083
1385566774750791027,-0.00929144878409,0.0233538360178,0.0670308991302,1.0,0.0,0.0901202005619
1385566774850825853,-0.00986775621646,0.0253707722062,0.07254959196,1.0,0.0,0.0896942576201
1385566774950841387,-0.00986313646372,0.0275501684962,0.0780812722688,1.0,0.0,0.0890095384245
1385566775050922019,-0.00957078354223,0.0288586340116,0.0836917467961,1.0,0.0,0.0881719115419
1385566775150874914,-0.00938128227569,0.0304276455708,0.0891750165919,1.0,0.0,0.0871996005877
1385566775250858037,-0.00865421043564,0.0310331828481,0.094864194785,1.0,0.0,0.0858735068804
1385566775350888445,-0.00692928238048,0.0313706269127,0.10050293874,1.0,0.0,0.084124005196
1385566775450970178,-0.00512077697226,0.030830573909,0.106113247476,1.0,0.0,0.0819547923758
1385566775550911240,-0.0012777353325,0.0303798948738,0.111055922161,1.0,0.0,0.0788675978857
1385566775651780865,0.00265164983188,0.0257665683464,0.115643771837,1.0,0.0,0.075170042187
1385566775751660914,0.00551694841477,0.0224780784478,0.117863170137,1.0,0.0,0.0715091952424
1385566775851754817,0.00782091028021,0.0203291451513,0.11755737843,1.0,0.0,0.0676688649534
1385566775951858711,0.0105024972922,0.0206241916701,0.115086383456,1.0,0.0,0.0638290442359
1385566776051678822,0.0132789438824,0.018785360353,0.112105966516,1.0,0.0,0.0599805629556
1385566776151687365,0.0158872935327,0.0165809682222,0.108296743467,1.0,0.0,0.0562892256027
1385566776251787614,0.0174474675207,0.0154621237563,0.103021577685,1.0,0.0,0.0525214904546
1385566776350853301,0.0176737001968,0.0137529650775,0.0976872664549,1.0,0.0,0.0487930242222
1385566776451779866,0.0182411576653,0.0125590501829,0.0937766382465,1.0,0.0,0.0451826330918
1385566776550812598,0.0183005089986,0.0112103309524,0.0916857649768,1.0,0.0,0.0416308104265
1385566776650726279,0.0181995077569,0.00975687289523,0.0915438879917,1.0,0.0,0.0381432214869
1385566776751749964,0.0177614799729,0.00809256927826,0.0934013798836,1.0,0.0,0.0348311631711
1385566776850727256,0.0172680980394,0.00628138191318,0.0970473255128,1.0,0.0,0.0315818994545
1385566776950722635,0.016863671251,0.00420183817148,0.102191048701,1.0,0.0,0.0284548470545
1385566777050814106,0.0156978327818,0.00172838843021,0.108553907952,1.0,0.0,0.025431239156
1385566777151753824,0.0134501761763,-0.000594166167356,0.115562552681,1.0,0.0,0.0225390490495
1385566777250672469,0.0100963276738,-0.00385845963532,0.122990195074,1.0,0.0,0.0198426870591
1385566777350772930,0.00708590274747,-0.00548310445255,0.130029152331,1.0,0.0,0.0172633807349
1385566777450957021,0.00349948654201,-0.00865208288824,0.136949117472,1.0,0.0,0.0148990395589
1385566777550863795,0.00103394552441,-0.0103357753401,0.143373112894,1.0,0.0,0.012726220254
1385566777650887163,-0.00243284673287,-0.0130446229562,0.149630739876,1.0,0.0,0.0107160791565
1385566777750717130,-0.00545565735718,-0.0151229269744,0.153078704675,1.0,0.0,0.00888818279901
1385566777851677152,-0.00874486953457,-0.0189788049823,0.15601066582,1.0,0.0,0.00728638398186
1385566777950846278,-0.0125794221268,-0.0209703922973,0.157873465549,1.0,0.0,0.00576123668249
1385566778051893606,-0.0150674891415,-0.0218533047077,0.158972597142,1.0,0.0,0.00447618153017
1385566778151838123,-0.0185901053863,-0.0239905993449,0.159353325687,1.0,0.0,0.00322266940469
1385566778251922223,-0.0212144131975,-0.0250970743933,0.158895541658,1.0,0.0,0.00230229377887
1385566778350746865,-0.0225680557745,-0.0256231388439,0.157734576399,1.0,0.0,0.00144791301206
1385566778451897333,-0.0247338924227,-0.0274223011563,0.155850399847,1.0,0.0,0.00072198207476
1385566778550763463,-0.0258047422891,-0.0286600891271,0.153228737052,1.0,0.0,0.00014174719147
1385566778650852588,-0.0264037085386,-0.0286648864492,0.15002751905,1.0,0.0,-0.000389190908014
1385566778751759547,-0.0269907113944,-0.0284917590148,0.146304444813,1.0,0.0,-0.000802550949474
1385566778850673541,-0.0271240185886,-0.0283320757397,0.142209712778,1.0,0.0,-0.0011547607274
1385566778950857561,-0.026378772742,-0.0283687121333,0.137824190644,1.0,0.0,-0.0014219441882
1385566779051080141,-0.0256858575953,-0.0276041137772,0.133301535064,1.0,0.0,-0.00164647657654
1385566779151682481,-0.0247976975932,-0.0263902188913,0.128800729795,1.0,0.0,-0.00181978907845
1385566779250838235,-0.0236284783202,-0.025233012314,0.124467463105,1.0,0.0,-0.00192274363376
1385566779351310681,-0.0221569844281,-0.0236748572088,0.120384613337,1.0,0.0,-0.00199958121522
1385566779451328000,-0.0204494746642,-0.0223589772733,0.116621794007,1.0,0.0,-0.00199155506879
1385566779551465317,-0.0184625456062,-0.0204479466393,0.113189659304,1.0,0.0,-0.00193158331575
1385566779651315331,-0.0164533560795,-0.0185889519546,0.109990548291,1.0,0.0,-0.00180604969543
1385566779751290187,-0.0144116011076,-0.0165288937818,0.106973369497,1.0,0.0,-0.00158692483128
1385566779851448597,-0.0123751192812,-0.0147572874535,0.10401157347,1.0,0.0,-0.0012936562135
1385566779951426412,-0.0102581644572,-0.0127688218254,0.101073243778,1.0,0.0,-0.000995180839078
1385566780051304210,-0.00832194784627,-0.0109541357472,0.0980732403865,1.0,0.0,-0.000643560576635
1385566780152351684,-0.00645108969972,-0.0090512413797,0.0949821203638,1.0,0.0,-0.000234461564477
1385566780252306407,-0.00449990991985,-0.00726903791124,0.0918112153321,1.0,0.0,0.000238835224817
1385566780352365709,-0.00274214891038,-0.00532828048441,0.0885561522391,1.0,0.0,0.000680633338164
1385566780452565592,-0.00124310133513,-0.00390288406109,0.0851948912265,1.0,0.0,0.0011699140732
1385566780550748022,0.000173102706743,-0.0022567850142,0.0818466926509,1.0,0.0,0.00161149184008
1385566780650739248,0.00170032813392,-0.000813970309779,0.0785627002661,1.0,0.0,0.00215391271568
1385566780751369386,0.00294710882026,0.000359557368429,0.0752338649163,1.0,0.0,0.00267590450593
1385566780851315934,0.00406863613112,0.00138671530993,0.0719633476081,1.0,0.0,0.00322866329569
1385566780951460588,0.00488022128211,0.00199755309992,0.0687493572221,1.0,0.0,0.00383563168423
1385566781051365950,0.00555370172989,0.00231000080007,0.0656581386658,1.0,0.0,0.0044716030831
1385566781151411639,0.00593937836356,0.00227756664015,0.062708226349,1.0,0.0,0.00508347117327
1385566781251399170,0.00602285367489,0.00181805459675,0.0599280510702,1.0,0.0,0.00566758627752
1385566781350387743,0.00571697325372,0.000930493689585,0.0572346379475,1.0,0.0,0.00619979430501
1385566781450468406,0.00524623150596,-0.000282200046028,0.0546969587005,1.0,0.0,0.00674759693273
1385566781550467531,0.00446681066456,-0.00195726736018,0.0522862944212,1.0,0.0,0.00722470110941
1385566781652420808,0.0035435521239,-0.00392178727721,0.0499650098005,1.0,0.0,0.00780280186616
1385566781752365755,0.0023435274857,-0.00628128067864,0.0476791953407,1.0,0.0,0.00831023652552
1385566781851308713,0.00098629737129,-0.00881136236692,0.0454752745313,1.0,0.0,0.00880949642854
1385566781951305881,-0.000440804573664,-0.0114656794875,0.0433554051623,1.0,0.0,0.00932128719259
1385566782050761165,-0.00213252460802,-0.0144347587953,0.0413235395429,1.0,0.0,0.0097964755371
1385566782150843991,-0.00369563062618,-0.0170634434688,0.0394109667289,1.0,0.0,0.0102469416836
1385566782250582702,-0.00546017974678,-0.0197265916765,0.0375403734145,1.0,0.0,0.0106087889209
1385566782351374901,-0.00720052465353,-0.0222783471622,0.0356855291795,1.0,0.0,0.0109752801214
1385566782451324706,-0.00883128145723,-0.0243801486323,0.0339322872562,1.0,0.0,0.0113695039251
1385566782551327614,-0.0104228122606,-0.0260763738423,0.0323483994632,1.0,0.0,0.0116389636623
1385566782651349578,-0.0117641334241,-0.0273705731396,0.030982511435,1.0,0.0,0.0118720021641
1385566782752414596,-0.0128976516799,-0.0283192512668,0.0297332458762,1.0,0.0,0.0120439701162
1385566782851377987,-0.0137428052869,-0.0288931387689,0.0286744260931,1.0,0.0,0.0121612905844
1385566782951327831,-0.0141858673542,-0.0291362233116,0.0278038083631,1.0,0.0,0.0122938721157
1385566783051523014,-0.0143566230858,-0.0287378081169,0.0271181842811,1.0,0.0,0.012360435221
1385566783150683985,-0.0142084087681,-0.0278796730367,0.0265612456414,1.0,0.0,0.0124051200073
1385566783250461320,-0.0137900130765,-0.0266423565859,0.0258817198776,1.0,0.0,0.0124573299356
1385566783352330405,-0.0131074569191,-0.0246962798788,0.0252918587468,1.0,0.0,0.0124753983238
1385566783452458936,-0.0122220686055,-0.0224825660715,0.024615594421,1.0,0.0,0.0125110001658
1385566783551434047,-0.0111513465022,-0.0197101266323,0.0240208512958,1.0,0.0,0.0126371884776
1385566783650763266,-0.0101071922351,-0.0166925195957,0.0234099799049,1.0,0.0,0.012727641589
1385566783750629795,-0.00889617378082,-0.0131442031277,0.0230162801694,1.0,0.0,0.0128054400978
1385566783851318275,-0.00778212806618,-0.00946043454856,0.0225301065895,1.0,0.0,0.0129184249832
1385566783951328361,-0.00657360249473,-0.00546512062072,0.022046372815,1.0,0.0,0.0130258935743
1385566784050915638,-0.00554061201646,-0.00104107561215,0.0216815551444,1.0,0.0,0.0131201343838
1385566784151968746,-0.00439165719247,0.00355423073642,0.0213825241435,1.0,0.0,0.0132050388068
1385566784250969586,-0.00321243815081,0.00821319992333,0.0210147944805,1.0,0.0,0.013358652964
1385566784351934209,-0.00192982847088,0.0129276986888,0.0206626308967,1.0,0.0,0.0135532240323
1385566784450922909,-0.000560490725313,0.0174313836239,0.0202899492276,1.0,0.0,0.0138045783197
1385566784550982677,0.000942044435103,0.0216758325593,0.0198786019361,1.0,0.0,0.0141835110799
1385566784652000951,0.00259146623343,0.0255787939908,0.0195196582677,1.0,0.0,0.0146669812144
1385566784751906551,0.00408462877859,0.0288620929441,0.019100084952,1.0,0.0,0.015171592983
1385566784850988324,0.00566014078189,0.0316523351249,0.0187021022976,1.0,0.0,0.015758943712
1385566784951063449,0.00701436901712,0.0336317604443,0.0181884399836,1.0,0.0,0.0163597247827
1385566785050907067,0.00821380687797,0.0351121897148,0.0175068102288,1.0,0.0,0.017082845779
1385566785150928048,0.00911012050405,0.0357758206425,0.0166710973364,1.0,0.0,0.0178434463815
1385566785251132317,0.00958307642914,0.0358760582192,0.0156777258745,1.0,0.0,0.0186307640934
1385566785351053493,0.00973509625139,0.035405074514,0.0145798579058,1.0,0.0,0.019485430274
1385566785450979468,0.00946283611536,0.0346014338423,0.0134307333975,1.0,0.0,0.0203556003744
1385566785552105002,0.00876144102264,0.0334892476831,0.0122060830647,1.0,0.0,0.021312723338
1385566785651127237,0.00786899898084,0.0321479017058,0.0110557557798,1.0,0.0,0.0223088474162
1385566785751057245,0.00662999390966,0.0304334958047,0.00990915027117,1.0,0.0,0.0233477283872
1385566785850975241,0.00532798029272,0.0286555228278,0.00877452831746,1.0,0.0,0.0244637150674
1385566785950921677,0.00372058857128,0.0265678531856,0.00764505407155,1.0,0.0,0.025706009988
1385566786050980228,0.00211167925156,0.024285010362,0.00649333825189,1.0,0.0,0.0269229200381
1385566786151134734,0.000388556687857,0.0219842411092,0.00542354480551,1.0,0.0,0.0282546276744
1385566786251120950,-0.00140278298105,0.0193454932126,0.00437702918376,1.0,0.0,0.029599620918
1385566786350963174,-0.00317863352291,0.0167967125331,0.00337391769342,1.0,0.0,0.0309407612714
1385566786450902528,-0.00493492902985,0.01417685877,0.00265204927077,1.0,0.0,0.0323708095985
1385566786550905066,-0.0065931468453,0.0116282599137,0.00215660976248,1.0,0.0,0.0338253367875
1385566786650996139,-0.00827740002627,0.0092181829121,0.00187784733428,1.0,0.0,0.0352954112069
1385566786750926056,-0.00986653174934,0.00710038376761,0.00166084436881,1.0,0.0,0.0367807620296
1385566786850922877,-0.0115307552753,0.00515453657664,0.00146907093357,1.0,0.0,0.0382893789567
1385566786951872263,-0.0132193624472,0.00356446755375,0.00138626601117,1.0,0.0,0.039812379751
1385566787050957993,-0.0148901896645,0.0023254170352,0.00155979327388,1.0,0.0,0.0412994227486
1385566787150926943,-0.0166830154686,0.00142315550292,0.00186792593733,1.0,0.0,0.0427734271799
1385566787250923899,-0.018409379774,0.000817921322323,0.00234817620433,1.0,0.0,0.0442200723869
1385566787350912437,-0.0200179569752,0.000578823011264,0.00287979598156,1.0,0.0,0.0455774715617
1385566787450922928,-0.0214886193405,0.000572876768371,0.0033763115905,1.0,0.0,0.0469395880064
1385566787551070025,-0.0228345443004,0.000728057743539,0.00383326773275,1.0,0.0,0.0482877714573
1385566787650939123,-0.0237975773157,0.00123703610529,0.00434752004305,1.0,0.0,0.0496036878313
1385566787750932658,-0.0244578587028,0.00172225853587,0.00483164845944,1.0,0.0,0.050886798822
1385566787850880612,-0.0248214025106,0.00245987949578,0.00532670695264,1.0,0.0,0.0521098167532
1385566787951716485,-0.0249438503959,0.00314942556597,0.00580204526436,1.0,0.0,0.0533205173503
1385566788051012558,-0.0246550794074,0.00403971277367,0.00631527454273,1.0,0.0,0.0544750907305
1385566788150962076,-0.0242173105717,0.00506899674858,0.00677024838212,1.0,0.0,0.0554852765988
1385566788252107958,-0.0235601226618,0.00629094818189,0.00717023198538,1.0,0.0,0.0564731271874
1385566788350990505,-0.0227234664742,0.0075591496266,0.00762369501665,1.0,0.0,0.0573699754464
1385566788450994333,-0.0217456270828,0.00891523240486,0.00794945706927,1.0,0.0,0.0581736049152
1385566788550920760,-0.0207506997288,0.0102839538453,0.00813240407518,1.0,0.0,0.0588393603154
1385566788650963463,-0.0194472293751,0.0117391402005,0.00836114519532,1.0,0.0,0.0593929576592
1385566788751935332,-0.01826083217,0.0130889922587,0.00837435080697,1.0,0.0,0.0598410324625
1385566788850924383,-0.0168786745,0.0144020209869,0.00835601951594,1.0,0.0,0.0602217689828
1385566788950874226,-0.0154197241758,0.0157732179439,0.00843002251075,1.0,0.0,0.0604328017081
1385566789050912023,-0.0138803386647,0.0168656853433,0.00851701055603,1.0,0.0,0.0606119921925
1385566789150927006,-0.0121556911978,0.0180172158033,0.00858362765309,1.0,0.0,0.0607444282549
1385566789250938048,-0.0104552810855,0.0188609275298,0.00866063194238,1.0,0.0,0.0608305982151
1385566789350895493,-0.00851534354008,0.019482868633,0.00873879696759,1.0,0.0,0.0608900029995
1385566789450986998,-0.00658813050704,0.0200483681033,0.00869797953657,1.0,0.0,0.0608916957743
1385566789551106292,-0.00468505667365,0.0201699996395,0.00846847857582,1.0,0.0,0.0609044947264
1385566789650970307,-0.00281312086396,0.0202978012099,0.00821780847808,1.0,0.0,0.0608817382283
1385566789751156362,-0.00118766421427,0.0200818198395,0.00781991497104,1.0,0.0,0.060895269947
1385566789852003514,0.000375319021857,0.019794018203,0.00747020920538,1.0,0.0,0.0609437226146
1385566789951977749,0.00173950972818,0.019199483646,0.0070245352507,1.0,0.0,0.0609777161373
1385566790051972994,0.00296003933269,0.0184260273043,0.00654735512326,1.0,0.0,0.0610368717927
1385566790152129769,0.003967206583,0.0171008003749,0.00602705414187,1.0,0.0,0.0611947248245
1385566790251058123,0.0049348245494,0.0155792250944,0.0055175527507,1.0,0.0,0.0614218780782
1385566790350971136,0.00570432343343,0.013718554442,0.00513812751931,1.0,0.0,0.0616642677272
1385566790450947867,0.00630052502746,0.011239714695,0.00485558830978,1.0,0.0,0.0620690847521
1385566790550993374,0.00673055446308,0.00861417551434,0.00464030784486,1.0,0.0,0.0625090002492
1385566790651095345,0.0069366309348,0.00540721370252,0.00455035669811,1.0,0.0,0.0630264291072
1385566790751405950,0.00683447320412,0.00213984068085,0.00467729681195,1.0,0.0,0.0636325185209
1385566790850892760,0.00641134043915,-0.00138090847788,0.00487425773651,1.0,0.0,0.0643966637837
1385566790951002748,0.00573458159625,-0.00481340310052,0.00519170440556,1.0,0.0,0.0652181856563
1385566791050901417,0.00483015954815,-0.0082631773421,0.00562932214878,1.0,0.0,0.066069960256
1385566791150957662,0.00357010795626,-0.0113593442619,0.00610217609776,1.0,0.0,0.0670260595055
1385566791250957691,0.00218613891329,-0.014229662178,0.00653173179756,1.0,0.0,0.0681218779698
1385566791350902148,0.00057896120072,-0.0165812471973,0.00696567827466,1.0,0.0,0.0691945016423
1385566791450974361,-0.00119276764661,-0.0184041601492,0.00741994331551,1.0,0.0,0.0703831226155
1385566791552008622,-0.0029846796422,-0.0195255922791,0.00798751137975,1.0,0.0,0.0714818796533
1385566791651115282,-0.00494324566713,-0.0199264107454,0.00859096314027,1.0,0.0,0.0725914446237
1385566791750930366,-0.00692639009789,-0.0195897551796,0.00920416975759,1.0,0.0,0.0736101984236
1385566791850994435,-0.008890582826,-0.0189179962525,0.00975430949077,1.0,0.0,0.0746330798897
1385566791951991832,-0.0107456855077,-0.0175844125026,0.0102802764419,1.0,0.0,0.0755772743374
1385566792051862839,-0.0125305479594,-0.0159036302159,0.0106797640857,1.0,0.0,0.076556512179
1385566792151228446,-0.014140224001,-0.0138264909438,0.0109333439312,1.0,0.0,0.0774646657834
1385566792250954475,-0.0156091638954,-0.0115459024638,0.01116200821,1.0,0.0,0.0783262757008
1385566792350974121,-0.0168718870709,-0.00905999510697,0.0112551518398,1.0,0.0,0.0791861664383
1385566792451147570,-0.0179701407642,-0.00648645030318,0.0112500796882,1.0,0.0,0.0800158312748
1385566792552033612,-0.0188980724519,-0.00372630438867,0.0111890888181,1.0,0.0,0.080892839803
1385566792651001366,-0.0195686934255,-0.000940571271624,0.0110556966584,1.0,0.0,0.0816423340394
1385566792751003259,-0.0201788633322,0.00180354865109,0.0107495231096,1.0,0.0,0.0823783809075
1385566792851044210,-0.0205780566767,0.00433814192752,0.0102605819969,1.0,0.0,0.0830783696602
1385566792951045676,-0.0207954779546,0.00676122626408,0.0096624778742,1.0,0.0,0.0837069413593
1385566793052022615,-0.0207844718378,0.00895629567574,0.00894982320466,1.0,0.0,0.0842646659036
1385566793151037592,-0.0205130816871,0.0108156826088,0.00804942667503,1.0,0.0,0.0846778728858
1385566793250924016,-0.0200769073607,0.0123712977798,0.00708760394515,1.0,0.0,0.0851448910623
1385566793351955679,-0.0193946996805,0.0135298655039,0.00600249002665,1.0,0.0,0.0855730901095
1385566793450902519,-0.0185080625581,0.0144017936873,0.00483578256052,1.0,0.0,0.0859707947766
1385566793552063775,-0.0174138182265,0.014969980769,0.00374000259848,1.0,0.0,0.0863275876399
1385566793652098284,-0.0162562572981,0.0150424376005,0.00255564225967,1.0,0.0,0.0867084173796
1385566793750932869,-0.0149835155541,0.014782387385,0.00135613663276,1.0,0.0,0.0870875915174
1385566793850996768,-0.0135726470823,0.0141836147698,0.000165826963448,1.0,0.0,0.0874034510515
1385566793951024633,-0.0121072323575,0.0133185152292,-0.000929688917758,1.0,0.0,0.0876913160515
1385566794051123587,-0.0106314391711,0.0119897150225,-0.00216101308946,1.0,0.0,0.0880275170096
1385566794150976454,-0.0089633716129,0.010681349804,-0.00310365117765,1.0,0.0,0.0883521520766
1385566794251046240,-0.00725048934896,0.00905799684773,-0.00405792081286,1.0,0.0,0.0887130597958
1385566794351044934,-0.00548048950869,0.00748037784029,-0.00480764054966,1.0,0.0,0.0890966133834
1385566794451122752,-0.00373098289084,0.00575564232714,-0.00541071190124,1.0,0.0,0.0894458976006
1385566794551932822,-0.00210937195792,0.00399527920381,-0.00577926688314,1.0,0.0,0.0898319792836
1385566794652080480,-0.000530237232923,0.00223964139885,-0.00606186090175,1.0,0.0,0.0901440452939
1385566794751977491,0.000890840541755,0.000370631467115,-0.00621520506868,1.0,0.0,0.0905518156129
1385566794851006959,0.00215847210744,-0.00147556369827,-0.00645062634645,1.0,0.0,0.0907686901283
1385566794952069873,0.00312471157195,-0.00334635166416,-0.00648097346568,1.0,0.0,0.0911300639833
1385566795051071463,0.00383085040024,-0.00513035181358,-0.00642781533765,1.0,0.0,0.0915439244249
1385566795150976999,0.00418578731445,-0.00678366997705,-0.0063627857925,1.0,0.0,0.0918991395705
1385566795251028578,0.00429199643489,-0.00821675714428,-0.00622962283624,1.0,0.0,0.092259732044
1385566795352039250,0.00412452739219,-0.00966225572444,-0.00611904866951,1.0,0.0,0.0926289245597
1385566795450982008,0.00374815497033,-0.0108155129445,-0.00611747357193,1.0,0.0,0.0929805931202
1385566795551130706,0.00312334375003,-0.0118637137712,-0.00608613462179,1.0,0.0,0.0934377550231
1385566795651888913,0.00226343353867,-0.0126839446913,-0.00600781378168,1.0,0.0,0.0939126700657
1385566795751009369,0.00121558002494,-0.013309327245,-0.00592401861687,1.0,0.0,0.0943110274171
1385566795850894146,0.000170545238144,-0.0138424958327,-0.00565947373856,1.0,0.0,0.0947535469203
1385566795951008127,-0.000845865856344,-0.013971420509,-0.00549402344801,1.0,0.0,0.0952296201187
1385566796051008090,-0.00172580292657,-0.0138171141137,-0.00523777748114,1.0,0.0,0.0956544887772
1385566796150966017,-0.00253912308277,-0.013478687634,-0.00488744576451,1.0,0.0,0.0961476543138
1385566796251051704,-0.00328733883878,-0.0127252525918,-0.00453823771236,1.0,0.0,0.0965479118071
1385566796350891342,-0.00400989933023,-0.0117912325891,-0.00415742118966,1.0,0.0,0.0968902554258
1385566796451010858,-0.00463304127525,-0.0106150644633,-0.00372764939494,1.0,0.0,0.0972814305974
1385566796551117862,-0.00533475236102,-0.009309894073,-0.00332070105906,1.0,0.0,0.0975325548158
1385566796651029010,-0.00597011545206,-0.00794770897548,-0.0030569329749,1.0,0.0,0.0978328764896
1385566796750972513,-0.00661819084086,-0.00636515998336,-0.0026704269725,1.0,0.0,0.0981572090175
1385566796851108209,-0.00736124263502,-0.00487183153008,-0.00237623778794,1.0,0.0,0.0984789363139
1385566796950966029,-0.00809803740253,-0.00314835255644,-0.00212340050578,1.0,0.0,0.0987951104133
1385566797050929100,-0.00890232146547,-0.00131166411779,-0.00188821844034,1.0,0.0,0.0991870177681
1385566797151910355,-0.00959386587026,0.000417517386599,-0.0016730571262,1.0,0.0,0.0995618177811
1385566797250934678,-0.0102136198985,0.00232783630924,-0.00145095217555,1.0,0.0,0.0999909098974
1385566797350993081,-0.010665676815,0.00423853767256,-0.00121423185955,1.0,0.0,0.100386478892
1385566797451018704,-0.0108986628907,0.00610720493729,-0.000938308729157,1.0,0.0,0.100803652698
1385566797551935113,-0.0108569442788,0.00789789631933,-0.00068170641948,1.0,0.0,0.101319031933
1385566797651976689,-0.0105946881786,0.00954838044729,-0.000480344905665,1.0,0.0,0.101753893321
1385566797750940673,-0.0101098021756,0.0109429236754,-0.000357561214889,1.0,0.0,0.102203729377
1385566797851020274,-0.00936067298179,0.012074688921,-0.000215344104771,1.0,0.0,0.102658405715
1385566797951139010,-0.00841000519362,0.0129388776395,-5.75652933325e-05,1.0,0.0,0.103156030135
1385566798052019532,-0.00731043546098,0.013472477018,9.32889286196e-05,1.0,0.0,0.103549083277
1385566798151012669,-0.00608033126089,0.0136822365465,0.000177040326141,1.0,0.0,0.10392278445
1385566798251933832,-0.00474231772235,0.0134543894927,0.00033693076333,1.0,0.0,0.104324232884
1385566798351085807,-0.00330710446721,0.0128884956795,0.000457298490449,1.0,0.0,0.104660180851
1385566798451027403,-0.00187940065941,0.0119902800606,0.000503914037017,1.0,0.0,0.104906840867
1385566798551025438,-0.000324533194128,0.010847732673,0.000553800714932,1.0,0.0,0.105182268726
1385566798650880717,0.00107683348806,0.00926622741183,0.00057602890286,1.0,0.0,0.10551872417
1385566798751021307,0.00246955416566,0.00769116124744,0.00057367042953,1.0,0.0,0.105761929251
1385566798851017156,0.00376943231081,0.00588487291814,0.000570063890787,1.0,0.0,0.106039538376
1385566798951057369,0.00475780912017,0.00402831911734,0.000542176664628,1.0,0.0,0.106317243705
1385566799051034879,0.00567529469632,0.00221963619817,0.000598327015673,1.0,0.0,0.106528173095
1385566799150985743,0.00631333990402,0.000374844578099,0.000442748553771,1.0,0.0,0.106745233095
1385566799251995224,0.00665561801347,-0.00135735826246,0.000274967039343,1.0,0.0,0.106991714176
1385566799350994333,0.00690510120302,-0.00303120392923,0.000155031848475,1.0,0.0,0.107199240948
1385566799450989673,0.00691979866944,-0.00457014417632,0.00015963642544,1.0,0.0,0.107399518377
1385566799552001222,0.00674618456448,-0.00612793837065,0.000238535717024,1.0,0.0,0.107579681673
1385566799650991988,0.00636624360572,-0.00781567008009,0.000339673117923,1.0,0.0,0.107880388796
1385566799752146787,0.00584414719274,-0.00951564457951,0.000479287286235,1.0,0.0,0.108178954617
1385566799851022215,0.00516551418884,-0.0110539438077,0.000687050206968,1.0,0.0,0.108380603173
1385566799950928463,0.0042637553189,-0.012605719402,0.000912079095422,1.0,0.0,0.108717412409
1385566800050999388,0.00333079492867,-0.0139917957207,0.00130598467649,1.0,0.0,0.109027948352
1385566800150971335,0.00215620967919,-0.0149156524924,0.0017346009641,1.0,0.0,0.109269743662
1385566800250977375,0.00100242766392,-0.0155294646375,0.00215769681409,1.0,0.0,0.109501230985
1385566800350929890,-0.000208479256382,-0.0155638448785,0.00263021240235,1.0,0.0,0.109714617687
1385566800451012792,-0.00136764484874,-0.0152296818776,0.00307632273617,1.0,0.0,0.109925438241
1385566800550995789,-0.00244969699753,-0.0143085626119,0.00356156851874,1.0,0.0,0.110181010227
1385566800651020891,-0.00337103817751,-0.013069263426,0.00400775252196,1.0,0.0,0.110409262037
1385566800750958440,-0.00416461767046,-0.0113881550787,0.00438183501295,1.0,0.0,0.11058031988
1385566800851000589,-0.0047183773303,-0.0093646080585,0.00488496414687,1.0,0.0,0.110747490688
1385566800951208101,-0.00513529968065,-0.00709390701604,0.00541666243033,1.0,0.0,0.110804806143
1385566801051003804,-0.00536396941576,-0.0047216570145,0.00587620846218,1.0,0.0,0.110866279266
1385566801150977631,-0.00538944188551,-0.00230551431162,0.0062196409937,1.0,0.0,0.110895797703
1385566801250939742,-0.00529592780986,8.30927844592e-05,0.00630887063504,1.0,0.0,0.110921080585
1385566801351103117,-0.00484006209685,0.00226961216752,0.00636869217097,1.0,0.0,0.110947887851
1385566801450994355,-0.00431615538841,0.00429831214729,0.00624247012813,1.0,0.0,0.111079705833
1385566801551931111,-0.00361157192729,0.00602623877033,0.00607345695028,1.0,0.0,0.111216660837
1385566801650964415,-0.00261054056367,0.00755196516672,0.00597296371592,1.0,0.0,0.111508546843
1385566801750904051,-0.00150122040538,0.00881554071875,0.005763522861,1.0,0.0,0.111934895755
1385566801852261460,-8.67903537068e-05,0.00978888195592,0.00556386451568,1.0,0.0,0.112348706178
1385566801951965747,0.00143584520955,0.0104348881048,0.00531288675266,1.0,0.0,0.112807602692
1385566802051880842,0.00305305981229,0.0107547238504,0.00493427022314,1.0,0.0,0.11324317723
1385566802151963976,0.00466650045032,0.0104838881638,0.00441063594039,1.0,0.0,0.11367319737
1385566802250984237,0.00626208969055,0.00987916511238,0.00376012337744,1.0,0.0,0.114060812456
1385566802350974253,0.00769813290897,0.00860261916294,0.00303620740479,1.0,0.0,0.114438442407
1385566802450960706,0.0088315633148,0.00680616290123,0.00221283352168,1.0,0.0,0.114855801625
1385566802551906213,0.00980680127317,0.0042997402689,0.00145009436112,1.0,0.0,0.115287879227
1385566802652015803,0.0105078429762,0.00144135244568,0.000735134337237,1.0,0.0,0.115691004628
1385566802750953778,0.0109591559878,-0.00187643046139,8.59906555472e-05,1.0,0.0,0.11611761132
1385566802851086635,0.0110997577516,-0.00525809924908,-0.000461841311485,1.0,0.0,0.116534204965
1385566802951208319,0.0111175140677,-0.00869516661428,-0.000928698719065,1.0,0.0,0.116952679607
1385566803051134015,0.0109408427491,-0.0119632856124,-0.0014185896916,1.0,0.0,0.117311319348
1385566803151155153,0.010665284987,-0.0153400124539,-0.00189167249162,1.0,0.0,0.117762539364
1385566803251106897,0.0103228976413,-0.0184031486545,-0.00228513844634,1.0,0.0,0.118220026524
1385566803351013308,0.00984247219152,-0.0215237293827,-0.00266259587606,1.0,0.0,0.118553844914
1385566803451014456,0.00913512017972,-0.0242023487544,-0.00303944182955,1.0,0.0,0.118715959456
1385566803551918209,0.00824885066545,-0.0267741185309,-0.00343780237399,1.0,0.0,0.118888626137
1385566803650992037,0.00708593952902,-0.0289035346771,-0.0037386709565,1.0,0.0,0.118948226992
1385566803750935076,0.00569874951935,-0.0307286441729,-0.00391075858795,1.0,0.0,0.11897210976
1385566803850970522,0.00401406401394,-0.032210671545,-0.00400351886085,1.0,0.0,0.118901542291
1385566803951022853,0.00195182369442,-0.0330856479071,-0.00404931173013,1.0,0.0,0.118626813596
1385566804050945256,-0.000278431332265,-0.0332611833083,-0.00405255683085,1.0,0.0,0.118291918551
1385566804150935746,-0.00253514997742,-0.0329253117879,-0.00393757207029,1.0,0.0,0.11795708536
1385566804251973544,-0.00490951792437,-0.0317561119361,-0.00375255688881,1.0,0.0,0.11753273422
1385566804350880197,-0.00718183158923,-0.0299699749994,-0.00352676506826,1.0,0.0,0.117005698772
1385566804451048761,-0.00910033020217,-0.0276794816192,-0.00327359840181,1.0,0.0,0.116498451184
1385566804550952084,-0.0107817828113,-0.024634965737,-0.00293154468669,1.0,0.0,0.115857901101
1385566804651017506,-0.012053945791,-0.0212443543689,-0.00257073692935,1.0,0.0,0.115203804305
1385566804752052196,-0.0128985141984,-0.0175646999941,-0.00213009690692,1.0,0.0,0.114591060896
1385566804851130765,-0.0134268257205,-0.0135007344721,-0.00164369058302,1.0,0.0,0.113938019352
1385566804951039614,-0.0135059598729,-0.00942818466642,-0.00100165256321,1.0,0.0,0.113333366358
1385566805050978184,-0.0133347552679,-0.00534872906782,-0.000318941272698,1.0,0.0,0.112667559052
1385566805150992907,-0.0127188467719,-0.00143828043496,0.000399741229468,1.0,0.0,0.112127280221
1385566805250930893,-0.0117482295809,0.00221980994093,0.00116897860977,1.0,0.0,0.111604403267
1385566805351014865,-0.0103906552009,0.00544000688067,0.00179234002963,1.0,0.0,0.11123382105
1385566805451958945,-0.00859454236962,0.0083623669762,0.00241811849256,1.0,0.0,0.110904133294
1385566805550921131,-0.0065897488421,0.0107082970711,0.00285542547095,1.0,0.0,0.110615060306
1385566805650982825,-0.0042235005302,0.0125380643672,0.00324303782727,1.0,0.0,0.110392066966
1385566805751045280,-0.00172326438438,0.0139376471563,0.00347276585274,1.0,0.0,0.110224186603
1385566805851169090,0.000898215075927,0.0145642245577,0.0036153397465,1.0,0.0,0.110107882311
1385566805950979142,0.0035147642167,0.0145238199558,0.00370408614337,1.0,0.0,0.110042950707
1385566806050942636,0.00601702672013,0.0136842930133,0.00367318152614,1.0,0.0,0.109981851623
1385566806152014430,0.00828597870428,0.0118946637048,0.00353996198665,1.0,0.0,0.109946551655
1385566806251056026,0.0103119093417,0.00926625725915,0.00329111893642,1.0,0.0,0.110021070912
1385566806351102318,0.0120978514781,0.00581531255118,0.00296440828329,1.0,0.0,0.110163494971
1385566806450987310,0.0133430784332,0.00145587817644,0.00256862472393,1.0,0.0,0.110411565361
1385566806551132601,0.0142055659552,-0.0034473293525,0.00218541485974,1.0,0.0,0.110562387621
1385566806651082285,0.014753977181,-0.00906689096726,0.00171220881495,1.0,0.0,0.110635880275
1385566806751069126,0.0147540839949,-0.0150461777988,0.00111604463176,1.0,0.0,0.110733861872
1385566806850996778,0.0143297725284,-0.0214019787541,0.000449884026524,1.0,0.0,0.110752769399
1385566806951997474,0.0133537710412,-0.027889135945,-0.0002474366767,1.0,0.0,0.11069582264
1385566807050997552,0.0117970768775,-0.0344530152253,-0.000973045647894,1.0,0.0,0.110476167102
1385566807151014484,0.00972925036161,-0.0408122722886,-0.00157277078288,1.0,0.0,0.110149796314
1385566807251020140,0.00717490437474,-0.0469766991985,-0.00223473086261,1.0,0.0,0.109720436312
1385566807350985321,0.00409455565871,-0.0525880100122,-0.00259005613526,1.0,0.0,0.109122691245
1385566807450936788,0.000434922183487,-0.0575149071288,-0.00273621610226,1.0,0.0,0.108344662088
1385566807551189966,-0.003666740171,-0.0614152683068,-0.00287250413951,1.0,0.0,0.107446426851
1385566807650929974,-0.00820430324773,-0.0640123358858,-0.00271611929522,1.0,0.0,0.10646410522
1385566807750872652,-0.0132023264307,-0.0650772628169,-0.00228652875181,1.0,0.0,0.105376195597
1385566807850996122,-0.0184184116075,-0.06465439866,-0.00167851462738,1.0,0.0,0.104225766763
1385566807951093771,-0.023744407033,-0.0622888315415,-0.000766082025253,1.0,0.0,0.103094262792
1385566808050988408,-0.0292648235011,-0.0581262921377,0.000300216682467,1.0,0.0,0.101826199699
1385566808150889320,-0.034227533974,-0.0521082589278,0.00161271989224,1.0,0.0,0.100625470828
1385566808250964639,-0.0388307080281,-0.0444410927765,0.00299445895081,1.0,0.0,0.0993094012324
1385566808350882808,-0.0425796258897,-0.0352606389524,0.00436983373213,1.0,0.0,0.0978832449096
1385566808450959137,-0.0448145321857,-0.0250867339112,0.00592151313818,1.0,0.0,0.0966719093213
1385566808551021326,-0.0457852893423,-0.014078692814,0.00760733569864,1.0,0.0,0.0954892950358
1385566808651076538,-0.0452629771118,-0.00265484874626,0.00918062139854,1.0,0.0,0.0943878711845
1385566808750972282,-0.0433831032,0.00876126312879,0.0104985017291,1.0,0.0,0.0933228431503
1385566808851176556,-0.0399714719011,0.0199003883967,0.0117984496649,1.0,0.0,0.0924223820634
1385566808950937410,-0.0354252487471,0.0303124682372,0.0126820782764,1.0,0.0,0.0915700585201
1385566809050977166,-0.0297876307598,0.0395833163938,0.0132466963168,1.0,0.0,0.0909878389973
1385566809151162573,-0.0235771010059,0.0475962014547,0.0134294236608,1.0,0.0,0.0905229708535
1385566809251986113,-0.0168384081608,0.053907671259,0.0133002347586,1.0,0.0,0.0903428483582
1385566809350902734,-0.0100226650727,0.0585782370166,0.0129226032066,1.0,0.0,0.0903628365829
1385566809451952250,-0.00326077278598,0.061501950421,0.0122841313127,1.0,0.0,0.0905378920319
1385566809551981585,0.00304586442338,0.0626323181744,0.0112106931714,1.0,0.0,0.0909464122615
1385566809650962435,0.0091842092995,0.0622835794801,0.0100655067708,1.0,0.0,0.0914815837062
1385566809751019795,0.0148170131854,0.0605091056495,0.00872282844621,1.0,0.0,0.0920686613763
1385566809850950787,0.0200003163682,0.0574352093249,0.00730099039705,1.0,0.0,0.0927230407129
1385566809950882343,0.0247805608684,0.0530929503683,0.00580014156463,1.0,0.0,0.0933675492467
1385566810050978345,0.0289783575016,0.0474026844015,0.0043206138351,1.0,0.0,0.0940386731987
1385566810150964154,0.0324595284191,0.0405156492461,0.00286766195735,1.0,0.0,0.0947596775585
1385566810250998672,0.035268906665,0.0324645656188,0.00149201170883,1.0,0.0,0.0955002301155
1385566810350965203,0.0372596498168,0.0233310253686,0.000149248183317,1.0,0.0,0.0961736972459
1385566810450980485,0.0383900955321,0.0132486595407,-0.0012456569113,1.0,0.0,0.0968271741143
1385566810551054314,0.038721025082,0.00218593855416,-0.00269785438111,1.0,0.0,0.0974615574155
1385566810650987939,0.0383608600996,-0.00937880035059,-0.00415795015744,1.0,0.0,0.09795625303
1385566810750969692,0.0372708269281,-0.0212839499439,-0.00561550412601,1.0,0.0,0.098274905801
1385566810851085801,0.0355604859756,-0.0331805293674,-0.00712850917644,1.0,0.0,0.0984270661958
1385566810950954106,0.0332633746261,-0.0449560559325,-0.00874308541522,1.0,0.0,0.0983009525285
1385566811051148452,0.0301925628291,-0.0562004718306,-0.010445979527,1.0,0.0,0.0978996527246
1385566811151086381,0.026346411536,-0.0670322877748,-0.0118576924884,1.0,0.0,0.0972130288632
1385566811250972267,0.0216603065323,-0.0771425193798,-0.0130103598161,1.0,0.0,0.0962687283082
1385566811351102547,0.0159417825804,-0.0861066316502,-0.0137738937509,1.0,0.0,0.0950624212569
1385566811450974160,0.00886514604664,-0.0937855173487,-0.0141222074991,1.0,0.0,0.0935115169704
1385566811551340641,0.000448631809274,-0.099591747645,-0.0141077475653,1.0,0.0,0.0916314959953
1385566811651189154,-0.0090372232086,-0.103167451396,-0.013614872176,1.0,0.0,0.0895936108903
1385566811752109949,-0.0193980623109,-0.104290586572,-0.0126977785582,1.0,0.0,0.0873239125755
1385566811851157477,-0.03031410271,-0.102759057665,-0.011509960435,1.0,0.0,0.0849860825249
1385566811950910349,-0.0416583785403,-0.0982580782885,-0.00990207371014,1.0,0.0,0.082510017655
1385566812051022659,-0.0528562677023,-0.0908867142866,-0.0084767224024,1.0,0.0,0.0800644657448
1385566812151052216,-0.0634003849127,-0.0806827797291,-0.0068740074606,1.0,0.0,0.0776138053097
1385566812250978752,-0.0730453882902,-0.0678277872007,-0.00540682539642,1.0,0.0,0.0751154924152
1385566812350926982,-0.081141815431,-0.0530372229731,-0.00384160846268,1.0,0.0,0.0726367983821
1385566812450931473,-0.087177951026,-0.0367103697813,-0.00197797727968,1.0,0.0,0.070292338022
1385566812550954492,-0.0912538023895,-0.0190939885861,-0.000126811336502,1.0,0.0,0.0679177154006
1385566812651937029,-0.0927349348959,-0.0009867189272,0.00171196723649,1.0,0.0,0.0656524726344
1385566812750938603,-0.0917063471283,0.0170272820133,0.00363157542287,1.0,0.0,0.0635949778009
1385566812850935813,-0.088123196336,0.0348001386909,0.00568422183308,1.0,0.0,0.0617111126538
1385566812950983627,-0.0822165251034,0.0517646400444,0.00746438596794,1.0,0.0,0.0599794855831
1385566813050998087,-0.0741786521423,0.0676005438821,0.00925494192252,1.0,0.0,0.0584364246295
1385566813151871014,-0.0642000127173,0.0814660154819,0.0107292293418,1.0,0.0,0.0572901927874
1385566813250937085,-0.0528745105877,0.0936928503407,0.0120098131244,1.0,0.0,0.0563207359917
1385566813351077570,-0.0406251396227,0.103724274294,0.0127918644902,1.0,0.0,0.055581918487
1385566813451036982,-0.0277543008059,0.111710934873,0.0131315340444,1.0,0.0,0.0550763186333
1385566813551093913,-0.0147296591969,0.117494600561,0.0129971488551,1.0,0.0,0.0547159140473
1385566813650943335,-0.00193377385841,0.121109013374,0.012575194124,1.0,0.0,0.0545720713317
1385566813750935574,0.010384099274,0.122559931123,0.0120165647525,1.0,0.0,0.054693424953
1385566813850929485,0.022034789535,0.121966887502,0.0113840880941,1.0,0.0,0.0549815665163
1385566813950933177,0.0328884190351,0.119084437904,0.0106467202299,1.0,0.0,0.0555540850183
1385566814051037655,0.0430271660215,0.113979572015,0.00997217908368,1.0,0.0,0.056276400512
1385566814150995868,0.0526121530303,0.106326916017,0.00931523342701,1.0,0.0,0.0571596127764
1385566814252021946,0.0619057740208,0.0962964945229,0.00869646392937,1.0,0.0,0.0580396448218
1385566814352009082,0.0702286278383,0.0833920676948,0.00821712025768,1.0,0.0,0.0591221979295
1385566814452085591,0.0779765459224,0.0679992888191,0.00781671146851,1.0,0.0,0.0602949785298
1385566814550930816,0.0840607089699,0.0499520465157,0.00763934810084,1.0,0.0,0.0616311571094
1385566814650978181,0.0886971167659,0.0299706250779,0.00746487467061,1.0,0.0,0.0629930347425
1385566814750880243,0.0916899535515,0.0085084062221,0.00672869896607,1.0,0.0,0.0641167145735
1385566814851052448,0.0925741887671,-0.0139647316675,0.00598176285641,1.0,0.0,0.0651153363535
1385566814950965424,0.0914690073025,-0.0364521381204,0.00483084308665,1.0,0.0,0.065939453168
1385566815050990198,0.0887989526845,-0.0586814189464,0.00353160690638,1.0,0.0,0.0664256335512
1385566815150978761,0.0844382825763,-0.079934111323,0.00211717310121,1.0,0.0,0.0666659938988
1385566815251957062,0.0785395708009,-0.0997316250774,0.00116576796662,1.0,0.0,0.0667126187253
1385566815350965548,0.0709622522002,-0.11769481161,0.000672881481019,1.0,0.0,0.0664493449926
1385566815450986702,0.0614144024416,-0.133144399318,0.000527524188927,1.0,0.0,0.0659187918115
1385566815550995831,0.049865007816,-0.145404824777,0.000545622340673,1.0,0.0,0.0652313756184
1385566815651056780,0.036556259016,-0.154050715634,0.000809488472682,1.0,0.0,0.0644720725139
1385566815751040433,0.0219961076406,-0.159014294623,0.0011545001306,1.0,0.0,0.0636709580914
1385566815852151717,0.00630987399248,-0.160217600596,0.00200975804868,1.0,0.0,0.0627482238917
1385566815950975690,-0.00968532519078,-0.157621043309,0.00284860310627,1.0,0.0,0.0618335584285
1385566816050877895,-0.0256643793567,-0.151271102009,0.00383652038268,1.0,0.0,0.0609386859999
1385566816150962424,-0.0409516838728,-0.141531433114,0.00450896617934,1.0,0.0,0.0601380314946
1385566816252051045,-0.0554946694168,-0.128745859031,0.00530714850675,1.0,0.0,0.0593003300287
1385566816351059389,-0.0690631750298,-0.11331011544,0.00612458694903,1.0,0.0,0.0583544048617
1385566816451014445,-0.0809246637469,-0.0955353251228,0.00662536622568,1.0,0.0,0.0574428505172
1385566816551099815,-0.0912301614377,-0.076013991428,0.00670720016853,1.0,0.0,0.0564935337326
1385566816651971019,-0.099857758865,-0.0549628524957,0.0064721595704,1.0,0.0,0.055429826602
1385566816750972808,-0.106338978643,-0.0330382609106,0.00575090130712,1.0,0.0,0.054357559661
1385566816850963113,-0.111054924986,-0.010455862634,0.00507176393287,1.0,0.0,0.0531410198036
1385566816951035109,-0.11342236104,0.0119946608934,0.00425538829753,1.0,0.0,0.0519425648967
1385566817050939116,-0.113774272756,0.0342794532992,0.00333475654987,1.0,0.0,0.0506307935872
1385566817151953076,-0.112373987196,0.0559475615153,0.00254661543384,1.0,0.0,0.0491720175863
1385566817250964514,-0.109039005212,0.0769855630388,0.00159155473397,1.0,0.0,0.0475000226105
1385566817350929394,-0.103709797081,0.0967377077261,0.000936713198952,1.0,0.0,0.0457086973185
1385566817450965676,-0.0964884333719,0.114899556871,0.000427048916532,1.0,0.0,0.043877289593
1385566817551134134,-0.0873822021203,0.13072818916,0.000504472518964,1.0,0.0,0.0421261112724
1385566817650930483,-0.0764853947571,0.144140919546,0.000809568151803,1.0,0.0,0.0404152026105
1385566817750998173,-0.0636778140164,0.154851880568,0.00137530354759,1.0,0.0,0.0387514453801
1385566817850934617,-0.0492773869272,0.162534614944,0.00221736483007,1.0,0.0,0.0371322715862
1385566817951916920,-0.0332236148514,0.167214296918,0.00324147117736,1.0,0.0,0.0355378401038
1385566818051945035,-0.0160551350334,0.168479662626,0.00418699685034,1.0,0.0,0.0340220387236
1385566818151947422,0.00187501217691,0.166690250591,0.00513455349337,1.0,0.0,0.0325809886217
1385566818251935289,0.0196940449346,0.161470829391,0.0058117935706,1.0,0.0,0.0313247031192
1385566818351938804,0.0368289394171,0.153395668642,0.0062732893697,1.0,0.0,0.0303235181015
1385566818451891578,0.0531143642641,0.14259234727,0.00697335045196,1.0,0.0,0.02951581436
1385566818550947134,0.0679678958234,0.129285391802,0.00798674387203,1.0,0.0,0.0289269561328
1385566818651891889,0.081251920187,0.113759830706,0.00895572392298,1.0,0.0,0.0286057283572
1385566818750941068,0.092969703691,0.0961768042487,0.00959411227189,1.0,0.0,0.0285073096339
1385566818850990046,0.102339071436,0.0765803583415,0.0107229048557,1.0,0.0,0.0288309569232
1385566818950976300,0.109908756399,0.0550940759678,0.0120383448695,1.0,0.0,0.0294600414544
1385566819051948068,0.114887754312,0.0320092103048,0.0127517574076,1.0,0.0,0.0304717080812
1385566819150989062,0.11743376182,0.0082043493403,0.0120321586352,1.0,0.0,0.031819504359
1385566819250922884,0.116951540043,-0.0156143577126,0.0102088893579,1.0,0.0,0.0336358986874
1385566819350946110,0.114570374403,-0.0384337363212,0.00777222829015,1.0,0.0,0.0352587115456
1385566819450981561,0.109277697569,-0.0586070973538,0.00522600253882,1.0,0.0,0.0366000504887
1385566819551922587,0.100753352723,-0.0747448461663,0.00433853417113,1.0,0.0,0.0378878398955
1385566819650995027,0.0896989377064,-0.0867092010701,0.00374471734497,1.0,0.0,0.0391154586198
1385566819751137092,0.0769758625209,-0.0955033855529,0.00204918777217,1.0,0.0,0.0402473648664
1385566819851022149,0.0632942578348,-0.102582999312,8.77403620696e-05,1.0,0.0,0.0411874158563
1385566819951131447,0.0490965573038,-0.108815102228,-0.0018613438759,1.0,0.0,0.0418797350631
1385566820050957698,0.0344081631823,-0.114738407374,-0.00350185238633,1.0,0.0,0.0422189434062
1385566820151082469,0.0192402498753,-0.120153875954,-0.00449524384298,1.0,0.0,0.0424763661173
1385566820250987726,0.00342194235396,-0.124810934147,-0.00510583022601,1.0,0.0,0.0425921674725
1385566820351009577,-0.0128494191977,-0.128078831746,-0.00532934585977,1.0,0.0,0.0427432496368
1385566820451985141,-0.0295940808698,-0.129545441961,-0.00536836862695,1.0,0.0,0.0428775732132
1385566820551910214,-0.0463271027,-0.128563635624,-0.00516797794786,1.0,0.0,0.0430586905803
1385566820651299690,-0.0627360248011,-0.124643400822,-0.00467471393552,1.0,0.0,0.0432214990563
1385566820751996924,-0.0783424886171,-0.117374263067,-0.00382310806506,1.0,0.0,0.0432983346395
1385566820850959250,-0.0929108757558,-0.106649996745,-0.00307087742723,1.0,0.0,0.0432222883523
1385566820951906006,-0.105639075188,-0.0924854114669,-0.00219520124854,1.0,0.0,0.0430432309872
1385566821051869076,-0.116490202934,-0.0751934963458,-0.0014661383132,1.0,0.0,0.0426834717991
1385566821151975390,-0.124881313525,-0.0554218216311,-0.00106349592911,1.0,0.0,0.0421892127584
1385566821251177367,-0.130570139659,-0.0339107165911,-0.000816684123663,1.0,0.0,0.0416065290681
1385566821351316390,-0.133371325429,-0.0115234926661,-0.000145867857286,1.0,0.0,0.0410210527164
1385566821451140259,-0.133626172461,0.0111618552629,0.000172663128139,1.0,0.0,0.0402900666558
1385566821550980181,-0.131130747309,0.0332226465232,0.000691605391555,1.0,0.0,0.0395670564836
1385566821650927320,-0.126106009091,0.054276621641,0.000964185420982,1.0,0.0,0.0388093386944
1385566821751265938,-0.118914321402,0.0741234293199,0.00108893196223,1.0,0.0,0.037965481547
1385566821850898692,-0.109828854703,0.0923121074882,0.00105589087022,1.0,0.0,0.0371193221732
1385566821951002266,-0.099134582087,0.108943344186,0.00102865894415,1.0,0.0,0.0361964853414
1385566822051992167,-0.0869228357375,0.123796799222,0.00121508656806,1.0,0.0,0.0352518744757
1385566822152042054,-0.0736264603583,0.136357900953,0.00130678159794,1.0,0.0,0.0343609199162
1385566822251953978,-0.0592551399596,0.146639967944,0.00165184976324,1.0,0.0,0.0335174584763
1385566822350923247,-0.043868401583,0.154508209258,0.00206444358434,1.0,0.0,0.032645203064
1385566822451002142,-0.0275485727956,0.159932870486,0.00269112171131,1.0,0.0,0.0317587971653
1385566822551975034,-0.0108265800446,0.162185369857,0.00360121639568,1.0,0.0,0.0309185182086
1385566822650996954,0.00668309504972,0.161897281547,0.00429095826246,1.0,0.0,0.0300079558596
1385566822750977762,0.0242562403404,0.158428476761,0.00513015681047,1.0,0.0,0.0290614618864
1385566822850905873,0.0412650823033,0.151783789634,0.00557973071736,1.0,0.0,0.0281948024469
1385566822951044979,0.0578652236548,0.142477187707,0.00600904937197,1.0,0.0,0.0273200632018
1385566823050945604,0.0732645951057,0.130582522628,0.00659886389298,1.0,0.0,0.0264788524477
1385566823151943982,0.086955348142,0.116286046715,0.00736455443058,1.0,0.0,0.0257352951656
1385566823251894042,0.0988212861317,0.0998727839538,0.0083156197082,1.0,0.0,0.0250764796279
1385566823350944477,0.108532798829,0.0816941576653,0.00922590710096,1.0,0.0,0.0245172039313
1385566823450971061,0.115789745093,0.0619713883698,0.0100150355652,1.0,0.0,0.0241155157335
1385566823550954242,0.12044830216,0.0410665845171,0.0107170662662,1.0,0.0,0.0239109583446
1385566823651071557,0.121553745662,0.019394861424,0.0116965197115,1.0,0.0,0.0241684947899
1385566823751106562,0.119884196723,-0.00251128675536,0.011948604248,1.0,0.0,0.0247954135312
1385566823850988855,0.115922196961,-0.024303642466,0.0111601350017,1.0,0.0,0.0256323624527
1385566823950963044,0.109981528443,-0.0455345822001,0.00988915889558,1.0,0.0,0.026693848066
1385566824050974744,0.102847256863,-0.0659002510107,0.0080981102727,1.0,0.0,0.0279319657965
1385566824152045287,0.0950719604432,-0.0850477895581,0.00585487937403,1.0,0.0,0.0292736329882
1385566824251074951,0.0871759373004,-0.103137991722,0.003403392975,1.0,0.0,0.0307262294678
1385566824350922862,0.0794362997068,-0.119974677448,0.00117251708721,1.0,0.0,0.0321032558026
1385566824451974967,0.0712982889075,-0.135500971666,-0.000673361907931,1.0,0.0,0.0332645797843
1385566824551135455,0.0622475970663,-0.149088897409,-0.00184112380729,1.0,0.0,0.0341733009977
1385566824650972915,0.051811538381,-0.160498434776,-0.00244132949181,1.0,0.0,0.0348436555701
1385566824750929504,0.0397420197836,-0.168978525167,-0.00289271723846,1.0,0.0,0.0353385476612
1385566824850875225,0.0261640584893,-0.17452595413,-0.00283336026601,1.0,0.0,0.0356082126665
1385566824950922793,0.0113956842754,-0.176521242659,-0.00247385378493,1.0,0.0,0.0357293347051
1385566825050967754,-0.00400508600114,-0.174923864895,-0.00153847955273,1.0,0.0,0.0357407793728
1385566825150956359,-0.0195595887171,-0.169586447019,-0.000495867304899,1.0,0.0,0.0356234625001
1385566825250975044,-0.0346870291424,-0.160926071439,0.000757627290327,1.0,0.0,0.0353751896175
1385566825351013605,-0.0491820596706,-0.149237435357,0.00158743703277,1.0,0.0,0.0349314015153
1385566825452058056,-0.0621724158888,-0.134902714796,0.00239896673976,1.0,0.0,0.0344155697928
1385566825550883557,-0.0739966063451,-0.118450529271,0.00335335420702,1.0,0.0,0.0336905943101
1385566825650972541,-0.0840218745555,-0.100379410957,0.00373349904186,1.0,0.0,0.0328473984123
1385566825751863476,-0.0925101774402,-0.0811947046972,0.00421276013091,1.0,0.0,0.0318412170259
1385566825850971740,-0.0990093471995,-0.0612988721309,0.00435781808326,1.0,0.0,0.0307905697318
1385566825950877713,-0.103777079377,-0.0410396695483,0.00426080259379,1.0,0.0,0.0297139007022
1385566826050934403,-0.106907642907,-0.0208323742778,0.0037160535311,1.0,0.0,0.0286490542385
1385566826150973236,-0.108514655079,-0.000837601052147,0.00331068829189,1.0,0.0,0.0275764491998
1385566826250973852,-0.108429384108,0.0187564134756,0.00314153480607,1.0,0.0,0.0265580013885
1385566826350972174,-0.106881583092,0.0377892897366,0.00258501114812,1.0,0.0,0.0255164485103
1385566826450980185,-0.103376648396,0.0556219682893,0.00187037812922,1.0,0.0,0.024618996407
1385566826550970467,-0.0984585097199,0.0725273696172,0.00120950285925,1.0,0.0,0.0236967931519
1385566826651064585,-0.0917883823275,0.0880855330159,0.000489735044089,1.0,0.0,0.0228260403349
1385566826750900326,-0.0837901099622,0.102351403777,-0.000317949401637,1.0,0.0,0.0219089055022
1385566826852078928,-0.0743129564825,0.115070396237,-0.000916800088047,1.0,0.0,0.0210039461294
1385566826951134379,-0.0636339373603,0.125868571947,-0.00129248523595,1.0,0.0,0.0202089998683
1385566827051084753,-0.0517440360254,0.134982579688,-0.00146538031594,1.0,0.0,0.0193973766477
1385566827150939436,-0.0387410754,0.141986123447,-0.00105263682247,1.0,0.0,0.0186037429274
1385566827250935897,-0.0248245821462,0.14650511608,-0.000841064796109,1.0,0.0,0.017898121579
1385566827350937776,-0.0101928133752,0.148425619802,-0.000666481133665,1.0,0.0,0.0173041201394
1385566827450931758,0.00478837087016,0.147779851294,-0.000387617497599,1.0,0.0,0.0168647577938
1385566827550938918,0.0196233614491,0.144441419448,0.000195511663468,1.0,0.0,0.0165420599982
1385566827651001344,0.0338057577826,0.138546168591,0.000795462648683,1.0,0.0,0.0164111238565
1385566827751012751,0.0467964013817,0.130016587004,0.00147491152643,1.0,0.0,0.0164911212413
1385566827852062843,0.0586116176756,0.119102890884,0.00210160745275,1.0,0.0,0.0167490410605
1385566827952130545,0.0692012473789,0.106060183594,0.00291206521867,1.0,0.0,0.0170939217156
1385566828052027137,0.078236042575,0.091163420484,0.00337379047375,1.0,0.0,0.0175666347205
1385566828151143813,0.0857806584463,0.0744812912514,0.00357553399401,1.0,0.0,0.0181826995014
1385566828250965794,0.0915995426944,0.0565409629471,0.00377666921871,1.0,0.0,0.0190237598917
1385566828351125807,0.0955604010272,0.0374905888236,0.00452023253198,1.0,0.0,0.020127156757
1385566828450929640,0.0972754323297,0.0176257517803,0.00517224444888,1.0,0.0,0.0216081751608
1385566828551958081,0.0972227573071,-0.00282747363361,0.00540923063028,1.0,0.0,0.0233222634196
1385566828650949144,0.0954321029031,-0.0233215914336,0.00471703107967,1.0,0.0,0.0251790219866
1385566828750961331,0.0920607517533,-0.0437310621609,0.00367369712737,1.0,0.0,0.0271807304039
1385566828850942370,0.0876448976133,-0.0633044142226,0.00229541764875,1.0,0.0,0.029161057595
1385566828950943600,0.08231556142,-0.081754462904,0.000576877344709,1.0,0.0,0.0310440448083
1385566829050937975,0.0764520218926,-0.0988115176163,-0.00164983066365,1.0,0.0,0.0328101223389
1385566829151929339,0.070123184415,-0.11449454881,-0.00373744378599,1.0,0.0,0.0344597844132
1385566829250998821,0.0633426136811,-0.128622724422,-0.0055256106523,1.0,0.0,0.035875892577
1385566829350933483,0.0556772617937,-0.141236673721,-0.00701049786231,1.0,0.0,0.0369222925984
1385566829451016505,0.0467299420212,-0.151439865653,-0.00788106590601,1.0,0.0,0.0376875022043
1385566829550965115,0.0363935188787,-0.159113180528,-0.00831806588094,1.0,0.0,0.038163173442
1385566829650908912,0.0248144494294,-0.163404867882,-0.00724630008436,1.0,0.0,0.038564980305
1385566829751012344,0.0130018657224,-0.162668662556,-0.00579180392377,1.0,0.0,0.0388506106999
1385566829850944895,0.00227148012745,-0.156235905163,-0.00431826111223,1.0,0.0,0.0391124161958
1385566829950927858,-0.00697622226003,-0.144281090294,-0.00329684801406,1.0,0.0,0.0391804449387
1385566830051972071,-0.0142750132154,-0.127616532757,-0.00286282685787,1.0,0.0,0.0390379613769
1385566830151958886,-0.0202509168983,-0.107859658248,-0.0023160724271,1.0,0.0,0.0386391620345
1385566830251903517,-0.0250436790788,-0.0863408687389,-0.0017666108044,1.0,0.0,0.038176350249
1385566830350880884,-0.0295485084178,-0.0642556111814,-0.00134593855734,1.0,0.0,0.0376190411499
1385566830451927140,-0.0340365297388,-0.0427551342423,-0.00101548995324,1.0,0.0,0.0369942529858
1385566830550943082,-0.0387730307579,-0.0221540136764,-0.000514342612624,1.0,0.0,0.0363552487549
1385566830650954217,-0.043730980756,-0.00274256286996,-8.98860308289e-05,1.0,0.0,0.035772295336
1385566830751102697,-0.0487196185181,0.015689673254,-5.85340823772e-05,1.0,0.0,0.0353540747213
1385566830851096715,-0.0533449807872,0.0333327673191,0.000102149932862,1.0,0.0,0.0351866470148
1385566830950899946,-0.0571302033492,0.0506848241004,0.000171934999086,1.0,0.0,0.0352473670358
1385566831051971057,-0.0594704470594,0.0679623117055,9.18776276128e-05,1.0,0.0,0.0355373634913
1385566831150991175,-0.0598655176989,0.0853358582879,6.46896915945e-05,1.0,0.0,0.0360955900018
1385566831250924416,-0.0582663382188,0.102372422295,0.000124619516856,1.0,0.0,0.0369483448514
1385566831350943737,-0.0546106758063,0.118530036719,0.000270839451768,1.0,0.0,0.0381119483687
1385566831450973724,-0.0492812837911,0.13310871421,0.000322599767591,1.0,0.0,0.0394149997301
1385566831550932337,-0.0426153367021,0.145684832123,-7.72863837191e-07,1.0,0.0,0.0408495149718
1385566831650928386,-0.0349114173237,0.155874890903,-0.000987389484752,1.0,0.0,0.0422579816182
1385566831750986209,-0.0265941357689,0.163522994739,-0.0019070016547,1.0,0.0,0.0435930533404
1385566831850905875,-0.0177143973492,0.168415348302,-0.00270766571695,1.0,0.0,0.0447877325145
1385566831950953278,-0.00821880822682,0.170311209165,-0.00371539507658,1.0,0.0,0.0457936144279
1385566832051145423,0.00168509823038,0.169195425074,-0.0043020001012,1.0,0.0,0.0466942152953
1385566832150955736,0.0120758650629,0.1650281734,-0.00451781725153,1.0,0.0,0.0474842919029
1385566832250974530,0.0229365912686,0.157883371255,-0.00452736133393,1.0,0.0,0.0481561832463
1385566832351012794,0.0339353236932,0.147632134571,-0.00439705376329,1.0,0.0,0.0487838858783
1385566832450994626,0.0449719910919,0.134957722653,-0.00417668880452,1.0,0.0,0.0492628277691
1385566832550944816,0.0557214862369,0.119839285221,-0.00338192257353,1.0,0.0,0.0496909508412
1385566832650978281,0.0658636687577,0.102727415702,-0.00223489592979,1.0,0.0,0.0500033542591
1385566832750931457,0.0746879785628,0.0836966204584,-0.000795226005058,1.0,0.0,0.0503733930295
1385566832850930700,0.0817391520704,0.0631607954184,0.00109572869616,1.0,0.0,0.050872030551
1385566832950889490,0.0865416023519,0.0413319517954,0.0028939874826,1.0,0.0,0.0515472876818
1385566833051105994,0.089087851319,0.0184854942665,0.00471505765667,1.0,0.0,0.0523173477539
1385566833152084256,0.089027279205,-0.00479602560569,0.00557314230154,1.0,0.0,0.0531512051032
1385566833250895765,0.0862707290598,-0.0281284453496,0.0057354322893,1.0,0.0,0.0540345237433
1385566833352102189,0.0811081776939,-0.0506478940984,0.0051823333899,1.0,0.0,0.0550035759584
1385566833451142176,0.0743719864122,-0.072452013609,0.00412411218513,1.0,0.0,0.0558546355993
1385566833551959121,0.0660680045572,-0.0925811343407,0.00246474727855,1.0,0.0,0.0566555828271
1385566833651141782,0.0569010118833,-0.111094664874,0.00064931306039,1.0,0.0,0.0572427447948
1385566833750946102,0.0470304787878,-0.127708898124,-0.000994888927871,1.0,0.0,0.0576855747081
1385566833851003881,0.0366292142588,-0.142238932176,-0.00269225679334,1.0,0.0,0.0578832690323
1385566833951964776,0.0252787616775,-0.154235127107,-0.00422649439927,1.0,0.0,0.0578653617966
1385566834050970723,0.0128545975869,-0.163717217216,-0.00537842705102,1.0,0.0,0.0574099559184
1385566834150898977,-0.000568922362577,-0.169482938177,-0.00601808887152,1.0,0.0,0.0567957370238
1385566834250937240,-0.0146056068879,-0.171425349154,-0.00588233095304,1.0,0.0,0.0559590619318
1385566834350942203,-0.0288113296612,-0.169222114905,-0.00537747472441,1.0,0.0,0.0550275602155
1385566834450885253,-0.0428461671828,-0.162928476157,-0.00468003685315,1.0,0.0,0.0539347146501
1385566834551978986,-0.056137549361,-0.152950312335,-0.00382958154694,1.0,0.0,0.052804763795
1385566834651041495,-0.0684605425104,-0.139899471072,-0.00295131440775,1.0,0.0,0.0515517485771
1385566834750900121,-0.0793572126324,-0.124215043981,-0.00208891584182,1.0,0.0,0.0502383969658
1385566834850894339,-0.0888060966038,-0.106543149687,-0.00119760678996,1.0,0.0,0.0487514788536
1385566834951041670,-0.0964472313951,-0.0874593844222,-0.000533981966384,1.0,0.0,0.047141025629
1385566835050952115,-0.102233885742,-0.0674165939686,-8.55240322634e-05,1.0,0.0,0.0454357485576
1385566835151882932,-0.106278236669,-0.0470081448374,-2.63950457684e-05,1.0,0.0,0.0436384439232
1385566835250948777,-0.108631172384,-0.0264921988906,8.55113535329e-05,1.0,0.0,0.0417755226061
1385566835351092907,-0.109427024795,-0.00624050243832,-6.66509081235e-05,1.0,0.0,0.0398639165103
1385566835450937769,-0.10883469428,0.0136361859045,5.07660816849e-05,1.0,0.0,0.0378925358792
1385566835551249288,-0.106897052333,0.0329053198078,-0.000171685923181,1.0,0.0,0.0358653231937
1385566835651075015,-0.103469372803,0.051518840173,-0.000468752770777,1.0,0.0,0.0337942410945
1385566835750932952,-0.0984398790957,0.0692608965941,-0.000688506290856,1.0,0.0,0.0317567760475
1385566835851114771,-0.0917904319755,0.0859930389492,-0.000843812815715,1.0,0.0,0.0297374715187
1385566835951047800,-0.0834519983685,0.101403409692,-0.000846124904298,1.0,0.0,0.0277920294478
1385566836051114768,-0.0732217147102,0.115209871492,-0.000605491637443,1.0,0.0,0.0260084901797
1385566836152056525,-0.061304743038,0.126995275054,-0.000130080231587,1.0,0.0,0.0244087174654
