%time,field.linear.x,field.linear.y,field.linear.z,field.angular.x,field.angular.y,field.angular.z
1385566771760183291,0.0,0.0,0.0,0.0,0.0,0.0
1385566771760235946,0.423596177141,-0.034718407858,-0.113817880148,0.000634711469561,0.00718602866786,-1.21633557585
1385566771770174180,0.423590732881,-0.0347254275888,-0.113813722635,0.000632317791979,0.00714995463094,-1.21631934312
1385566771780256659,0.423600886245,-0.0347187236363,-0.113816948901,0.000629812351098,0.00718820582328,-1.21632182722
1385566771790384099,0.42359645709,-0.0347190855427,-0.113813016017,0.000626580448516,0.00715132437302,-1.21634294056
1385566771800218294,0.423589706436,-0.0347263869941,-0.11381954748,0.0006390493947,0.00716071330981,-1.21632969012
1385566771810198716,0.423587700663,-0.0347190151438,-0.113815979813,0.000656922693086,0.00715874788522,-1.21632064281
1385566771820187246,0.423601323786,-0.0347178475937,-0.11381293412,0.000661201221445,0.00724776455598,-1.21632003863
1385566771830275723,0.423592918039,-0.0347218790637,-0.113811410789,0.000647034392888,0.00717617537032,-1.21631795573
1385566771840222435,0.423593859093,-0.0347167376668,-0.113818012129,0.000629941992694,0.00719587475793,-1.21632221995
1385566771850434677,0.423557957982,-0.0347306066578,-0.113771513213,0.00055430814602,0.00767550732318,-1.21623672984
1385566771860163658,0.423541186296,-0.0347154612968,-0.113822785937,0.000615090386171,0.00723433771702,-1.21635832794
1385566771870377345,0.423588791582,-0.0347195264817,-0.113820316618,0.000624474775297,0.00718884511306,-1.21632975712
1385566771880182999,0.423565890254,-0.0347352863265,-0.11378395297,0.000878246246785,0.00699325235252,-1.21636422947
1385566771890150628,0.423595487691,-0.0347246996732,-0.11380401124,0.000608594107691,0.00708687512524,-1.21630547553
1385566771900154208,0.423590005551,-0.0347152660496,-0.113806522171,0.000653615142698,0.00727715483666,-1.21632931066
1385566771910228921,0.423590610792,-0.0347207467415,-0.113811549741,0.000627696486281,0.00717542876714,-1.21632511725
1385566771920139354,0.423575365287,-0.0347290459763,-0.113781740956,0.000850552786191,0.00704740105193,-1.21634878414
1385566771930332545,0.423603000785,-0.0347160072304,-0.113811744411,0.000636070723471,0.00713174904564,-1.21634732785
1385566771940188924,0.423602014727,-0.0347231164772,-0.113808328144,0.000628544523759,0.00711000467911,-1.21634409174
1385566771950287220,0.423596072669,-0.0347186837948,-0.113809058239,0.000655398863896,0.00724728103242,-1.21632520856
1385566771960137154,0.423548699717,-0.0347020869578,-0.113812071643,0.000655284883779,0.00725818013635,-1.21636847425
1385566771970228421,0.423596700973,-0.0347168043971,-0.113816822716,0.000635709484422,0.00718231981366,-1.2163227802
1385566771980265064,0.423540983741,-0.0347067511969,-0.113813121193,0.000651148771518,0.00728307751096,-1.21633757757
1385566771990184727,0.423601135844,-0.0347197103128,-0.11379615638,0.000674643964638,0.00717320209332,-1.2163554805
1385566772000178817,0.423604821951,-0.0347128720559,-0.11380235079,0.000686558081086,0.00722417614656,-1.21632878202
1385566772010172896,0.423561169814,-0.0347377335516,-0.113778799571,0.000838184351042,0.00696567526161,-1.21637891089
1385566772020263252,0.423603837099,-0.0347106199795,-0.113806407545,0.000642128915403,0.00729459657614,-1.21630093051
1385566772030168648,0.423553853438,-0.0347274582586,-0.113764870465,0.000592889977588,0.00781918215713,-1.21623856803
1385566772040169615,0.423589462002,-0.0347275082825,-0.113807864082,0.000610397192465,0.00715558924282,-1.21635145675
1385566772050265951,0.423600432653,-0.034720141094,-0.113812199574,0.000636786666987,0.00715337752954,-1.21633923649
1385566772060115015,0.423595059971,-0.0347247916828,-0.113801169601,0.000601585909615,0.00717050712533,-1.21632878169
1385566772070208870,0.423591442898,-0.0347185100291,-0.113796212482,0.000652761374176,0.00720901546504,-1.21633671949
1385566772080117023,0.42358006864,-0.034729056586,-0.113803551377,0.000596096982026,0.00714585292718,-1.21633690327
1385566772090441075,0.423560951134,-0.0347316697402,-0.113782924229,0.000843954121748,0.00699264253636,-1.21635943867
1385566772100201640,0.423596175598,-0.0347118724688,-0.11380375431,0.000663560320145,0.00725216768328,-1.21635879559
1385566772110176174,0.423583715665,-0.0346994425744,-0.113788162476,0.000552315269355,0.00750153570698,-1.21637291962
1385566772120164398,0.423529982777,-0.0347137454954,-0.113820894037,0.000588628865723,0.00721855075619,-1.21636134597
1385566772130175943,0.423581205956,-0.0347135149223,-0.113803004081,0.000674381334531,0.00726847038844,-1.2163409192
1385566772140143201,0.42358399074,-0.0347062939448,-0.113803249716,0.000631645824532,0.00729567309836,-1.2163807778
1385566772150329567,0.423375029752,-0.0348062844816,-0.113867098005,-0.000290797542087,0.00601975576938,-1.21612488791
1385566772160202601,0.423473126651,-0.0347792619839,-0.113894969561,2.47517793112e-05,0.00613406445899,-1.21611055694
1385566772170298349,0.423418693397,-0.0347931997168,-0.113860369967,-9.18090393857e-05,0.00651954638886,-1.21604685469
1385566772180213314,0.423453365407,-0.0347839415444,-0.113890485886,3.8373588513e-05,0.00606209203971,-1.2161044997
1385566772190207971,0.423326017522,-0.0348107673835,-0.113823026996,-0.000300801428115,0.00649932465788,-1.2160395787
1385566772200132276,0.423402298593,-0.034765828586,-0.113876418557,-9.00506929229e-05,0.00629870135268,-1.21615871979
1385566772210243646,0.423405617585,-0.0347724032095,-0.11389902495,1.65851395402e-05,0.00613731190706,-1.21617078927
1385566772220133586,0.423455898581,-0.0347627363673,-0.113862855995,7.43506891366e-07,0.00634820973106,-1.21612139714
1385566772230237004,0.423465781372,-0.0347815309124,-0.113888965156,1.33049570124e-05,0.00614166361671,-1.21611832311
1385566772240153229,0.423454927901,-0.0347700258997,-0.113875200584,-4.43455347446e-05,0.00632437252243,-1.21617833387
1385566772250304951,0.423450437365,-0.0347721799035,-0.113875488573,-4.25688914221e-05,0.00629204463413,-1.21612753777
1385566772260101862,0.423454679171,-0.0347874345887,-0.113888204092,3.32902708387e-05,0.00611852455768,-1.21610513421
1385566772270218124,0.423373119525,-0.0347942015374,-0.113873741219,0.000195039812071,0.00586995112145,-1.21615126933
1385566772280154142,0.423400883705,-0.0347746623943,-0.113899256766,-2.78974795766e-05,0.00607797792975,-1.21612139505
1385566772290102392,0.423454074741,-0.0347678417235,-0.113877470493,-7.21834181261e-05,0.00631032820192,-1.21629549546
1385566772300190465,0.423409726646,-0.0347693045036,-0.113903928204,2.59431332484e-05,0.00618420096742,-1.21591726098
1385566772310159369,0.423398231429,-0.0347756706872,-0.113889553367,-1.85085189364e-05,0.00605615538904,-1.2160590037
1385566772320168862,0.423458120778,-0.0347902996866,-0.11390269975,-3.80800094708e-05,0.00598494058237,-1.21641911282
1385566772330171963,0.423357245349,-0.0347865342279,-0.113867735985,-5.74925025928e-05,0.00645806699746,-1.21647325256
1385566772340262302,0.423458699276,-0.0347950596207,-0.113900512482,4.04089649118e-05,0.00617834001689,-1.21572560809
1385566772350315393,0.423412551698,-0.0347995211486,-0.113893856144,2.44611809352e-05,0.00615498875329,-1.21544094465
1385566772360245835,0.423376268779,-0.0348053962327,-0.113848637971,4.05138097468e-05,0.00604232279509,-1.2165159082
1385566772370273245,0.423366988639,-0.0347722230097,-0.113836165015,-0.000131152186438,0.00586513062404,-1.21693777555
1385566772380159681,0.423338021924,-0.034807051086,-0.113861975613,2.95244066865e-05,0.00667733654672,-1.21561427379
1385566772390155818,0.423307963362,-0.034816012295,-0.113826238063,0.000246140940576,0.00639954320577,-1.21505064961
1385566772400171726,0.423365723609,-0.0347890074277,-0.113876523481,-0.000288882284288,0.0061822032923,-1.21652582928
1385566772410271870,0.423517294901,-0.0348171696288,-0.113815810262,-0.000227494250538,0.00552823851894,-1.21656415784
1385566772420119225,0.423322712204,-0.0348645306219,-0.113855381363,-4.32117945041e-05,0.00665153628067,-1.21536205664
1385566772430174207,0.423247140746,-0.0348618381739,-0.113819896647,0.000498883980265,0.0059383154669,-1.21458966003
1385566772440127040,0.423189335858,-0.0347981679505,-0.113855918947,0.000667778350362,0.0056855044309,-1.21630067235
1385566772450306030,0.423223516942,-0.034841087728,-0.113798428181,0.000178886635951,0.00573161134198,-1.21647232126
1385566772460167358,0.423324051388,-0.0347848104088,-0.11387106635,0.000240366049816,0.00621918339662,-1.21571680615
1385566772470157543,0.423349261919,-0.0348011832165,-0.113898240511,2.48867579727e-05,0.00620194683791,-1.2153372643
1385566772480190457,0.423313450699,-0.0348125736248,-0.113885668105,9.06700119226e-05,0.00590784177997,-1.21631375774
1385566772490242745,0.423379608231,-0.0347832926711,-0.113897697262,-6.9724033707e-05,0.00615443699586,-1.21621022848
1385566772500181297,0.423346328893,-0.0348027410359,-0.113888792805,-1.38926710043e-06,0.00633322115453,-1.21541809873
1385566772510214488,0.423402630909,-0.0347870919809,-0.113900485363,2.93156792877e-05,0.00619580736552,-1.21571084042
1385566772520117426,0.423303954903,-0.0348287710757,-0.11386888048,-0.000223315386495,0.00600602835224,-1.21647367008
1385566772530238906,0.423461074215,-0.0348018074388,-0.113780813145,0.000721358390935,0.00803364476625,-1.21584635236
1385566772540151826,0.423370816996,-0.0347231630925,-0.113845173132,0.00155528301277,0.00723493234499,-1.215996118
1385566772550279382,0.423441535469,-0.0347287417294,-0.113780614321,0.000920278903414,0.00719664377399,-1.21629992751
1385566772560281312,0.423310501867,-0.0348046009468,-0.113893744315,-0.000379644282846,0.00613436881988,-1.21634284356
1385566772570217466,0.423355284658,-0.034782788719,-0.113913172608,7.65507316138e-06,0.00629146723646,-1.21572949941
1385566772580228427,0.423359632855,-0.0347844730899,-0.113912274806,-3.03323063423e-05,0.00627502047966,-1.21562457778
1385566772590475285,0.423301261356,-0.0348205455486,-0.113848311428,-0.000242634828116,0.00598608059287,-1.21616596449
1385566772600187932,0.423175145779,-0.0347521041445,-0.113848046548,0.000806830824867,0.00634903407992,-1.216324474
1385566772610177443,0.423330039728,-0.0347890097158,-0.113890748972,0.000285468952533,0.00606156393308,-1.21568686862
1385566772620147217,0.423527487796,-0.0347214285789,-0.113822374462,0.000696145826986,0.00724104919986,-1.21612593276
1385566772630166460,0.423478621768,-0.0347101659782,-0.113817218095,0.000680326248999,0.00736058048417,-1.21641981628
1385566772640099385,0.423539470871,-0.0347204818792,-0.113799754873,0.000688281314723,0.00740716590282,-1.21609457657
1385566772650204844,0.423414066837,-0.0347461226563,-0.113724594779,0.000828436465147,0.00681411162403,-1.21597555392
1385566772660159584,0.423388080846,-0.0347185536883,-0.113848067972,0.000783789021388,0.00711085495181,-1.21615571758
1385566772670179260,0.423441769783,-0.0347370041874,-0.113782081158,0.000919797513009,0.00722786558952,-1.21625482081
1385566772680146781,0.423475576849,-0.0347148750541,-0.113808966101,0.000712821922272,0.00746808754105,-1.21595541857
1385566772690170037,0.423441521503,-0.0347315292394,-0.11381423822,0.000976785315096,0.00736972738541,-1.2162212819
1385566772700247528,0.423346924757,-0.0346964313333,-0.113848890991,0.00144751516868,0.00770108356528,-1.21641645422
1385566772710160546,0.423486219985,-0.0347184327264,-0.113833026522,0.000761382182545,0.00736859219935,-1.21610837447
1385566772720195614,0.423477612674,-0.0347035891526,-0.113811142056,0.00081166638089,0.00743963478862,-1.21621249453
1385566772730211450,0.423469095071,-0.0347324171318,-0.113781046657,0.000963877443482,0.00740627112156,-1.21608655922
1385566772740129331,0.423397294877,-0.0346674478462,-0.113730796062,0.000906361739468,0.00750056933064,-1.21644143461
1385566772750269098,0.423477109693,-0.0347142599885,-0.113841696841,0.000935548253044,0.00740514555187,-1.21617747699
1385566772760193751,0.423493726093,-0.0347114090314,-0.113816616783,0.000890676058774,0.00746781845348,-1.21593344917
1385566772770171130,0.423518559175,-0.0348478203846,-0.113662174013,0.00111683056003,0.00694597355467,-1.2158122244
1385566772780138924,0.423406064214,-0.034733499601,-0.113736592422,0.00086464944082,0.00762899436063,-1.21625499549
1385566772790210329,0.423419907145,-0.0347284062223,-0.113791405282,0.00057408434222,0.00781182446422,-1.21607188807
1385566772800208194,0.423463057408,-0.0347285907021,-0.1137992476,0.000618923841749,0.00740475634865,-1.21586874373
1385566772810195844,0.423391723238,-0.0347350636194,-0.113722447617,0.000373733096566,0.00713320194157,-1.21647791252
1385566772820257388,0.423418933873,-0.0347438189097,-0.113756987008,0.000230745790283,0.00727140478551,-1.21627934633
1385566772830224485,0.423441886937,-0.0347368347875,-0.113784474958,0.000862674565585,0.00709192442527,-1.21593681293
1385566772840139064,0.423431488645,-0.0347064977926,-0.113862842718,0.00139529810619,0.00712806699161,-1.21641956276
1385566772850279509,0.423375378442,-0.0347298234254,-0.113805058333,0.00102628383835,0.00699065401075,-1.2163072489
1385566772860143997,0.423388871552,-0.0347385651169,-0.113761018955,0.000781543708043,0.00767054415977,-1.2161333237
1385566772870181112,0.423406069123,-0.0347144541936,-0.113769876837,0.00054569888251,0.00756574319775,-1.21578799671
1385566772880135504,0.423440418876,-0.034739900709,-0.113811859463,0.000301395149003,0.00741255968431,-1.21628126873
1385566772890163359,0.42340743534,-0.034659784787,-0.113702702597,-0.000451093795074,0.00679262561399,-1.21643783043
1385566772900140791,0.423413022072,-0.0347493928721,-0.113806700505,0.000225102356405,0.00782547737429,-1.2157515424
1385566772910189389,0.423433129272,-0.0347164471171,-0.113828400096,0.00041386551337,0.007859678529,-1.21595407948
1385566772920160829,0.423473330622,-0.0347107641886,-0.113860837389,0.00142872498412,0.00700672358984,-1.21631023583
1385566772930125083,0.423525271898,-0.0346999508476,-0.113840252265,0.00202942910398,0.00687543383348,-1.21568867647
1385566772940197842,0.423574175345,-0.0346841975697,-0.113833332553,0.0021257301731,0.00738098724804,-1.21564564122
1385566772950258138,0.423504114915,-0.0347116137787,-0.113840994717,0.00189617421264,0.007134487763,-1.21634637228
1385566772960163284,0.423466906636,-0.0347165297273,-0.11386798958,0.00143899623959,0.00725127489093,-1.21573462132
1385566772970314640,0.42346752319,-0.0347197598617,-0.113927551361,0.000376872069268,0.00741234400302,-1.21549882868
1385566772980185372,0.4234949903,-0.0348848604485,-0.113747189837,0.000198967421194,0.00649731146142,-1.21599273646
1385566772990193983,0.423456334207,-0.034808357277,-0.113719089943,0.000720063599614,0.00665705872316,-1.21562306821
1385566773000424003,0.423584322545,-0.0348099197829,-0.113759097008,0.000761210042983,0.00696211087739,-1.21555575698
1385566773010255998,0.423429342164,-0.0346718528464,-0.113870713891,0.00107499735328,0.00737890652682,-1.21624773401
1385566773020203268,0.423516408968,-0.0347099735399,-0.113967863972,0.00184673867134,0.00715715721458,-1.21525062029
1385566773030304785,0.423529926351,-0.0347300328262,-0.113834125991,0.00158443706977,0.00749225256661,-1.21552101407
1385566773040090978,0.423380825454,-0.0346744648621,-0.113810818577,0.00115451073152,0.00765075475543,-1.21601034677
1385566773050266199,0.423309825977,-0.0348065995589,-0.113914676839,0.000126787192058,0.00617180106254,-1.21500026485
1385566773060110891,0.423459784554,-0.03469208998,-0.113942825563,0.000581031641257,0.00709852132323,-1.21606059686
1385566773070320824,0.4234539264,-0.0346602502782,-0.113947297406,0.000628430641001,0.00720137898473,-1.21614538234
1385566773080237723,0.423396718684,-0.0346455902506,-0.11377571942,0.00107997670336,0.00776804195701,-1.21543984312
1385566773090170838,0.42341158615,-0.0346632525742,-0.113785733188,0.00173641078486,0.00706507663496,-1.21583381974
1385566773100219146,0.423487299343,-0.0346616162352,-0.113891053522,0.00196423371275,0.00701944221788,-1.21580548256
1385566773110348203,0.423425092825,-0.0346631913623,-0.113885236497,0.00203750469487,0.0072660454922,-1.21552313866
1385566773120216087,0.423456333716,-0.0346270670172,-0.113967014658,0.00228790403196,0.00724439454176,-1.21615509473
1385566773130255345,0.423450655917,-0.0346487236522,-0.113833055524,0.00172045639077,0.00731040646041,-1.21595280466
1385566773140114984,0.423400967073,-0.03467471667,-0.113796620879,0.00164005705582,0.00725848213241,-1.21559785028
1385566773150285400,0.423435769058,-0.0346528277208,-0.113871889819,0.00118688538689,0.00694918738567,-1.2161897774
1385566773160406398,0.423397026456,-0.0346616114534,-0.113958268239,0.00180692867549,0.00749254726659,-1.21530228594
1385566773170110075,0.423396938862,-0.0346607966159,-0.113856783201,0.00152773266429,0.00735421799809,-1.21556616258
1385566773180242976,0.423367615623,-0.0346412670985,-0.113742586002,0.0016851753497,0.00743307067738,-1.21597712165
1385566773190239998,0.423358235716,-0.0345964343008,-0.113850700201,0.00242617474285,0.00759246230114,-1.21570182512
1385566773200154599,0.423434698135,-0.0346239059508,-0.113900135089,0.00190353401945,0.00750014757003,-1.21564772868
1385566773210275165,0.423395698394,-0.0346368456602,-0.113964685201,0.00225636294669,0.00678953469747,-1.21609009908
1385566773220361639,0.423452613769,-0.0346432960415,-0.113870633431,0.00226866403121,0.00717308632769,-1.21535395608
1385566773230250131,0.423465910047,-0.0346105134664,-0.113710092625,0.00164508713978,0.0074002274185,-1.21578753921
1385566773240183688,0.423451505474,-0.0346312194895,-0.113822558252,0.00153668853305,0.00699800628509,-1.21595909083
1385566773250769088,0.423401639344,-0.0346236425081,-0.113879908346,0.000826706385098,0.00805509513038,-1.21520802233
1385566773260215915,0.423390101326,-0.0346089829497,-0.113904385634,0.000606093408939,0.00718673985398,-1.21576529039
1385566773270248942,0.42331269068,-0.034627421408,-0.113797094518,0.000999687119709,0.00741376505038,-1.21565397209
1385566773280207109,0.423414013032,-0.0346141744811,-0.113718906898,0.000918944214646,0.00762512544372,-1.21536284149
1385566773290339518,0.42339927546,-0.0345744575234,-0.113842588719,0.000653981479032,0.00743227775657,-1.21586538537
1385566773300215875,0.42337491295,-0.0345983883626,-0.113997547744,0.00164824746796,0.00718133128146,-1.2156978379
1385566773310206540,0.423346021769,-0.0346051088682,-0.113926714522,0.0015949790106,0.00711773461659,-1.21533795937
1385566773320706479,0.423367241349,-0.0345702232931,-0.113844104238,0.00181547092951,0.00693614579065,-1.21596480146
1385566773330238868,0.423377636484,-0.0345965685559,-0.113792971816,0.00195581166724,0.00721311059531,-1.21540591121
1385566773340094120,0.423364202392,-0.0345779757108,-0.113768282981,0.00185645910144,0.00721301452976,-1.21525902362
1385566773350205068,0.423342949521,-0.0345822205792,-0.113859429811,0.00148564032,0.00737592100435,-1.21585696215
1385566773360257420,0.423400521302,-0.0345551019688,-0.113840299015,0.000917561896056,0.00808184146273,-1.21509434661
1385566773370258984,0.423407028757,-0.0345744723142,-0.113782863853,0.00100939884096,0.00708857240811,-1.21568167443
1385566773380274415,0.423354797521,-0.0345974107041,-0.113794600109,0.00104045850531,0.00733790079481,-1.21563124815
1385566773390351576,0.423508493838,-0.0346100288412,-0.11380568406,0.00114412303553,0.00734547254718,-1.21499739377
1385566773400216273,0.423293824327,-0.0345836835637,-0.11398543596,0.000532534992883,0.0063707337111,-1.21533705335
1385566773410234767,0.423171027219,-0.0346216627387,-0.113914853442,0.000971408823511,0.00646485855238,-1.21566811391
1385566773420306159,0.423176476619,-0.0346230267023,-0.113866212021,0.000507227713835,0.00619921333178,-1.21495174957
1385566773430197401,0.423186206555,-0.0345840474586,-0.113838996355,0.000668757081171,0.00556207148065,-1.2154990746
1385566773440139620,0.423327818148,-0.0345564683575,-0.113900291377,0.00152025374299,0.00711179687954,-1.21540349304
1385566773450333203,0.423314227818,-0.034503872105,-0.113837550646,0.00141699112696,0.00706840727328,-1.21564881919
1385566773460179434,0.423131183404,-0.0345044030943,-0.113907499266,0.00108764959589,0.00658063623965,-1.21777565803
1385566773470304438,0.423173260774,-0.0345490137211,-0.113926891054,-0.0008663041101,0.00625304711292,-1.21630019968
1385566773480290504,0.423252633127,-0.0345588195262,-0.113616143488,0.000281665185631,0.00669190236108,-1.2172351862
1385566773490182270,0.423207526003,-0.0344969583143,-0.113590631099,0.00108759278077,0.00613775590383,-1.21714145605
1385566773500210227,0.423157399836,-0.0344351725038,-0.113838113918,0.00195647984127,0.00747360419055,-1.21648187302
1385566773510205963,0.423186960973,-0.0343489146924,-0.113942845062,0.00192814579792,0.00687324685716,-1.21733790912
1385566773520180230,0.423254386049,-0.0343515933215,-0.113831438036,0.00175223220525,0.00702658429466,-1.21636967618
1385566773530166250,0.422923707596,-0.0342944641526,-0.113717872465,0.00263355105515,0.00726119985772,-1.21717851704
1385566773540093145,0.422980093563,-0.0343470368468,-0.113768526084,0.00101510236664,0.00550945221994,-1.21679200227
1385566773550177703,0.423046486993,-0.0342500670015,-0.113931297983,0.00213473634705,0.00685468578675,-1.21761491219
1385566773560382916,0.422970167303,-0.0341868373396,-0.113972415279,0.00313237646163,0.00614318605559,-1.21774751469
1385566773570289863,0.422987348223,-0.034192762502,-0.113781926106,0.00298306698533,0.00669534170403,-1.21778267886
1385566773580206879,0.42298770782,-0.0341125636533,-0.113694622504,0.00297210855825,0.00667078558763,-1.21827992617
1385566773590249195,0.422855673295,-0.0342156195008,-0.113903665607,0.00195312807078,0.0061169308994,-1.21744803723
1385566773600112111,0.42285239096,-0.0341081620033,-0.113980737787,0.00295770060918,0.00670739160401,-1.21841448968
1385566773610239200,0.422869714847,-0.0340958299505,-0.113966747729,0.00375321897758,0.00610756340215,-1.21850855473
1385566773620270126,0.422780890167,-0.0341471257042,-0.113861874556,0.00294700226679,0.0055718882232,-1.21805104885
1385566773630358890,0.422716680553,-0.0342031144677,-0.113808698025,0.00361242037188,0.00622037553629,-1.21872119325
1385566773640128167,0.422881999021,-0.0340724870323,-0.113853990992,0.00431625384403,0.00683531476526,-1.2181768123
1385566773650168834,0.422938818786,-0.0340967643365,-0.113978855454,0.0042718370842,0.00598484547949,-1.2191368135
1385566773660195082,0.422916495325,-0.0340950289158,-0.113843805967,0.00419011081862,0.00633028601271,-1.21896217561
1385566773670111677,0.422807249777,-0.034151371906,-0.113899518117,0.00328744053021,0.00554781756101,-1.21835846379
1385566773680174243,0.422858447188,-0.0341835851203,-0.113922359754,0.0031267244952,0.00529713254691,-1.21914850039
1385566773690281221,0.422712659406,-0.0340971071553,-0.114048863329,0.00365259945685,0.00555456871146,-1.21869889447
1385566773700214411,0.422808151083,-0.0342363940846,-0.113985973535,0.00318803024803,0.00544861059109,-1.21876120324
1385566773710239085,0.422880930579,-0.0340001793103,-0.113808164217,0.00397814360347,0.00587475686119,-1.2190076735
1385566773720128563,0.422928655892,-0.0340914693819,-0.113779329965,0.00401942803869,0.00642634090551,-1.21922394646
1385566773730165942,0.42292681161,-0.0340100456301,-0.113913307362,0.00407135478493,0.00656234647404,-1.21919847688
1385566773740201297,0.422956359725,-0.0340266837566,-0.113932889702,0.00442914798935,0.00637402406474,-1.21941721468
1385566773750258907,0.422897174338,-0.0340530066078,-0.113838705956,0.00445438323991,0.00670801928341,-1.21933063634
1385566773760139385,0.422920253895,-0.0339621290824,-0.113812335499,0.00445740207866,0.00628788291863,-1.21969768847
1385566773770316259,0.422922076443,-0.0340684687245,-0.113840426993,0.00406859298711,0.0064715548204,-1.22003774505
1385566773780189883,0.422852536891,-0.033943440178,-0.114046797642,0.00406121684188,0.00647621857895,-1.21998994526
1385566773790219919,0.422902754879,-0.0341177696898,-0.113867324161,0.00350041573717,0.00682960922173,-1.21956425529
1385566773800250813,0.422742838963,-0.0341179347904,-0.113909007105,0.00288924946524,0.00527013106615,-1.21942538716
1385566773810221777,0.422860076222,-0.0341091361171,-0.113784214428,0.00376039710587,0.0066793544848,-1.22028504281
1385566773820191343,0.422846202711,-0.0340655601609,-0.113862512366,0.00390647210833,0.00660348908624,-1.22000301967
1385566773830183657,0.42269026584,-0.0341350622635,-0.113874916328,0.00403373570757,0.00661578333337,-1.22058758848
1385566773840120137,0.42278297414,-0.034053997317,-0.113943439334,0.00340921472079,0.006652385353,-1.22021035903
1385566773850360166,0.42267843426,-0.0340704476621,-0.113860428229,0.0029970846813,0.00710900284483,-1.22134461439
1385566773860251718,0.422671316359,-0.0340732679882,-0.113871552195,0.00259927013557,0.00722591370039,-1.22110802877
1385566773870252961,0.42259332174,-0.0340271280379,-0.113865914801,0.00245992691523,0.00774802803951,-1.22190256349
1385566773880189395,0.422465459938,-0.0340966936564,-0.113867907728,0.00282059512468,0.00824861336468,-1.22214785827
1385566773890264870,0.422487453189,-0.0339272093626,-0.113850827624,0.00307807999352,0.00816549141511,-1.22210366685
1385566773900275941,0.422335336711,-0.0340672387519,-0.113902343071,0.00376375724382,0.00750883317335,-1.22401767433
1385566773910219779,0.422303923317,-0.0339639003153,-0.113936177045,0.00382693957124,0.00676686689958,-1.22338406418
1385566773920201023,0.422245252151,-0.0341195856686,-0.113952541228,0.00421342061327,0.00677038258459,-1.22449576045
1385566773930303806,0.422122693976,-0.0339961250681,-0.113897729413,0.00359931998991,0.00799948400627,-1.22385388718
1385566773940166281,0.421835689469,-0.0340346616618,-0.114002188573,0.00277811042206,0.00821222516994,-1.22443519205
1385566773950268691,0.42175216096,-0.0341247875169,-0.113959294639,0.00269106376584,0.00570955418851,-1.22531421871
1385566773960147832,0.421759821076,-0.0340326802682,-0.113954076214,0.0021999226045,0.00591009037512,-1.22558069701
1385566773970196276,0.421632514179,-0.0341116828621,-0.113985588902,0.00214657759221,0.00591371306577,-1.2261969875
1385566773980240175,0.421744276771,-0.0339092728779,-0.114066721237,0.00309038310645,0.00724891785667,-1.22664639383
1385566773990200593,0.421669454548,-0.033957759027,-0.113974117523,0.0034389211888,0.00665829351381,-1.22760393882
1385566774000161326,0.421449079539,-0.0339326760012,-0.113961023404,0.00297869773133,0.00526160261372,-1.22802417851
1385566774010224856,0.42154857029,-0.0338949093808,-0.11386572841,0.00382701881317,0.00671419997465,-1.22886795828
1385566774020215740,0.421467185659,-0.0338699320857,-0.113750180275,0.00407080257479,0.00768855649143,-1.22956680286
1385566774030224697,0.421525507702,-0.0339098910659,-0.113857188234,0.00431694706913,0.00693731855145,-1.2296733427
1385566774040200547,0.421402461503,-0.0337680695783,-0.114020837096,0.00419286823095,0.00652445825334,-1.23120492663
1385566774050290632,0.421443497721,-0.0339588015912,-0.113906181731,0.00410237692584,0.00581385595042,-1.2312406083
1385566774060248862,0.421276607706,-0.0339566746537,-0.113800555439,0.00427916909273,0.0063364251955,-1.23300914751
1385566774070156528,0.421273299067,-0.0339297213321,-0.113886125262,0.00410822418569,0.00619886241568,-1.23275438521
1385566774081215513,0.421108861375,-0.0339245785843,-0.113813907445,0.00470100330948,0.00566859980138,-1.23400647343
1385566774090250280,0.421093900526,-0.0338716631591,-0.113858715613,0.00456819431741,0.00662405853195,-1.23382655832
1385566774100198670,0.420749299659,-0.0338275696526,-0.114055463512,0.00410020403565,0.00552052169607,-1.23491490076
1385566774110165680,0.420671477728,-0.0337556843563,-0.11405815836,0.00388045536924,0.00499575767279,-1.23536954777
1385566774120152173,0.420572201625,-0.0337435513971,-0.114038819855,0.0041013767863,0.00438860204486,-1.23633978757
1385566774130173707,0.420440786764,-0.0336867678809,-0.11396643264,0.00383261565797,0.00617398164646,-1.23656587255
1385566774140107047,0.420355995217,-0.0336111744016,-0.114015109555,0.00415085822175,0.00668612041147,-1.23647600476
1385566774150259798,0.420352123562,-0.03358667086,-0.114023603361,0.00416665130775,0.0060746148546,-1.23705934771
1385566774160175849,0.420293852691,-0.0335779926222,-0.114147983611,0.00419153370666,0.00432699580285,-1.23658348746
1385566774170381418,0.420263538852,-0.0335117826589,-0.114092488341,0.00372362409524,0.00477712488086,-1.23669598575
1385566774180381009,0.420161855713,-0.0335185198527,-0.113966001176,0.00407575705263,0.00575967680474,-1.23727152654
1385566774190205837,0.420143452623,-0.0334119023675,-0.113997304905,0.00390451374686,0.00527457234662,-1.23821188924
1385566774200220546,0.420245051618,-0.0334550324219,-0.11393348876,0.00576063644037,0.00514578138499,-1.23893678823
1385566774210261823,0.420221351134,-0.033318082045,-0.11391748555,0.00627483151581,0.00563771862086,-1.24035257612
1385566774220253458,0.420113527836,-0.0333940066466,-0.11404613458,0.00630300656744,0.00657510092612,-1.24009109071
1385566774230225528,0.420197465158,-0.0333074322421,-0.114057273834,0.00611094585451,0.00592691349966,-1.24037286644
1385566774240120112,0.420223574699,-0.033485911421,-0.113920052528,0.00635313417879,0.00419799286038,-1.24115702685
1385566774250181141,0.41993953436,-0.0332143081644,-0.114069269823,0.00658064968435,0.0047579798956,-1.24285534307
1385566774260157840,0.420024517251,-0.0331938886196,-0.11410964579,0.00587713620898,0.00686791766664,-1.24349095568
1385566774270278041,0.420113691906,-0.0331050699143,-0.114088844762,0.00607023267511,0.00715981484148,-1.24508526346
1385566774280201671,0.419914420811,-0.0332568809536,-0.114043965586,0.00573416529935,0.00359916688182,-1.24512344956
1385566774290248582,0.419889847625,-0.0331964581656,-0.113941927463,0.00567019569998,0.00489207357282,-1.24587812491
1385566774300156919,0.4198190243,-0.0332527474267,-0.114106358794,0.00617412332054,0.00535234777503,-1.24626720943
1385566774310302947,0.419611397215,-0.0331713557822,-0.114317194645,0.00622115658518,0.00619795026861,-1.2474411583
1385566774320201235,0.419514523417,-0.0332755920044,-0.114248490136,0.00584877015946,0.0069451133548,-1.24821911423
1385566774330233980,0.419389280726,-0.0331842239448,-0.114136712843,0.00570966374229,0.00652411124823,-1.24979373945
1385566774340171042,0.419359223894,-0.0333872949382,-0.113866793057,0.00641349224147,0.00501783005776,-1.25105913402
1385566774350281800,0.418983773877,-0.0333688552192,-0.114039123266,0.00585110117989,0.00386603722796,-1.25196852987
1385566774360198166,0.418833483415,-0.0334722812067,-0.114047022121,0.00641671076208,0.00677872935414,-1.25338962481
1385566774370326683,0.418581785667,-0.0334784932376,-0.114254937917,0.00725671684802,0.00560214974295,-1.25485978308
1385566774380302555,0.4183963369,-0.0334856341812,-0.114411580984,0.00770684905632,0.00568911601783,-1.25606552944
1385566774390218335,0.418229009541,-0.0334112326578,-0.114263935899,0.00716596943222,0.00606988716008,-1.25737598858
1385566774400187030,0.41791846176,-0.0333763275275,-0.114108902514,0.00690274631116,0.0051788885593,-1.25803625817
1385566774410195537,0.41767495822,-0.0334390548945,-0.113915195016,0.00612922271331,0.00586372513748,-1.25964112603
1385566774420160824,0.417317229309,-0.0333920421408,-0.113884124585,0.00567316591245,0.00559726178155,-1.26080167269
1385566774430126396,0.417246800735,-0.0333720012501,-0.114027708912,0.00554308425949,0.00705486433064,-1.26196511481
1385566774440262175,0.416893761365,-0.0333347772085,-0.114387557552,0.0058701298122,0.00465855024806,-1.26298672406
1385566774450238111,0.416663447439,-0.0333447910207,-0.114366476641,0.00645635937793,0.00570317101108,-1.26423315206
1385566774460236199,0.416313738234,-0.0332209980681,-0.114290772567,0.00735106202566,0.0066407926319,-1.26537906901
1385566774470210157,0.416073813178,-0.0333740283065,-0.11438044603,0.00792717276807,0.00445207264888,-1.26670291262
1385566774480450600,0.41566274901,-0.0333011688573,-0.114354542872,0.00810957197951,0.00493211805715,-1.26821673713
1385566774490222318,0.415140212019,-0.0331714999251,-0.114381881741,0.00749000426768,0.00512380954255,-1.27013701778
1385566774500218423,0.414838732436,-0.0331222543774,-0.114257347434,0.00677672376092,0.00449102184517,-1.2717493135
1385566774510262832,0.414375525784,-0.0330981539402,-0.114191652197,0.00719666488455,0.00432854785603,-1.27268892838
1385566774520242863,0.414021360897,-0.0330078321222,-0.114276763214,0.00731325117469,0.00440497464483,-1.2745722589
1385566774530191821,0.413484681202,-0.0328445617187,-0.114312276189,0.00819729294956,0.00386000653728,-1.27560363024
1385566774540157690,0.412995924125,-0.0327731510647,-0.114293655818,0.00784581101839,0.00491814038891,-1.27719776042
1385566774550167380,0.412322701929,-0.0326705078932,-0.114530366959,0.00703541790561,0.00380958550535,-1.27848758553
1385566774560226019,0.411637810107,-0.0324606326183,-0.114988495636,0.00728350715879,0.00378413779049,-1.28046262223
1385566774570322610,0.411274646909,-0.0322663317729,-0.115135094536,0.00671663719878,0.00396356747272,-1.28191747217
1385566774580401709,0.41063396988,-0.0321320583654,-0.115255063708,0.00726859829709,0.00311615801745,-1.2844112944
1385566774590362985,0.41017884811,-0.031829125825,-0.115561206267,0.00736482484287,0.00358242506884,-1.28649021192
1385566774600237722,0.409578328788,-0.0314611101594,-0.116113316648,0.00801923310674,0.00288730175336,-1.28840764261
1385566774610192274,0.409023870892,-0.0310037347275,-0.11669990284,0.00869157568249,0.00445499426074,-1.29169945158
1385566774620227572,0.408445978253,-0.0307332115322,-0.116937333767,0.00989642337396,0.00273489853068,-1.29347024637
1385566774630222356,0.407531180739,-0.030312890076,-0.117481103118,0.0104547279248,0.00236502960112,-1.29593997005
1385566774640107397,0.406978557031,-0.0299120330201,-0.118068938508,0.00889539059145,0.00190907483168,-1.29789038801
1385566774650275409,0.406173872267,-0.0295697604953,-0.11892334269,0.00925302739103,0.00125754806634,-1.3010380115
1385566774660234632,0.405557553726,-0.0290088560992,-0.119756243061,0.0087076536365,0.00164824948581,-1.3031452628
1385566774670262002,0.404694749932,-0.0286085123635,-0.120681805134,0.00868186125393,-0.00127298372206,-1.30545976504
1385566774680381506,0.403866079034,-0.0282324476293,-0.121668965002,0.00728782951549,-0.00138229036787,-1.30845827699
1385566774690355419,0.403077763386,-0.0275939344093,-0.123017059171,0.006098743914,-0.000956056124678,-1.31041154703
1385566774700487633,0.402238417617,-0.0271048099624,-0.124424422169,0.00520687057143,-0.00214460458299,-1.3132500014
1385566774710417495,0.401485745658,-0.0265890235985,-0.12563837763,0.00168238650824,-0.00163369867522,-1.31543130268
1385566774720392985,0.400705779508,-0.0259925553474,-0.12748146713,-0.000387488280242,-0.00122226505891,-1.3175482568
1385566774730260608,0.399749993498,-0.0254310174285,-0.129097751794,-0.00416819999539,-0.00254873207591,-1.32064374121
1385566774740167587,0.3987792484,-0.0249728763257,-0.131146086389,-0.00705356350614,-0.00379855900077,-1.32211770228
1385566774750349028,0.398055415584,-0.0243079545234,-0.133053000731,-0.0090583975223,-0.00507318711633,-1.32501765236
1385566774760182199,0.39729109365,-0.0235569390817,-0.135149498773,-0.0100097242601,-0.00387297985257,-1.3279592984
1385566774770255671,0.396533070864,-0.0230083859494,-0.13746957963,-0.0112547774094,-0.00523106934022,-1.32975597246
1385566774780175455,0.395724467786,-0.0223063589444,-0.13986571316,-0.0119499525391,-0.0065212964365,-1.33168218864
1385566774790539876,0.394823088173,-0.0216843505796,-0.142441394199,-0.0126094032913,-0.0081077774414,-1.33405613091
1385566774800469737,0.394126295225,-0.0210304469957,-0.144871718318,-0.0138768731059,-0.00928051701534,-1.33557429989
1385566774810223797,0.393144383541,-0.0203161668708,-0.147827843417,-0.0136547446288,-0.0102852142294,-1.33827641129
1385566774820234394,0.392263307109,-0.0196536226284,-0.150777635031,-0.0147528469083,-0.0121437006196,-1.33886429471
1385566774830208687,0.391457406811,-0.0189758603213,-0.15386789731,-0.0157814518621,-0.0130782030562,-1.34052481204
1385566774840238764,0.390573795129,-0.018263881074,-0.157028075714,-0.0169242301989,-0.0133552472674,-1.34180922589
1385566774850427355,0.389701159945,-0.01757945334,-0.160030150247,-0.0194895185497,-0.0155023817964,-1.34182939346
1385566774860178029,0.388623040337,-0.0168811257468,-0.163599019755,-0.020075749111,-0.016643334563,-1.3437024356
1385566774870187489,0.387831080993,-0.0162874494529,-0.167200799425,-0.0215694005147,-0.0172495502562,-1.34488506334
1385566774880426432,0.387067486136,-0.0154571685203,-0.170856541625,-0.0211008842,-0.0168972193313,-1.34707000599
1385566774890264783,0.386127006527,-0.0149265517536,-0.174455241064,-0.0211167687486,-0.0173097863125,-1.34784327968
1385566774900283233,0.385375360776,-0.0142811899731,-0.178080476647,-0.0216137954116,-0.0173402924515,-1.34996933349
1385566774910220220,0.384451032093,-0.0136825763701,-0.182172277076,-0.021309937472,-0.0190033635875,-1.35190646451
1385566774920298990,0.383643570295,-0.0131619599331,-0.186246123128,-0.0216121795246,-0.0208178350456,-1.35338990146
1385566774930300374,0.382663218535,-0.012800292605,-0.190118812849,-0.0212536806074,-0.0234019966872,-1.3552636529
1385566774940381172,0.38193529948,-0.0124624545739,-0.194412478644,-0.0195646697809,-0.0250005904452,-1.35718234239
1385566774950417757,0.380904052221,-0.0120848460424,-0.198713221933,-0.0171152331095,-0.0269494645553,-1.35870111604
1385566774960391091,0.379754169844,-0.0117154799206,-0.202870010537,-0.0146841745002,-0.0277255430949,-1.35982799693
1385566774970253419,0.378950059593,-0.0114022359932,-0.207149412365,-0.0123032175689,-0.0295056647608,-1.36193992781
1385566774980325539,0.378158837694,-0.011048343812,-0.21153660673,-0.0105353640766,-0.0281652767867,-1.36362011015
1385566774990161937,0.377201206967,-0.0108420338978,-0.216007504357,-0.00977650225807,-0.0290975051467,-1.36596588597
1385566775000186294,0.37617975276,-0.0106559898271,-0.220390030472,-0.00873187275063,-0.0291005790015,-1.36736710403
1385566775010329925,0.375347522877,-0.0104535700564,-0.225018944246,-0.00734724637354,-0.0279366253048,-1.36912205192
1385566775020725441,0.374405401038,-0.0102647861148,-0.229403568793,-0.00472138063871,-0.0282884465585,-1.3709074753
1385566775030299259,0.373461806949,-0.0100605257425,-0.233915681242,-0.00164211598159,-0.0270208722931,-1.37150586958
1385566775040299561,0.372598057545,-0.00994008800491,-0.238584277788,0.00118952701752,-0.0258851119642,-1.37324144046
1385566775050242620,0.371661855469,-0.00977832991228,-0.243119617589,0.00457056687979,-0.0250972989551,-1.37438055288
1385566775060152488,0.370555752851,-0.00962672093439,-0.247740762064,0.00762229585411,-0.0229896231727,-1.37535855746
1385566775070249366,0.369883612436,-0.00963353202151,-0.252371854063,0.00911841043518,-0.0225793321706,-1.37764234955
1385566775080238311,0.368763408018,-0.00959345982725,-0.257128029214,0.00922753489599,-0.0212444137155,-1.37884088205
1385566775090282794,0.367911935444,-0.00950359423895,-0.261973835861,0.0105393618813,-0.0202582500178,-1.38041595851
1385566775100263946,0.366960680156,-0.00953893883708,-0.266801717618,0.0106274380682,-0.0182996661616,-1.38206386247
1385566775110323621,0.36605200054,-0.00946873286144,-0.271576822211,0.00988797256783,-0.0165845307035,-1.3833511401
1385566775120354526,0.365370677926,-0.0095330963332,-0.276430300008,0.0102462057814,-0.0156384629503,-1.38554522521
1385566775130258784,0.36461715411,-0.00957111108951,-0.281378858445,0.0103632203933,-0.0145762855793,-1.3868476073
1385566775140396193,0.36371285699,-0.00955507101309,-0.286464658507,0.0118946350713,-0.0133160070254,-1.38782426435
1385566775150496846,0.363112154878,-0.00963171373386,-0.291565235777,0.0113869669595,-0.0114129514138,-1.38958744406
1385566775160202937,0.362215436518,-0.00955329520638,-0.296570620219,0.0118763409373,-0.0111789842054,-1.39086533261
1385566775170420052,0.36167745956,-0.00959194116248,-0.302010920565,0.011360316424,-0.00909150243767,-1.39200849782
1385566775180389388,0.360884281648,-0.00966228031389,-0.307188129291,0.011182011564,-0.00668617564684,-1.39330388812
1385566775190163931,0.360206862942,-0.00968719604318,-0.312372645214,0.0094100396455,-0.005149109276,-1.39440493515
1385566775200196354,0.359445378486,-0.00960540962805,-0.317705886574,0.00904559831116,-0.00276709198427,-1.3956830713
1385566775210278582,0.358624435423,-0.00970087834077,-0.323292871311,0.00702321471643,-0.00226551858146,-1.39717057059
1385566775220135859,0.357829778756,-0.00977821282709,-0.328577209228,0.00621951047329,0.00078149662159,-1.39827888241
1385566775230215140,0.357314839002,-0.00965425218618,-0.333939938023,0.00498251350746,0.00435459716973,-1.39962755295
1385566775240632716,0.356434428962,-0.00963794535253,-0.339370405117,0.00503519357728,0.00716597904602,-1.40081902228
1385566775250594824,0.356035413793,-0.00953835947668,-0.344974537236,0.00514507851692,0.0096452003753,-1.40256671185
1385566775260260258,0.355245894823,-0.0094972487305,-0.350629304287,0.00613868502131,0.0117350653759,-1.40461583137
1385566775270232555,0.354694728836,-0.00944768098833,-0.355949550438,0.00507196948726,0.0143468601804,-1.40594779506
1385566775280435366,0.354265657285,-0.00926619357338,-0.361506187772,0.00497877448818,0.0164943354297,-1.40716899074
1385566775290197050,0.353619438624,-0.00921648877964,-0.367064960814,0.00431210939315,0.0187716923672,-1.4087461828
1385566775302606922,0.353036712018,-0.00916992173112,-0.372830260369,0.00387039119464,0.0199223800082,-1.40991996342
1385566775310236388,0.352409175232,-0.0090281547297,-0.378397877485,0.00331545241335,0.0210276449918,-1.4109188013
1385566775320141409,0.351681603613,-0.00890482551622,-0.384133610943,0.00337135094926,0.0220015678864,-1.41234966855
1385566775330587222,0.351197898147,-0.00880850403294,-0.389940634079,0.00217222023449,0.0234441533961,-1.41383922011
1385566775340199802,0.350722266907,-0.00850415023095,-0.395970756065,0.00367968082424,0.0242571168385,-1.41576884467
1385566775350297479,0.350046580346,-0.00842252597496,-0.402100388847,0.00276253569923,0.0244379940213,-1.41739867541
1385566775360213973,0.349787675282,-0.0081470146083,-0.408245280738,0.00117994726214,0.0249140752237,-1.41881475463
1385566775370652341,0.349012897177,-0.00799565969251,-0.414107502144,0.000266075180479,0.0244833611769,-1.42083220802
1385566775380254148,0.348439059336,-0.00782282391216,-0.41987834799,-0.00127829673565,0.0253843819372,-1.42257522132
1385566775390309861,0.347917319875,-0.0075070729054,-0.425708128804,-0.00214833001348,0.0258071215787,-1.4241310933
1385566775400324579,0.347135118021,-0.00715843216468,-0.43113381901,-0.00379063726593,0.025953498326,-1.42553873086
1385566775410183724,0.346686491628,-0.00691476237183,-0.436536825651,-0.00553583972788,0.0255567239802,-1.42651331241
1385566775420684114,0.345993421272,-0.00662888236368,-0.441748098541,-0.00595437459144,0.0254626859624,-1.42753673815
1385566775430242107,0.345427092493,-0.00638384671783,-0.446737389718,-0.00700753521901,0.0266574975223,-1.42897879551
1385566775440239608,0.344741000138,-0.00603698134867,-0.451574351665,-0.00650635518651,0.0270160067861,-1.43013123178
1385566775450157890,0.344143937093,-0.00563967398795,-0.456500888888,-0.00637024022249,0.0265673341198,-1.43181291523
1385566775460136262,0.343584722529,-0.00522469401326,-0.461222362533,-0.0076032952837,0.0263255247552,-1.43268495526
1385566775470239044,0.342799120898,-0.0048308427236,-0.46567639142,-0.00723555183322,0.0262951416647,-1.43396898614
1385566775480201137,0.342228099572,-0.00447717148731,-0.470049746386,-0.00841499745196,0.0273375922627,-1.43540012137
1385566775490201012,0.341566666261,-0.00405832178541,-0.474102657953,-0.00958683661364,0.0270057386644,-1.43659051703
1385566775500241369,0.340901237445,-0.00362758768018,-0.478148134867,-0.011163019064,0.0278750983661,-1.43818389618
1385566775510660053,0.340310235575,-0.00305039926164,-0.481767478032,-0.0111536868595,0.0289009353389,-1.43922709304
1385566775520251618,0.3395480408,-0.00264454630063,-0.485366365092,-0.0121863036764,0.0294351916946,-1.44066453616
1385566775530268864,0.339092793198,-0.00207796492386,-0.48905450354,-0.0118843439308,0.0299376318084,-1.44207822102
1385566775540205088,0.338217088873,-0.00153829736229,-0.492203458499,-0.0126786728846,0.0292636312913,-1.44350493971
1385566775550229806,0.337547013161,-0.00108401311525,-0.495295349207,-0.0129811045412,0.0296989805845,-1.44469446152
1385566775560155029,0.336910415331,-0.000569679687442,-0.498210503132,-0.0131561511936,0.0293014499175,-1.44598969845
1385566775570327230,0.336112218946,-8.05689042265e-05,-0.501144747823,-0.0141646359502,0.029995177269,-1.44775394883
1385566775580180603,0.335516284748,0.000512057232095,-0.503735030286,-0.0149499095884,0.0293374494327,-1.44894287837
1385566775590149065,0.334482728013,0.00108814977121,-0.506161191451,-0.0151897370348,0.0292228382245,-1.45005579556
1385566775600363734,0.333826401161,0.00170882656771,-0.508502585339,-0.0159636096986,0.0289179109731,-1.45134454792
1385566775610211253,0.333001677627,0.00220230415002,-0.510689317985,-0.0159462327587,0.029123067378,-1.4523942786
1385566775620169181,0.332175270927,0.00292630139044,-0.512700587804,-0.0167239746189,0.0282025346395,-1.45388084456
1385566775630269156,0.331375716738,0.00343380365299,-0.514434622309,-0.0173273985131,0.0277309689329,-1.45474573857
1385566775640365439,0.330585313532,0.00408920579062,-0.516092712291,-0.0177410971506,0.0267089551759,-1.45636421983
1385566775650444078,0.329921335747,0.00467983567935,-0.517700190397,-0.0178148874877,0.0262886688661,-1.45754220805
1385566775660156358,0.328841302159,0.00530429754356,-0.51908728722,-0.0175697521866,0.0256026543124,-1.45894472069
1385566775670222330,0.328009753071,0.00602916747947,-0.520322426302,-0.0180152540787,0.0245395145373,-1.46040390204
1385566775680166755,0.327305224667,0.00655068222219,-0.521437178651,-0.0176910723044,0.0239208531371,-1.46186324156
1385566775690302549,0.326225758899,0.00735499945017,-0.52226885812,-0.018098988545,0.0234584728083,-1.46295119346
1385566775700144209,0.325399221407,0.00789310325181,-0.523128548289,-0.0183661104777,0.0220126650123,-1.46408931199
1385566775710255787,0.324514606088,0.00862632199428,-0.523803911316,-0.0186643109223,0.0204493651301,-1.4654831506
1385566775720227077,0.323704726815,0.00926359882751,-0.524416742294,-0.0187317955422,0.0193430317729,-1.46644872511
1385566775730268160,0.322666486974,0.00998504246759,-0.524850163984,-0.0190855305219,0.0197364939893,-1.46798399575
1385566775740197049,0.321964944555,0.0106651401069,-0.525246406777,-0.0192162052274,0.0182948989471,-1.46908409233
1385566775750274872,0.320829956152,0.011341070468,-0.525333498599,-0.0195120493184,0.01724058878,-1.47027510398
1385566775760136818,0.320039280818,0.0120588460261,-0.525438669066,-0.0196026283663,0.0166101775674,-1.47134294735
1385566775770263828,0.318922553866,0.0127658077967,-0.525268410492,-0.0198522315051,0.015410157603,-1.47267583755
1385566775780191853,0.317918645969,0.0134892912311,-0.524983812748,-0.0200616723044,0.0135835758742,-1.47342785059
1385566775790270038,0.316905516368,0.0140859141644,-0.524727742395,-0.0197502154123,0.0130291805155,-1.47459081922
1385566775800201146,0.315930354791,0.014869715061,-0.524390104434,-0.0199743008866,0.0116731746616,-1.47648292771
1385566775810160774,0.314961410127,0.0156797911232,-0.523986365941,-0.0190937271837,0.0110637659463,-1.47716442872
1385566775820223849,0.313807814521,0.0162146032747,-0.523154528172,-0.0200753599235,0.00950955435666,-1.47870249404
1385566775830362520,0.312854794411,0.0170120881643,-0.522635300358,-0.0199202883016,0.00897687547102,-1.47953202756
1385566775840143506,0.311765391997,0.0176643842687,-0.521804094179,-0.0188890804919,0.00659898485253,-1.48061255242
1385566775850283502,0.310683671639,0.018408370667,-0.520776315697,-0.0195435320282,0.00672301563606,-1.48128393092
1385566775860143536,0.309666732766,0.0191478557192,-0.519851367249,-0.0188982997849,0.00569097554108,-1.48262388926
1385566775870294818,0.308695927698,0.0197438809717,-0.518679955844,-0.0194350798755,0.00549940842368,-1.48393633345
1385566775880495862,0.307385809581,0.0205146890971,-0.517652898061,-0.0181272006561,0.00350884096646,-1.48533751443
1385566775890190005,0.306525108187,0.0211234030261,-0.516424232369,-0.0184244117853,0.00355445172017,-1.48639875099
1385566775900220140,0.305560870375,0.0218083296334,-0.515140695612,-0.0183328232848,0.00256862911611,-1.48744846081
1385566775910201710,0.304217473563,0.0225187655539,-0.513600967159,-0.0182219864567,0.000882265387471,-1.48853088022
1385566775920207834,0.303247450258,0.0232012251866,-0.512274602952,-0.0188153944182,0.00203785390079,-1.4895640603
1385566775930225502,0.30216380887,0.0237972178288,-0.510850878209,-0.0182319251687,-0.000277958896563,-1.49036613718
1385566775940221792,0.300834700053,0.0243566214936,-0.509056783572,-0.0184255510063,0.000132728216303,-1.49147260166
1385566775950362860,0.299810291139,0.0250244075006,-0.507447354038,-0.0186987060629,-0.0016424982999,-1.49267215999
1385566775960141010,0.298622374517,0.0255610013436,-0.50573434253,-0.0185542012136,-0.00288755851818,-1.49413168102
1385566775970202365,0.297625043137,0.0263235607843,-0.503989377633,-0.0186264318296,-0.00265229783468,-1.49492305381
1385566775980277136,0.296412461757,0.0267889308095,-0.502228957072,-0.0186865482449,-0.0036733729479,-1.49618781622
1385566775990270924,0.295134634533,0.0273917670904,-0.500309044133,-0.0186318822547,-0.00314223597115,-1.49709343044
1385566776000220771,0.29416039446,0.0279388155304,-0.498553889043,-0.018590487018,-0.00480479222896,-1.49830944682
1385566776010410548,0.292930173287,0.0284902342102,-0.496595348312,-0.0187081223949,-0.00476771759018,-1.49905050462
1385566776020176724,0.291596456504,0.0290760615435,-0.494714327366,-0.0186535252183,-0.00447668440898,-1.50034654491
1385566776030189821,0.290634578968,0.0295651767354,-0.492701912792,-0.0190010197244,-0.00522346544542,-1.50130608516
1385566776040131787,0.289424841214,0.0300831609653,-0.490679185733,-0.0191134741938,-0.0053286164087,-1.50266950992
1385566776050302383,0.288271209745,0.0305473990928,-0.488735241909,-0.0182468570615,-0.00410267727422,-1.503405041
1385566776060232154,0.287061624034,0.0309875238626,-0.486611852241,-0.018013990999,-0.00573913442407,-1.5047832739
1385566776070204811,0.2857693553,0.0315119455783,-0.484414378965,-0.0180339369384,-0.00464947252625,-1.50558676338
1385566776080174264,0.284608873823,0.0319804023085,-0.482276066302,-0.0174217488273,-0.00599911830701,-1.50673390314
1385566776090179563,0.283411932752,0.0324161823698,-0.48017040296,-0.0174212548531,-0.00654573297907,-1.50805035393
1385566776100145859,0.282030095498,0.0327949358683,-0.47807357027,-0.0171885458886,-0.00588563923477,-1.50904119779
1385566776110155415,0.280753883751,0.033145267866,-0.47578625023,-0.0170444530861,-0.00723260682126,-1.51019749539
1385566776120183268,0.27963714878,0.0335776988935,-0.473676407778,-0.0180601531427,-0.0067249825003,-1.51121890092
1385566776130201563,0.278310009998,0.0339313859079,-0.471507147152,-0.0174690871492,-0.00701377088265,-1.51174659056
1385566776140167883,0.277038275371,0.0343561755631,-0.469275884662,-0.0182437389798,-0.00715286624022,-1.51307618814
1385566776150283021,0.275786188205,0.0346049845486,-0.46710222291,-0.0186645136435,-0.00784098512123,-1.51373662458
1385566776160246727,0.274303996844,0.0349044716285,-0.464768894225,-0.0183102617436,-0.0094230530377,-1.51483610105
1385566776170128353,0.273101777273,0.0352311557186,-0.462544324777,-0.0190021425536,-0.00980609228444,-1.51557242887
1385566776180151220,0.271839230651,0.0354816756148,-0.460447358675,-0.0187738823694,-0.00985436595198,-1.51687287891
1385566776190224927,0.270559522364,0.035725836721,-0.458257595987,-0.0186185743635,-0.0105190846626,-1.5179190873
1385566776200143948,0.269155940944,0.0359296941997,-0.45612449751,-0.0187543310146,-0.0109979259863,-1.5187468091
1385566776210111467,0.267636118278,0.0360648551912,-0.453838126673,-0.0177714709734,-0.0115657746916,-1.51960942729
1385566776220120750,0.266369740343,0.0363303434518,-0.451682829624,-0.0174215345591,-0.0122306918391,-1.52055405663
1385566776230218769,0.265236132543,0.0364913162616,-0.449764253505,-0.016985387814,-0.0137166598257,-1.52137065049
1385566776240184123,0.26359510892,0.0366327486058,-0.447674701169,-0.0170391894563,-0.0136657708462,-1.52271599572
1385566776250325102,0.262496061329,0.0367436408883,-0.445821497997,-0.0169398973285,-0.0142764595934,-1.52333499666
1385566776260308877,0.260905912097,0.0369357111038,-0.443539059301,-0.016770441326,-0.0157495319754,-1.52453403753
1385566776270197025,0.259624616653,0.0369650808936,-0.441761876627,-0.0174342188958,-0.0156032413664,-1.52514865002
1385566776280149280,0.258194737866,0.0370286613614,-0.439819013987,-0.0177903163908,-0.0153222403183,-1.52569995929
1385566776290238937,0.256832090253,0.0370514111267,-0.438044609958,-0.017776327978,-0.0172104596046,-1.52705025596
1385566776300128193,0.255395286538,0.0371406394256,-0.436129808247,-0.0180543112537,-0.0177247045875,-1.52777794594
1385566776310189029,0.254009604843,0.0370913511448,-0.434366510987,-0.017929659122,-0.0180340192621,-1.5290537295
1385566776320148306,0.252676836396,0.037114948585,-0.4325098894,-0.0184509276248,-0.0187988466293,-1.52961998089
1385566776330115889,0.251205600714,0.03701207588,-0.430850710681,-0.0184784376564,-0.0182047545105,-1.53000298958
1385566776340229957,0.249746437921,0.0368927213056,-0.429189953231,-0.0188127608472,-0.0203826087839,-1.53106078692
1385566776350369046,0.248308889237,0.0368411274162,-0.42759350233,-0.0196163626759,-0.0220890367998,-1.53146269665
1385566776360161762,0.246863165663,0.0366501358187,-0.425983582125,-0.0196352676748,-0.0222469205385,-1.53172799675
1385566776370208248,0.245377288108,0.0365561831688,-0.424386367357,-0.0204196971973,-0.0230288380829,-1.53342443869
1385566776380182599,0.244150939395,0.0363638827973,-0.423096553755,-0.0204053673707,-0.0238921666553,-1.53430143874
1385566776390227067,0.242622726999,0.0362631626695,-0.421506109309,-0.0196238129546,-0.0237606293268,-1.53543584852
1385566776400175856,0.2411543873,0.0359827555307,-0.420235324751,-0.0191496845996,-0.0242258878126,-1.53618394667
1385566776410157237,0.239981173271,0.0357464489576,-0.418879084834,-0.0181318326595,-0.0244155675732,-1.53660263872
1385566776420225664,0.238356627792,0.0355386255432,-0.417550597668,-0.0166132070364,-0.0243837241369,-1.53735439169
1385566776430213893,0.236974059881,0.0352628541026,-0.416442899075,-0.0157865580228,-0.0236916897995,-1.53789643633
1385566776440145300,0.235588177841,0.0349215220788,-0.415263805678,-0.0152014946982,-0.0240901255497,-1.53875381375
1385566776450280042,0.234010935859,0.0345745469088,-0.414265959179,-0.0146507316659,-0.0232664694079,-1.53960888452
1385566776460401863,0.232665451484,0.0342664451877,-0.413233738832,-0.0149266910156,-0.0227793292459,-1.54041942207
1385566776470207816,0.230995256471,0.033889540079,-0.412112572022,-0.0155858443728,-0.0228639593629,-1.54138994875
1385566776480244079,0.229420240538,0.0334292143339,-0.411194304138,-0.0165500248121,-0.0218586869876,-1.54135292559
1385566776490107724,0.228016965255,0.0328964823686,-0.410449069304,-0.0172167334312,-0.0210607913945,-1.54239419622
1385566776500216299,0.226424939349,0.0325209180475,-0.409600646797,-0.017578637951,-0.022449776754,-1.5431409826
1385566776510147203,0.224968847005,0.0319899140517,-0.408915632918,-0.0185297016204,-0.0213032632962,-1.54414481969
1385566776520202748,0.223461573134,0.0314264870801,-0.408148074926,-0.0180768484268,-0.0214745477143,-1.5445850979
1385566776530308674,0.221774387328,0.0308920214229,-0.407480833103,-0.0175204495154,-0.0208620425419,-1.5454010225
1385566776540200549,0.220498277157,0.0302941402733,-0.406744888188,-0.0173666975252,-0.0219958365252,-1.5457040672
1385566776550327016,0.218842884187,0.0297053258956,-0.406104413746,-0.0163258428922,-0.0222618118084,-1.54626735995
1385566776560233507,0.217383635973,0.0291824754195,-0.405578952119,-0.0158952942415,-0.0217045981713,-1.54647271269
1385566776570214119,0.215910363189,0.0284641318566,-0.405076452062,-0.015874216893,-0.0215142393886,-1.54733293595
1385566776580145338,0.214316863789,0.0278723161822,-0.404600733136,-0.0163881682958,-0.0207945720313,-1.54815502434
1385566776590201632,0.212641491119,0.0271992246656,-0.404100808643,-0.0159363680847,-0.0207691230468,-1.54862298848
1385566776600111360,0.211167413646,0.0265913925727,-0.403698785902,-0.0152616203135,-0.0197584751788,-1.5496998002
1385566776610148178,0.209565637719,0.025855831152,-0.403339734553,-0.014974732727,-0.0184436735187,-1.55017135877
1385566776620213649,0.207881690168,0.0251277397237,-0.402909073789,-0.0141309466609,-0.0177096064637,-1.55046500627
1385566776630266474,0.206332890683,0.0244406980738,-0.402627762362,-0.0138918592032,-0.0165234153866,-1.55113607034
1385566776640209216,0.20472644139,0.0236803638886,-0.402215852559,-0.0132964169196,-0.0150988960723,-1.55128780178
1385566776650401861,0.203298858606,0.0229437813297,-0.402010794183,-0.0131982305317,-0.0144356363027,-1.55205736442
1385566776660180975,0.201549047396,0.0221552808549,-0.401798956217,-0.0133678784873,-0.014070352832,-1.5526338758
1385566776670159855,0.199718771807,0.0212869920188,-0.401610664875,-0.0144966128832,-0.0143261924128,-1.55324833549
1385566776680195540,0.198197882328,0.0204732945112,-0.401350517448,-0.0146462550928,-0.0123345807891,-1.55390703159
1385566776690112136,0.196618281556,0.0197270194009,-0.401186954494,-0.0146899777377,-0.0130554624665,-1.55430983226
1385566776700162939,0.195016389827,0.0188312903659,-0.401012658606,-0.0147205214918,-0.011797373886,-1.55503069601
1385566776710171430,0.193310437902,0.0180013069275,-0.400952897533,-0.0143552438132,-0.012215779181,-1.55582960427
1385566776720215170,0.191763404293,0.0172404645874,-0.400772598777,-0.0138201802839,-0.0101486545208,-1.55634140743
1385566776730349455,0.190119137121,0.0162014759733,-0.400544034071,-0.0141430831297,-0.00827401196497,-1.55650703935
1385566776740124299,0.188589972378,0.0154488930583,-0.400605040383,-0.0138313565669,-0.0104962508125,-1.55691337795
1385566776750203418,0.186839245847,0.0145476277754,-0.400590425486,-0.0133642763492,-0.0102587552717,-1.55752423276
1385566776760228167,0.185263629056,0.0136535477992,-0.400646455162,-0.0135646442372,-0.0102489099314,-1.55826318296
1385566776770324356,0.183544727652,0.0127239796192,-0.400726742451,-0.0136757454703,-0.010505914434,-1.55900351327
1385566776780131732,0.182010316485,0.0118402615817,-0.400702464528,-0.013361286907,-0.0105842226826,-1.55953686215
1385566776790163772,0.180325590147,0.0109334983531,-0.400812049198,-0.0135923136656,-0.00957364911545,-1.56016820079
1385566776800146083,0.178498342999,0.00994373518618,-0.400877223639,-0.0133552915063,-0.00926253272134,-1.56041309958
1385566776810184253,0.176750289949,0.00904508703931,-0.401001847393,-0.0137193525281,-0.00748899943853,-1.56119639629
1385566776820140143,0.175318955429,0.00817709227103,-0.401012604897,-0.0127822161118,-0.00866513240576,-1.56038570607
1385566776830198043,0.173597377641,0.00721669696674,-0.401211402935,-0.0125848318274,-0.00805150682711,-1.56107247672
1385566776840175430,0.171870817295,0.00625063548776,-0.401393688624,-0.0127610167881,-0.00726378440327,-1.56156766559
1385566776850253452,0.170123667741,0.00528706425544,-0.40157387617,-0.0131720654928,-0.0061625139011,-1.56221857679
1385566776860117090,0.168506642357,0.00436863991823,-0.401593960408,-0.0142543543857,-0.00559369466775,-1.56287127319
1385566776870327034,0.166723027904,0.00344288192646,-0.401936992879,-0.0147934020918,-0.00520423334997,-1.56281468618
1385566776880364498,0.164933301841,0.00246580111311,-0.401924584611,-0.016221990311,-0.00380637493408,-1.56370130098
