%time,field.header.seq,field.header.stamp,field.header.frame_id,field.child_frame_id,field.transform.translation.x,field.transform.translation.y,field.transform.translation.z,field.transform.rotation.x,field.transform.rotation.y,field.transform.rotation.z,field.transform.rotation.w
1385566768503950075,399806,1385566768503950075,/world,vicon/Archie/Archie,0.423526382656,0.0347081799744,0.113753854077,0.00242466208047,-0.00282528278261,0.571396945222,0.820665382346
1385566768513926772,399807,1385566768513926772,/world,vicon/Archie/Archie,0.423537622996,0.0347130220026,0.113816508781,0.00230598315651,-0.00278600882293,0.571366213701,0.82068725495
1385566768524023762,399808,1385566768524023762,/world,vicon/Archie/Archie,0.423547334537,0.0347081144178,0.113816558205,0.00233111954465,-0.00279694930678,0.57138786701,0.820672071165
1385566768533858344,399809,1385566768533858344,/world,vicon/Archie/Archie,0.423529627504,0.0347201036805,0.113791524446,0.00238441476872,-0.00268223854577,0.571385198536,0.820674158882
1385566768543913413,399810,1385566768543913413,/world,vicon/Archie/Archie,0.423550509673,0.0347074506802,0.113821063354,0.0023296800801,-0.00280708747255,0.571370345403,0.820684239671
1385566768554042428,399811,1385566768554042428,/world,vicon/Archie/Archie,0.423600951708,0.0347169144963,0.113805094145,0.00234196566472,-0.00278638554,0.571357696592,0.820693081363
1385566768564018891,399812,1385566768564018891,/world,vicon/Archie/Archie,0.423469897447,0.0347268652559,0.113776728824,0.00245228112204,-0.00298008521793,0.571315300832,0.82072159253
1385566768573958359,399813,1385566768573958359,/world,vicon/Archie/Archie,0.423550960397,0.0346986967936,0.113815549659,0.00232656433455,-0.002789755037,0.571381288856,0.820676688538
1385566768583920829,399814,1385566768583920829,/world,vicon/Archie/Archie,0.423556889975,0.0347028228778,0.113820660047,0.002321987943,-0.00280672480851,0.571379297526,0.820678030062
1385566768594064164,399815,1385566768594064164,/world,vicon/Archie/Archie,0.423558885578,0.0346830120045,0.113791223269,0.00240062594325,-0.00297971839888,0.571383990933,0.820673926221
1385566768603956591,399816,1385566768603956591,/world,vicon/Archie/Archie,0.423602740803,0.0347074846483,0.113821308768,0.00234092986685,-0.00278660510659,0.571368439908,0.820685604088
1385566768613856805,399817,1385566768613856805,/world,vicon/Archie/Archie,0.423522783711,0.0347345998933,0.113779492548,0.00239532636998,-0.00292940451797,0.571312009905,0.820724234039
1385566768623932245,399818,1385566768623932245,/world,vicon/Archie/Archie,0.423610542245,0.0347123165262,0.113819956157,0.00229454433704,-0.00274541212846,0.571350582611,0.820698306035
1385566768633903633,399819,1385566768633903633,/world,vicon/Archie/Archie,0.423610256871,0.0347106692896,0.113808183077,0.00232830930132,-0.00277947840673,0.571367430019,0.82068636725
1385566768643885017,399820,1385566768643885017,/world,vicon/Archie/Archie,0.423568014793,0.0347432889969,0.113765621507,0.00215728646842,-0.00280308943082,0.571348883871,0.820699665958
1385566768654047172,399821,1385566768654047172,/world,vicon/Archie/Archie,0.423478945453,0.0347258741767,0.113793528388,0.00243034968001,-0.00296953337361,0.571305329344,0.820728637209
1385566768664014111,399822,1385566768664014111,/world,vicon/Archie/Archie,0.423525239327,0.0347293471435,0.113777916249,0.00239895494782,-0.00291378956551,0.571305634532,0.820728716933
1385566768673976128,399823,1385566768673976128,/world,vicon/Archie/Archie,0.423498777381,0.0347423089265,0.113747558621,0.00245262262665,-0.00279072351103,0.571315668542,0.820722001279
1385566768683944860,399824,1385566768683944860,/world,vicon/Archie/Archie,0.423614610984,0.0347084001713,0.113812938928,0.00232469330688,-0.00275959120609,0.57135335034,0.820696246801
1385566768693950846,399825,1385566768693950846,/world,vicon/Archie/Archie,0.423617489904,0.0347078056339,0.113812990074,0.00232049880612,-0.00275818645181,0.57136275951,0.820689712826
1385566768704040355,399826,1385566768704040355,/world,vicon/Archie/Archie,0.423476047235,0.0347222416655,0.113779705149,0.00244639291258,-0.0029842224854,0.571314178059,0.820722376646
1385566768713924964,399827,1385566768713924964,/world,vicon/Archie/Archie,0.423607299615,0.0347071809195,0.113811829618,0.00232792501626,-0.00277069127483,0.571369951013,0.820684642914
1385566768724115357,399828,1385566768724115357,/world,vicon/Archie/Archie,0.423609587289,0.0347115366263,0.11381918201,0.00229448024102,-0.00276458274733,0.571375012084,0.820681234103
1385566768734032609,399829,1385566768734032609,/world,vicon/Archie/Archie,0.423598298915,0.0347088205844,0.113812643604,0.00227596786011,-0.00274234969946,0.571373331844,0.82068253006
1385566768744141851,399830,1385566768744141851,/world,vicon/Archie/Archie,0.42354918714,0.0347392049091,0.113760151518,0.00215533051243,-0.002782233081,0.57135739898,0.820693814014
1385566768754046224,399831,1385566768754046224,/world,vicon/Archie/Archie,0.423519218281,0.0347325555615,0.113776500016,0.00242374640873,-0.00292997979311,0.571305027551,0.820729008971
1385566768763827842,399832,1385566768763827842,/world,vicon/Archie/Archie,0.423583309112,0.0347255730112,0.113783448882,0.00237322847305,-0.00263543561362,0.571374599173,0.820681722524
1385566768774112551,399833,1385566768774112551,/world,vicon/Archie/Archie,0.42355108506,0.0347107648773,0.113827718799,0.00235012190136,-0.00279710261093,0.571378895817,0.820678262511
1385566768783882115,399834,1385566768783882115,/world,vicon/Archie/Archie,0.42359173928,0.0347211157871,0.113822481698,0.0022953095307,-0.00276678655092,0.571374973963,0.820681250898
1385566768794008507,399835,1385566768794008507,/world,vicon/Archie/Archie,0.423593629668,0.0347208421187,0.113820534721,0.002283418883,-0.0027563182223,0.571365771672,0.820687726038
1385566768804053269,399836,1385566768804053269,/world,vicon/Archie/Archie,0.423594695292,0.0347196207448,0.113823460074,0.00230333129969,-0.00274832546118,0.571364146072,0.820688828945
1385566768813829746,399837,1385566768813829746,/world,vicon/Archie/Archie,0.423587513808,0.0347235905257,0.113822247375,0.00228622927753,-0.00274585502049,0.57137493142,0.820681376163
1385566768824049492,399838,1385566768824049492,/world,vicon/Archie/Archie,0.423519316019,0.0347527137563,0.113747072746,0.00246408805008,-0.0028342407564,0.571341055949,0.820704144705
1385566768833887717,399839,1385566768833887717,/world,vicon/Archie/Archie,0.423600766161,0.0347202470907,0.113818750129,0.00228351267333,-0.00274718518177,0.571358632208,0.820692726874
1385566768843944868,399840,1385566768843944868,/world,vicon/Archie/Archie,0.42355203441,0.034721372595,0.113824834714,0.00232290819172,-0.00279324918935,0.571375606639,0.820680643122
1385566768854009472,399841,1385566768854009472,/world,vicon/Archie/Archie,0.423588262203,0.0347235642066,0.113821233622,0.00228087794512,-0.00275724061755,0.571372135788,0.820683299248
1385566768863976974,399842,1385566768863976974,/world,vicon/Archie/Archie,0.423606274004,0.0347271467535,0.113816482832,0.00230541920984,-0.00275125530503,0.571370345314,0.820684497314
1385566768873920331,399843,1385566768873920331,/world,vicon/Archie/Archie,0.423539941092,0.0347206406827,0.113819081496,0.00232815647206,-0.00278594226587,0.571371232353,0.820683698542
1385566768884115519,399844,1385566768884115519,/world,vicon/Archie/Archie,0.423544778514,0.0347239549782,0.113826771778,0.00229053835597,-0.00278626186676,0.571384496004,0.820674568818
1385566768893967813,399845,1385566768893967813,/world,vicon/Archie/Archie,0.423611408292,0.0347145204767,0.113814796001,0.00230354755065,-0.00277953441965,0.571365132221,0.820688036673
1385566768903983759,399846,1385566768903983759,/world,vicon/Archie/Archie,0.423621552595,0.034726197009,0.113821121422,0.00227535115365,-0.00277393094582,0.571359587546,0.82069199448
1385566768913992799,399847,1385566768913992799,/world,vicon/Archie/Archie,0.423601263081,0.0347399019582,0.113783826672,0.00234253866358,-0.00266271967147,0.571386921071,0.820673143746
1385566768924156572,399848,1385566768924156572,/world,vicon/Archie/Archie,0.423612742736,0.0347305823563,0.113825036829,0.00227313516754,-0.00274023747179,0.571356781469,0.820694067375
1385566768933874396,399849,1385566768933874396,/world,vicon/Archie/Archie,0.423626594051,0.0347198803988,0.11382173552,0.00228343535037,-0.00276641912447,0.57136647846,0.820687199937
1385566768944058749,399850,1385566768944058749,/world,vicon/Archie/Archie,0.42361870863,0.0347162632583,0.113818826039,0.00231116004737,-0.00277768751944,0.571365812971,0.820687547584
1385566768954405924,399851,1385566768954405924,/world,vicon/Archie/Archie,0.423618837388,0.0347299557378,0.113822975889,0.00227426209252,-0.00275223477262,0.571364575993,0.820688597603
1385566768964079673,399852,1385566768964079673,/world,vicon/Archie/Archie,0.423618336899,0.034720695468,0.113826094474,0.00229778353365,-0.00273042870474,0.571367721672,0.820686414888
1385566768974156101,399853,1385566768974156101,/world,vicon/Archie/Archie,0.423615664686,0.0347230809927,0.113826832595,0.00230692634105,-0.00276112971446,0.571370888871,0.820684081486
1385566768983959781,399854,1385566768983959781,/world,vicon/Archie/Archie,0.423619020618,0.0347213983053,0.113818502586,0.00231893019122,-0.00274289824911,0.571357373458,0.820693518232
1385566768993896543,399855,1385566768993896543,/world,vicon/Archie/Archie,0.423619784646,0.0347238704382,0.113817842824,0.0023249674057,-0.002762728257,0.571365102879,0.820688053447
1385566769003980648,399856,1385566769003980648,/world,vicon/Archie/Archie,0.42353212779,0.0347461492555,0.113782350614,0.00239076367186,-0.00290616922681,0.571297247472,0.820734605984
1385566769014103511,399857,1385566769014103511,/world,vicon/Archie/Archie,0.423511958373,0.0347481149011,0.113774331035,0.00217312766386,-0.0028206569001,0.57136902783,0.820685539928
1385566769024327924,399858,1385566769024327924,/world,vicon/Archie/Archie,0.423612313881,0.0347223126741,0.113813939133,0.00230307517215,-0.00277848158236,0.571359687691,0.820691832034
1385566769034128845,399859,1385566769034128845,/world,vicon/Archie/Archie,0.423580592832,0.0347431013848,0.113773100031,0.00233886779642,-0.00263226446135,0.57137419879,0.8206821101
1385566769044344041,399860,1385566769044344041,/world,vicon/Archie/Archie,0.423564003743,0.03471687439,0.113819065421,0.00230401488693,-0.0027929647644,0.57138393731,0.820674897293
1385566769053932555,399861,1385566769053932555,/world,vicon/Archie/Archie,0.423517921285,0.0347594382602,0.113770525397,0.00217126828234,-0.00282219266816,0.571343248679,0.820703486657
1385566769063740464,399862,1385566769063740464,/world,vicon/Archie/Archie,0.423477723513,0.034753395371,0.113709224608,0.00231289347968,-0.00305524318153,0.571328200628,0.820712740964
1385566769074160634,399863,1385566769074160634,/world,vicon/Archie/Archie,0.42361209457,0.0347294529317,0.113807627024,0.00229431093121,-0.00278097207613,0.571356526658,0.820694048825
1385566769083838547,399864,1385566769083838547,/world,vicon/Archie/Archie,0.423566579396,0.0347173613727,0.113812429613,0.00231510497341,-0.00279540722704,0.571366280374,0.820687150892
1385566769094026789,399865,1385566769094026789,/world,vicon/Archie/Archie,0.423620386447,0.0347344084637,0.11380354938,0.00226952238134,-0.00273039341628,0.57135245533,0.820697121969
1385566769103999902,399866,1385566769103999902,/world,vicon/Archie/Archie,0.423624473576,0.0347367140521,0.113799256978,0.00226387327739,-0.00277719502842,0.571353726405,0.820696095634
1385566769113903056,399867,1385566769113903056,/world,vicon/Archie/Archie,0.423622648534,0.0347104770821,0.113772830641,0.0023340355767,-0.00292433422366,0.571376060356,0.820679839035
1385566769123888019,399868,1385566769123888019,/world,vicon/Archie/Archie,0.423621099723,0.0347272433095,0.113797518991,0.00226960898923,-0.00277024734943,0.571360777926,0.820691194087
1385566769134237368,399869,1385566769134237368,/world,vicon/Archie/Archie,0.423607934862,0.034733296343,0.113801331949,0.00229786943208,-0.00275939280728,0.571370858915,0.820684133592
1385566769144014044,399870,1385566769144014044,/world,vicon/Archie/Archie,0.423610433625,0.0347299663495,0.113799157864,0.00227494230863,-0.00278551324901,0.571345613762,0.82070168465
1385566769154022979,399871,1385566769154022979,/world,vicon/Archie/Archie,0.423498850987,0.0347444459888,0.113709092061,0.00228330864674,-0.00283878529295,0.571387434436,0.820672363107
1385566769163882021,399872,1385566769163882021,/world,vicon/Archie/Archie,0.423582586595,0.0347493490483,0.113762168707,0.00230960359071,-0.00264243790775,0.571372276627,0.820683498527
1385566769174063994,399873,1385566769174063994,/world,vicon/Archie/Archie,0.423572019254,0.0347029709753,0.113785995185,0.00234279854838,-0.00291786479727,0.571383219,0.820674853036
1385566769184008506,399874,1385566769184008506,/world,vicon/Archie/Archie,0.423626158265,0.0346959601128,0.113772424412,0.00238474769374,-0.00291926520403,0.571372392719,0.82068226477
1385566769193916518,399875,1385566769193916518,/world,vicon/Archie/Archie,0.423616324699,0.0347193019297,0.113798511816,0.00231084424427,-0.00277969875545,0.571359362727,0.820692032311
1385566769203880530,399876,1385566769203880530,/world,vicon/Archie/Archie,0.423541288105,0.0347292509683,0.113698379569,0.00251682591426,-0.00300471261176,0.571361241157,0.820689325746
1385566769214038021,399877,1385566769214038021,/world,vicon/Archie/Archie,0.423570619776,0.0347022593956,0.113808099241,0.00234001862321,-0.00281556316535,0.571372748724,0.820682507997
1385566769224017507,399878,1385566769224017507,/world,vicon/Archie/Archie,0.423556799449,0.0347104757577,0.113804943692,0.0023313558865,-0.00279955204421,0.571368743547,0.820685375882
1385566769234034794,399879,1385566769234034794,/world,vicon/Archie/Archie,0.423550348839,0.0347535773364,0.113744910783,0.00214943097564,-0.00279294286414,0.571351052898,0.82069821114
1385566769244063456,399880,1385566769244063456,/world,vicon/Archie/Archie,0.42355031975,0.0347341317477,0.113758878467,0.00239842898098,-0.00296526337492,0.57131543988,0.820721708563
1385566769254080193,399881,1385566769254080193,/world,vicon/Archie/Archie,0.423594591772,0.0347204627506,0.113801603555,0.00228935607822,-0.00275383374336,0.571352501192,0.820696956635
1385566769263818201,399882,1385566769263818201,/world,vicon/Archie/Archie,0.423598212486,0.0347214179955,0.113803007769,0.00227662405777,-0.00274601595685,0.571348062729,0.820700108197
1385566769274032594,399883,1385566769274032594,/world,vicon/Archie/Archie,0.423605740898,0.0347147466487,0.113802144474,0.00232382660057,-0.00279442354849,0.571366785167,0.820686778153
1385566769283982530,399884,1385566769283982530,/world,vicon/Archie/Archie,0.42355205344,0.0347052385269,0.113810236152,0.00234629619763,-0.00282237970351,0.571376099899,0.820680133506
1385566769294162845,399885,1385566769294162845,/world,vicon/Archie/Archie,0.423493852235,0.0347216807945,0.11376625795,0.00245886833837,-0.00304326324064,0.571339101823,0.82070477228
1385566769303955023,399886,1385566769303955023,/world,vicon/Archie/Archie,0.423595346898,0.0347199647779,0.113816125333,0.00228580326702,-0.00276240718981,0.571374612075,0.820681544137
1385566769313952346,399887,1385566769313952346,/world,vicon/Archie/Archie,0.423524505999,0.0347128751322,0.113815922103,0.00231453551832,-0.00280296288907,0.5713767684,0.820679824814
1385566769324226161,399888,1385566769324226161,/world,vicon/Archie/Archie,0.423544360018,0.0347031245293,0.113815337268,0.0023440304151,-0.00281149936999,0.571385837019,0.820673398038
1385566769334106916,399889,1385566769334106916,/world,vicon/Archie/Archie,0.423587773611,0.0347205634639,0.113805606625,0.00228967735242,-0.00276340689908,0.571357651362,0.820693338093
1385566769344024979,399890,1385566769344024979,/world,vicon/Archie/Archie,0.423553986476,0.0347341286127,0.113782201555,0.00237030819271,-0.00264440587384,0.571384075798,0.820675104216
1385566769354028531,399891,1385566769354028531,/world,vicon/Archie/Archie,0.423536485521,0.0347129930522,0.113826561176,0.0023228976597,-0.00279925771025,0.571364883588,0.820688088195
1385566769363916061,399892,1385566769363916061,/world,vicon/Archie/Archie,0.423532782327,0.0347097661064,0.113824103416,0.00231432701217,-0.00280357741703,0.571372022331,0.820683127609
1385566769373878790,399893,1385566769373878790,/world,vicon/Archie/Archie,0.423589522895,0.0347138639334,0.113811734066,0.00234974495683,-0.00279261127798,0.571357460881,0.820693202065
1385566769383883626,399894,1385566769383883626,/world,vicon/Archie/Archie,0.423529625966,0.0347211123089,0.113812445907,0.00231685177938,-0.00280302266027,0.571369572256,0.820684828154
1385566769393947066,399895,1385566769393947066,/world,vicon/Archie/Archie,0.42357831554,0.0347174423267,0.113799317038,0.00228425849656,-0.0027554668432,0.571361166193,0.820690932892
1385566769404145876,399896,1385566769404145876,/world,vicon/Archie/Archie,0.423536166129,0.0347126629401,0.113815777494,0.00230948163012,-0.00279309819198,0.571378955645,0.820678349869
1385566769413856917,399897,1385566769413856917,/world,vicon/Archie/Archie,0.423572658931,0.0347227672855,0.113807390043,0.0022881352675,-0.00275374140659,0.5713581078,0.820693057114
1385566769423943522,399898,1385566769423943522,/world,vicon/Archie/Archie,0.423584077546,0.0347200737947,0.113805245553,0.00230929896189,-0.00275423834345,0.571357941047,0.820693112261
1385566769434178339,399899,1385566769434178339,/world,vicon/Archie/Archie,0.423576207827,0.0347109797035,0.113810184815,0.00231448213826,-0.002777404859,0.571359115243,0.820692202122
1385566769443944663,399900,1385566769443944663,/world,vicon/Archie/Archie,0.423574027606,0.0347121568496,0.113814823145,0.00230632927318,-0.00279894357952,0.571366864306,0.820686757011
1385566769454085300,399901,1385566769454085300,/world,vicon/Archie/Archie,0.423517916421,0.0347110478697,0.113817305563,0.00229820230761,-0.00278465752838,0.571377490257,0.820679430458
1385566769463775496,399902,1385566769463775496,/world,vicon/Archie/Archie,0.423577904561,0.0347161882775,0.113809965893,0.00230380029607,-0.00277692219573,0.571351261922,0.820697701171
1385566769473988527,399903,1385566769473988527,/world,vicon/Archie/Archie,0.423578559631,0.0347150406196,0.113812231229,0.00230969709172,-0.0027673879292,0.571363185241,0.820689415927
1385566769484103110,399904,1385566769484103110,/world,vicon/Archie/Archie,0.423571521761,0.034715598413,0.113814781246,0.00231124093828,-0.00276767533827,0.571365769532,0.820687611425
1385566769494101930,399905,1385566769494101930,/world,vicon/Archie/Archie,0.423576163898,0.0347113444536,0.113801780898,0.00232092966083,-0.00278493153618,0.571360190165,0.820691410054
1385566769504010309,399906,1385566769504010309,/world,vicon/Archie/Archie,0.423580951572,0.0347116874744,0.113813744712,0.00231268233165,-0.00278381674871,0.571357954897,0.820692993293
1385566769513971018,399907,1385566769513971018,/world,vicon/Archie/Archie,0.423486497919,0.0347388590769,0.113762285184,0.00218723895674,-0.00286894758871,0.571372369949,0.820683008222
1385566769524241006,399908,1385566769524241006,/world,vicon/Archie/Archie,0.423585085829,0.0347181005029,0.113803913624,0.00229868845102,-0.00277833890831,0.571357424272,0.820693420586
1385566769533992246,399909,1385566769533992246,/world,vicon/Archie/Archie,0.423583899382,0.0347153195659,0.113809921019,0.00230809597113,-0.00277070059705,0.571357396439,0.820693439383
1385566769543952173,399910,1385566769543952173,/world,vicon/Archie/Archie,0.423574250375,0.0347196408473,0.113813472258,0.0022957069934,-0.00275644414568,0.57136067339,0.820691240753
1385566769554075692,399911,1385566769554075692,/world,vicon/Archie/Archie,0.423576067588,0.0347116075195,0.113808168807,0.00231454237602,-0.00277275873116,0.571372299735,0.820683038571
1385566769563877352,399912,1385566769563877352,/world,vicon/Archie/Archie,0.423581859867,0.034719782192,0.113802802831,0.00227647692461,-0.00273450749961,0.57135968887,0.820692053121
1385566769573998425,399913,1385566769573998425,/world,vicon/Archie/Archie,0.423579278131,0.0347167289596,0.11380452507,0.00229286104577,-0.00276345654081,0.571363923203,0.820688962615
1385566769584027642,399914,1385566769584027642,/world,vicon/Archie/Archie,0.423590770095,0.0347062146382,0.113804852176,0.00232387563825,-0.00278256447553,0.571371695499,0.820683399686
1385566769594275966,399915,1385566769594275966,/world,vicon/Archie/Archie,0.423536755692,0.034742804065,0.113753972759,0.00219506639688,-0.00281900369947,0.571351135514,0.820697943734
1385566769604028244,399916,1385566769604028244,/world,vicon/Archie/Archie,0.423587945757,0.0347176491298,0.113807491286,0.00226359820781,-0.00276113945097,0.571358021805,0.820693160171
1385566769613908902,399917,1385566769613908902,/world,vicon/Archie/Archie,0.423512075062,0.0347404611513,0.113725902184,0.00244619321102,-0.00285241434165,0.571351212721,0.820697064448
1385566769623980702,399918,1385566769623980702,/world,vicon/Archie/Archie,0.423537362353,0.0347088047357,0.113811535983,0.00229845777616,-0.00278954653705,0.571378235825,0.820678894055
1385566769633816428,399919,1385566769633816428,/world,vicon/Archie/Archie,0.423580328006,0.034714563662,0.113809023364,0.00234333884664,-0.00277777521672,0.571365234124,0.820687859032
1385566769644054740,399920,1385566769644054740,/world,vicon/Archie/Archie,0.423498841682,0.0347418541178,0.113773033079,0.00219188704253,-0.00284479986801,0.571355203328,0.820695031284
1385566769654006245,399921,1385566769654006245,/world,vicon/Archie/Archie,0.423587899123,0.0347182896624,0.113802083212,0.00228972102002,-0.00277485376278,0.571364488611,0.820688539288
1385566769663980395,399922,1385566769663980395,/world,vicon/Archie/Archie,0.423542859165,0.0346878344596,0.113790480668,0.00240137240834,-0.00296710353239,0.57138467505,0.820673493434
1385566769673934874,399923,1385566769673934874,/world,vicon/Archie/Archie,0.423587672707,0.0346943228317,0.11378835815,0.00236558159117,-0.00290359958319,0.57137692126,0.820679222951
1385566769684000561,399924,1385566769684000561,/world,vicon/Archie/Archie,0.42353812294,0.0347411224339,0.113766181894,0.00216912882222,-0.00281779453378,0.571344812688,0.82070241862
1385566769694067291,399925,1385566769694067291,/world,vicon/Archie/Archie,0.423602223443,0.0347095356636,0.113815068783,0.00233105120687,-0.00277904959054,0.571370004518,0.820684568528
1385566769704334001,399926,1385566769704334001,/world,vicon/Archie/Archie,0.423500497107,0.0347129939743,0.11373578705,0.00227075921801,-0.00297496673615,0.571377674683,0.820678710641
1385566769713990417,399927,1385566769713990417,/world,vicon/Archie/Archie,0.423555745582,0.0347188998327,0.113771575622,0.00242979044251,-0.0029901197839,0.571325141861,0.820714772366
1385566769724122597,399928,1385566769724122597,/world,vicon/Archie/Archie,0.423592347319,0.0347126542728,0.113815096028,0.00228788524762,-0.00275461265577,0.571375056645,0.820681255016
1385566769733942454,399929,1385566769733942454,/world,vicon/Archie/Archie,0.423591767259,0.0347057951653,0.113814766796,0.0022916927161,-0.00276246871548,0.571366300826,0.820687313897
1385566769744011359,399930,1385566769744011359,/world,vicon/Archie/Archie,0.423608043585,0.0347116862075,0.113815383532,0.00230552407516,-0.00276205440458,0.571355418193,0.820694852985
1385566769754083046,399931,1385566769754083046,/world,vicon/Archie/Archie,0.423602939572,0.0347125833919,0.113815638103,0.00228377387314,-0.00276073830411,0.571357867154,0.820693213291
1385566769764126496,399932,1385566769764126496,/world,vicon/Archie/Archie,0.42360060121,0.0347186741069,0.11380724313,0.00227592609297,-0.00270905711133,0.571352423517,0.82069719709
1385566769774261840,399933,1385566769774261840,/world,vicon/Archie/Archie,0.423622978833,0.0347154168952,0.113807041204,0.00229098523653,-0.00274273904554,0.571356031647,0.8206945314
1385566769784116499,399934,1385566769784116499,/world,vicon/Archie/Archie,0.423612572875,0.0347071568613,0.113811830067,0.00233553352591,-0.00277435645256,0.571368132919,0.820685874689
1385566769793993602,399935,1385566769793993602,/world,vicon/Archie/Archie,0.423620835877,0.0347102958636,0.113802287974,0.00229937990814,-0.00274414040413,0.57136205596,0.820690309164
1385566769804033011,399936,1385566769804033011,/world,vicon/Archie/Archie,0.423614831299,0.0347068461909,0.113797659492,0.00231372363428,-0.00276793050908,0.571355339531,0.820694864875
1385566769813855141,399937,1385566769813855141,/world,vicon/Archie/Archie,0.423566350721,0.0347146730743,0.113765221882,0.00240187119188,-0.00295880328327,0.571333839195,0.820708913494
1385566769824026761,399938,1385566769824026761,/world,vicon/Archie/Archie,0.423565969607,0.0347095362861,0.113825905628,0.00229797090716,-0.00278066386283,0.571374174771,0.820681752961
1385566769833995153,399939,1385566769833995153,/world,vicon/Archie/Archie,0.423615629301,0.0347070583053,0.113805000993,0.00231528814308,-0.00276253965095,0.571365941708,0.820687497451
1385566769844073381,399940,1385566769844073381,/world,vicon/Archie/Archie,0.423611526449,0.0347222821537,0.113807943089,0.00226642019985,-0.0027467191814,0.571365430927,0.820688042568
1385566769854010253,399941,1385566769854010253,/world,vicon/Archie/Archie,0.423621688011,0.0347004220737,0.113784289983,0.0023419479903,-0.00285875598821,0.571373991884,0.820681487663
1385566769864002767,399942,1385566769864002767,/world,vicon/Archie/Archie,0.42361397758,0.0347152324997,0.113805657265,0.00227470751938,-0.00276294535804,0.571370829509,0.820684206638
1385566769873987556,399943,1385566769873987556,/world,vicon/Archie/Archie,0.423623613795,0.0347158253858,0.113803492915,0.00231946982943,-0.00277433261138,0.5713641778,0.820688673898
1385566769883876931,399944,1385566769883876931,/world,vicon/Archie/Archie,0.423621133263,0.0347162748718,0.113796629078,0.0023066499125,-0.00275886544379,0.571370858673,0.820684110902
1385566769894007466,399945,1385566769894007466,/world,vicon/Archie/Archie,0.423617773775,0.034707674754,0.113804219948,0.00231676389368,-0.0027702404723,0.571360700696,0.820691116117
1385566769904048360,399946,1385566769904048360,/world,vicon/Archie/Archie,0.423603126725,0.0347207656297,0.113805792316,0.00227795866188,-0.00273678152902,0.571361468403,0.820690802529
1385566769914000586,399947,1385566769914000586,/world,vicon/Archie/Archie,0.423617580635,0.0346998895406,0.113775912933,0.00232867138531,-0.00288878056849,0.57138408942,0.820674390117
1385566769924132537,399948,1385566769924132537,/world,vicon/Archie/Archie,0.423551042742,0.034716936663,0.113809573403,0.00227715988592,-0.00277323864538,0.571389779736,0.820670971403
1385566769934019304,399949,1385566769934019304,/world,vicon/Archie/Archie,0.42355992723,0.034744333011,0.113744209709,0.00220348970644,-0.00283554201768,0.571342054968,0.820704185782
1385566769943990379,399950,1385566769943990379,/world,vicon/Archie/Archie,0.423608751548,0.0346999134997,0.113778363795,0.00240520332766,-0.00294666359755,0.571368572293,0.820684766988
1385566769954103058,399951,1385566769954103058,/world,vicon/Archie/Archie,0.423583138496,0.034724623113,0.113790403063,0.00228928829916,-0.00278461584828,0.571365617072,0.820687721793
1385566769963935722,399952,1385566769963935722,/world,vicon/Archie/Archie,0.423588254007,0.0347192646764,0.113794741024,0.00229758116974,-0.00278262345053,0.571362932274,0.820689574535
1385566769974082465,399953,1385566769974082465,/world,vicon/Archie/Archie,0.423580122858,0.0347283732469,0.113794406107,0.00228689395061,-0.00275519587454,0.571365202525,0.820688116372
1385566769983835623,399954,1385566769983835623,/world,vicon/Archie/Archie,0.423590439417,0.0347042311551,0.113775646861,0.00233282332644,-0.00288838192719,0.571369943973,0.820684228135
1385566769994074467,399955,1385566769994074467,/world,vicon/Archie/Archie,0.423592167567,0.0347241458807,0.113800920353,0.00229862295739,-0.00276644345824,0.571362849626,0.820689683858
1385566770003954658,399956,1385566770003954658,/world,vicon/Archie/Archie,0.423589526236,0.0347242943356,0.113803101949,0.00229665649492,-0.00279414084202,0.571347897634,0.820700004883
1385566770013844871,399957,1385566770013844871,/world,vicon/Archie/Archie,0.423587300253,0.0347169343648,0.113804857333,0.00230092996211,-0.00276126681884,0.571368500844,0.820685760429
1385566770024207840,399958,1385566770024207840,/world,vicon/Archie/Archie,0.423544877606,0.0346969582193,0.113789761414,0.00238301846551,-0.00291591180046,0.571382279082,0.820675398579
1385566770033907576,399959,1385566770033907576,/world,vicon/Archie/Archie,0.42359034927,0.0347212598454,0.113802817858,0.00229159082266,-0.00276130359347,0.571358564956,0.820692703797
1385566770043987697,399960,1385566770043987697,/world,vicon/Archie/Archie,0.423587444097,0.0347221162719,0.113806296231,0.00230459575479,-0.00274433857482,0.571360324712,0.820691499157
1385566770054091940,399961,1385566770054091940,/world,vicon/Archie/Archie,0.42355695398,0.0347382921076,0.113774319119,0.0023310505688,-0.00261150650068,0.571390648794,0.820670745615
1385566770063900956,399962,1385566770063900956,/world,vicon/Archie/Archie,0.42360973018,0.0347211257009,0.113803592628,0.00229948350861,-0.00275088686193,0.571350333691,0.820698447171
1385566770073979514,399963,1385566770073979514,/world,vicon/Archie/Archie,0.423603285328,0.0347219797895,0.113809799816,0.00228388845509,-0.00273753519595,0.571363441697,0.820689409732
1385566770083957966,399964,1385566770083957966,/world,vicon/Archie/Archie,0.423613240822,0.0347097109728,0.113768884496,0.00233604067298,-0.00289599402373,0.571381019554,0.820676481097
1385566770093967833,399965,1385566770093967833,/world,vicon/Archie/Archie,0.423570221319,0.0347151909429,0.113808478445,0.00231101691785,-0.00280117506755,0.571379492081,0.820677944537
1385566770103995533,399966,1385566770103995533,/world,vicon/Archie/Archie,0.423612228336,0.0347272651525,0.113800064264,0.00228063553115,-0.00274403380478,0.571353565407,0.820696272854
1385566770113832089,399967,1385566770113832089,/world,vicon/Archie/Archie,0.423561553611,0.0347088756993,0.113781895125,0.00235835437412,-0.00292373098969,0.571381002431,0.820676330853
1385566770123949726,399968,1385566770123949726,/world,vicon/Archie/Archie,0.423523570325,0.0347528766525,0.113750437146,0.00215595975046,-0.00279965605283,0.571357294536,0.820693825823
1385566770134060130,399969,1385566770134060130,/world,vicon/Archie/Archie,0.423512935825,0.0347356258885,0.113763676002,0.0023994413077,-0.00300009126583,0.571350456823,0.820697202153
1385566770144115636,399970,1385566770144115636,/world,vicon/Archie/Archie,0.423570978595,0.034720154089,0.113811372894,0.00228480997865,-0.00278369037501,0.571380905464,0.82067709337
1385566770153970062,399971,1385566770153970062,/world,vicon/Archie/Archie,0.423562050322,0.0347251677088,0.113808373279,0.00228541583243,-0.00277675655092,0.571378832252,0.820678558604
1385566770163898554,399972,1385566770163898554,/world,vicon/Archie/Archie,0.423612663176,0.0347361914172,0.113800155435,0.00226856838899,-0.00273307074735,0.571351485792,0.820697790666
1385566770174079333,399973,1385566770174079333,/world,vicon/Archie/Archie,0.423551657325,0.0347220209836,0.113806681872,0.0023104780776,-0.00279751369258,0.571363676686,0.820688969447
1385566770183886169,399974,1385566770183886169,/world,vicon/Archie/Archie,0.42360525545,0.0347238465065,0.113793859647,0.00227132957018,-0.00275244406394,0.571362244086,0.820690228495
1385566770193927640,399975,1385566770193927640,/world,vicon/Archie/Archie,0.423606733565,0.0347279538084,0.113800695511,0.00227611763147,-0.00276602442726,0.571364903084,0.820688318378
1385566770203963211,399976,1385566770203963211,/world,vicon/Archie/Archie,0.423614736122,0.0347325823183,0.113802361612,0.00227359787442,-0.00277969919033,0.571350643196,0.820698206739
1385566770213928811,399977,1385566770213928811,/world,vicon/Archie/Archie,0.42360750215,0.0347315123432,0.11380033244,0.00227780520182,-0.00274858265333,0.571371517285,0.820683767436
1385566770224048174,399978,1385566770224048174,/world,vicon/Archie/Archie,0.423615629464,0.0347319366473,0.113806732371,0.00228275534098,-0.00272369960953,0.571345070304,0.820702248765
1385566770233854881,399979,1385566770233854881,/world,vicon/Archie/Archie,0.423618885994,0.0347335719584,0.113802308814,0.00226213208937,-0.00274243374442,0.571348750852,0.820699681196
1385566770244037582,399980,1385566770244037582,/world,vicon/Archie/Archie,0.423546771768,0.0347236625981,0.11381789194,0.00230315787232,-0.0027625795577,0.571374665732,0.820681457679
1385566770254021629,399981,1385566770254021629,/world,vicon/Archie/Archie,0.423611436771,0.0347296136095,0.113805783889,0.0022762602351,-0.00274524006814,0.571375303923,0.820681146587
1385566770263875864,399982,1385566770263875864,/world,vicon/Archie/Archie,0.423615686332,0.0347356324219,0.113804413753,0.00227640343543,-0.00273190507217,0.571359608492,0.820692117951
1385566770274009891,399983,1385566770274009891,/world,vicon/Archie/Archie,0.423609316272,0.0347307652044,0.113801144193,0.00227190651373,-0.00271454741953,0.571354776339,0.820695552094
1385566770283874676,399984,1385566770283874676,/world,vicon/Archie/Archie,0.423601585533,0.0347331377368,0.11380836236,0.00230452228424,-0.0027656092012,0.571364782821,0.820688324235
1385566770294017077,399985,1385566770294017077,/world,vicon/Archie/Archie,0.423606762809,0.0347280562197,0.113807628938,0.00229736270081,-0.00274610321955,0.571361981924,0.820690359791
1385566770304659955,399986,1385566770304659955,/world,vicon/Archie/Archie,0.423611077554,0.0347301775279,0.113800689026,0.00225688092413,-0.00273627756976,0.571369532019,0.820685248529
1385566770313790776,399987,1385566770313790776,/world,vicon/Archie/Archie,0.423577073074,0.0347346318961,0.113761582246,0.00239998903443,-0.00297015112487,0.571311409526,0.820724491897
1385566770324017573,399988,1385566770324017573,/world,vicon/Archie/Archie,0.423597943899,0.0347273194646,0.113803159036,0.00228664607888,-0.00275906042766,0.571352183673,0.820697167686
1385566770334030361,399989,1385566770334030361,/world,vicon/Archie/Archie,0.42354769053,0.0347230485622,0.113805909874,0.00232565785721,-0.00280255463689,0.571376973198,0.82067965218
1385566770344057857,399990,1385566770344057857,/world,vicon/Archie/Archie,0.423591935636,0.0347261966084,0.113797953259,0.00228383392363,-0.00274417597195,0.57134522787,0.82070206786
1385566770354051541,399991,1385566770354051541,/world,vicon/Archie/Archie,0.42360253504,0.0347316073555,0.11380431163,0.002291554154,-0.0027436961733,0.571361366157,0.820690812776
1385566770363931818,399992,1385566770363931818,/world,vicon/Archie/Archie,0.423599844402,0.0347349616486,0.113809256128,0.00229405662126,-0.00275368044379,0.571353973789,0.820695918829
1385566770374026262,399993,1385566770374026262,/world,vicon/Archie/Archie,0.423598992601,0.0347302206611,0.113797002203,0.00228615844698,-0.00277026614459,0.571366117132,0.820687430937
1385566770383999397,399994,1385566770383999397,/world,vicon/Archie/Archie,0.423558406481,0.0347221880468,0.113815997922,0.00229350881747,-0.00278655814207,0.571365407025,0.820687849652
1385566770393917462,399995,1385566770393917462,/world,vicon/Archie/Archie,0.423604366749,0.0347272033352,0.113808478258,0.00228637381558,-0.00274576477531,0.571368010208,0.820686194706
1385566770404098663,399996,1385566770404098663,/world,vicon/Archie/Archie,0.42357570046,0.0347462771479,0.11377308796,0.00233464145414,-0.00263061077143,0.571389048613,0.820671788513
1385566770414001759,399997,1385566770414001759,/world,vicon/Archie/Archie,0.423599998053,0.0347282659798,0.113799384932,0.00227493332059,-0.00275510363233,0.571357912051,0.820693225523
1385566770423958883,399998,1385566770423958883,/world,vicon/Archie/Archie,0.423545798047,0.0347233797453,0.113815947693,0.00229393050196,-0.00277126644579,0.571365796886,0.82068762883
1385566770433953323,399999,1385566770433953323,/world,vicon/Archie/Archie,0.42359223727,0.0347344454771,0.113806471299,0.00227970184124,-0.00272097779525,0.571356012169,0.820694648818
1385566770444058602,400000,1385566770444058602,/world,vicon/Archie/Archie,0.423603978465,0.0347245471172,0.113815204174,0.00231058455771,-0.00275043691228,0.57135516824,0.820695051783
1385566770454063588,400001,1385566770454063588,/world,vicon/Archie/Archie,0.423544086483,0.0347227787509,0.113810014034,0.00231340072736,-0.00278612473072,0.571382981881,0.820675559343
1385566770463934750,400002,1385566770463934750,/world,vicon/Archie/Archie,0.423600829204,0.0347408077685,0.11380158931,0.00227591230435,-0.00274815978584,0.5713440786,0.820702876618
1385566770474156395,400003,1385566770474156395,/world,vicon/Archie/Archie,0.4235467077,0.0347282026532,0.113817006039,0.00229717951554,-0.0027743307643,0.571362676197,0.820689782015
1385566770484021680,400004,1385566770484021680,/world,vicon/Archie/Archie,0.423563591306,0.0347449382349,0.11377204311,0.00232414080351,-0.00260339134939,0.571377290364,0.820680091619
1385566770494034298,400005,1385566770494034298,/world,vicon/Archie/Archie,0.423598264609,0.034737395416,0.113808946525,0.00229458348675,-0.00275276114944,0.571353608791,0.820696174546
1385566770503989532,400006,1385566770503989532,/world,vicon/Archie/Archie,0.423591955939,0.034729265379,0.113802196942,0.00228626362875,-0.00276905362067,0.571359177922,0.820692265801
1385566770513954326,400007,1385566770513954326,/world,vicon/Archie/Archie,0.42359189336,0.0347337080369,0.113804996336,0.00227625814895,-0.00275403309031,0.571360483591,0.820691435158
1385566770524079565,400008,1385566770524079565,/world,vicon/Archie/Archie,0.42359358601,0.0347333065281,0.113812575878,0.00228532506355,-0.00276220320825,0.571359304999,0.82069220303
1385566770534089746,400009,1385566770534089746,/world,vicon/Archie/Archie,0.423588960644,0.0347349412979,0.113802523891,0.00229022522954,-0.00275222629757,0.571366388941,0.82068729106
1385566770544145639,400010,1385566770544145639,/world,vicon/Archie/Archie,0.423589721235,0.034730714811,0.113804330551,0.00229672807693,-0.00275630640341,0.571353786048,0.820696033245
1385566770554027416,400011,1385566770554027416,/world,vicon/Archie/Archie,0.423584771857,0.0347356837002,0.113807482854,0.0022850413337,-0.00276930586579,0.571360846912,0.820691106414
1385566770563977694,400012,1385566770563977694,/world,vicon/Archie/Archie,0.423590771385,0.0347176962551,0.113777127243,0.00234717456395,-0.00289988876355,0.571368878716,0.82068488828
1385566770574105133,400013,1385566770574105133,/world,vicon/Archie/Archie,0.423594836898,0.0347349306059,0.113800201303,0.00234234164225,-0.00275947127047,0.571344970385,0.820702030929
1385566770583871343,400014,1385566770583871343,/world,vicon/Archie/Archie,0.423542559301,0.0347364518207,0.113769432772,0.00243298559072,-0.00301601459818,0.571337623193,0.820705979363
1385566770594014781,400015,1385566770594014781,/world,vicon/Archie/Archie,0.423580770485,0.0347286188585,0.11380319403,0.00231697273116,-0.00277508819296,0.571366039122,0.82068738254
1385566770604025590,400016,1385566770604025590,/world,vicon/Archie/Archie,0.423578259872,0.0347323275724,0.113807245625,0.00230500500963,-0.00276785393498,0.571355059039,0.820695084942
1385566770613976157,400017,1385566770613976157,/world,vicon/Archie/Archie,0.423540056028,0.0347617215521,0.113759550669,0.00217693777222,-0.00282017379688,0.571344521064,0.82070259279
1385566770624117847,400018,1385566770624117847,/world,vicon/Archie/Archie,0.423591746331,0.0347333088162,0.113795508796,0.00230316276956,-0.0027520979177,0.571356420736,0.820694195107
1385566770633937160,400019,1385566770633937160,/world,vicon/Archie/Archie,0.423554616357,0.0347390733359,0.113773831059,0.00232083502798,-0.00261922637878,0.571381987257,0.820676780478
1385566770644142878,400020,1385566770644142878,/world,vicon/Archie/Archie,0.423584081304,0.0347245505794,0.113803019922,0.00232327135944,-0.00277301817439,0.571362575961,0.820689782788
1385566770654028704,400021,1385566770654028704,/world,vicon/Archie/Archie,0.423595917695,0.0347241380918,0.113805560421,0.00228782254552,-0.00276519657807,0.571370578831,0.820684337125
1385566770663853131,400022,1385566770663853131,/world,vicon/Archie/Archie,0.423542274404,0.0347337466711,0.113760841066,0.00241676530452,-0.00298385736341,0.57132579145,0.820714381417
1385566770674107122,400023,1385566770674107122,/world,vicon/Archie/Archie,0.423586967333,0.0347091462601,0.113778904754,0.0023588992538,-0.00289955275335,0.57137426321,0.820681107087
1385566770684122490,400024,1385566770684122490,/world,vicon/Archie/Archie,0.423593259343,0.034718389984,0.113795685198,0.00231961945019,-0.00277299913619,0.571360091571,0.820691522804
1385566770694062365,400025,1385566770694062365,/world,vicon/Archie/Archie,0.423553389393,0.0347384484927,0.113765773941,0.00236795035296,-0.00261334867217,0.571387528659,0.82067280649
1385566770704155810,400026,1385566770704155810,/world,vicon/Archie/Archie,0.423505012541,0.0347408245154,0.113675574564,0.00240718139398,-0.00322455791909,0.571329132534,0.820711173326
1385566770713888858,400027,1385566770713888858,/world,vicon/Archie/Archie,0.423497120426,0.03476361367,0.113717722781,0.00231283197301,-0.00303971678454,0.571319098481,0.820719135052
1385566770723949985,400028,1385566770723949985,/world,vicon/Archie/Archie,0.423589969504,0.0347226520231,0.113803906108,0.00228852596918,-0.00275842764028,0.571355067763,0.820695156723
1385566770733988019,400029,1385566770733988019,/world,vicon/Archie/Archie,0.423589336122,0.0347190844642,0.113804211434,0.00230650661661,-0.00275717847278,0.571362509622,0.820689929628
1385566770744115986,400030,1385566770744115986,/world,vicon/Archie/Archie,0.42357906483,0.034721759922,0.113806168611,0.00231472674854,-0.00277621246878,0.571358360535,0.820692730887
1385566770754147361,400031,1385566770754147361,/world,vicon/Archie/Archie,0.42353339411,0.0347251174604,0.113810400254,0.00227099772064,-0.00274869999231,0.571375983792,0.820680676246
1385566770763720200,400032,1385566770763720200,/world,vicon/Archie/Archie,0.42354638297,0.0347337426809,0.113759446008,0.00238913327105,-0.00296597725583,0.571331345075,0.820710661047
1385566770773968272,400033,1385566770773968272,/world,vicon/Archie/Archie,0.423590353944,0.0347283246769,0.113807764468,0.00229137972148,-0.00276110324628,0.571366428643,0.820687230379
1385566770784013434,400034,1385566770784013434,/world,vicon/Archie/Archie,0.423593139672,0.034714835974,0.113794252018,0.00231405260116,-0.00276488867329,0.571359287869,0.820692125414
1385566770793992779,400035,1385566770793992779,/world,vicon/Archie/Archie,0.42358880514,0.0347241795611,0.113800757853,0.0022819134244,-0.00276571927869,0.571358270309,0.820692921023
1385566770804158228,400036,1385566770804158228,/world,vicon/Archie/Archie,0.42359715393,0.0347164659993,0.113800933449,0.00232469914688,-0.00277119498486,0.571357559091,0.820693277614
1385566770813976308,400037,1385566770813976308,/world,vicon/Archie/Archie,0.423597427029,0.0347193054053,0.113805698109,0.00233284744953,-0.00278929335264,0.571354028496,0.820695651132
1385566770823867257,400038,1385566770823867257,/world,vicon/Archie/Archie,0.423580314445,0.0347245975161,0.113804387864,0.00228133351458,-0.00274569090677,0.571359202424,0.820692340956
1385566770834048164,400039,1385566770834048164,/world,vicon/Archie/Archie,0.423581057454,0.0347295029325,0.113804034341,0.00227766778519,-0.00275319585271,0.571361195143,0.820690938677
1385566770844078465,400040,1385566770844078465,/world,vicon/Archie/Archie,0.423581299676,0.034724322159,0.113801243272,0.00230380607098,-0.00277405622778,0.571351806686,0.820697331595
1385566770854049346,400041,1385566770854049346,/world,vicon/Archie/Archie,0.423538960967,0.0347169548862,0.113821879505,0.00230287507952,-0.00277747203822,0.571370758578,0.82068412843
1385566770863932965,400042,1385566770863932965,/world,vicon/Archie/Archie,0.42358329816,0.0347177384926,0.113795619148,0.00230365725137,-0.00275605342241,0.571365483384,0.820687871075
1385566770874193353,400043,1385566770874193353,/world,vicon/Archie/Archie,0.423586083239,0.0347199347921,0.113807372988,0.00230401965814,-0.0027620861639,0.571362803489,0.820689715521
1385566770884025078,400044,1385566770884025078,/world,vicon/Archie/Archie,0.423518114625,0.0347221026288,0.113810060734,0.002304922945,-0.00276401166082,0.571376699222,0.820680032142
1385566770894071351,400045,1385566770894071351,/world,vicon/Archie/Archie,0.423585964041,0.0347101241704,0.113769234598,0.00233203297727,-0.00287665558874,0.571362651418,0.820689348682
1385566770904070939,400046,1385566770904070939,/world,vicon/Archie/Archie,0.423591935108,0.0347237523081,0.113801952853,0.00227903704841,-0.00274782332815,0.5713662868,0.820687408071
1385566770913928650,400047,1385566770913928650,/world,vicon/Archie/Archie,0.423577753787,0.0347281655589,0.113803841968,0.00227762493814,-0.0027179713981,0.571360462505,0.820691566267
1385566770924036212,400048,1385566770924036212,/world,vicon/Archie/Archie,0.423531578978,0.0347154917499,0.113813661856,0.00230807399124,-0.00278140482683,0.57137311355,0.820682460939
1385566770933976759,400049,1385566770933976759,/world,vicon/Archie/Archie,0.423555843522,0.0347432646259,0.11376972767,0.0023100218075,-0.00258598595341,0.571385191681,0.820674685368
1385566770944023793,400050,1385566770944023793,/world,vicon/Archie/Archie,0.423513784829,0.0347423127729,0.113727574454,0.00245259836568,-0.00284951729734,0.57134846074,0.820698971257
1385566770954087780,400051,1385566770954087780,/world,vicon/Archie/Archie,0.423576132629,0.0347229852418,0.113806272577,0.00228596628278,-0.00273593359592,0.571359532007,0.820692131198
1385566770963811274,400052,1385566770963811274,/world,vicon/Archie/Archie,0.423534230719,0.0347179729318,0.113809335999,0.00229471800752,-0.00276672569066,0.571373871231,0.8206820205
1385566770973987004,400053,1385566770973987004,/world,vicon/Archie/Archie,0.423596621382,0.0347210727264,0.113806851852,0.00229199824932,-0.0027500656677,0.571359242724,0.820692268537
1385566770983872916,400054,1385566770983872916,/world,vicon/Archie/Archie,0.423583807474,0.0347215990581,0.113808427891,0.00229322931927,-0.00275723255084,0.571357084072,0.820693743883
1385566770993961865,400055,1385566770993961865,/world,vicon/Archie/Archie,0.423589214879,0.0347172799908,0.113800964207,0.00229640978439,-0.00277553984741,0.571358414503,0.820692747048
1385566771004071910,400056,1385566771004071910,/world,vicon/Archie/Archie,0.423592691555,0.0347026343914,0.113778235853,0.00234810821983,-0.00289773310377,0.571360728591,0.820690567361
1385566771013926896,400057,1385566771013926896,/world,vicon/Archie/Archie,0.423589673702,0.0347185827825,0.113798334183,0.00232281749994,-0.00277514274717,0.571361964218,0.820690202785
1385566771023900472,400058,1385566771023900472,/world,vicon/Archie/Archie,0.42358891177,0.034719142231,0.113807987726,0.00230751866614,-0.00278519816774,0.571359478912,0.820691942135
1385566771034001661,400059,1385566771034001661,/world,vicon/Archie/Archie,0.423505035416,0.0347261003053,0.113781015497,0.0024447221324,-0.00301091647787,0.571331811337,0.82071000912
1385566771043991534,400060,1385566771043991534,/world,vicon/Archie/Archie,0.423601826993,0.0347208638424,0.113798840728,0.00232439035805,-0.00277994862638,0.571358685533,0.820692464667
1385566771053986600,400061,1385566771053986600,/world,vicon/Archie/Archie,0.423605566737,0.0347201047358,0.11379573489,0.00230819949914,-0.00276447867258,0.571352821492,0.82069664508
1385566771063971340,400062,1385566771063971340,/world,vicon/Archie/Archie,0.423554671704,0.0347488321708,0.113751808058,0.00221626209012,-0.00284201366322,0.57134119481,0.820704727813
1385566771073932113,400063,1385566771073932113,/world,vicon/Archie/Archie,0.423556060151,0.0347320326741,0.113763975962,0.00246571009187,-0.0029911607967,0.57131412252,0.820722332241
1385566771083985938,400064,1385566771083985938,/world,vicon/Archie/Archie,0.423596463182,0.0347178501262,0.113800442758,0.00234655756513,-0.00279620559808,0.571368442501,0.820685553556
1385566771094101917,400065,1385566771094101917,/world,vicon/Archie/Archie,0.42360438621,0.0347197894603,0.113804760101,0.00229683124865,-0.00276285556872,0.571352822129,0.820696681997
1385566771104074200,400066,1385566771104074200,/world,vicon/Archie/Archie,0.423604079406,0.0347185004228,0.113804155666,0.00232674776627,-0.00277467988516,0.571359768789,0.820691721662
1385566771113997003,400067,1385566771113997003,/world,vicon/Archie/Archie,0.423552198105,0.0347437175692,0.113758585023,0.00222477358798,-0.00283398203593,0.571355067017,0.820695075118
1385566771123925884,400068,1385566771123925884,/world,vicon/Archie/Archie,0.423565370782,0.0347357369472,0.113759449143,0.00245604428508,-0.00302879393199,0.57132905521,0.820711828188
1385566771134024043,400069,1385566771134024043,/world,vicon/Archie/Archie,0.423600654115,0.0347196180439,0.113798678884,0.00232804229383,-0.00277577599465,0.571357130378,0.820693551122
1385566771144013425,400070,1385566771144013425,/world,vicon/Archie/Archie,0.423548973545,0.0347182614756,0.113812941026,0.00231659595076,-0.00279927420308,0.571361714708,0.820690312123
1385566771153947441,400071,1385566771153947441,/world,vicon/Archie/Archie,0.423549865191,0.0347169475624,0.113811912484,0.00229873742394,-0.00280012080464,0.571384567755,0.820674448768
1385566771163888551,400072,1385566771163888551,/world,vicon/Archie/Archie,0.423553250093,0.0347155074131,0.113820730487,0.00231784569934,-0.00279670194033,0.5713720658,0.820683110873
1385566771173950164,400073,1385566771173950164,/world,vicon/Archie/Archie,0.423548711247,0.0347170354692,0.113821631455,0.00232541414498,-0.00279955752197,0.571377637178,0.82067920082
1385566771183987731,400074,1385566771183987731,/world,vicon/Archie/Archie,0.42354929552,0.0347195139679,0.113814920325,0.0023009966749,-0.00278727576178,0.571374262148,0.82068166122
1385566771194088921,400075,1385566771194088921,/world,vicon/Archie/Archie,0.423544053207,0.0347145563974,0.113814549503,0.00230039267209,-0.00280061276151,0.571360570986,0.820691149389
1385566771204074293,400076,1385566771204074293,/world,vicon/Archie/Archie,0.423555057529,0.0347015847154,0.113792914405,0.00236392066886,-0.00293003200596,0.571379947042,0.820677027161
1385566771213826020,400077,1385566771213826020,/world,vicon/Archie/Archie,0.423540185385,0.034715653655,0.113819195724,0.00230168075771,-0.00279701255364,0.571380614874,0.820677203249
1385566771224141607,400078,1385566771224141607,/world,vicon/Archie/Archie,0.423541616232,0.0347172612493,0.113822001446,0.00231880679592,-0.00280157811938,0.571371052399,0.820683797071
1385566771233963122,400079,1385566771233963122,/world,vicon/Archie/Archie,0.423545673658,0.0347151295077,0.113817218879,0.00230045544748,-0.00277538282531,0.571368946955,0.820685403557
1385566771244068908,400080,1385566771244068908,/world,vicon/Archie/Archie,0.423499029905,0.0347450386422,0.113765114235,0.00216761469268,-0.00283235113666,0.571356417028,0.820694293848
1385566771253952508,400081,1385566771253952508,/world,vicon/Archie/Archie,0.423543953336,0.034719253437,0.113820317559,0.00231601635349,-0.00280340463961,0.571373110813,0.820682365614
1385566771263983389,400082,1385566771263983389,/world,vicon/Archie/Archie,0.423537922455,0.0347143220684,0.113817952364,0.00232700006794,-0.00278041092526,0.571355221818,0.820694867102
1385566771274090748,400083,1385566771274090748,/world,vicon/Archie/Archie,0.42354198812,0.0347187723734,0.113816598131,0.00231156242128,-0.00278320986841,0.571368163737,0.820685891124
1385566771284157034,400084,1385566771284157034,/world,vicon/Archie/Archie,0.423535017601,0.0347525398452,0.113756460087,0.00217745210447,-0.00280549459431,0.571351786679,0.820697583621
1385566771294055135,400085,1385566771294055135,/world,vicon/Archie/Archie,0.423543320374,0.034700008244,0.113791850638,0.00238718014284,-0.00294880267875,0.57138607394,0.820672626838
1385566771304103915,400086,1385566771304103915,/world,vicon/Archie/Archie,0.423596639463,0.0347230936425,0.113807716029,0.00227668288782,-0.00275143829987,0.571350405772,0.820698458708
1385566771314023226,400087,1385566771314023226,/world,vicon/Archie/Archie,0.423559533333,0.0347379324669,0.113782308266,0.00236073803868,-0.0026169538433,0.571374094404,0.820682169121
1385566771324104099,400088,1385566771324104099,/world,vicon/Archie/Archie,0.423586003375,0.0347202513172,0.11381140809,0.00231956905912,-0.00276232698242,0.571355148127,0.820695000507
1385566771334005768,400089,1385566771334005768,/world,vicon/Archie/Archie,0.423581972705,0.0347297626654,0.113811710517,0.0022998026704,-0.00277018137735,0.571363294952,0.820689357908
1385566771344091242,400090,1385566771344091242,/world,vicon/Archie/Archie,0.423583042797,0.0347232272514,0.113807665777,0.00230181192142,-0.00276277858839,0.571352720322,0.820696739178
1385566771354022184,400091,1385566771354022184,/world,vicon/Archie/Archie,0.423574426787,0.0347063170852,0.11378232668,0.0023787190233,-0.00291986578346,0.571367738945,0.820685520143
1385566771364089055,400092,1385566771364089055,/world,vicon/Archie/Archie,0.42357867075,0.0347219226987,0.113816569923,0.00231123881908,-0.00276964786772,0.571352514759,0.820696832639
1385566771374030425,400093,1385566771374030425,/world,vicon/Archie/Archie,0.423565043716,0.0347160119419,0.113743736512,0.00243800505881,-0.00277042787151,0.571393292755,0.820668072886
1385566771384050741,400094,1385566771384050741,/world,vicon/Archie/Archie,0.423538637002,0.03475584739,0.113753530819,0.00215476754485,-0.00278836041027,0.571343101424,0.820703748303
1385566771394059648,400095,1385566771394059648,/world,vicon/Archie/Archie,0.423585592406,0.0347039502109,0.113785849728,0.00240012464964,-0.00293010912211,0.571365613577,0.820686901007
1385566771404025269,400096,1385566771404025269,/world,vicon/Archie/Archie,0.423580120413,0.0347256284233,0.11381441046,0.00231502456048,-0.0027776581206,0.571368477939,0.820685681424
1385566771414006318,400097,1385566771414006318,/world,vicon/Archie/Archie,0.423552848863,0.0347369641387,0.113768846237,0.00231864047954,-0.00259793423395,0.571373690127,0.82068263103
1385566771424043698,400098,1385566771424043698,/world,vicon/Archie/Archie,0.423529216534,0.0347323229088,0.113759665279,0.00241386504435,-0.00297158525623,0.571319217539,0.820719010751
1385566771433898788,400099,1385566771433898788,/world,vicon/Archie/Archie,0.423549403652,0.0347274583226,0.113770914204,0.00246041197002,-0.00302458367954,0.571315331313,0.820721384194
1385566771444031700,400100,1385566771444031700,/world,vicon/Archie/Archie,0.423583228096,0.0347192180702,0.113816488399,0.00231139837404,-0.00276837925345,0.571345883556,0.82070145294
1385566771454036282,400101,1385566771454036282,/world,vicon/Archie/Archie,0.423569319493,0.0347032560532,0.113785733108,0.00236219490846,-0.00291412244249,0.571363129099,0.820688797677
1385566771463788695,400102,1385566771463788695,/world,vicon/Archie/Archie,0.42352666245,0.0346943275655,0.113791336917,0.00241490519318,-0.00295794091059,0.571387156385,0.820671759193
1385566771474030918,400103,1385566771474030918,/world,vicon/Archie/Archie,0.423590606403,0.0347046672371,0.113787932638,0.00235351475605,-0.00289697967713,0.571362174868,0.820689547641
1385566771484071901,400104,1385566771484071901,/world,vicon/Archie/Archie,0.423587341375,0.0347218019882,0.113812557191,0.00229350871553,-0.0027458393125,0.571345043459,0.820702163698
1385566771494242704,400105,1385566771494242704,/world,vicon/Archie/Archie,0.423593695037,0.0347010290813,0.11377738818,0.00240108001489,-0.00292473069906,0.57135827379,0.820692027338
1385566771504117155,400106,1385566771504117155,/world,vicon/Archie/Archie,0.423533375818,0.0347108726456,0.113818401816,0.00236639733399,-0.00281814886021,0.57136813143,0.820685638102
1385566771513939119,400107,1385566771513939119,/world,vicon/Archie/Archie,0.423584250059,0.0347172607596,0.113812776224,0.00231007810358,-0.00276521279339,0.571352636237,0.820696766292
1385566771524164626,400108,1385566771524164626,/world,vicon/Archie/Archie,0.423536157612,0.0347136115645,0.113823449363,0.00230898280304,-0.00281280175232,0.571371878554,0.820683211198
1385566771533908179,400109,1385566771533908179,/world,vicon/Archie/Archie,0.423591354513,0.0347272208299,0.113807601761,0.00229365685024,-0.00276106557231,0.571346856679,0.820700849895
1385566771543987004,400110,1385566771543987004,/world,vicon/Archie/Archie,0.423584134014,0.0347124535088,0.113811360209,0.00232410583141,-0.00277475779357,0.571361551608,0.820690487696
1385566771554013762,400111,1385566771554013762,/world,vicon/Archie/Archie,0.423570480387,0.0347377277184,0.113770055071,0.00237440856304,-0.00262777584394,0.57137333087,0.820682626688
1385566771564048005,400112,1385566771564048005,/world,vicon/Archie/Archie,0.42355046419,0.0347252608343,0.113764648371,0.00243221024699,-0.00300228658246,0.571325144,0.820714719291
1385566771574103146,400113,1385566771574103146,/world,vicon/Archie/Archie,0.423592229947,0.0347181772121,0.113799698687,0.00232466597479,-0.00275838534792,0.57136125226,0.820690749707
1385566771584023010,400114,1385566771584023010,/world,vicon/Archie/Archie,0.423600472454,0.0347202354542,0.113812505007,0.00231333810595,-0.0027855310057,0.571358743127,0.82069243687
1385566771593970855,400115,1385566771593970855,/world,vicon/Archie/Archie,0.423541892352,0.0347004127666,0.113790361161,0.00236790909656,-0.00290613039596,0.571390743441,0.820669583768
1385566771603982425,400116,1385566771603982425,/world,vicon/Archie/Archie,0.423547346592,0.0346924354481,0.113790631458,0.00241030229426,-0.00295316272913,0.571381520883,0.820675713583
1385566771614238088,400117,1385566771614238088,/world,vicon/Archie/Archie,0.423546607411,0.0347045066719,0.1137288703,0.00253872839105,-0.00317686127642,0.571341905404,0.82070207112
1385566771624006168,400118,1385566771624006168,/world,vicon/Archie/Archie,0.423602188396,0.0347016503057,0.1137847856,0.00236226246898,-0.00290236331717,0.571360702403,0.820690528612
1385566771633811837,400119,1385566771633811837,/world,vicon/Archie/Archie,0.423595410315,0.0347186573278,0.113815843392,0.00231338431427,-0.00277770881815,0.571362062035,0.820690152648
1385566771644036330,400120,1385566771644036330,/world,vicon/Archie/Archie,0.423518391294,0.0347248961652,0.113777551221,0.0023654579504,-0.00263361186918,0.57139423786,0.820668077628
1385566771654089427,400121,1385566771654089427,/world,vicon/Archie/Archie,0.423586816759,0.0347247076837,0.11380644713,0.00230724077959,-0.00275405312771,0.571352055823,0.820697215871
1385566771663950248,400122,1385566771663950248,/world,vicon/Archie/Archie,0.423597164702,0.0347041241317,0.113782929346,0.00235292244285,-0.00289065250844,0.571370122043,0.820684038788
1385566771674238247,400123,1385566771674238247,/world,vicon/Archie/Archie,0.423596284625,0.0347200969418,0.113807074115,0.00229110169,-0.00275056713182,0.571352143167,0.820697211968
1385566771683952700,400124,1385566771683952700,/world,vicon/Archie/Archie,0.423604689753,0.03470217735,0.113775815442,0.00235741768232,-0.00292517307479,0.571376528819,0.820679443059
1385566771694035467,400125,1385566771694035467,/world,vicon/Archie/Archie,0.42358975114,0.0347192073953,0.113819575296,0.00232247848578,-0.0027658905706,0.571356717381,0.820693887785
1385566771704251033,400126,1385566771704251033,/world,vicon/Archie/Archie,0.423591879319,0.0347210493211,0.113815649875,0.00232680280718,-0.00277710644031,0.571354503081,0.820695379223
1385566771714039171,400127,1385566771714039171,/world,vicon/Archie/Archie,0.423603472268,0.0347205153855,0.113808498253,0.00233330793599,-0.00277740443302,0.571354899994,0.820695083421
1385566771724223286,400128,1385566771724223286,/world,vicon/Archie/Archie,0.423549370117,0.0347135156702,0.113821226758,0.00231516466087,-0.00278545058218,0.571375587989,0.820680704494
1385566771734006580,400129,1385566771734006580,/world,vicon/Archie/Archie,0.423596955163,0.0347194094254,0.113805895545,0.00234437661089,-0.00278113171221,0.571358092271,0.820692816833
