%time,field.linear.x,field.linear.y,field.linear.z,field.angular.x,field.angular.y,field.angular.z
1385571333138571273,-0.0,0.0,0.0,1.0,0.0,0.0
1385571333629747447,-0.0,0.0,1.0388344446e-07,1.0,0.0,0.283690762114
1385571334128502339,-0.421996825619,-0.514797085183,-0.00145805293183,1.0,0.0,0.0781979648319
1385571334628514538,-0.110508283171,-0.135200389981,0.0218358847673,1.0,0.0,0.00603771487996
1385571335128516668,0.135021749513,0.165778572582,0.0452088115791,1.0,0.0,0.0038009782818
1385571335627537653,0.0672222261176,0.0821092989796,0.0711965355605,1.0,0.0,0.00890391330987
1385571336128596171,-0.11363041462,-0.1262728378,0.0968839736005,1.0,0.0,0.00813050368236
1385571336627690763,-0.132097483439,-0.168482160048,0.0982780399458,1.0,0.0,0.01290072826
1385571337128693617,-0.0741237920092,-0.0376870101154,0.115761772557,1.0,0.0,0.0147302275281
1385571337628760141,-0.0524037926389,0.0847523969146,0.116588065625,1.0,0.0,0.0143961797905
1385571338128510720,-0.0386236234395,0.127458405815,0.135718763609,1.0,0.0,0.0125107460476
1385571338627467225,-0.0233913903073,0.0822899506933,0.152492786887,1.0,0.0,0.0154597022259
1385571339128605566,-0.0254971787285,0.00975929164764,0.142746727209,1.0,0.0,0.0217698077617
1385571339628530065,-0.0344621978,-0.0383275261426,0.12747454932,1.0,0.0,0.0283539165763
1385571340128659171,-0.0454879572337,-0.0466673753201,0.108047866935,1.0,0.0,0.0358049295525
1385571340628529590,-0.0588693981159,-0.00991571107544,0.097207428664,1.0,0.0,0.0434936314524
1385571341128486286,-0.0645671433776,0.0433725707507,0.0876300601481,1.0,0.0,0.0509232422836
1385571341628631266,-0.0531711819975,0.074353822748,0.0742651367574,1.0,0.0,0.0574703290695
1385571342128564176,-0.0299225776855,0.0752594646184,0.0597621842682,1.0,0.0,0.0609908761409
1385571342628683151,-0.00580767830034,0.0483940124896,0.0461289104653,1.0,0.0,0.0617404028396
1385571343128563969,0.00294509713353,0.00340656891646,0.0361617031148,1.0,0.0,0.0626884304337
1385571343628533419,-0.00946934050848,-0.0398875878653,0.0296844442935,1.0,0.0,0.0664002858599
1385571344128438780,-0.0344021503226,-0.0524951077699,0.0261758794942,1.0,0.0,0.0726733939318
1385571344629680436,-0.0584092445957,-0.0204842415826,0.0247377370745,1.0,0.0,0.0776935871834
1385571345128462572,-0.0614779149,0.0304688917058,0.0271629191762,1.0,0.0,0.0816244160108
1385571345628634898,-0.0366284947339,0.0694742545477,0.0311563964918,1.0,0.0,0.0852995858955
1385571346128617781,0.00273209589755,0.0579840477197,0.028499334843,1.0,0.0,0.090721218424
1385571346628476776,0.0319548418638,0.00477266312487,0.0199590454352,1.0,0.0,0.0961089307072
1385571347128566743,0.0279904818932,-0.058436503868,0.0121468862124,1.0,0.0,0.100340031366
1385571347627549060,-0.00700684622211,-0.0865183070655,0.00315935914198,1.0,0.0,0.0990274498324
1385571348128436936,-0.0610330965047,-0.0578850361202,0.00213211457814,1.0,0.0,0.0916052110478
1385571348628711746,-0.0963865471789,0.0254255380047,0.0122590278187,1.0,0.0,0.0828032125994
1385571349128523989,-0.0553229204337,0.116210229256,0.0293575007237,1.0,0.0,0.0784989110896
1385571349628735278,0.038236420953,0.126427597524,0.0315755349841,1.0,0.0,0.0812896982026
1385571350128745484,0.100257661415,0.0366494879018,0.0208052398618,1.0,0.0,0.0888551584018
1385571350628776437,0.0910099879904,-0.0881796455335,0.00684852189991,1.0,0.0,0.0949364398573
1385571351128817819,0.0207556839799,-0.162676033894,-0.00631274631447,1.0,0.0,0.0943690928022
1385571351628768228,-0.0922813696233,-0.120417071126,-0.00666221531449,1.0,0.0,0.0850521550118
1385571352129000664,-0.161314645641,0.029691155615,-0.000126425912986,1.0,0.0,0.0750363514266
1385571352628861590,-0.103703511869,0.181511168783,0.00707210307188,1.0,0.0,0.0641165729265
1385571353128782558,0.0433757455441,0.199476676557,0.0134605408439,1.0,0.0,0.0554914413092
1385571353628763418,0.155867392983,0.0731529015804,0.0134501025172,1.0,0.0,0.053692826922
1385571354128907571,0.154003781877,-0.106359061201,0.0103317873006,1.0,0.0,0.06042605219
1385571354628745856,0.0435701934486,-0.231092102578,-0.00163044980727,1.0,0.0,0.0632116269614
1385571355128834496,-0.104891850547,-0.203552988312,-0.000144735868664,1.0,0.0,0.0571926686555
1385571355628988016,-0.186194287353,-0.0328376638345,0.0095146647478,1.0,0.0,0.0513367193885
1385571356128751901,-0.130142421564,0.143616392476,0.0122409148579,1.0,0.0,0.046519961526
1385571356628819175,0.00707141413238,0.216045886448,0.00397573607857,1.0,0.0,0.0389432630467
1385571357128942581,0.130179177089,0.140072659882,0.000765175271788,1.0,0.0,0.0334168509412
1385571357628788553,0.162469851644,-0.0331541186998,0.000454937794245,1.0,0.0,0.0355053391386
1385571358129009704,0.0794589910845,-0.191377131394,-0.00391017998527,1.0,0.0,0.0446817548506
1385571358628773682,-0.0449493110923,-0.224362105033,-0.00822486482699,1.0,0.0,0.0475728636357
1385571359128857881,-0.151464390363,-0.105708547706,0.00232749451326,1.0,0.0,0.044884771877
1385571359628741699,-0.155616137365,0.0844248806006,0.0098745921972,1.0,0.0,0.0412204866541
1385571360128794693,-0.0463020358565,0.207467711415,0.00513477210913,1.0,0.0,0.0380587846264
1385571360628788617,0.103700260507,0.189021477193,0.00122967798262,1.0,0.0,0.0346057642761
1385571361128873355,0.186052633216,0.0397578097042,0.0018342212387,1.0,0.0,0.0351899757332
1385571361628823765,0.140014088995,-0.148805282061,0.00132237599938,1.0,0.0,0.0359954849815
1385571362128739321,0.0014073729807,-0.241349328474,0.00251888741587,1.0,0.0,0.0336206744584
1385571362627813232,-0.135390901488,-0.160203784918,0.00852115857806,1.0,0.0,0.0287120011298
1385571363128794267,-0.182185429878,0.0183760778835,0.0122278690401,1.0,0.0,0.0234735526646
1385571363628846811,-0.105384958267,0.162895246521,0.0162971568459,1.0,0.0,0.0220597986048
1385571364128859094,0.0509856790287,0.188306799207,0.00247426376672,1.0,0.0,0.0247574571376
1385571364628773621,0.157327038784,0.102235184814,-0.00614500873662,1.0,0.0,0.028637939251
1385571365128821263,0.1628391387,-0.0602230535774,-0.00694000442453,1.0,0.0,0.0346099273628
1385571365629008701,0.045959594849,-0.200193541051,-0.00649267400405,1.0,0.0,0.0404678601661
1385571366128853444,-0.103901529223,-0.195083483594,-0.0059537940951,1.0,0.0,0.0435466794685
1385571366628810754,-0.185256881872,-0.053922801819,0.00286846308367,1.0,0.0,0.0430734886601
1385571367128962367,-0.14446319679,0.141146293941,0.0147023915221,1.0,0.0,0.0434224816461
1385571367628883598,0.0106824293571,0.244457159951,0.0057675742543,1.0,0.0,0.0427899744112
1385571368128838617,0.162069407195,0.180166698449,0.00190040286693,1.0,0.0,0.0391531621353
1385571368628880878,0.193699909435,-0.012265153722,0.00301002439178,1.0,0.0,0.0394586589837
1385571369128926782,0.0974489882182,-0.192074401583,-0.00316854451914,1.0,0.0,0.0396335295715
1385571369628835282,-0.0517807569647,-0.239113918442,-0.00609491813436,1.0,0.0,0.0388351312276
1385571370128829862,-0.172019551443,-0.117928682683,0.0035644637359,1.0,0.0,0.0380649471631
1385571370628808926,-0.178555848838,0.0875084038004,0.00943737449997,1.0,0.0,0.0358499553961
1385571371128995247,-0.0613430981207,0.217912322584,0.00537507913852,1.0,0.0,0.033029148829
1385571371628789184,0.0866143177032,0.187507092704,-0.00256534270151,1.0,0.0,0.0303774759169
1385571372128841972,0.16972170819,0.0417394010025,-0.00527352925265,1.0,0.0,0.0286112813506
1385571372628873440,0.138333836828,-0.125543647056,-0.00574436587075,1.0,0.0,0.0304286476836
1385571373128824876,0.00176138318536,-0.209329636946,-0.00771139889586,1.0,0.0,0.0366975954578
1385571373628855283,-0.127887720735,-0.165229632352,-0.0074739164324,1.0,0.0,0.0413986283051
1385571374128872642,-0.185516907342,0.00202944475866,0.00636498151406,1.0,0.0,0.0437838530338
1385571374628848168,-0.105874383059,0.192492345878,0.0117999277077,1.0,0.0,0.043092614331
1385571375128850945,0.0550665105414,0.242243142531,0.00435308275382,1.0,0.0,0.0414990203655
1385571375628889620,0.174837627846,0.11792971989,0.00109304299391,1.0,0.0,0.0385868104467
1385571376128851641,0.171107426455,-0.0886376593223,-0.00187809834885,1.0,0.0,0.0353348361057
1385571376628882777,0.0465372647135,-0.221020256233,-0.00537129919644,1.0,0.0,0.0314943738913
1385571377128819671,-0.103890461586,-0.207244391872,-0.00749810777624,1.0,0.0,0.027192874281
1385571377628799101,-0.188648301083,-0.0677187270096,0.00398871622491,1.0,0.0,0.0256391800823
1385571378128800679,-0.150062481463,0.123895088744,0.0126454340587,1.0,0.0,0.0260545168592
1385571378628785495,-0.019754835862,0.220871672523,0.00462578580122,1.0,0.0,0.0275962115579
1385571379128717968,0.0937889305825,0.172181834915,-0.000477836045716,1.0,0.0,0.0276287430613
1385571379628918497,0.151291809802,0.00247311369337,-0.00618225762952,1.0,0.0,0.0289826742504
1385571380128923754,0.0966535960394,-0.178110610666,-0.0116205327326,1.0,0.0,0.0300977894044
1385571380628831671,-0.0373655868231,-0.238052769917,-0.016626628686,1.0,0.0,0.0335923070194
1385571381128792270,-0.143816083234,-0.142509833713,-0.0049626296603,1.0,0.0,0.0344981060908
1385571381628779855,-0.180243622675,0.0534613567944,0.0130292478242,1.0,0.0,0.0351371535689
1385571382128905520,-0.0955029647706,0.20677478664,0.0175088520933,1.0,0.0,0.0355028498727
1385571382628755110,0.0410756788109,0.216077822857,0.0112064790151,1.0,0.0,0.0370164854444
1385571383128770714,0.14198748154,0.0933207360458,0.00540767803749,1.0,0.0,0.038316662841
1385571383628822131,0.147164394146,-0.0958404768635,-0.00575376546681,1.0,0.0,0.0408772986325
1385571384128901059,0.0453073436298,-0.220475322203,-0.0141791728288,1.0,0.0,0.0429477343271
1385571384628779958,-0.0964269584503,-0.199441562091,-0.00703134527589,1.0,0.0,0.0396166058516
1385571385128767826,-0.198992773586,-0.0309003675671,0.00709688550159,1.0,0.0,0.0375421769865
1385571385628901193,-0.1686190684,0.163802467562,0.0184548188007,1.0,0.0,0.0368110313643
1385571386128745449,-0.0154399186532,0.250689752818,0.0112228364478,1.0,0.0,0.0388719012318
1385571386628845185,0.134609629499,0.173359850591,0.00903214281929,1.0,0.0,0.0393928191127
1385571387128878626,0.196439558133,-0.0246193544434,0.000456742788223,1.0,0.0,0.0406839672316
1385571387628768621,0.11979812469,-0.209139154991,-0.0106063966577,1.0,0.0,0.0392199917416
1385571388128882489,-0.0556512801735,-0.241719419256,-0.0113706438487,1.0,0.0,0.0330594402215
1385571388628898307,-0.198153903731,-0.100347157812,-0.000589948640114,1.0,0.0,0.0272942231356
1385571389128941648,-0.198671201065,0.0920248973443,0.00684409256636,1.0,0.0,0.0249684141658
1385571389628765082,-0.079275911306,0.206183583068,0.00861137808379,1.0,0.0,0.0239135388717
1385571390128932324,0.0613516935312,0.1749805736,3.87776279128e-05,1.0,0.0,0.0302675697767
1385571390629024423,0.131410873173,0.0563172692109,-0.00571507292953,1.0,0.0,0.0380522981226
1385571391128874231,0.124209234511,-0.112915541387,-0.010847385099,1.0,0.0,0.0476584504867
1385571391628772038,0.0128922156631,-0.22444793964,-0.0136100308461,1.0,0.0,0.0503721957409
1385571392128791282,-0.123972211911,-0.164014351944,-0.00604333826521,1.0,0.0,0.0454761885428
1385571392628819074,-0.193203635834,0.0246975569317,0.00492157359374,1.0,0.0,0.0424371437272
1385571393128955021,-0.134229642024,0.206825338725,0.0137340462262,1.0,0.0,0.0416357834966
1385571393628864337,0.0260166981204,0.242534064162,0.00979503087444,1.0,0.0,0.0473349540558
1385571394128802170,0.164216157211,0.125697356835,0.00472033391247,1.0,0.0,0.0491410913313
1385571394628777413,0.198691254345,-0.0813398211853,-0.00435256050439,1.0,0.0,0.0486785956645
1385571395128741680,0.081219867335,-0.2363749986,-0.0122037449389,1.0,0.0,0.0440871513198
1385571395628800953,-0.111878316984,-0.218003219262,-0.00983970666727,1.0,0.0,0.0354849416905
1385571396128744913,-0.221399181693,-0.0550567760893,-0.00040825839622,1.0,0.0,0.028714388885
1385571396628890248,-0.177131823338,0.117783427613,0.00892798133444,1.0,0.0,0.0259952591533
1385571397128948534,-0.0390365563833,0.204918831713,0.0106573695791,1.0,0.0,0.0232002819608
1385571397628808079,0.0952564911298,0.138282913142,0.00217728392623,1.0,0.0,0.0303091337972
1385571398128796291,0.133453524617,-0.0135237163095,-0.00464300006073,1.0,0.0,0.0441847872677
1385571398627865499,0.0690437372421,-0.177060693788,-0.0129099663416,1.0,0.0,0.0551894170822
1385571399128776124,-0.0379654686972,-0.209413714894,-0.0180034836262,1.0,0.0,0.0555204043681
1385571399628790708,-0.144128099995,-0.0821434445849,-0.00562051212439,1.0,0.0,0.0495513155157
1385571400128988011,-0.154541076374,0.108238566177,0.00657759942563,1.0,0.0,0.043749617618
1385571400628756287,-0.0453469292081,0.224472476421,0.015730351727,1.0,0.0,0.043246337375
1385571401128891224,0.0954374003971,0.174772847886,0.0133043878123,1.0,0.0,0.0538447473472
1385571401628918601,0.178000948045,0.00375992442808,0.00382179218303,1.0,0.0,0.058870208713
1385571402128824195,0.138463076209,-0.181984516472,-0.00825075555814,1.0,0.0,0.05642529182
1385571402628721000,0.00132009033695,-0.230929876809,-0.0123287866797,1.0,0.0,0.0482202284842
1385571403128850942,-0.140390957886,-0.112027885936,-0.00490500186751,1.0,0.0,0.039612203126
1385571403628748855,-0.17251773518,0.0744443714521,-0.00194016465093,1.0,0.0,0.0342717685081
1385571404128795729,-0.0913867053682,0.199830482712,-0.00372194425261,1.0,0.0,0.0307178250926
1385571404628918061,0.0505666687267,0.157659945744,0.000379558106882,1.0,0.0,0.0420717413548
1385571405129020201,0.129825158147,-0.010549402433,-0.00575562608204,1.0,0.0,0.056057954454
1385571405628821835,0.101813058245,-0.180519356088,-0.012244557225,1.0,0.0,0.0629393691294
1385571406128973685,0.00133413986568,-0.211801771785,-0.0118627287742,1.0,0.0,0.0586789088822
1385571406628820916,-0.122368838325,-0.0737271458077,-0.000936992879204,1.0,0.0,0.0528200936947
1385571407128864725,-0.157394250304,0.11934287051,0.00169982233239,1.0,0.0,0.050653193149
1385571407628793637,-0.0848805621302,0.242167365587,0.000967593502516,1.0,0.0,0.0496320568639
1385571408128754101,0.0492309532815,0.174124442056,0.00672906743637,1.0,0.0,0.0609519273483
1385571408628971944,0.134628500417,-0.0238489124126,0.00955748330428,1.0,0.0,0.06928716928
1385571409128884914,0.10496571116,-0.206031261982,-0.00391855654031,1.0,0.0,0.0714364380499
1385571409628827766,-0.00855968643732,-0.224726327228,-0.00755814709619,1.0,0.0,0.063831052159
1385571410128934327,-0.136843747835,-0.0741845409847,0.00303763454926,1.0,0.0,0.0565687394886
1385571410629035573,-0.166798230878,0.122629952848,0.00762271550611,1.0,0.0,0.0552409504878
1385571411128836741,-0.0788934663624,0.249748290206,0.000835614112559,1.0,0.0,0.0508985984366
1385571411628924943,0.0670438299312,0.201001293284,0.00786095925758,1.0,0.0,0.0545360652211
1385571412128909807,0.153687991993,0.0174071820401,0.00942217747192,1.0,0.0,0.0617672006384
1385571412628761563,0.125912454647,-0.186220186109,-0.00332310772507,1.0,0.0,0.0657871919648
1385571413128860153,0.015999576026,-0.24723151413,-0.0103922402253,1.0,0.0,0.0602633217922
1385571413628915091,-0.11976793075,-0.120090742919,-0.000495774617382,1.0,0.0,0.0519052740007
1385571414129205461,-0.159500069646,0.0803480136742,0.00374033527591,1.0,0.0,0.0488238319947
1385571414629061721,-0.0893202342475,0.214715845722,-0.00227126401061,1.0,0.0,0.0482956200792
1385571415129048168,0.0512642226724,0.203125287793,-0.000796431853544,1.0,0.0,0.044977279497
1385571415629067009,0.151325062708,0.0529379704558,0.00308549068421,1.0,0.0,0.05376561625
1385571416129028111,0.139977149224,-0.139487744786,-0.00676836555551,1.0,0.0,0.0627480527821
1385571416629137603,0.043973220546,-0.2342424687,-0.0122500831729,1.0,0.0,0.0619850188637
1385571417129051779,-0.0986299285519,-0.148083104423,-0.001555744443,1.0,0.0,0.0539910177221
1385571417629126116,-0.16482570954,0.0372146452857,0.00506899364053,1.0,0.0,0.0484090778213
1385571418129155716,-0.106690493536,0.170212892396,0.00448903655133,1.0,0.0,0.0461518000891
1385571418629070917,0.0291910311843,0.19757705568,0.00244739552807,1.0,0.0,0.0425083684659
1385571419129109865,0.141861785848,0.0910668722205,0.00465499633525,1.0,0.0,0.0494598782618
1385571419629117371,0.15197844867,-0.0804031979058,-0.00519949788655,1.0,0.0,0.0585017806815
1385571420129128151,0.0771018013802,-0.203034156197,-0.0142143850996,1.0,0.0,0.0589483061202
1385571420629130962,-0.0531389476191,-0.184573306234,-0.0052946254087,1.0,0.0,0.0504149361341
1385571421129109329,-0.159999556605,-0.0274493765024,0.00397816451937,1.0,0.0,0.0417571615367
1385571421629176908,-0.149399210698,0.128837058654,0.00614470302393,1.0,0.0,0.0346635902016
1385571422129124498,-0.0355652353228,0.191800571301,0.00590829175609,1.0,0.0,0.0308381119899
1385571422629191030,0.100788251452,0.124947202808,0.00512342035985,1.0,0.0,0.0359433898785
1385571423129318681,0.1487026193,-0.0175989630505,0.00120443242614,1.0,0.0,0.0490530880721
1385571423629288462,0.0986229962474,-0.161575283232,-0.00880790108498,1.0,0.0,0.0573026632779
1385571424129208121,-0.00611057149662,-0.195574243241,-0.00840994300779,1.0,0.0,0.0542017212817
1385571424629319177,-0.123495974232,-0.0767410813626,-0.000436934192696,1.0,0.0,0.0436117221246
1385571425129161399,-0.158881455818,0.0911035404275,0.00219195624515,1.0,0.0,0.0349999947469
1385571425629290519,-0.0780293502623,0.187076198376,0.0116474608786,1.0,0.0,0.0333611941266
1385571426129359508,0.0710838610559,0.163309496508,0.0131777270242,1.0,0.0,0.0412526573739
1385571426629138749,0.148138314813,0.0266826608383,0.00928557610992,1.0,0.0,0.0549160097338
1385571427129133931,0.111883486334,-0.152209962657,-0.00672999644599,1.0,0.0,0.0627772336905
1385571427629272279,0.00873936913638,-0.217754173224,-0.0128530433312,1.0,0.0,0.0579738277732
1385571428129239904,-0.118321313411,-0.115807094584,-0.00542747795222,1.0,0.0,0.0462907530549
1385571428629133694,-0.161613704436,0.0571656303109,-0.00224381870797,1.0,0.0,0.0364566478929
1385571429129133550,-0.0992716407986,0.172531774164,-0.00161793934733,1.0,0.0,0.0306102002843
1385571429628138278,0.0246748272931,0.16824046738,0.00403894441521,1.0,0.0,0.0299266927935
1385571430129130144,0.11810141351,0.0536688840573,0.00426794657601,1.0,0.0,0.0432005745617
1385571430629143462,0.123754837468,-0.0985293001834,-0.00814827993798,1.0,0.0,0.0581552390853
1385571431129260015,0.0535148716581,-0.179907560106,-0.0169559561209,1.0,0.0,0.0616271120639
1385571431628201594,-0.0709638528283,-0.120478341828,-0.00755403923424,1.0,0.0,0.0519443507157
1385571432129306858,-0.153091026491,0.0432267510695,-0.000779821388836,1.0,0.0,0.0397135877108
1385571432629077681,-0.123574178649,0.167764868888,0.00233978384503,1.0,0.0,0.0294084061926
1385571433129198103,-0.00719883836519,0.18801582503,0.0152723374513,1.0,0.0,0.0263588973943
1385571433629138401,0.105473176353,0.0869205798326,0.0236718289823,1.0,0.0,0.040642268924
1385571434129175837,0.137689647125,-0.0830819569612,0.00109594826668,1.0,0.0,0.0562175660697
1385571434629120261,0.087520205508,-0.195983903174,-0.0149470495503,1.0,0.0,0.0592521404955
1385571435129070987,-0.0434861083884,-0.146498389528,-0.0115137465806,1.0,0.0,0.0544781470272
1385571435629238279,-0.145528278829,0.0224102856629,-0.00592735242394,1.0,0.0,0.0486102075881
1385571436129341888,-0.136433839766,0.178668964587,-0.00597914032529,1.0,0.0,0.0410742966946
1385571436629238780,-0.0313078291044,0.206855583506,0.00508117548986,1.0,0.0,0.0371764975743
1385571437129310637,0.0836397900515,0.0904448536545,0.0202818498049,1.0,0.0,0.0492930841992
1385571437629021246,0.131278448651,-0.0894428741184,0.00727054841963,1.0,0.0,0.0636895561463
1385571438129186804,0.101738287114,-0.213725181555,-0.0127556951977,1.0,0.0,0.0650850543877
1385571438628100509,-0.0241340385003,-0.160668316889,-0.00710099202477,1.0,0.0,0.0591225690386
1385571439129281789,-0.128191435867,0.0235217153392,-0.00333792204961,1.0,0.0,0.051982337509
1385571439629131246,-0.121347678194,0.180099185816,-0.010792678651,1.0,0.0,0.0436070178879
1385571440129054268,-0.0345836978338,0.203468636611,-0.00689550459455,1.0,0.0,0.0373825057909
1385571440629107793,0.0736970650327,0.0886045950367,0.0102405869809,1.0,0.0,0.0401877426015
1385571441129153412,0.125485254318,-0.0763138265247,0.00780649933523,1.0,0.0,0.0525747981702
1385571441629160681,0.106818998242,-0.205711872868,-0.0140763343689,1.0,0.0,0.0548960722603
1385571442129044786,-0.00632928872542,-0.16961784937,-0.00462712942922,1.0,0.0,0.0507489298284
1385571442629063614,-0.107794434152,-0.00442385754318,0.00117688891084,1.0,0.0,0.0461842039401
1385571443128130038,-0.10815262191,0.140743736483,-0.00202351560904,1.0,0.0,0.0432103222738
1385571443629193734,-0.0324789958422,0.179578861932,-0.00694957078624,1.0,0.0,0.0405571014634
1385571444129150859,0.0627170031217,0.102143689262,-0.000718796757648,1.0,0.0,0.0386484017135
1385571444629314258,0.107863855927,-0.0396556313576,0.00699551341627,1.0,0.0,0.0446376192746
1385571445129162640,0.0797336876,-0.170745311641,-0.00390062569191,1.0,0.0,0.0447963940183
1385571445629153517,-0.0273012454466,-0.166126859337,0.00156652033693,1.0,0.0,0.0397015994333
1385571446129153792,-0.111182092138,-0.0399673330565,0.00503389938485,1.0,0.0,0.0343092150811
1385571446629079071,-0.103928175919,0.0922088196351,0.000718975490671,1.0,0.0,0.0312784513928
1385571447129076719,-0.0231774059976,0.148266319803,-0.00546322351005,1.0,0.0,0.0336626474752
1385571447629107547,0.0752909612269,0.100913843118,-0.00643526721598,1.0,0.0,0.0374876702667
1385571448129114991,0.121155768221,-0.0146528323097,-0.000204885985764,1.0,0.0,0.0425436557338
1385571448629127258,0.0730719176127,-0.129174977458,-0.00120097713682,1.0,0.0,0.0451522056752
1385571449129168185,-0.0296375411096,-0.153836951895,-0.00102556020888,1.0,0.0,0.0430535379646
1385571449629113472,-0.105106959596,-0.0470766110073,0.00270740101657,1.0,0.0,0.0399801246357
1385571450129085989,-0.0994338548456,0.0983802629761,-0.00144897758532,1.0,0.0,0.0384848895211
1385571450629250801,-0.0212830745348,0.165332588953,-0.0058507594212,1.0,0.0,0.0392747013614
1385571451129073233,0.0831649017512,0.117263915698,-0.00532011069314,1.0,0.0,0.0401454999246
1385571451629147222,0.118617903438,-0.013516327434,0.00165688159988,1.0,0.0,0.0422248220896
1385571452129183282,0.063421557949,-0.14479798364,-0.00238866244873,1.0,0.0,0.0415406141117
1385571452629141297,-0.0325937501991,-0.175940583285,-9.42643472397e-06,1.0,0.0,0.0395059084508
1385571453129073970,-0.0930074449045,-0.080133265183,0.00796299779449,1.0,0.0,0.0417547018801
1385571453629116457,-0.0845819040314,0.0735251966405,0.00649692620059,1.0,0.0,0.0464624908074
1385571454129163438,-0.0169482692305,0.178070495256,-0.00276742129017,1.0,0.0,0.0506531980311
1385571454629074280,0.0702397335293,0.158710156451,-0.00673612844602,1.0,0.0,0.0517970071951
1385571455129284324,0.116510886874,0.0197118740927,0.00144350535209,1.0,0.0,0.0520335575763
1385571455628197310,0.0840064135843,-0.149694220824,0.00133261201083,1.0,0.0,0.0478123236502
1385571456129277303,-0.0195318959651,-0.211000742906,0.00331850316368,1.0,0.0,0.0412649864508
1385571456629076250,-0.109653617091,-0.107659081355,0.00942475178453,1.0,0.0,0.0374024195915
1385571457129154963,-0.117572401807,0.0604418159274,0.0101075210705,1.0,0.0,0.0373955353481
1385571457629156635,-0.0435197033814,0.169776412065,0.00118154765981,1.0,0.0,0.0416156433873
1385571458129054130,0.0517193144325,0.163203472017,-0.00623612896864,1.0,0.0,0.0443006690693
1385571458629159801,0.113457936924,0.0440843761713,-0.00289545419212,1.0,0.0,0.0440779218718
1385571459129172815,0.0782124594606,-0.113425741248,0.000775428465221,1.0,0.0,0.0416371550526
1385571459629328559,-0.0224399292457,-0.186526833656,0.000214271900668,1.0,0.0,0.036985050304
1385571460129200916,-0.107102317625,-0.11863627343,0.000730276100573,1.0,0.0,0.035241725634
1385571460629095003,-0.11423144546,0.0160900885491,0.00716266817856,1.0,0.0,0.0359229488302
1385571461129149106,-0.0415496837019,0.136024555585,0.00467490351608,1.0,0.0,0.0392036776421
1385571461629237628,0.0540391099745,0.162934299224,-0.00522586418025,1.0,0.0,0.0395405975149
1385571462129148944,0.11354417126,0.0653655340126,-0.0090021122108,1.0,0.0,0.0368056998571
1385571462629088803,0.084639822982,-0.0810360440929,-0.00759255889799,1.0,0.0,0.0338674579873
1385571463129128429,-0.000710023299835,-0.17211998429,-0.00664397616313,1.0,0.0,0.0296726773587
1385571463629174936,-0.0818452065646,-0.141031122303,-6.29813103634e-05,1.0,0.0,0.0272585298519
1385571464129221470,-0.105273420295,-0.0193429733088,0.00657585743768,1.0,0.0,0.0275525520827
1385571464629166178,-0.0566571720189,0.087620373246,0.0102749154374,1.0,0.0,0.0310601559262
1385571465128596599,0.017790497078,0.118662911345,0.00230657332323,1.0,0.0,0.0339642132461
1385571465629150985,0.078169214279,0.0691500331821,-0.00694193799978,1.0,0.0,0.0338042352301
1385571466129145788,0.0903171047396,-0.0349181933666,-0.0103678142468,1.0,0.0,0.0327805357125
1385571466629151616,0.0361196869368,-0.12276930311,-0.011165879047,1.0,0.0,0.0317202265746
1385571467129173614,-0.0498125612835,-0.131445297384,-0.00543207169891,1.0,0.0,0.0308790995139
1385571467629294518,-0.096301465211,-0.0540645465905,0.002336567584,1.0,0.0,0.0308977835106
1385571468129177899,-0.0717139651647,0.0500622494884,0.00731065403768,1.0,0.0,0.0336592290985
1385571468629163278,-0.00281574980702,0.112260649815,0.00483177216061,1.0,0.0,0.0384038021211
1385571469129158399,0.0584059522601,0.0957134290049,-0.000660712474905,1.0,0.0,0.0422379169704
1385571469629079900,0.082777878202,0.00878887039253,-0.0038239219289,1.0,0.0,0.0421896135432
1385571470129312307,0.0487300365726,-0.0928480781136,-0.00383243903345,1.0,0.0,0.0382194257547
1385571470629180575,-0.0245876214834,-0.130331716013,-0.00237872839854,1.0,0.0,0.03299795495
1385571471129187879,-0.0793510658709,-0.0754701042113,-0.00151600603786,1.0,0.0,0.029560206604
1385571471629179236,-0.0824943477633,0.0198819576072,-0.00163991628416,1.0,0.0,0.0296609044437
1385571472129189099,-0.0369977929377,0.089751684732,-0.00565758298099,1.0,0.0,0.0329924079393
1385571472629099834,0.0174728202877,0.0865903359006,-0.00774432513538,1.0,0.0,0.0351058000498
1385571473129184399,0.0566698881448,0.0188927615955,-0.00288648586631,1.0,0.0,0.0358764867312
1385571473629246348,0.0498010638177,-0.0617361392388,0.00153888398127,1.0,0.0,0.0350511538467
1385571474129099276,-0.00283233264757,-0.106818482798,0.00375340544276,1.0,0.0,0.0314384289685
1385571474629177442,-0.0620736056928,-0.0807082484168,0.00541029270398,1.0,0.0,0.0278874531034
1385571475129168382,-0.0759557327241,-0.0127672163054,0.00536252863766,1.0,0.0,0.0288341883093
1385571475629140270,-0.0332861321636,0.0536767669415,0.00126460866739,1.0,0.0,0.0342344777417
1385571476129156110,0.0279692130325,0.0808473348781,-0.00431626181445,1.0,0.0,0.0396084124116
1385571476629188202,0.0641338977117,0.0378341929304,-0.00408417180153,1.0,0.0,0.0403954814126
1385571477129158304,0.0512259169259,-0.0435433122526,-0.00407690331575,1.0,0.0,0.0362556027359
1385571477629087581,0.00380790191272,-0.100039872383,-0.00522391453094,1.0,0.0,0.0287472704794
1385571478129213622,-0.0501476706788,-0.0888206881301,-0.00537651064391,1.0,0.0,0.0208173109364
1385571478629157033,-0.0688617236688,-0.0268534490319,-0.00414998144963,1.0,0.0,0.0156590429868
1385571479129347872,-0.0399765317819,0.0310478785853,-0.0111019595949,1.0,0.0,0.0164547770349
1385571479629188280,0.0131743305365,0.0540472337777,-0.0213245503519,1.0,0.0,0.0211096669025
1385571480129177284,0.049267973812,0.0323743332909,-0.0313309074898,1.0,0.0,0.0258217099315
1385571480629069984,0.0456581428696,-0.0203981676242,-0.0385886957595,1.0,0.0,0.0272159325898
1385571481129088112,0.0107304580885,-0.0604719976763,-0.0468726849626,1.0,0.0,0.0262908551659
1385571481629306924,-0.0236432826731,-0.0641360185535,-0.0534983535992,1.0,0.0,0.0239372931198
1385571482129392676,-0.0356630786635,-0.0291489702369,-0.0601951854155,1.0,0.0,0.0213551586161
1385571482629154794,-0.022025287361,0.0150511054682,-0.0675182318129,1.0,0.0,0.0215334374952
1385571483129175761,0.00971948995491,0.0402043453846,-0.0763071303815,1.0,0.0,0.0252543434681
1385571483629077208,0.0301514259968,0.0366090374889,-0.0820428967258,1.0,0.0,0.0305891724398
1385571484129297457,0.0259922876629,0.00734002450318,-0.083746303425,1.0,0.0,0.035060588117
1385571484629207951,0.00691648930567,-0.0152649274607,-0.0862784065113,1.0,0.0,0.0392870704898
1385571485129180829,-0.00434407339539,-0.0225035170402,-0.0894123791653,1.0,0.0,0.043314308674
1385571485629111848,-0.009736776835,-0.00809964419608,-0.0922940394675,1.0,0.0,0.0477525452369
1385571486129108524,-0.00697200809617,0.0244250369599,-0.0937952881312,1.0,0.0,0.0530166618723
1385571486629076417,0.00485481303624,0.0525087944204,-0.0945205136906,1.0,0.0,0.0586479390517
1385571487129458330,0.0190003571315,0.0576662476871,-0.0955582098713,1.0,0.0,0.065530094622
1385571487629219871,0.0294418463661,0.0289128931196,-0.0981997751007,1.0,0.0,0.0717315157393
1385571488129161065,0.0316883105128,-0.0118836689332,-0.101191218694,1.0,0.0,0.0760062225205
