%time,field.header.seq,field.header.stamp,field.header.frame_id,field.child_frame_id,field.transform.translation.x,field.transform.translation.y,field.transform.translation.z,field.transform.rotation.x,field.transform.rotation.y,field.transform.rotation.z,field.transform.rotation.w
1385571330112779919,850914,1385571330112779919,/world,vicon/Archie/Archie,-0.991672012535,0.893787046593,0.116866991415,0.00497128941716,0.00130056817325,0.690355883467,0.723451690831
1385571330122821546,850915,1385571330122821546,/world,vicon/Archie/Archie,-0.991722665055,0.893826653044,0.116949994467,0.00462339159359,0.00152898106412,0.69034300981,0.723465835596
1385571330132646021,850916,1385571330132646021,/world,vicon/Archie/Archie,-0.991689184541,0.893803022818,0.116906613172,0.00486191926117,0.00147961728679,0.690320351069,0.723485995285
1385571330142571102,850917,1385571330142571102,/world,vicon/Archie/Archie,-0.991642242051,0.893806692239,0.116870495469,0.00498058996858,0.00131519878483,0.690345768675,0.723461252347
1385571330152573067,850918,1385571330152573067,/world,vicon/Archie/Archie,-0.991721197681,0.893839394932,0.116952254094,0.00461731401913,0.00150834459714,0.690335925691,0.723472677444
1385571330162623691,850919,1385571330162623691,/world,vicon/Archie/Archie,-0.991726110475,0.893833718853,0.116957624191,0.00462060546842,0.00151859235887,0.690338988355,0.723469712593
1385571330172610340,850920,1385571330172610340,/world,vicon/Archie/Archie,-0.991669032458,0.893785601371,0.116867701094,0.00498563047557,0.00129441246834,0.690357457591,0.723450101067
1385571330182371433,850921,1385571330182371433,/world,vicon/Archie/Archie,-0.99170408862,0.893812719688,0.116915193453,0.00472894865387,0.00133863320468,0.690364142251,0.723445365041
1385571330192386651,850922,1385571330192386651,/world,vicon/Archie/Archie,-0.991702890572,0.893807249563,0.116917517439,0.00473460737209,0.00137552354799,0.690370234153,0.723439445443
1385571330202424950,850923,1385571330202424950,/world,vicon/Archie/Archie,-0.991672098493,0.893777560522,0.116873321705,0.00499732904373,0.00128864741706,0.690351663486,0.723455559667
1385571330212603430,850924,1385571330212603430,/world,vicon/Archie/Archie,-0.991699325542,0.893813106753,0.116912501513,0.00473169533468,0.0013591836627,0.690361135243,0.723448178258
1385571330223192229,850925,1385571330223192229,/world,vicon/Archie/Archie,-0.991665776363,0.893828106185,0.116920186132,0.00472673091724,0.00139943096318,0.690339707792,0.723468580834
1385571330232658838,850926,1385571330232658838,/world,vicon/Archie/Archie,-0.991696467998,0.893814397614,0.116913927125,0.00473763581925,0.00133811105718,0.690366011336,0.723443525548
1385571330242555505,850927,1385571330242555505,/world,vicon/Archie/Archie,-0.991699513235,0.893809276505,0.116909534413,0.00475951932878,0.0013412514899,0.690360072279,0.723449043556
1385571330252639024,850928,1385571330252639024,/world,vicon/Archie/Archie,-0.99168646155,0.89379254444,0.116900320538,0.00487904198017,0.00145095950327,0.69030932311,0.723496460319
1385571330262713576,850929,1385571330262713576,/world,vicon/Archie/Archie,-0.991697672991,0.893802937074,0.116906445363,0.0047484070935,0.00131451130099,0.690353529038,0.723455409569
1385571330272700459,850930,1385571330272700459,/world,vicon/Archie/Archie,-0.991697350847,0.893853430773,0.116950726037,0.00460870088588,0.00156422607464,0.690314347357,0.723493203082
1385571330282680624,850931,1385571330282680624,/world,vicon/Archie/Archie,-0.991639573508,0.893808685456,0.116855868557,0.00495042696025,0.00134060253625,0.690335608801,0.723471107425
1385571330292671061,850932,1385571330292671061,/world,vicon/Archie/Archie,-0.991698920053,0.893808991088,0.116904892109,0.00471542103461,0.00136613761534,0.690351995187,0.723456993341
1385571330302612803,850933,1385571330302612803,/world,vicon/Archie/Archie,-0.991693535304,0.893804155221,0.116903336961,0.00471899187355,0.0013839579632,0.690355178443,0.723453898582
1385571330312815181,850934,1385571330312815181,/world,vicon/Archie/Archie,-0.991670346815,0.893778552584,0.11685974243,0.00496976120729,0.00130622270756,0.690353093012,0.723454353933
1385571330322657481,850935,1385571330322657481,/world,vicon/Archie/Archie,-0.991662963418,0.893783473462,0.116847104394,0.00497929819468,0.001306787864,0.690347626454,0.723459503734
1385571330332547814,850936,1385571330332547814,/world,vicon/Archie/Archie,-0.991670363126,0.893783163275,0.116855174919,0.00496155339584,0.00133400418999,0.69035185916,0.723455536972
1385571330342567111,850937,1385571330342567111,/world,vicon/Archie/Archie,-0.991697946911,0.893805927947,0.116897383524,0.00470609724534,0.00139547522177,0.690354760662,0.72345435912
1385571330352662642,850938,1385571330352662642,/world,vicon/Archie/Archie,-0.991665729191,0.893784553409,0.116844972797,0.0049509249343,0.00134072210872,0.690347670843,0.723459594012
1385571330362658610,850939,1385571330362658610,/world,vicon/Archie/Archie,-0.991663462168,0.893838764684,0.11690366747,0.00471743453601,0.00139952604876,0.690339880493,0.723468476535
1385571330372545351,850940,1385571330372545351,/world,vicon/Archie/Archie,-0.991716531763,0.893832257941,0.116934975007,0.0046017307185,0.00155018748098,0.690329008535,0.723479288555
1385571330382543833,850941,1385571330382543833,/world,vicon/Archie/Archie,-0.99166106285,0.893788303937,0.116850055774,0.00496735690841,0.00131495846281,0.690347043429,0.723460127359
1385571330392583027,850942,1385571330392583027,/world,vicon/Archie/Archie,-0.991696974738,0.893813770031,0.116895289747,0.00470063627743,0.00138388571416,0.690361003707,0.723448459422
1385571330402535974,850943,1385571330402535974,/world,vicon/Archie/Archie,-0.991682760099,0.893810391924,0.116898128408,0.00471927886792,0.00138297284161,0.690373206812,0.723436694611
1385571330412559471,850944,1385571330412559471,/world,vicon/Archie/Archie,-0.991661308502,0.893776091374,0.116857876457,0.00496434640356,0.00130407484261,0.690354669811,0.723452890328
1385571330422630676,850945,1385571330422630676,/world,vicon/Archie/Archie,-0.99168948747,0.893824282376,0.116896048059,0.004702359045,0.00139755219317,0.690372512157,0.723437439676
1385571330432534663,850946,1385571330432534663,/world,vicon/Archie/Archie,-0.991688767453,0.893815336419,0.116902210653,0.00470026462035,0.00137939709306,0.690362925855,0.723446636167
1385571330442567636,850947,1385571330442567636,/world,vicon/Archie/Archie,-0.991691510571,0.893820820779,0.116901584326,0.00472683963527,0.00135747743907,0.690357792475,0.723451403075
1385571330452600206,850948,1385571330452600206,/world,vicon/Archie/Archie,-0.991692971973,0.893812284799,0.116900225425,0.00470955850507,0.00136216033495,0.690362629229,0.723446891445
1385571330462563004,850949,1385571330462563004,/world,vicon/Archie/Archie,-0.991668985389,0.893782604689,0.116854426485,0.00498110470961,0.00131395769449,0.690354598541,0.723452825265
1385571330472481660,850950,1385571330472481660,/world,vicon/Archie/Archie,-0.991697519292,0.893821779561,0.116909732661,0.00471973537659,0.00138101650416,0.690370625882,0.723439158334
1385571330482469468,850951,1385571330482469468,/world,vicon/Archie/Archie,-0.991698997084,0.893817412173,0.116904148416,0.00471879282674,0.00134903788739,0.690368676624,0.723441084974
1385571330492351121,850952,1385571330492351121,/world,vicon/Archie/Archie,-0.991689865073,0.89381108901,0.1169176215,0.00472612478538,0.00137303554063,0.690362960405,0.723446446822
1385571330502399592,850953,1385571330502399592,/world,vicon/Archie/Archie,-0.991691455173,0.89381501807,0.116913133968,0.00472519574795,0.00134060094818,0.690366696291,0.72344294866
1385571330512611310,850954,1385571330512611310,/world,vicon/Archie/Archie,-0.991714065256,0.893830963142,0.116948326996,0.00463486908474,0.00152797891589,0.69034915774,0.723459897767
1385571330522533135,850955,1385571330522533135,/world,vicon/Archie/Archie,-0.991694121801,0.893816670771,0.116910054865,0.00471696130744,0.00137508672209,0.690373940631,0.723436024477
1385571330532569325,850956,1385571330532569325,/world,vicon/Archie/Archie,-0.991691604784,0.893809110236,0.116911785985,0.00471642171803,0.00137308205833,0.690370380428,0.723439429282
1385571330542619053,850957,1385571330542619053,/world,vicon/Archie/Archie,-0.991697327151,0.893819844426,0.116910635911,0.00471894949954,0.00136788648316,0.690377260101,0.72343285738
1385571330553144102,850958,1385571330553144102,/world,vicon/Archie/Archie,-0.99169055435,0.893807069245,0.116904825703,0.00486255005392,0.00149916893324,0.690334245315,0.723472693227
1385571330562608341,850959,1385571330562608341,/world,vicon/Archie/Archie,-0.991697798794,0.893817569199,0.116910439308,0.00471644770158,0.00137358992629,0.690371450803,0.7234384067
1385571330572583334,850960,1385571330572583334,/world,vicon/Archie/Archie,-0.991693846988,0.893819621057,0.116917394828,0.00471517447465,0.00139274634942,0.690357684755,0.723451514952
1385571330582659001,850961,1385571330582659001,/world,vicon/Archie/Archie,-0.991716355025,0.893840153948,0.116949414637,0.00461093036321,0.00153397952714,0.690352609795,0.723456743958
1385571330592597467,850962,1385571330592597467,/world,vicon/Archie/Archie,-0.991699155196,0.893817571627,0.116907902293,0.00471870443056,0.00139035966572,0.690367848111,0.723441797951
1385571330602611863,850963,1385571330602611863,/world,vicon/Archie/Archie,-0.99169791518,0.893815682727,0.116907416862,0.00471657896848,0.00136744458999,0.690374974493,0.72343505484
1385571330612678100,850964,1385571330612678100,/world,vicon/Archie/Archie,-0.991663818126,0.893785596387,0.116854066972,0.00496603875812,0.001316446,0.690352641645,0.723454791678
1385571330622576472,850965,1385571330622576472,/world,vicon/Archie/Archie,-0.991695946665,0.893820541764,0.116908193269,0.00471464071672,0.00135633974405,0.690375013137,0.723435051501
1385571330632570314,850966,1385571330632570314,/world,vicon/Archie/Archie,-0.991698725045,0.893821301135,0.116904632564,0.00472500142428,0.00135668766134,0.690372357718,0.723437517315
1385571330642584031,850967,1385571330642584031,/world,vicon/Archie/Archie,-0.991694940381,0.893819034868,0.116914848686,0.00472520298162,0.00135818790842,0.690369846926,0.72343990921
1385571330652597648,850968,1385571330652597648,/world,vicon/Archie/Archie,-0.991696806475,0.893822699661,0.116904273748,0.00471787320713,0.00136752151185,0.690362831626,0.723446634015
1385571330662600926,850969,1385571330662600926,/world,vicon/Archie/Archie,-0.991727921701,0.893833773137,0.116943938567,0.00461257538832,0.00151575493332,0.690352320114,0.723457048309
1385571330672735938,850970,1385571330672735938,/world,vicon/Archie/Archie,-0.991702099138,0.893819249677,0.116899774356,0.00473451808867,0.0013554653295,0.690371995425,0.723437803121
1385571330682599689,850971,1385571330682599689,/world,vicon/Archie/Archie,-0.991695423063,0.893819210825,0.116903528814,0.00471525408014,0.00137187455778,0.690360155351,0.723449196725
1385571330692585202,850972,1385571330692585202,/world,vicon/Archie/Archie,-0.991724655711,0.893835483959,0.116938586461,0.00460314484281,0.00153796109135,0.690335708564,0.723472912565
1385571330702570197,850973,1385571330702570197,/world,vicon/Archie/Archie,-0.991679562956,0.893841944168,0.116904265878,0.00470523622909,0.00138722039248,0.690357814296,0.723451466659
1385571330712590115,850974,1385571330712590115,/world,vicon/Archie/Archie,-0.991705310529,0.893816131184,0.116898472367,0.0047469813983,0.00133721540068,0.690364140949,0.723445250806
1385571330722617763,850975,1385571330722617763,/world,vicon/Archie/Archie,-0.991678066425,0.893792182037,0.116850407831,0.0050125273918,0.0012851944873,0.69033532627,0.723471049972
1385571330732573957,850976,1385571330732573957,/world,vicon/Archie/Archie,-0.991705216027,0.89381471169,0.116902508193,0.00472584709953,0.00136692356376,0.690368482271,0.72344119082
1385571330742587223,850977,1385571330742587223,/world,vicon/Archie/Archie,-0.991701145472,0.893816300698,0.116903478967,0.00473133440007,0.00136128241035,0.690372666845,0.723437172295
1385571330752584399,850978,1385571330752584399,/world,vicon/Archie/Archie,-0.991703511934,0.893817795125,0.116901963196,0.00474226135595,0.00136228829222,0.690357222703,0.723451836814
1385571330762605470,850979,1385571330762605470,/world,vicon/Archie/Archie,-0.991673130944,0.893792860601,0.116851686085,0.00498493154898,0.00130607850474,0.690344441979,0.723462504933
1385571330772502042,850980,1385571330772502042,/world,vicon/Archie/Archie,-0.991675805323,0.89379136466,0.116849111752,0.00496981474117,0.00131959875589,0.690339286118,0.723467504207
1385571330782395830,850981,1385571330782395830,/world,vicon/Archie/Archie,-0.991670462048,0.893785966421,0.116853439908,0.00500874932899,0.00126777095511,0.690347790356,0.723459213459
1385571330792330645,850982,1385571330792330645,/world,vicon/Archie/Archie,-0.991671442563,0.893788165638,0.11685802945,0.0049844625421,0.00130999305781,0.690347564243,0.723459521739
1385571330802516301,850983,1385571330802516301,/world,vicon/Archie/Archie,-0.991701554643,0.893809088071,0.116892916572,0.00487690455004,0.00148272393844,0.690312996496,0.723492905425
1385571330812639542,850984,1385571330812639542,/world,vicon/Archie/Archie,-0.991693378073,0.893824458493,0.116903547448,0.00470599154431,0.00139008128276,0.690368950496,0.723440829307
1385571330822600903,850985,1385571330822600903,/world,vicon/Archie/Archie,-0.991667048669,0.893791289674,0.116853324397,0.00498528469587,0.00130153035576,0.690354248882,0.723453152599
1385571330832599674,850986,1385571330832599674,/world,vicon/Archie/Archie,-0.991686513471,0.893867541398,0.116940617422,0.00458862760606,0.00156259080752,0.690324381524,0.723483760066
1385571330842652712,850987,1385571330842652712,/world,vicon/Archie/Archie,-0.991675714205,0.893782953015,0.116854427311,0.00498630299309,0.00130933325004,0.690348529129,0.723458589526
1385571330852627706,850988,1385571330852627706,/world,vicon/Archie/Archie,-0.991693128456,0.893824794114,0.116895793272,0.0048824383147,0.0014711854755,0.690310948626,0.723494845605
1385571330862565896,850989,1385571330862565896,/world,vicon/Archie/Archie,-0.991690848067,0.893821152467,0.116896643011,0.00489254422731,0.00148261625757,0.690316181769,0.723489760845
1385571330872621543,850990,1385571330872621543,/world,vicon/Archie/Archie,-0.991671348066,0.893802499802,0.116858475621,0.00500281783311,0.00128527380017,0.690333064785,0.723473274938
1385571330882789874,850991,1385571330882789874,/world,vicon/Archie/Archie,-0.991692763497,0.893820808223,0.116898200636,0.00486660296102,0.00150440902126,0.690314634204,0.723491367421
1385571330892668056,850992,1385571330892668056,/world,vicon/Archie/Archie,-0.991724638435,0.893841905879,0.116951214646,0.00462273256498,0.00152815849929,0.690324754586,0.723483260539
1385571330902645620,850993,1385571330902645620,/world,vicon/Archie/Archie,-0.991700712382,0.893830887228,0.116901434493,0.00473534903035,0.00133194342805,0.690352623127,0.723456327734
1385571330912656371,850994,1385571330912656371,/world,vicon/Archie/Archie,-0.991668131746,0.893852438333,0.116914267777,0.00472113129657,0.00138818204165,0.6903495347,0.723459262024
1385571330922632138,850995,1385571330922632138,/world,vicon/Archie/Archie,-0.991665645949,0.893800470382,0.116875802037,0.00499827863409,0.00128496802107,0.690345084722,0.723461837327
1385571330932659129,850996,1385571330932659129,/world,vicon/Archie/Archie,-0.991657005554,0.893783018111,0.116870496646,0.00498709119421,0.00131795286558,0.690338221661,0.723468404034
1385571330942633636,850997,1385571330942633636,/world,vicon/Archie/Archie,-0.991691012713,0.893816135744,0.116922489073,0.00472902232554,0.00137239055604,0.690359673434,0.723449565753
1385571330952649198,850998,1385571330952649198,/world,vicon/Archie/Archie,-0.991692752223,0.893797401064,0.116904025756,0.00488135018967,0.00147431704857,0.690330774967,0.723475929069
1385571330962574909,850999,1385571330962574909,/world,vicon/Archie/Archie,-0.991671291732,0.893781648893,0.116859481422,0.0049764659487,0.00132211451836,0.690350489037,0.723456763799
1385571330972599930,851000,1385571330972599930,/world,vicon/Archie/Archie,-0.991696051651,0.893811184027,0.116906747591,0.0047270942535,0.00136881506953,0.690354528797,0.723454494419
1385571330982656624,851001,1385571330982656624,/world,vicon/Archie/Archie,-0.991675181542,0.893774839088,0.116869281344,0.00500036129132,0.00130106254582,0.690347052548,0.723459916416
1385571330992563865,851002,1385571330992563865,/world,vicon/Archie/Archie,-0.991675100622,0.89377513682,0.116865573142,0.00498944636926,0.00131111838999,0.690344578203,0.723462334707
1385571331002608706,851003,1385571331002608706,/world,vicon/Archie/Archie,-0.991697268466,0.893800624475,0.116909620595,0.00473389929061,0.00137574362715,0.690363886434,0.723445507163
1385571331012666954,851004,1385571331012666954,/world,vicon/Archie/Archie,-0.991698043866,0.893794586885,0.11690422287,0.00488594440439,0.0014690070598,0.690317520684,0.723488555681
1385571331022592092,851005,1385571331022592092,/world,vicon/Archie/Archie,-0.991669496602,0.893824232884,0.11691000987,0.00472924441739,0.00136576926372,0.69035609288,0.723452993597
1385571331032622586,851006,1385571331032622586,/world,vicon/Archie/Archie,-0.991690376384,0.89380731207,0.116910584829,0.00473655301543,0.00138381464696,0.690363366853,0.723445970222
1385571331042627567,851007,1385571331042627567,/world,vicon/Archie/Archie,-0.99167112805,0.893777637278,0.116875800584,0.00498926687462,0.00132561595834,0.690346872629,0.723460120124
1385571331052544427,851008,1385571331052544427,/world,vicon/Archie/Archie,-0.991631156628,0.893796488623,0.116870052065,0.00499071313048,0.00132701912797,0.690337909328,0.723468660515
1385571331062980714,851009,1385571331062980714,/world,vicon/Archie/Archie,-0.9916907056,0.893802510009,0.116911644266,0.00474650104465,0.00137221907856,0.690373982371,0.72343579688
1385571331072540905,851010,1385571331072540905,/world,vicon/Archie/Archie,-0.991715456245,0.893821290564,0.116961468462,0.00464104412578,0.00154390150622,0.690340457664,0.723468126174
1385571331082363475,851011,1385571331082363475,/world,vicon/Archie/Archie,-0.991697882208,0.893805210351,0.116915005179,0.00472832200505,0.0013711680909,0.690362918622,0.723446475878
1385571331092394514,851012,1385571331092394514,/world,vicon/Archie/Archie,-0.991656879512,0.893767041025,0.116869785993,0.00498786860716,0.00132212824916,0.690353232957,0.723454066883
1385571331102510722,851013,1385571331102510722,/world,vicon/Archie/Archie,-0.991689829855,0.893805560675,0.116910642576,0.00472954198826,0.001367951613,0.690357014525,0.723452108047
1385571331112656915,851014,1385571331112656915,/world,vicon/Archie/Archie,-0.991669224627,0.893829851375,0.116918810088,0.00472450686486,0.00142052149524,0.690354502116,0.723454437101
1385571331122637200,851015,1385571331122637200,/world,vicon/Archie/Archie,-0.991625892576,0.893800829155,0.116866346503,0.0049782652256,0.00133534259273,0.69033878965,0.723467890953
1385571331132605496,851016,1385571331132605496,/world,vicon/Archie/Archie,-0.991712013189,0.893828548121,0.116945061967,0.00460713092667,0.00155341283441,0.690337313695,0.723471322564
1385571331142665179,851017,1385571331142665179,/world,vicon/Archie/Archie,-0.991696129635,0.893801897275,0.11691319319,0.00473175194258,0.00137693078883,0.690374469729,0.723435419462
1385571331152634153,851018,1385571331152634153,/world,vicon/Archie/Archie,-0.991667176616,0.893829269842,0.116906754977,0.00472614982395,0.00140956464937,0.690337301948,0.723470860626
1385571331162603716,851019,1385571331162603716,/world,vicon/Archie/Archie,-0.991716308668,0.893827714135,0.116947945843,0.00460900043068,0.00155353768,0.690342095894,0.723466747178
1385571331172606910,851020,1385571331172606910,/world,vicon/Archie/Archie,-0.99172446212,0.893829869483,0.116942148323,0.00460429345046,0.00154191591381,0.690332824777,0.723475648528
1385571331182542603,851021,1385571331182542603,/world,vicon/Archie/Archie,-0.991697514033,0.893811510049,0.116910860573,0.00471880446517,0.00135991874499,0.690366186129,0.723443441158
1385571331192558619,851022,1385571331192558619,/world,vicon/Archie/Archie,-0.991722953546,0.893826681501,0.116949285628,0.00462804944859,0.00153643504471,0.690328043406,0.723480070916
1385571331202689364,851023,1385571331202689364,/world,vicon/Archie/Archie,-0.991663792026,0.893774709844,0.116856695288,0.00497371856753,0.00131176189087,0.690353434664,0.723453990694
1385571331212634214,851024,1385571331212634214,/world,vicon/Archie/Archie,-0.991697993711,0.893816501492,0.116908533018,0.00474343327022,0.0013702747379,0.690362707707,0.723446579918
1385571331222587183,851025,1385571331222587183,/world,vicon/Archie/Archie,-0.991670767681,0.893780424041,0.116865514453,0.00498193128753,0.00128161660578,0.690345726911,0.723461343235
1385571331232629034,851026,1385571331232629034,/world,vicon/Archie/Archie,-0.991698662081,0.893811562385,0.116910802265,0.00471053984534,0.00137291849594,0.69036529586,0.723444320028
1385571331242616850,851027,1385571331242616850,/world,vicon/Archie/Archie,-0.991685881177,0.893815488032,0.116909722191,0.00473000534568,0.0013706579786,0.690363552679,0.723445860779
1385571331252604833,851028,1385571331252604833,/world,vicon/Archie/Archie,-0.991706364873,0.893825972277,0.11694787287,0.00462957657892,0.00151933581635,0.69033367733,0.723474721454
1385571331262550374,851029,1385571331262550374,/world,vicon/Archie/Archie,-0.991667653654,0.893830605777,0.116918497705,0.00472376079515,0.00138137917707,0.690358805553,0.723450411204
1385571331272832195,851030,1385571331272832195,/world,vicon/Archie/Archie,-0.991719394579,0.893836789873,0.116946734469,0.00463207818378,0.00150883873448,0.690331657861,0.723476654366
1385571331282638764,851031,1385571331282638764,/world,vicon/Archie/Archie,-0.991686571355,0.893810117512,0.116910472289,0.00470865242603,0.00137896635459,0.690374921563,0.723435135116
1385571331292609113,851032,1385571331292609113,/world,vicon/Archie/Archie,-0.991658172785,0.893782593391,0.116871292959,0.0050068723091,0.00130951959988,0.690356794145,0.723450560278
1385571331302601047,851033,1385571331302601047,/world,vicon/Archie/Archie,-0.991664485938,0.893792149974,0.116864332052,0.00498690037654,0.00128995322639,0.690337498871,0.723469145505
1385571331312689844,851034,1385571331312689844,/world,vicon/Archie/Archie,-0.991689199105,0.893818502118,0.116913675185,0.0047319051208,0.00138123713889,0.690371902968,0.723437859702
1385571331322595145,851035,1385571331322595145,/world,vicon/Archie/Archie,-0.991690702614,0.893818166203,0.116910456194,0.00471955197417,0.0013959523202,0.690358767087,0.723450447407
1385571331332558310,851036,1385571331332558310,/world,vicon/Archie/Archie,-0.991693893667,0.89382438809,0.116915070809,0.00473279387341,0.00138156009209,0.690367782694,0.723441785199
1385571331342740278,851037,1385571331342740278,/world,vicon/Archie/Archie,-0.991687604344,0.8938213522,0.116910320412,0.00473925497559,0.00132894409989,0.69036574638,0.723443784682
1385571331352627272,851038,1385571331352627272,/world,vicon/Archie/Archie,-0.991713033419,0.89384054331,0.116947349471,0.00462583964706,0.00152577871782,0.690339131424,0.723469527507
1385571331362646104,851039,1385571331362646104,/world,vicon/Archie/Archie,-0.991690608776,0.893821315858,0.116915329472,0.00472321072368,0.00138024133545,0.690369308749,0.723440394055
1385571331372421074,851040,1385571331372421074,/world,vicon/Archie/Archie,-0.99169579587,0.893816252726,0.11690652968,0.00472336375409,0.00135259510661,0.690375825276,0.723434226586
1385571331382335524,851041,1385571331382335524,/world,vicon/Archie/Archie,-0.991691711769,0.893822656156,0.116918076106,0.00475090024635,0.00135410937244,0.690366602165,0.723442844978
1385571331392460687,851042,1385571331392460687,/world,vicon/Archie/Archie,-0.991716955877,0.893836964165,0.116948299383,0.00462116269205,0.0015286911753,0.690335165825,0.723473335227
1385571331402368979,851043,1385571331402368979,/world,vicon/Archie/Archie,-0.991692957649,0.893820483949,0.116904607479,0.00471293719066,0.00135758968537,0.690361025914,0.723448408023
1385571331412946347,851044,1385571331412946347,/world,vicon/Archie/Archie,-0.991663566801,0.893784344223,0.116856144498,0.00499216903129,0.00128211829488,0.690344479096,0.72346246247
1385571331422964591,851045,1385571331422964591,/world,vicon/Archie/Archie,-0.991693815485,0.893815063771,0.116910014706,0.00475063685363,0.00136540416041,0.690365367085,0.723444004088
1385571331432913199,851046,1385571331432913199,/world,vicon/Archie/Archie,-0.991696980804,0.893818324125,0.116906678785,0.00474875719699,0.00134046238661,0.690366072929,0.723443389502
1385571331442962201,851047,1385571331442962201,/world,vicon/Archie/Archie,-0.991668000148,0.89378742841,0.11685711272,0.0049781151791,0.00129272722205,0.690339288596,0.723467493289
1385571331452909173,851048,1385571331452909173,/world,vicon/Archie/Archie,-0.991668878197,0.893794093305,0.116863581565,0.00498558739043,0.00130954699635,0.690347611703,0.723459469508
1385571331462931423,851049,1385571331462931423,/world,vicon/Archie/Archie,-0.991665774132,0.893800376821,0.116860207814,0.00498538678487,0.00131010531892,0.690359025673,0.723448578141
1385571331472999123,851050,1385571331472999123,/world,vicon/Archie/Archie,-0.991722586825,0.893837177381,0.11694336439,0.00463122928072,0.00149523048558,0.69034251338,0.723466329708
1385571331482816958,851051,1385571331482816958,/world,vicon/Archie/Archie,-0.991694381009,0.893816281785,0.116907566951,0.00471484424951,0.00140196818081,0.690368833093,0.723440860764
1385571331492886067,851052,1385571331492886067,/world,vicon/Archie/Archie,-0.991673925909,0.893790224026,0.116856250944,0.00498349730138,0.00129384167805,0.690349424476,0.723457782357
1385571331503189938,851053,1385571331503189938,/world,vicon/Archie/Archie,-0.991687636209,0.893865771023,0.116948118836,0.0046036644525,0.00154793833902,0.69032790862,0.723480330583
1385571331513225831,851054,1385571331513225831,/world,vicon/Archie/Archie,-0.991701631735,0.893826917067,0.116908357628,0.00471416010599,0.0013577816706,0.690371589858,0.723438318753
1385571331523297563,851055,1385571331523297563,/world,vicon/Archie/Archie,-0.991672055883,0.893794209278,0.11686179805,0.00497248106669,0.00130662207704,0.69034633391,0.723460784305
1385571331532657790,851056,1385571331532657790,/world,vicon/Archie/Archie,-0.991690531016,0.893831162432,0.116906470595,0.00472400317552,0.00135870858618,0.690352208487,0.723456747803
1385571331542810522,851057,1385571331542810522,/world,vicon/Archie/Archie,-0.991683294217,0.893811574532,0.116896684471,0.00488039201429,0.00149777472961,0.690329230403,0.72347736115
1385571331552683025,851058,1385571331552683025,/world,vicon/Archie/Archie,-0.991692150921,0.893867396463,0.11694026424,0.00460655109373,0.00157964393177,0.690319330586,0.72348842854
1385571331562719232,851059,1385571331562719232,/world,vicon/Archie/Archie,-0.991692377895,0.893804717549,0.116897195205,0.00486860157524,0.00147702025662,0.690331860798,0.723474973373
1385571331572645976,851060,1385571331572645976,/world,vicon/Archie/Archie,-0.991662558765,0.893836987015,0.116897564434,0.00486799545014,0.00152319571419,0.690312162662,0.723493676943
1385571331582625689,851061,1385571331582625689,/world,vicon/Archie/Archie,-0.991693642268,0.893832628689,0.11690585765,0.00472354210415,0.00136907837616,0.690347237911,0.72346147436
1385571331592634661,851062,1385571331592634661,/world,vicon/Archie/Archie,-0.991696699679,0.893816105389,0.116908086519,0.00470852268249,0.00136210204569,0.690367484745,0.7234422648
1385571331602592255,851063,1385571331602592255,/world,vicon/Archie/Archie,-0.991668783753,0.893837304122,0.116916202916,0.00472018693165,0.00136759150986,0.690348188037,0.723460592432
1385571331612630458,851064,1385571331612630458,/world,vicon/Archie/Archie,-0.991717793392,0.893839229705,0.116944372683,0.00460457533939,0.00153650692426,0.690330174799,0.723478186813
1385571331622674092,851065,1385571331622674092,/world,vicon/Archie/Archie,-0.991695398856,0.893815053116,0.116903713299,0.00471760829832,0.00137503471897,0.690367138439,0.723442511617
1385571331632635413,851066,1385571331632635413,/world,vicon/Archie/Archie,-0.991673219662,0.893790762625,0.116858888967,0.00497777875795,0.00131720861151,0.690349438971,0.723457765728
1385571331642604783,851067,1385571331642604783,/world,vicon/Archie/Archie,-0.991714041035,0.893833228333,0.116943119651,0.00461450509151,0.00153308818261,0.690333633618,0.723474830439
1385571331652757443,851068,1385571331652757443,/world,vicon/Archie/Archie,-0.991694592445,0.893815450212,0.116903528706,0.00472358118665,0.00136419426927,0.690371882088,0.723437966364
1385571331662663738,851069,1385571331662663738,/world,vicon/Archie/Archie,-0.991680936753,0.893797309408,0.116894804838,0.00486571975909,0.001489996404,0.690326202806,0.723480364904
1385571331672618865,851070,1385571331672618865,/world,vicon/Archie/Archie,-0.991694551311,0.893810035404,0.116906907926,0.00471596375673,0.00137588916398,0.690363037209,0.723446434417
1385571331682656342,851071,1385571331682656342,/world,vicon/Archie/Archie,-0.991715667878,0.893832216498,0.116932745248,0.00459541793639,0.00156811617068,0.690333992185,0.723474534714
1385571331692724219,851072,1385571331692724219,/world,vicon/Archie/Archie,-0.991662823829,0.893826308723,0.116889996986,0.00483970284966,0.00151582062207,0.690297253779,0.723508107066
1385571331702647726,851073,1385571331702647726,/world,vicon/Archie/Archie,-0.991714240539,0.893838568352,0.116941449532,0.00459368151757,0.00154300380858,0.690344468633,0.723464603044
1385571331712641447,851074,1385571331712641447,/world,vicon/Archie/Archie,-0.991687532221,0.893800883881,0.116886830712,0.00484132101375,0.00148530878139,0.690319904937,0.723486547433
1385571331722599204,851075,1385571331722599204,/world,vicon/Archie/Archie,-0.991665838047,0.89378612664,0.116836493299,0.00496066643536,0.00132463082148,0.690341976013,0.723464991065
1385571331732677186,851076,1385571331732677186,/world,vicon/Archie/Archie,-0.991662758186,0.893834182953,0.116876813146,0.00483675913512,0.00150522176875,0.690307979467,0.723497915376
1385571331742606470,851077,1385571331742606470,/world,vicon/Archie/Archie,-0.991724708067,0.893839324725,0.116927115066,0.0045872078239,0.00154910490921,0.690339180647,0.723469676948
1385571331752619035,851078,1385571331752619035,/world,vicon/Archie/Archie,-0.991666273722,0.893791067389,0.116838100758,0.00495481787688,0.00131450888765,0.690348592215,0.723458736261
1385571331762682611,851079,1385571331762682611,/world,vicon/Archie/Archie,-0.991667949816,0.893794706024,0.116841090212,0.00494584214079,0.00131266775778,0.690342011273,0.723465080719
1385571331772571076,851080,1385571331772571076,/world,vicon/Archie/Archie,-0.991685396221,0.893856304405,0.116927475773,0.0045837826767,0.00156331561217,0.690327027262,0.723481264728
1385571331782463191,851081,1385571331782463191,/world,vicon/Archie/Archie,-0.991699222382,0.893807181285,0.116878080956,0.00485451839721,0.00149885921857,0.690313859628,0.723492199182
1385571331792413202,851082,1385571331792413202,/world,vicon/Archie/Archie,-0.991661129947,0.893821934122,0.116891594961,0.00487127231995,0.0014996317232,0.690306650791,0.723498963154
1385571331802439729,851083,1385571331802439729,/world,vicon/Archie/Archie,-0.99171531972,0.893827895041,0.116940652544,0.00461747998788,0.0015545598643,0.690328631261,0.723479538815
1385571331812444847,851084,1385571331812444847,/world,vicon/Archie/Archie,-0.991622649169,0.893795311266,0.116872475633,0.00496363356259,0.00134956315264,0.690333509151,0.723473003756
1385571331822446610,851085,1385571331822446610,/world,vicon/Archie/Archie,-0.991622910321,0.893776611305,0.116869715022,0.00496363971479,0.0013503925604,0.690333163535,0.723473331951
1385571331832960198,851086,1385571331832960198,/world,vicon/Archie/Archie,-0.991652824877,0.893761304972,0.116875214345,0.00499606006423,0.00130035723665,0.69033693364,0.72346960303
1385571331843026597,851087,1385571331843026597,/world,vicon/Archie/Archie,-0.991681495158,0.893779642378,0.116913084286,0.00486727614273,0.00149687675967,0.690311895168,0.723493991939
1385571331852923315,851088,1385571331852923315,/world,vicon/Archie/Archie,-0.99165362811,0.893823222123,0.116917310045,0.00467699975075,0.0014161705447,0.690340048521,0.72346854634
1385571331862979281,851089,1385571331862979281,/world,vicon/Archie/Archie,-0.991629371479,0.89379049139,0.116871679113,0.00495143141951,0.00133367277943,0.690332140898,0.723474422414
1385571331873032716,851090,1385571331873032716,/world,vicon/Archie/Archie,-0.991707774199,0.893813541094,0.116950045703,0.00460695119519,0.00154968229554,0.690327710841,0.723480494645
1385571331883016196,851091,1385571331883016196,/world,vicon/Archie/Archie,-0.991686560389,0.893790738558,0.116913545948,0.00487776264024,0.00148029833119,0.6903124259,0.723493449035
1385571331892913887,851092,1385571331892913887,/world,vicon/Archie/Archie,-0.991719047669,0.893826242076,0.116947683462,0.00463383211376,0.00150114113121,0.690335012073,0.723473458588
1385571331903043093,851093,1385571331903043093,/world,vicon/Archie/Archie,-0.991658470695,0.893778520053,0.116864880457,0.00499733496233,0.00130759407456,0.690347306443,0.723459683277
1385571331913127715,851094,1385571331913127715,/world,vicon/Archie/Archie,-0.991661816773,0.893824052053,0.116894535598,0.00485927629063,0.00152658471984,0.690305521182,0.723500065238
1385571331923223413,851095,1385571331923223413,/world,vicon/Archie/Archie,-0.991641024283,0.89380649355,0.116859696401,0.00497580173849,0.00132403599441,0.690325285744,0.723480813973
1385571331932690486,851096,1385571331932690486,/world,vicon/Archie/Archie,-0.991696403459,0.893851914871,0.116950342085,0.00459858118766,0.00155980147823,0.690328791411,0.723479495093
1385571331942678708,851097,1385571331942678708,/world,vicon/Archie/Archie,-0.991723428047,0.893827142141,0.116944519945,0.00464231481064,0.00151646807317,0.690334181482,0.723474164787
1385571331952675610,851098,1385571331952675610,/world,vicon/Archie/Archie,-0.991694695432,0.893808676344,0.116912392283,0.00473265192806,0.00138179583855,0.690372933346,0.723436870466
1385571331962635248,851099,1385571331962635248,/world,vicon/Archie/Archie,-0.991701905145,0.893813563388,0.116908009533,0.00471810546508,0.00138577055225,0.690365070702,0.723444461086
1385571331972559280,851100,1385571331972559280,/world,vicon/Archie/Archie,-0.991690248683,0.893818958929,0.116909441894,0.00474516439004,0.00137678057098,0.690372581127,0.723437134185
1385571331982603472,851101,1385571331982603472,/world,vicon/Archie/Archie,-0.991672898042,0.893837332221,0.116915473824,0.0047100547229,0.00140604072201,0.690359509144,0.72344978165
1385571331992626549,851102,1385571331992626549,/world,vicon/Archie/Archie,-0.991699396212,0.893811480726,0.116915487523,0.00472944888083,0.00137897428489,0.690370162443,0.723439541048
1385571332002632679,851103,1385571332002632679,/world,vicon/Archie/Archie,-0.99172047364,0.893834054579,0.116945325464,0.00460672256001,0.00154129240492,0.69033519114,0.723473376427
1385571332012655737,851104,1385571332012655737,/world,vicon/Archie/Archie,-0.991667415551,0.893832502009,0.116906137696,0.00471148277379,0.00140968760476,0.690357978093,0.723451226272
1385571332022686087,851105,1385571332022686087,/world,vicon/Archie/Archie,-0.99171426149,0.89383744166,0.116942819886,0.00461059685398,0.00154972667757,0.690338702354,0.723469983328
1385571332032608637,851106,1385571332032608637,/world,vicon/Archie/Archie,-0.991666293537,0.89378984065,0.116860376856,0.00497441875055,0.0013007566109,0.690355201375,0.72345231987
1385571332042585069,851107,1385571332042585069,/world,vicon/Archie/Archie,-0.991702718605,0.893808927391,0.116915925214,0.00472987010194,0.00137692802227,0.690370928353,0.723438811292
1385571332052685197,851108,1385571332052685197,/world,vicon/Archie/Archie,-0.991691753367,0.893854042906,0.11695189913,0.00461768688908,0.00153892821224,0.690328681317,0.723479523151
1385571332062593797,851109,1385571332062593797,/world,vicon/Archie/Archie,-0.991696721797,0.893859407154,0.116951168427,0.0046052009964,0.00156843689462,0.690318003318,0.723489727933
1385571332072705758,851110,1385571332072705758,/world,vicon/Archie/Archie,-0.991721422603,0.893840780203,0.116955050426,0.00462266783035,0.00154554347442,0.690333055483,0.72347530348
1385571332082639595,851111,1385571332082639595,/world,vicon/Archie/Archie,-0.991673146997,0.893844353,0.11691702202,0.00472246155859,0.00138623412898,0.690364774824,0.723444714124
1385571332092614491,851112,1385571332092614491,/world,vicon/Archie/Archie,-0.991696902738,0.893815560906,0.116908857592,0.00472580298608,0.00136511428214,0.690365000812,0.72344451681
1385571332102564289,851113,1385571332102564289,/world,vicon/Archie/Archie,-0.991695555339,0.893824364343,0.116913984099,0.00472046610304,0.00136895275113,0.690369864318,0.723439903247
1385571332112563101,851114,1385571332112563101,/world,vicon/Archie/Archie,-0.99169064142,0.893825051471,0.116911224071,0.00471628350644,0.00137039567679,0.690369158081,0.723440601747
1385571332122643253,851115,1385571332122643253,/world,vicon/Archie/Archie,-0.99168696673,0.89380805904,0.116898351828,0.00485762721497,0.0014649359246,0.690324883534,0.723481729275
1385571332132653206,851116,1385571332132653206,/world,vicon/Archie/Archie,-0.991723204595,0.89384683227,0.116947642429,0.00460621827682,0.00154463054647,0.69032645842,0.723481705142
1385571332142558095,851117,1385571332142558095,/world,vicon/Archie/Archie,-0.99169247276,0.893823295283,0.116910283556,0.0047400493413,0.001356639391,0.6903677822,0.723441785331
1385571332152592119,851118,1385571332152592119,/world,vicon/Archie/Archie,-0.991693586996,0.893821320594,0.116913050873,0.00473949635414,0.00134464826295,0.690373771403,0.723436095902
1385571332162634179,851119,1385571332162634179,/world,vicon/Archie/Archie,-0.991654419296,0.893851125716,0.116913393608,0.00472437669856,0.00139346767862,0.690356476574,0.723452606441
1385571332172590346,851120,1385571332172590346,/world,vicon/Archie/Archie,-0.991665094924,0.893795099813,0.1168645242,0.00500051369645,0.00131094181159,0.690349331413,0.723457722961
1385571332182516919,851121,1385571332182516919,/world,vicon/Archie/Archie,-0.991668190779,0.893802585735,0.11685536634,0.00497913892603,0.00131520499714,0.690346018233,0.723461024189
1385571332192374021,851122,1385571332192374021,/world,vicon/Archie/Archie,-0.991691081922,0.893824253467,0.116902778498,0.00471005401605,0.00137010119887,0.690361429794,0.723448017805
1385571332202368319,851123,1385571332202368319,/world,vicon/Archie/Archie,-0.991688836149,0.893820523429,0.116899546478,0.00472656375819,0.00137136856023,0.690363436032,0.723445993239
1385571332212437103,851124,1385571332212437103,/world,vicon/Archie/Archie,-0.99166424592,0.893800949308,0.116857859318,0.00498663194033,0.00132003515126,0.690348161294,0.723458918811
1385571332222902687,851125,1385571332222902687,/world,vicon/Archie/Archie,-0.991687201134,0.893874485064,0.116941275926,0.00461038268839,0.00156247791961,0.690317159254,0.723490513189
1385571332232993218,851126,1385571332232993218,/world,vicon/Archie/Archie,-0.991695109304,0.893837825709,0.11690725676,0.00472557375039,0.00136106367841,0.690360156864,0.723449148367
1385571332243083749,851127,1385571332243083749,/world,vicon/Archie/Archie,-0.991662058235,0.893795552786,0.116846675848,0.00498779843841,0.0012998877658,0.690347770471,0.723459320186
1385571332252864221,851128,1385571332252864221,/world,vicon/Archie/Archie,-0.991661631488,0.893804071281,0.116847890959,0.00497341775129,0.00132190778911,0.690343731171,0.723463233696
1385571332262960168,851129,1385571332262960168,/world,vicon/Archie/Archie,-0.991680879778,0.893822290602,0.116892257932,0.00486687208179,0.00148621442802,0.690328281274,0.723478381706
1385571332272924280,851130,1385571332272924280,/world,vicon/Archie/Archie,-0.991694812455,0.893820477906,0.116898826282,0.00471307542518,0.00136835617231,0.690361433596,0.723447997803
1385571332282857296,851131,1385571332282857296,/world,vicon/Archie/Archie,-0.991692794607,0.893824610137,0.116896848959,0.00470500425726,0.00135744522843,0.690358618812,0.723450756934
1385571332293008879,851132,1385571332293008879,/world,vicon/Archie/Archie,-0.991692876557,0.893830475275,0.116898035977,0.00470281767379,0.0013547869984,0.690345536972,0.723463259358
1385571332302954892,851133,1385571332302954892,/world,vicon/Archie/Archie,-0.991667526677,0.893798246049,0.116845912054,0.00496001552006,0.00128929973104,0.690350546776,0.723456880898
1385571332313248588,851134,1385571332313248588,/world,vicon/Archie/Archie,-0.991663441401,0.893857997782,0.116910743344,0.00474795508174,0.00136795920959,0.690350309233,0.723458385915
1385571332323252027,851135,1385571332323252027,/world,vicon/Archie/Archie,-0.991693592844,0.893819300918,0.116900828393,0.00475054960127,0.00132341474679,0.690356759378,0.723452296722
1385571332333175836,851136,1385571332333175836,/world,vicon/Archie/Archie,-0.991680384347,0.893818616284,0.116900025026,0.0048755010502,0.00147365277511,0.69030984259,0.723495942671
1385571332343176597,851137,1385571332343176597,/world,vicon/Archie/Archie,-0.991690503283,0.89382964899,0.116901307241,0.00473442496934,0.00135574611091,0.690357395363,0.723451735668
1385571332353254762,851138,1385571332353254762,/world,vicon/Archie/Archie,-0.991717832424,0.893846473808,0.116938629351,0.00460554215383,0.00153595089302,0.690326660379,0.723481535221
1385571332363128732,851139,1385571332363128732,/world,vicon/Archie/Archie,-0.991661473787,0.893796199771,0.116860109823,0.0049829156917,0.00133138207429,0.690337253403,0.723469332133
1385571332372710709,851140,1385571332372710709,/world,vicon/Archie/Archie,-0.991660656395,0.893803542769,0.116849450523,0.00496915074955,0.00129685380726,0.690337794234,0.723468973463
1385571332382646009,851141,1385571332382646009,/world,vicon/Archie/Archie,-0.991692920846,0.893824770673,0.116913175335,0.00472832567169,0.00137455675458,0.690355548633,0.723453502308
1385571332392650105,851142,1385571332392650105,/world,vicon/Archie/Archie,-0.991685897549,0.893810898151,0.116899911529,0.00486112122835,0.00146335561268,0.690319526365,0.723486820619
1385571332402751615,851143,1385571332402751615,/world,vicon/Archie/Archie,-0.991717425179,0.893847953376,0.116947502103,0.00461275245508,0.0015303418855,0.690326987618,0.723481188929
1385571332412667091,851144,1385571332412667091,/world,vicon/Archie/Archie,-0.991687394858,0.893825045236,0.116907757821,0.00473110422643,0.00133983011649,0.690366395462,0.723443198547
1385571332422605066,851145,1385571332422605066,/world,vicon/Archie/Archie,-0.991687081413,0.893830444272,0.11690628677,0.00470685485083,0.00140543775852,0.690369355339,0.723440407685
1385571332433065335,851146,1385571332433065335,/world,vicon/Archie/Archie,-0.991713863034,0.893847119428,0.116947656678,0.00462216983415,0.00151982204642,0.69031955356,0.723488244313
1385571332442631549,851147,1385571332442631549,/world,vicon/Archie/Archie,-0.991694168557,0.893831659998,0.116909525112,0.00472851566257,0.00136921763068,0.690359067096,0.723450153681
1385571332452637981,851148,1385571332452637981,/world,vicon/Archie/Archie,-0.991688721544,0.893818592595,0.116900717947,0.00487912033259,0.00147814946582,0.690307394381,0.723498245003
1385571332462558775,851149,1385571332462558775,/world,vicon/Archie/Archie,-0.991653169421,0.893837727648,0.116899355636,0.00485522890821,0.00149967271983,0.690306693831,0.723499029844
1385571332472651706,851150,1385571332472651706,/world,vicon/Archie/Archie,-0.991694276432,0.893827537984,0.116916418183,0.00472998591412,0.00136198734716,0.690356450474,0.723452654645
1385571332482627477,851151,1385571332482627477,/world,vicon/Archie/Archie,-0.991690807015,0.893828102089,0.116910082846,0.00473092589281,0.00136951093966,0.690351424899,0.723457429929
1385571332492655722,851152,1385571332492655722,/world,vicon/Archie/Archie,-0.991695566858,0.893807169884,0.116906884957,0.00488254277944,0.00147432287547,0.69032588307,0.72348058876
1385571332502609329,851153,1385571332502609329,/world,vicon/Archie/Archie,-0.991692086813,0.893832436577,0.116914393154,0.00472336800189,0.00135436465582,0.69034970092,0.723459152911
1385571332512660625,851154,1385571332512660625,/world,vicon/Archie/Archie,-0.991698263298,0.893829415217,0.116918370405,0.00472321712287,0.00137175855392,0.690349315597,0.723459488813
1385571332522691085,851155,1385571332522691085,/world,vicon/Archie/Archie,-0.991712870752,0.89384415218,0.116947584327,0.00462433434721,0.00151485224427,0.690317819951,0.723489895032
1385571332532600273,851156,1385571332532600273,/world,vicon/Archie/Archie,-0.991688174588,0.893829872742,0.116911668687,0.00475150425857,0.00135586140056,0.690346273486,0.723462236424
1385571332542621892,851157,1385571332542621892,/world,vicon/Archie/Archie,-0.991685567691,0.893823565785,0.116914297616,0.00474747682314,0.001343758766,0.69035170879,0.723457098899
1385571332552616882,851158,1385571332552616882,/world,vicon/Archie/Archie,-0.991714416553,0.893841777069,0.116948933487,0.00461821277666,0.00153098764842,0.690332544973,0.723475850004
1385571332562586625,851159,1385571332562586625,/world,vicon/Archie/Archie,-0.991692938952,0.89382186822,0.116916776212,0.00471068270319,0.00136037601782,0.69036335419,0.723446195675
1385571332572651863,851160,1385571332572651863,/world,vicon/Archie/Archie,-0.991663948683,0.893796740604,0.116864747584,0.00497308447967,0.00133354754184,0.690340059103,0.723466718571
1385571332582571282,851161,1385571332582571282,/world,vicon/Archie/Archie,-0.991695263605,0.893823817483,0.116920427792,0.00472024696848,0.00135041931782,0.690350878407,0.723458057056
1385571332592428192,851162,1385571332592428192,/world,vicon/Archie/Archie,-0.99167246303,0.893849981015,0.116915519638,0.0047192339056,0.00138403995122,0.690349501667,0.723459313861
1385571332602490307,851163,1385571332602490307,/world,vicon/Archie/Archie,-0.991686610237,0.893819757964,0.116900583008,0.00485288281589,0.00148212484233,0.69030725159,0.723498549574
1385571332612414634,851164,1385571332612414634,/world,vicon/Archie/Archie,-0.991694487572,0.893833965799,0.116906813964,0.00471425605598,0.00137379508592,0.690353217913,0.723455819656
1385571332622407745,851165,1385571332622407745,/world,vicon/Archie/Archie,-0.991686883066,0.893820395979,0.11691155189,0.00472484841681,0.00135058141438,0.690360815872,0.723448543882
1385571332632459279,851166,1385571332632459279,/world,vicon/Archie/Archie,-0.991664149537,0.893847560156,0.116913325582,0.0047328238016,0.00138736185736,0.690340926016,0.723467401805
1385571332642976937,851167,1385571332642976937,/world,vicon/Archie/Archie,-0.991716246746,0.893846313931,0.116949142652,0.00460028183921,0.00153597559362,0.690331679976,0.723476779039
1385571332652953638,851168,1385571332652953638,/world,vicon/Archie/Archie,-0.991663914815,0.893791049466,0.116858888453,0.00496480496335,0.00129096475896,0.690354072308,0.723453480861
1385571332662898541,851169,1385571332662898541,/world,vicon/Archie/Archie,-0.991688334,0.893829499626,0.116909905565,0.004742747725,0.00136949497698,0.690356093933,0.723452897151
1385571332673012088,851170,1385571332673012088,/world,vicon/Archie/Archie,-0.991686272757,0.893817355398,0.116910606564,0.00473000421087,0.00135773041719,0.690360903071,0.723448413599
1385571332683097332,851171,1385571332683097332,/world,vicon/Archie/Archie,-0.991679368806,0.893805826949,0.116897479958,0.00486148461128,0.0014915154797,0.690320296221,0.723486026109
1385571332692908277,851172,1385571332692908277,/world,vicon/Archie/Archie,-0.99171213328,0.893845844317,0.116948898235,0.0046084262618,0.00154062071837,0.690328813036,0.723479452913
1385571332702949031,851173,1385571332702949031,/world,vicon/Archie/Archie,-0.991689146559,0.893822781629,0.116914610059,0.00471987108982,0.0013726021791,0.690355067634,0.72345402022
1385571332712969313,851174,1385571332712969313,/world,vicon/Archie/Archie,-0.991725478537,0.893843628525,0.116952457923,0.00463195216469,0.0015191601644,0.690321956388,0.723485890464
1385571332723251841,851175,1385571332723251841,/world,vicon/Archie/Archie,-0.991691967575,0.893806823322,0.116909085772,0.00485855053334,0.00148045063361,0.690318218536,0.723488050979
1385571332732854554,851176,1385571332732854554,/world,vicon/Archie/Archie,-0.991669666695,0.893848009937,0.116909276246,0.0046998507808,0.00138878268768,0.690341973992,0.72346661404
1385571332742887087,851177,1385571332742887087,/world,vicon/Archie/Archie,-0.991669682174,0.893849884241,0.116906343143,0.00469607084536,0.00138478972092,0.690350073334,0.723458917647
1385571332752845089,851178,1385571332752845089,/world,vicon/Archie/Archie,-0.99169380021,0.893822648824,0.116912021251,0.00471798218893,0.00137513762004,0.690363667797,0.723445820934
1385571332763099672,851179,1385571332763099672,/world,vicon/Archie/Archie,-0.991660867294,0.893844424124,0.116906345042,0.00473121721002,0.00139022506355,0.690364497504,0.723444913897
1385571332772901908,851180,1385571332772901908,/world,vicon/Archie/Archie,-0.991639001506,0.893800963015,0.116860511218,0.00496921147404,0.00132281666745,0.690344595094,0.723462436563
1385571332782894001,851181,1385571332782894001,/world,vicon/Archie/Archie,-0.991701566495,0.8938201047,0.11690976707,0.00471936873172,0.0013611923011,0.690367278346,0.723442392802
1385571332792672274,851182,1385571332792672274,/world,vicon/Archie/Archie,-0.991695947774,0.893814908988,0.116903499137,0.00469828415171,0.00136756082442,0.690381392113,0.72342904927
1385571332802672279,851183,1385571332802672279,/world,vicon/Archie/Archie,-0.991693406969,0.893824138715,0.116907075601,0.00472090049793,0.00136232648195,0.690357701265,0.723451519778
1385571332812632505,851184,1385571332812632505,/world,vicon/Archie/Archie,-0.991718453175,0.893834794017,0.116947758581,0.00459813611641,0.00150913037998,0.690329556473,0.723478875386
1385571332822733231,851185,1385571332822733231,/world,vicon/Archie/Archie,-0.99168472616,0.893813810654,0.116900048448,0.00472507664586,0.00137036647728,0.690362592202,0.723446810093
1385571332832615827,851186,1385571332832615827,/world,vicon/Archie/Archie,-0.991693916084,0.893818856608,0.116911349795,0.00472321010716,0.00135783881212,0.690371234714,0.723438598527
1385571332842718019,851187,1385571332842718019,/world,vicon/Archie/Archie,-0.991691327613,0.893828069514,0.116908199346,0.00473461613526,0.00134631918858,0.690377817571,0.723432263478
1385571332852659894,851188,1385571332852659894,/world,vicon/Archie/Archie,-0.991678173702,0.893814461051,0.116893964742,0.00487486693313,0.00147523925086,0.690330170996,0.723476547204
1385571332862609219,851189,1385571332862609219,/world,vicon/Archie/Archie,-0.991670310293,0.89379073939,0.116853123062,0.00499952025989,0.00127189679366,0.690348271044,0.723458811365
1385571332872627150,851190,1385571332872627150,/world,vicon/Archie/Archie,-0.99166010756,0.893786902556,0.116853338508,0.00498075586253,0.00130851457393,0.690346858076,0.72346022379
1385571332882651440,851191,1385571332882651440,/world,vicon/Archie/Archie,-0.991655261821,0.893779698854,0.11685950275,0.00498915429265,0.0012995567082,0.690347493277,0.723459575939
1385571332892588646,851192,1385571332892588646,/world,vicon/Archie/Archie,-0.991685836718,0.893814381487,0.116913111404,0.00473644347201,0.00139794732771,0.690375132738,0.723434715744
1385571332902681853,851193,1385571332902681853,/world,vicon/Archie/Archie,-0.991682010201,0.893809417361,0.116899939617,0.00486321153849,0.00147761937536,0.690323102792,0.723483365093
1385571332912588167,851194,1385571332912588167,/world,vicon/Archie/Archie,-0.991659889065,0.893794457804,0.116860398542,0.0049466627515,0.00131541295278,0.69034661113,0.723460680838
1385571332922641356,851195,1385571332922641356,/world,vicon/Archie/Archie,-0.991686139058,0.893804761547,0.116893250203,0.00485911028877,0.00147242661612,0.690332823902,0.723474127561
1385571332932656295,851196,1385571332932656295,/world,vicon/Archie/Archie,-0.991711158882,0.893833699119,0.116943891962,0.00460246353462,0.00152146588484,0.69033754403,0.723471200376
1385571332942658553,851197,1385571332942658553,/world,vicon/Archie/Archie,-0.99169953776,0.893831335208,0.116908354349,0.00471388189622,0.00136344865643,0.690363661598,0.723445875702
1385571332952680332,851198,1385571332952680332,/world,vicon/Archie/Archie,-0.991715073479,0.8938425324,0.116944223017,0.00461689587794,0.00151211983076,0.690338004708,0.723470688434
1385571332962612123,851199,1385571332962612123,/world,vicon/Archie/Archie,-0.991712859909,0.893837963167,0.116945664923,0.00461757592867,0.00151307846484,0.690336781171,0.723471849589
1385571332972631532,851200,1385571332972631532,/world,vicon/Archie/Archie,-0.991708221467,0.893839583583,0.116946782783,0.00459590032136,0.00152460283205,0.690333148307,0.723475429877
1385571332982641186,851201,1385571332982641186,/world,vicon/Archie/Archie,-0.991717192052,0.893850313879,0.116951675591,0.00461504251016,0.00153622204962,0.690328202759,0.723480002405
1385571332992624876,851202,1385571332992624876,/world,vicon/Archie/Archie,-0.991686881622,0.893812896154,0.116901660235,0.00486369965722,0.00147402232355,0.690322235305,0.723484196875
1385571333002446811,851203,1385571333002446811,/world,vicon/Archie/Archie,-0.991687382925,0.893813276901,0.116907432471,0.00473269638318,0.00136878713719,0.690375470751,0.723434473461
1385571333013372455,851204,1385571333013372455,/world,vicon/Archie/Archie,-0.991712332301,0.893838081771,0.116952285887,0.00462186073079,0.00153223613635,0.690339267759,0.723469409198
1385571333022495466,851205,1385571333022495466,/world,vicon/Archie/Archie,-0.991688304136,0.893810671418,0.11690145388,0.00486604761921,0.00147463141168,0.690332763308,0.723474134262
1385571333032476508,851206,1385571333032476508,/world,vicon/Archie/Archie,-0.991699555989,0.893820212198,0.116914581486,0.00471500908808,0.00135730938593,0.690370810146,0.723439058179
1385571333042445659,851207,1385571333042445659,/world,vicon/Archie/Archie,-0.991694303831,0.893820235778,0.116910764993,0.00471848375966,0.00136741900703,0.690372206606,0.723437683855
1385571333052409426,851208,1385571333052409426,/world,vicon/Archie/Archie,-0.991659310815,0.893795440279,0.116864482975,0.0049790832591,0.00132091834662,0.690367970552,0.723440066032
1385571333063035724,851209,1385571333063035724,/world,vicon/Archie/Archie,-0.991718605097,0.893846635794,0.116948158916,0.00461253692833,0.00151862641566,0.69033465916,0.723473894926
1385571333072932081,851210,1385571333072932081,/world,vicon/Archie/Archie,-0.991693606799,0.893820265274,0.116912868486,0.00471165525986,0.00133368554526,0.690374388611,0.723435709056
1385571333082988914,851211,1385571333082988914,/world,vicon/Archie/Archie,-0.991664494361,0.893796325319,0.11686168363,0.00497306594563,0.00130799416489,0.69034732753,0.723459829665
1385571333093397796,851212,1385571333093397796,/world,vicon/Archie/Archie,-0.991695475232,0.893869809518,0.11695236418,0.00459496393854,0.00153850091835,0.690316846784,0.723490960806
1385571333103074730,851213,1385571333103074730,/world,vicon/Archie/Archie,-0.99169397478,0.893818038107,0.116913098162,0.00471360546401,0.00136061424877,0.690366368843,0.723443299384
1385571333112873375,851214,1385571333112873375,/world,vicon/Archie/Archie,-0.991697930739,0.893825778931,0.116909787967,0.0047223594923,0.0013517395587,0.690365375031,0.723444207302
1385571333123213856,851215,1385571333123213856,/world,vicon/Archie/Archie,-0.9916670612,0.893790818207,0.116870422732,0.00496848353631,0.00134765774883,0.690351536181,0.723455772305
1385571333133353846,851216,1385571333133353846,/world,vicon/Archie/Archie,-0.991696746115,0.893822739377,0.116902137643,0.0046929112139,0.00136264174846,0.690372359882,0.723437712939
1385571333143216466,851217,1385571333143216466,/world,vicon/Archie/Archie,-0.991685101104,0.893824930008,0.116912537356,0.0047097374654,0.00135010935948,0.690366967832,0.723442772654
1385571333152746597,851218,1385571333152746597,/world,vicon/Archie/Archie,-0.991710849065,0.893843565446,0.116939574467,0.00458239074029,0.00153421805694,0.690329339136,0.723479129898
1385571333162677204,851219,1385571333162677204,/world,vicon/Archie/Archie,-0.991664680965,0.893792158261,0.116861417996,0.00496296852086,0.00128468196435,0.690347092705,0.723460164853
1385571333172666417,851220,1385571333172666417,/world,vicon/Archie/Archie,-0.991659935,0.893791247288,0.11685678343,0.0049634308267,0.00130494609604,0.690337322647,0.723469448166
1385571333182623324,851221,1385571333182623324,/world,vicon/Archie/Archie,-0.991676386101,0.893782922132,0.116859292319,0.00495903549633,0.00130080756866,0.690349022835,0.723458321216
1385571333192666721,851222,1385571333192666721,/world,vicon/Archie/Archie,-0.991666816826,0.893841882513,0.116905211984,0.00472127654354,0.00138182569646,0.690348342619,0.723460410768
1385571333202649765,851223,1385571333202649765,/world,vicon/Archie/Archie,-0.991696042373,0.893855844143,0.116949997886,0.00459522535287,0.00155769573498,0.690321672381,0.723486313712
1385571333212646530,851224,1385571333212646530,/world,vicon/Archie/Archie,-0.991630335047,0.893813217845,0.116858951028,0.00496000591302,0.00131546687982,0.690329803069,0.723476627738
1385571333222670937,851225,1385571333222670937,/world,vicon/Archie/Archie,-0.991696695044,0.893807742407,0.116906475884,0.00488017014836,0.00147849177306,0.690314343139,0.723491607179
1385571333232778451,851226,1385571333232778451,/world,vicon/Archie/Archie,-0.991686629868,0.893808921452,0.11689957852,0.00486230515005,0.00149284309237,0.690309871821,0.723495964242
1385571333242622792,851227,1385571333242622792,/world,vicon/Archie/Archie,-0.991666456198,0.893782424204,0.116866352222,0.00497484666611,0.00129235111527,0.690327655903,0.723478616287
1385571333252695916,851228,1385571333252695916,/world,vicon/Archie/Archie,-0.991700084688,0.893801722578,0.116899707149,0.00486489621435,0.0014885310483,0.690311214203,0.723494674898
1385571333262669431,851229,1385571333262669431,/world,vicon/Archie/Archie,-0.991694126522,0.893822672832,0.116919202492,0.00473426775902,0.00138848174289,0.690368954905,0.723440643681
1385571333272700870,851230,1385571333272700870,/world,vicon/Archie/Archie,-0.991637461712,0.893811565759,0.116858282026,0.00497566076828,0.00131576713036,0.690329381458,0.72347692199
1385571333282688180,851231,1385571333282688180,/world,vicon/Archie/Archie,-0.991667790131,0.893792287876,0.116866789909,0.00498493532783,0.00131641400763,0.690352115549,0.723455163801
1385571333292700767,851232,1385571333292700767,/world,vicon/Archie/Archie,-0.991683919714,0.893801252471,0.116898848102,0.00489709576231,0.00147967222954,0.690316388111,0.723489539198
1385571333302636097,851233,1385571333302636097,/world,vicon/Archie/Archie,-0.991634617983,0.893818481302,0.116862120086,0.00497366332542,0.00136082415743,0.690347825772,0.723459252676
1385571333312690135,851234,1385571333312690135,/world,vicon/Archie/Archie,-0.991685791119,0.893795279804,0.116905848664,0.00487527251389,0.00146729810442,0.690313623703,0.72349234943
1385571333322706607,851235,1385571333322706607,/world,vicon/Archie/Archie,-0.991677141542,0.893804271669,0.116902476009,0.00486817862243,0.00150161145245,0.690315581825,0.723490458464
1385571333332657239,851236,1385571333332657239,/world,vicon/Archie/Archie,-0.991665813133,0.893844811079,0.116921488544,0.00472698049883,0.00136886705785,0.690356527523,0.72345258778
1385571333342674564,851237,1385571333342674564,/world,vicon/Archie/Archie,-0.991698629114,0.893823224788,0.116910070567,0.00472787348127,0.00135059129641,0.690357117034,0.723452053751
1385571333352858238,851238,1385571333352858238,/world,vicon/Archie/Archie,-0.991631425599,0.893815660709,0.116867251459,0.00498011760622,0.00131213805279,0.690341654176,0.723465187297
