%time,field.linear.x,field.linear.y,field.linear.z,field.angular.x,field.angular.y,field.angular.z
1385571332937334974,0.0,0.0,0.0,0.0,0.0,0.0
1385571332937371762,-0.991711158882,-0.893833699119,-0.116943891962,0.00876033727722,0.00415304518434,-1.52391523081
1385571332947156663,-0.99169953776,-0.893831335208,-0.116908354349,0.00870322704677,0.00453583847124,-1.52398644111
1385571332957211717,-0.991715073479,-0.8938425324,-0.116944223017,0.00876831444705,0.00418650085604,-1.523916441
1385571332968032805,-0.991712859909,-0.893837963167,-0.116945664923,0.00877062911678,0.00418603788102,-1.52391306454
1385571332977215688,-0.991708221467,-0.893839583583,-0.116946782783,0.00875519652668,0.00413939111878,-1.52390310105
1385571332987127761,-0.991717192052,-0.893850313879,-0.116951675591,0.0087989660146,0.00414894804223,-1.52388949899
1385571332997237958,-0.991686881622,-0.893812896154,-0.116901660235,0.00907294017728,0.00458219235955,-1.52387253906
1385571333007656503,-0.991687382925,-0.893813276901,-0.116907432471,0.00873774735902,0.00455423512643,-1.52401911319
1385571333017302630,-0.991712332301,-0.893838081771,-0.116952285887,0.00880326528215,0.004164263996,-1.52392005957
1385571333027147413,-0.991688304136,-0.893810671418,-0.11690145388,0.00907711197706,0.00458468489202,-1.52390164552
1385571333037168624,-0.991699555989,-0.893820212198,-0.116914581486,0.00869633651308,0.00454636370211,-1.52400616776
1385571333047226885,-0.991694303831,-0.893820235778,-0.116910764993,0.00871531409049,0.00453655077195,-1.52401008557
1385571333057158892,-0.991659310815,-0.893795440279,-0.116864482975,0.00902820993965,0.0049636090795,-1.52399802955
1385571333067148692,-0.991718605097,-0.893846635794,-0.116948158916,0.00877100976718,0.00417102717501,-1.52390723506
1385571333077212698,-0.991693606799,-0.893820265274,-0.116912868486,0.00865884286727,0.00457595671215,-1.52401592698
1385571333087186621,-0.991664494361,-0.893796325319,-0.11686168363,0.00900180035072,0.00497374360574,-1.52394089163
1385571333097265201,-0.991695475232,-0.893869809518,-0.11695236418,0.00877312287406,0.00411779065604,-1.52385812711
1385571333107254727,-0.99169397478,-0.893818038107,-0.116913098162,0.00869889655435,0.00453959044592,-1.52399390907
1385571333117204966,-0.991697930739,-0.893825778931,-0.116909787967,0.00869931596057,0.00456450650684,-1.52399110815
1385571333127210291,-0.9916670612,-0.893790818207,-0.116870422732,0.00904990400381,0.004910078658,-1.52395275195
1385571333137129479,-0.991696746115,-0.893822739377,-0.116902137643,0.00867171511184,0.00450815478899,-1.52401048921
1385571333147205300,-0.991685101104,-0.893824930008,-0.116912537356,0.00867879163338,0.00454945632348,-1.52399550588
1385571333157192003,-0.991710849065,-0.893843565446,-0.116939574467,0.00874894499603,0.0041067795969,-1.52389263622
1385571333167203992,-0.991664680965,-0.893792158261,-0.116861417996,0.00895500429942,0.00499353008024,-1.52394011683
1385571333177157829,-0.991659935,-0.893791247288,-0.11685678343,0.00898371866791,0.00496472622762,-1.5239132199
1385571333187220468,-0.991676386101,-0.893782922132,-0.116859292319,0.0089715643784,0.00496479089478,-1.52394554279
1385571333197257066,-0.991666816826,-0.893841882513,-0.116905211984,0.00873939598625,0.00451927388528,-1.52394419657
1385571333207192687,-0.991696042373,-0.893855844143,-0.116949997886,0.00879997474742,0.00409043561736,-1.52387159098
1385571333217154775,-0.991630335047,-0.893813217845,-0.116858951028,0.00899333985846,0.00494468087553,-1.52389249258
1385571333227215336,-0.991696695044,-0.893807742407,-0.116906475884,0.00910299440067,0.00459836632793,-1.52385074531
1385571333237186522,-0.991686629868,-0.893808921452,-0.11689957852,0.00909698470616,0.00455287831382,-1.5238384803
1385571333247196947,-0.991666456198,-0.893782424204,-0.116866352222,0.00898291482686,0.00499859249744,-1.5238864237
1385571333257219721,-0.991700084688,-0.893801722578,-0.116899707149,0.00909477240659,0.004562712083,-1.52384216323
1385571333267207830,-0.991694126522,-0.893822672832,-0.116919202492,0.00876725499296,0.00452783018945,-1.5240012142
1385571333277215269,-0.991637461712,-0.893811565759,-0.116858282026,0.00901641022819,0.00496585574338,-1.52389132374
1385571333287214496,-0.991667790131,-0.893792287876,-0.116866789909,0.00903056742973,0.00497800883547,-1.5239541712
1385571333297202062,-0.991683919714,-0.893801252471,-0.116898848102,0.00912910332296,0.00462005259444,-1.5238564006
1385571333307217457,-0.991634617983,-0.893818481302,-0.116862120086,0.00907560295672,0.00489813325548,-1.5239425688
1385571333317219628,-0.991685791119,-0.893795279804,-0.116905848664,0.00908045765616,0.00460779247068,-1.52384868849
1385571333327209624,-0.991677141542,-0.893804271669,-0.116902476009,0.00911755376574,0.00454837168254,-1.52385431815
1385571333337203161,-0.991665813133,-0.893844811079,-0.116921488544,0.00872970624728,0.00454599851303,-1.52396674645
1385571333347156811,-0.991698629114,-0.893823224788,-0.116910070567,0.00870576121014,0.00457368206393,-1.52396827072
1385571333357205274,-0.991631425599,-0.893815660709,-0.116867251459,0.00901776446583,0.00497741340054,-1.52392522883
1385571333367226996,-0.991661124721,-0.893781259254,-0.116856049382,0.00903319583084,0.00495020678478,-1.52394278289
1385571333377161174,-0.9916996199,-0.89382095498,-0.116910459321,0.00871691233611,0.00453605769723,-1.5239900842
1385571333387213413,-0.99172080785,-0.893839772055,-0.116943783028,0.0088099213169,0.0041288904336,-1.52390168307
1385571333397224165,-0.991701265464,-0.893821415984,-0.116908234338,0.00869588415292,0.00457612108622,-1.52397225127
1385571333407166911,-0.991662772577,-0.893784832259,-0.116868631151,0.00904162782229,0.0049470624751,-1.52396261216
1385571333417163558,-0.991689757453,-0.893820318657,-0.116911431381,0.00871937939988,0.00448804545614,-1.52398631989
1385571333427317431,-0.991712483584,-0.893834026271,-0.116947830551,0.00881270556518,0.00412949925967,-1.52392464022
1385571333437224102,-0.991688348702,-0.893815497196,-0.116898838278,0.00911282969008,0.00458239784252,-1.52387068564
1385571333447195319,-0.991645767144,-0.893783543452,-0.11686275909,0.00902157784312,0.00496324400106,-1.52412237574
1385571333457183670,-0.991667526541,-0.893831645314,-0.116902849209,0.00885950338003,0.00447704668715,-1.52395608153
1385571333467214286,-0.991644317219,-0.893773989668,-0.116926973457,0.00853846143141,0.00527857527566,-1.52342312795
1385571333477203252,-0.991681594696,-0.893738438929,-0.116840909729,0.00858158764785,0.00600317109092,-1.52367640504
1385571333487211056,-0.991697703943,-0.893783827539,-0.116828812427,0.00911391182001,0.00534868800871,-1.52418141391
1385571333497256334,-0.991618472842,-0.893744393381,-0.11696717368,0.00828424189571,0.00540639845785,-1.52347823988
1385571333507204373,-0.991632678711,-0.893628099413,-0.117112395655,0.00844838058183,0.00633085081924,-1.52257369613
1385571333517206377,-0.991734178028,-0.893878964622,-0.116878520907,0.00920067867406,0.0048041054157,-1.5230708975
1385571333527209562,-0.991735764083,-0.893863321707,-0.116928773148,0.00864187555442,0.00476539015723,-1.52402119289
1385571333537199106,-0.991701418262,-0.893840496005,-0.117005335341,0.00864118150772,0.005083066118,-1.522703881
1385571333547206813,-0.991662156901,-0.893679814748,-0.117085884898,0.00865168252796,0.00628263813508,-1.52197281024
1385571333557194010,-0.991654823784,-0.893842579623,-0.116922927622,0.00859170818903,0.00552101796262,-1.52358312099
1385571333567215577,-0.991650467611,-0.893850184959,-0.11695836515,0.00876395739235,0.00493106332972,-1.52386575841
1385571333577191081,-0.991664546761,-0.893843606139,-0.116990626672,0.00892907388818,0.00506959189829,-1.52271365504
1385571333587272437,-0.991660547381,-0.893817082856,-0.117010332454,0.00909482750306,0.0050195584231,-1.52238384628
1385571333597203294,-0.991603987833,-0.893805820451,-0.11697824795,0.00925909694192,0.00488965733867,-1.52345472347
1385571333607234857,-0.991625532259,-0.893835921892,-0.11702236501,0.0089432915277,0.00459360259961,-1.52354968513
1385571333617201235,-0.991590609913,-0.893809814731,-0.11701749281,0.00904270591454,0.00498740319905,-1.52277608608
1385571333629852115,-0.991572749626,-0.893777985593,-0.116973018367,0.00888254788991,0.0052576969964,-1.5232896213
1385571333637703572,-0.99156597365,-0.893786139453,-0.116947667286,0.00892136892882,0.00541492843282,-1.52392353544
1385571333647197475,-0.991600255891,-0.893782097492,-0.116983418545,0.00907223541306,0.0050955759747,-1.52314820028
1385571333657226808,-0.991612018403,-0.893797636872,-0.117024519836,0.00895570963857,0.00505651492445,-1.52251195066
1385571333667265864,-0.991587400832,-0.893789468572,-0.117012923921,0.00913350131654,0.00487782241553,-1.52356099134
1385571333677184946,-0.991589154506,-0.89381655961,-0.117011625867,0.00911761077223,0.00509916527158,-1.5239409426
1385571333687230218,-0.99159666339,-0.89379053679,-0.116983413431,0.00913644779221,0.00508859448296,-1.52277224529
1385571333697285811,-0.991605401131,-0.893809737044,-0.116995272493,0.00911713897559,0.00490419598392,-1.52264802762
1385571333707232840,-0.99158829061,-0.893807076752,-0.116999459729,0.00904940182202,0.00489952955432,-1.52372130568
1385571333717335231,-0.991601152869,-0.893806565997,-0.116984257784,0.00905925302542,0.00512554722147,-1.52352609196
1385571333727244364,-0.991599735429,-0.893791471137,-0.117005900955,0.00895566290566,0.00506164411163,-1.52272767746
1385571333737171560,-0.991599735429,-0.893791471137,-0.117005900955,0.00895566290566,0.00506164411163,-1.52272767746
1385571333747262800,-0.991597018889,-0.893805875959,-0.116999838927,0.00884647756504,0.00486682813898,-1.52365409837
1385571333757199757,-0.991563773898,-0.893779601598,-0.116949276295,0.00905980654887,0.00546203162527,-1.52328300566
1385571333767201986,-0.991632491681,-0.89387778887,-0.11698308818,0.00924319565493,0.0049816622053,-1.52339813754
1385571333777266962,-0.991579613393,-0.893794627981,-0.116938184266,0.00911465326351,0.0052580687371,-1.52348527989
1385571333787180045,-0.991606027068,-0.893814852868,-0.116979678368,0.00875674844256,0.00492991847448,-1.52340557601
1385571333797240424,-0.991603417424,-0.89380503672,-0.116986499655,0.00913386835226,0.00502681640038,-1.5230456331
1385571333807212479,-0.991571713268,-0.893789306648,-0.116961817881,0.0090340801801,0.0052074510925,-1.52328453017
1385571333817206018,-0.991545189074,-0.893811483979,-0.116961900766,0.00911653278084,0.00519565724992,-1.52341569231
1385571333827193324,-0.991668309154,-0.893774654195,-0.117046701219,0.0088626613378,0.00517034864039,-1.52292712738
1385571333837157719,-0.991576069949,-0.893842744502,-0.11698496617,0.00916844539753,0.00488810539838,-1.52305727924
1385571333847188714,-0.991600339748,-0.893811626567,-0.116991060089,0.0090626283638,0.00481334097131,-1.52335424535
1385571333857223258,-0.991606589528,-0.893802828599,-0.116998112815,0.00904648340959,0.00488692076996,-1.52334631394
1385571333867244233,-0.991533835542,-0.893821225311,-0.116909041973,0.00932345597469,0.00513015824749,-1.52323194436
1385571333877255296,-0.99159696573,-0.893804915704,-0.116979951051,0.00914340200905,0.00482449662772,-1.52317153092
1385571333887271189,-0.991595235332,-0.893866428751,-0.117024784356,0.00880407225134,0.00440841521497,-1.52338808968
1385571333897206832,-0.99157120857,-0.893782723125,-0.116950821421,0.00898722973244,0.00528391996756,-1.52329904591
1385571333907192611,-0.991564165016,-0.89377384711,-0.116958125722,0.00891956057132,0.00537816378919,-1.52330264222
1385571333917243920,-0.991575109847,-0.893829370015,-0.11697405138,0.00912337733172,0.00483605978953,-1.52305971433
1385571333927257227,-0.991605409391,-0.893811053308,-0.116980404228,0.00913255598145,0.00497440196969,-1.52335675911
1385571333937194784,-0.991615147412,-0.893804752169,-0.117006237112,0.00914505293283,0.00477695930075,-1.52328809368
1385571333947184586,-0.99158979655,-0.893802064055,-0.116992542805,0.00917954457494,0.00488188649013,-1.52325540844
1385571333957185368,-0.991596544652,-0.893798932219,-0.116974559323,0.00917274231365,0.00490647583333,-1.52292847832
1385571333967182113,-0.991609861986,-0.893802185012,-0.116974803087,0.00914976741189,0.00496140376283,-1.52318647247
1385571333977234506,-0.991555036122,-0.893818316135,-0.116955370878,0.00899799479057,0.00531549152861,-1.52352523555
1385571333987233575,-0.991574106723,-0.893787537509,-0.116961925913,0.00904659202469,0.0053522784872,-1.5233270919
1385571333997166552,-0.991595856064,-0.893806642453,-0.116993884905,0.00917996627945,0.00499526981678,-1.52310630578
1385571334007197650,-0.991593815783,-0.893816443923,-0.116994447433,0.00918886034888,0.0049929028127,-1.52316919858
1385571334017251546,-0.991557881172,-0.893782627998,-0.116964457458,0.0092593174693,0.00543007374175,-1.52341122564
1385571334027259842,-0.991589173467,-0.893766536122,-0.11704996435,0.00910843564336,0.00497674018459,-1.52299773613
1385571334037208690,-0.991573693809,-0.893803015092,-0.11703574705,0.00929075315198,0.00492867781865,-1.52322312029
1385571334047197534,-0.991555598825,-0.893788292227,-0.116976191218,0.00922021239769,0.00515147832693,-1.52347886818
1385571334057147253,-0.991579340749,-0.893780492565,-0.116964804887,0.00889313779932,0.00522992354064,-1.52344836216
1385571334067274353,-0.991604207069,-0.893817870558,-0.117014612989,0.00883809593679,0.00497918030322,-1.5229443445
1385571334077299630,-0.991593078479,-0.893854308981,-0.117005823211,0.00865677226634,0.0046824728619,-1.52334907122
1385571334087184612,-0.991596366068,-0.893774962111,-0.116941524241,0.00909925425352,0.00558411227913,-1.52359510899
1385571334097161543,-0.991582929694,-0.893818843217,-0.116997828016,0.00933873765749,0.00502806277057,-1.52302581766
1385571334107178498,-0.991600705728,-0.893830703775,-0.117004459445,0.00930690348912,0.00490789786502,-1.52277279859
1385571334117155431,-0.991630462378,-0.893907462159,-0.116980157942,0.00921439990311,0.00580818049798,-1.52440429751
1385571334127223046,-0.991596004927,-0.893794803241,-0.117051501851,0.00924961171047,0.00478049633144,-1.52323251474
1385571334137186471,-0.991595460013,-0.893831801093,-0.11704445698,0.00906223795169,0.00481876356062,-1.52262428493
1385571334147249132,-0.991582437625,-0.893759218375,-0.116913692801,0.00905501686223,0.00588876490372,-1.52387252002
1385571334157329381,-0.991579785104,-0.893787869213,-0.117025515342,0.00919183675096,0.00519238762099,-1.52336538477
1385571334167145254,-0.991481445677,-0.893801411986,-0.117121994132,0.0095759487299,0.00558944894625,-1.52306390009
1385571334177201532,-0.991608468969,-0.89378702348,-0.11699233545,0.00913488014232,0.00574566394673,-1.52369615193
1385571334187351289,-0.991608417212,-0.893821419001,-0.117018270323,0.00942421537814,0.00493309526175,-1.52288952095
1385571334197248329,-0.991519257201,-0.893815560236,-0.117139258333,0.0100146022678,0.0049303319094,-1.5231050039
1385571334207163127,-0.991621486071,-0.893758530802,-0.116929109727,0.00925927239667,0.00673008720701,-1.5235494047
1385571334217225007,-0.991528520475,-0.893832704775,-0.117148042229,0.0100649687761,0.00529687858521,-1.52285349604
1385571334227214813,-0.991513564963,-0.893789962715,-0.117132691043,0.00997143038643,0.00483599423609,-1.52346772838
1385571334237184370,-0.991592993295,-0.893778580359,-0.117003027291,0.00926686412791,0.00563562284452,-1.52356521793
1385571334247202913,-0.991572911719,-0.893819157238,-0.117086641928,0.0091775003841,0.00515582870515,-1.52274286321
1385571334257234819,-0.99160225006,-0.893766877421,-0.116922143434,0.00916180689082,0.00656030339945,-1.52359716666
1385571334267270684,-0.991577283893,-0.893794989307,-0.117082338606,0.00944621298691,0.00472621866235,-1.52363172443
1385571334277232522,-0.991590929681,-0.893775871284,-0.117034494192,0.00930432901408,0.00521941746938,-1.5229928303
1385571334287186140,-0.991605883467,-0.89377929209,-0.116975568859,0.00914917721468,0.00623732018907,-1.52381471373
1385571334297175932,-0.991623749581,-0.893803306314,-0.117108778041,0.00886761891905,0.00433765808428,-1.52357105169
1385571334307170656,-0.991637875953,-0.893768546582,-0.117046380495,0.00848043695108,0.00565185541324,-1.52347897676
1385571334317196031,-0.991604691625,-0.893757800333,-0.117074835573,0.00908390890382,0.00486945981002,-1.52432662431
1385571334327251319,-0.991592858834,-0.893741353959,-0.117000587919,0.00916385402889,0.00547157676536,-1.52342824571
1385571334337237935,-0.991643439285,-0.893744443656,-0.116997523377,0.00943422752605,0.00552796057384,-1.52353921711
1385571334347197627,-0.991629891326,-0.893786060657,-0.117075824426,0.00931321141143,0.00560250043934,-1.52415865796
1385571334357238734,-0.991628978801,-0.893792341249,-0.117133477457,0.00888630889609,0.00458970223908,-1.5233350843
1385571334367316869,-0.991610293521,-0.893787084301,-0.117079732667,0.00911103372353,0.00515193462557,-1.5239509506
1385571334377157680,-0.991581397763,-0.893755858488,-0.117041688828,0.0091462663228,0.00550890482918,-1.52430359412
1385571334387193739,-0.99169851502,-0.893731618919,-0.11697156075,0.00906760680484,0.00647051314872,-1.52298364328
1385571334397213032,-0.991590262905,-0.893749342237,-0.117039454086,0.00905720192882,0.005553501521,-1.52412982458
1385571334407187794,-0.991641855785,-0.893757980962,-0.117021284984,0.00900408425704,0.00607676394384,-1.5237762751
1385571334417265482,-0.991627305753,-0.893733266256,-0.117056650583,0.00901232907556,0.00503694084491,-1.52332697311
1385571334427296005,-0.99158555666,-0.893736318118,-0.117034341825,0.00885659026905,0.00568285329485,-1.52445398042
1385571334437230427,-0.991677640016,-0.893772120224,-0.117021263791,0.00856923738748,0.00522764846481,-1.52348440962
1385571334447230954,-0.991648231625,-0.893745418794,-0.117039502989,0.00889787574547,0.00493495905467,-1.52346306415
1385571334457237650,-0.991634211869,-0.893785508993,-0.11702980493,0.00863993420311,0.00621064298772,-1.52416780286
1385571334467210913,-0.991669470308,-0.89373559491,-0.116985751257,0.00840324339853,0.00593709291703,-1.52329348704
1385571334477216160,-0.991640376514,-0.893723859587,-0.116980719093,0.00850929328027,0.00538056561911,-1.52407117072
1385571334487190496,-0.991634450061,-0.893793280951,-0.117074260249,0.00896607459447,0.0050156143378,-1.52431844958
1385571334497209352,-0.99164160676,-0.89371420719,-0.116936183924,0.00892366495686,0.00621885387434,-1.52317517189
1385571334507239384,-0.991627756651,-0.893737126302,-0.117083412066,0.00895208327032,0.0050028318338,-1.5239905603
1385571334517191038,-0.991612224702,-0.893746449793,-0.117056561306,0.00891577727757,0.00559204482079,-1.52416090472
1385571334527256653,-0.99162901044,-0.893712393172,-0.116984001242,0.00866893332423,0.00543391969079,-1.52329982514
1385571334537165009,-0.991621480765,-0.893754963037,-0.11700823342,0.00839129072946,0.00586382303819,-1.52406693917
1385571334547191326,-0.991708505986,-0.893732106469,-0.116948922604,0.00856934776314,0.00642824741563,-1.52325390279
1385571334557221790,-0.991648860242,-0.893724593211,-0.117053525828,0.00916086743003,0.00490961201771,-1.5232740239
1385571334567223556,-0.991659493619,-0.893744230329,-0.116964515264,0.00938631433441,0.00556934107531,-1.52407176608
1385571334577180437,-0.991620780202,-0.893874594115,-0.116989038876,0.0090956708626,0.00634609388144,-1.52369538354
1385571334587198014,-0.991660913741,-0.893745381175,-0.117051662343,0.00919494158968,0.00485288813438,-1.52345668192
1385571334597252009,-0.991672617811,-0.893768479183,-0.117030840072,0.00903690992504,0.00601713145139,-1.52400294566
1385571334607218923,-0.991623296557,-0.893734561423,-0.116989983648,0.00871047565878,0.00560510453325,-1.52323103024
1385571334617224553,-0.991655845529,-0.893697514865,-0.116909524361,0.00871136972636,0.00632704897261,-1.52377240764
1385571334627209718,-0.991612672641,-0.893715116371,-0.116930594718,0.00920617780572,0.00598756730732,-1.52394729782
1385571334637256707,-0.991625185307,-0.893746053589,-0.117021422054,0.00959617701924,0.00484686909453,-1.52308567265
1385571334647230901,-0.991613836186,-0.893729084912,-0.116904584779,0.00916135350915,0.00627870576595,-1.52373410406
1385571334657550775,-0.991633006035,-0.893778966342,-0.117035049713,0.00896693433982,0.00510136444484,-1.52342235288
1385571334667249269,-0.991642606786,-0.89377784983,-0.117052609669,0.00887618573944,0.0049166888165,-1.52321564584
1385571334677153986,-0.991625841649,-0.893706224511,-0.117118338259,0.00950670405594,0.00560715296587,-1.52495854222
1385571334687259467,-0.991603378084,-0.893702235033,-0.117258276647,0.0107764916639,0.00549233451744,-1.52387841848
1385571334697206748,-0.991667445847,-0.893662868647,-0.117099154336,0.0114096726754,0.00503946800548,-1.523350594
1385571334707227653,-0.991649516518,-0.893688120155,-0.116953667997,0.0106729451291,0.00480937607516,-1.52371261734
1385571334717227129,-0.991686058589,-0.893734936052,-0.116960666568,0.00960205241499,0.00573620742285,-1.52358140222
1385571334727224426,-0.991728708337,-0.893710410674,-0.117136895683,0.00899825160169,0.00537877596383,-1.52401271478
1385571334737236449,-0.991723660719,-0.893811399057,-0.117317729367,0.0091126505808,0.004894419061,-1.52341863899
1385571334747152504,-0.991807938387,-0.893716471702,-0.116955248739,0.0091890698656,0.00654428918153,-1.52347795403
1385571334757239779,-0.991710603947,-0.893699286336,-0.117031340396,0.00924911514091,0.00545229933717,-1.52399697479
1385571334767183363,-0.991698395352,-0.893725786378,-0.11708657968,0.00911120298416,0.00527212820807,-1.52417578776
1385571334777234294,-0.991687896758,-0.89368503264,-0.11716233484,0.00934520045825,0.00521134735395,-1.52448684685
1385571334787220040,-0.991661089755,-0.893713311375,-0.1172579695,0.0100105273155,0.00642227096191,-1.52343246384
1385571334797209034,-0.99170582594,-0.893719171761,-0.117169772184,0.00987284428928,0.00522320121578,-1.52520814901
1385571334807252742,-0.991682310042,-0.893810178859,-0.117031384409,0.0108331321619,0.00536455035852,-1.52437483894
1385571334817282243,-0.991746382768,-0.893808109642,-0.1170538674,0.00996946943097,0.00510411529948,-1.52539864569
1385571334827197895,-0.991683205989,-0.893883870639,-0.117235733183,0.00973659975722,0.00533910667825,-1.52515697886
1385571334837243084,-0.991681549396,-0.893787005547,-0.117176059786,0.00960019613562,0.00523132981033,-1.52486570202
1385571334847248698,-0.991731537421,-0.893848979584,-0.117015148213,0.00964103402823,0.00542566005928,-1.52487562149
1385571334857202402,-0.991672693894,-0.893828201133,-0.117036811765,0.00918914685391,0.00476631614127,-1.52484189511
1385571334867231286,-0.991753694055,-0.893896283624,-0.117033245229,0.00890466602901,0.00600264385977,-1.52466434389
1385571334877225289,-0.991732036311,-0.893874869747,-0.117073714226,0.00904473012977,0.00561692597686,-1.52479595423
1385571334887305135,-0.991701113522,-0.893883268839,-0.117086165726,0.00941900580674,0.00492490168613,-1.52464144225
1385571334897225801,-0.9917164092,-0.893905702129,-0.116982114999,0.0101036789163,0.00480564853686,-1.5247482735
1385571334907227658,-0.991678437191,-0.893923045472,-0.11703219134,0.00992181359537,0.00459429163908,-1.52443978488
1385571334917291144,-0.991711558659,-0.894073071724,-0.117100937528,0.00962530815486,0.00506254897042,-1.52530255807
1385571334927253137,-0.991765260252,-0.893967275001,-0.117092600914,0.00904896030463,0.00588777459143,-1.52401824814
1385571334937244866,-0.991782751403,-0.893978379368,-0.117024644997,0.00891974043994,0.0060003559881,-1.52474272352
1385571334947240485,-0.991744840732,-0.893948618656,-0.117029632708,0.00891840573369,0.00490007021929,-1.52436651062
1385571334957215497,-0.99170960894,-0.893949664494,-0.117105845561,0.00921073990181,0.0048658607141,-1.52471782491
1385571334967253471,-0.991642914136,-0.893798684528,-0.117196173046,0.00944654847598,0.00617569346668,-1.52443849974
1385571334977229309,-0.991753851869,-0.893920597464,-0.117059571421,0.00953669132081,0.00556288905606,-1.52399111836
1385571334987185216,-0.991700728032,-0.893997800625,-0.117062100827,0.0097189481395,0.00516654773513,-1.52435063137
1385571334997239054,-0.991701765325,-0.893799103709,-0.117153663046,0.00967958403617,0.0066356696127,-1.52415210873
1385571335007323667,-0.991740024178,-0.894017155003,-0.117051325929,0.0094699259922,0.00543399224729,-1.52402717849
1385571335017199103,-0.991764975697,-0.894175397502,-0.117055233171,0.00959568324143,0.00589539820117,-1.5247089928
1385571335027195300,-0.991731085624,-0.894014670495,-0.117114924845,0.00979202787284,0.00471321608892,-1.52460136637
1385571335037403290,-0.991722053083,-0.894096117332,-0.117094298046,0.00915763077008,0.00484708568049,-1.52384696032
1385571335047197704,-0.991731920761,-0.894047961825,-0.11704353812,0.00876350993651,0.0049005426251,-1.52537867073
1385571335057235669,-0.991746509024,-0.894149322457,-0.11703493164,0.00863600229472,0.00474976975671,-1.52411805421
1385571335067157094,-0.99179390775,-0.894070397409,-0.117078597895,0.00903643155406,0.00489588791307,-1.52544449197
1385571335077461272,-0.991770254119,-0.894106152804,-0.117139002724,0.00931707630174,0.00529973141512,-1.52479437213
1385571335087284958,-0.991697676372,-0.894089900684,-0.117106642983,0.00962023677413,0.00473008400561,-1.52461012293
1385571335097232038,-0.991688888926,-0.89413236894,-0.116999702044,0.00958007604716,0.00500491813775,-1.52541327177
1385571335107246884,-0.991687126701,-0.894114529111,-0.11710550044,0.00938595725269,0.00499014969754,-1.5244645406
1385571335117222283,-0.991704393191,-0.894127660493,-0.117171756834,0.00919913711706,0.00492048879107,-1.52544547846
1385571335127236312,-0.991699628534,-0.894097174758,-0.117102558345,0.00902532335159,0.00477129248623,-1.52484753046
1385571335137247861,-0.99170183758,-0.894125118986,-0.117002492681,0.00908987710804,0.0049120701794,-1.52525660456
1385571335147217888,-0.991684342627,-0.894096268632,-0.117051921691,0.00914071637068,0.00510219256227,-1.52551103537
1385571335157203629,-0.991699589704,-0.894061662017,-0.117132852435,0.00922103626666,0.00533179494053,-1.52534384587
1385571335167409947,-0.991719666924,-0.894089991234,-0.117198169778,0.0095053471428,0.0051985787341,-1.52600162511
1385571335177190686,-0.991652867206,-0.894005492593,-0.117126842987,0.00962935380692,0.00492867540741,-1.52571067876
1385571335187209711,-0.991718096789,-0.894028973821,-0.117050146387,0.00967432709296,0.00561641181447,-1.52655975085
1385571335197258510,-0.991685200024,-0.893971739772,-0.117151486384,0.00976053748544,0.00469172595286,-1.5268910482
1385571335207181305,-0.991707988437,-0.894026741398,-0.117165540376,0.00988470805638,0.00473098309563,-1.5278977322
1385571335217143980,-0.991682585358,-0.893985099573,-0.11716835051,0.0104304462772,0.00429063051919,-1.52924996348
1385571335227240268,-0.991723690236,-0.89400541265,-0.117232810281,0.00997958050473,0.00441777643329,-1.52920113204
1385571335237149719,-0.991675324074,-0.893941975497,-0.117310443996,0.00944881240398,0.00502317697961,-1.53022593726
1385571335247199909,-0.991733442774,-0.893916096235,-0.117170421286,0.00966072937861,0.00504161288835,-1.53028991038
1385571335257234563,-0.991707175846,-0.893818068645,-0.117161581754,0.00943781729514,0.0045338906549,-1.53110660603
1385571335267251764,-0.991835584369,-0.893771042887,-0.117232707837,0.0087615374889,0.00560480362267,-1.53191861141
1385571335277192376,-0.991800615969,-0.893599452198,-0.117327182355,0.00875732223963,0.00565843489382,-1.53275496257
1385571335287169418,-0.991939850809,-0.893674128348,-0.117252048163,0.00834102696505,0.00610939256625,-1.53392706984
1385571335297255621,-0.991847430672,-0.893475275625,-0.117193053484,0.00838773035078,0.00389513342289,-1.5341808393
1385571335307283431,-0.991936748814,-0.893363423922,-0.116961538888,0.00837354178464,0.00531581125454,-1.53442420858
1385571335317199332,-0.991867386075,-0.89334241524,-0.11717700436,0.00782606349153,0.00642612404645,-1.53459344888
1385571335327184747,-0.991920039279,-0.893208860322,-0.117435832559,0.0073331871822,0.00504475631732,-1.53497820258
1385571335337194250,-0.991840238077,-0.893192766211,-0.117369849598,0.00689965015993,0.00377271813272,-1.53529621459
1385571335347193809,-0.991859408149,-0.893049124536,-0.117142339801,0.00787206611194,0.00449673485504,-1.53586519732
1385571335357137434,-0.991682650255,-0.892810230943,-0.117248463166,0.00763766241011,0.00699936859706,-1.53545258305
1385571335367212099,-0.991853765514,-0.892744154486,-0.11730027901,0.00696493066692,0.00556891534215,-1.53619695668
1385571335377132054,-0.99170434644,-0.892794699488,-0.117396265371,0.00741295155649,0.00369351805554,-1.53619826449
1385571335387232933,-0.991762419839,-0.892577384635,-0.117082576779,0.00870898525877,0.00448892659148,-1.53575794546
1385571335397178814,-0.991629822793,-0.89257659931,-0.116966750733,0.00915315192892,0.00612712126141,-1.53551935646
1385571335407159544,-0.991581374042,-0.892361652285,-0.117219601525,0.00883179247187,0.00557180729021,-1.53616462813
1385571335417242450,-0.991449978212,-0.892463584727,-0.117358460237,0.00837635920501,0.00432966478125,-1.53590164117
1385571335427418982,-0.991411909407,-0.892245836285,-0.117164908887,0.00904978441842,0.00322148735618,-1.53627576541
1385571335437216425,-0.991229703491,-0.892161536971,-0.117039159779,0.00924215433088,0.00435774888514,-1.53594151151
1385571335447218373,-0.991222147675,-0.891951794269,-0.117110739288,0.00934123641714,0.00565011381931,-1.53593034243
1385571335457237059,-0.991105749636,-0.891974474634,-0.1173041736,0.00904258551325,0.00482151901571,-1.53648762735
1385571335467219469,-0.991035977014,-0.891852400646,-0.117154663086,0.00927232126151,0.0034143716824,-1.53588326171
1385571335477305074,-0.990889811205,-0.891790860758,-0.117010722438,0.00932569676627,0.00388010069496,-1.53707928043
1385571335487171633,-0.990872678812,-0.891720791398,-0.117311795311,0.00947001912231,0.00426699606417,-1.536857431
1385571335497146567,-0.990828227743,-0.891883251312,-0.117629082864,0.00860275177109,0.00335885148303,-1.53906956207
1385571335507395219,-0.990716270197,-0.891598099021,-0.117306924911,0.00922784302694,0.00288137017372,-1.53780204121
1385571335517211782,-0.990567756596,-0.891629741595,-0.117137394221,0.0100811191954,0.00289035844702,-1.53828011696
1385571335527141929,-0.990409801055,-0.89145769119,-0.117237638811,0.00955417534511,0.00209937432579,-1.5374264373
1385571335537238516,-0.990304481068,-0.891352439902,-0.11754356309,0.00847492034543,0.00279484837104,-1.537788369
1385571335547198028,-0.990093628004,-0.891230522512,-0.117323729774,0.00833879349249,0.00433407195471,-1.53632546687
1385571335557311303,-0.989741986653,-0.890970002431,-0.117393498558,0.00911787356731,0.00400542817313,-1.53686647626
1385571335567168362,-0.989534731832,-0.891089900918,-0.117322003798,0.00924701859542,0.00213086037915,-1.53568698091
1385571335577201463,-0.989301115186,-0.891022995687,-0.117491961281,0.00889372047001,0.00226767948371,-1.53546394624
1385571335587216104,-0.989021569597,-0.890808835508,-0.117656824022,0.00888063630542,0.0049311738803,-1.53495473945
1385571335597170056,-0.988789090527,-0.890924723962,-0.117611230864,0.0090828541878,0.00294883410265,-1.53448780086
1385571335607285579,-0.988543160834,-0.890946571247,-0.117564302927,0.00823203663741,0.000288774504283,-1.53367244315
1385571335617224368,-0.988196196746,-0.890932504766,-0.117524691578,0.00797048448703,-0.000326948565899,-1.53331758754
1385571335627200941,-0.987772132333,-0.890990046981,-0.117830191522,0.0089093738793,-0.00189428806381,-1.53271930703
1385571335637219711,-0.987417400873,-0.890864899802,-0.11798814489,0.00940723006936,-0.00292286080798,-1.5324957011
1385571335647611842,-0.986992788419,-0.890876297949,-0.118178100641,0.00989319750892,-0.00270275239146,-1.53175090902
1385571335657215305,-0.98664422845,-0.890791500235,-0.118227382887,0.0103235252284,-0.00374266620193,-1.53131962098
1385571335667196156,-0.986211235337,-0.890906200093,-0.118369860373,0.0109435351383,-0.00563295938814,-1.53044088151
1385571335677276865,-0.985853587448,-0.890894235647,-0.118622930303,0.010960850076,-0.00705668208092,-1.52933126539
1385571335687252578,-0.985476056936,-0.890805335831,-0.118872959257,0.0110077843971,-0.00869773754087,-1.52896088467
1385571335697222935,-0.985043799844,-0.890714162425,-0.119141420477,0.0110538891866,-0.00901612660082,-1.5285319478
1385571335707186336,-0.98461522976,-0.890647177519,-0.119492390107,0.0107518847048,-0.01208680221,-1.52786216341
1385571335717211696,-0.984310857194,-0.89090428943,-0.119631031703,0.00948815680951,-0.0136528867072,-1.52711373021
1385571335727225512,-0.983944143245,-0.890929323929,-0.119948462327,0.00878288432617,-0.0149939882977,-1.52667819751
1385571335737240831,-0.983583591277,-0.891002171433,-0.120366900968,0.00818289928132,-0.0162317514153,-1.52566708774
1385571335747223965,-0.983131492619,-0.891042163386,-0.120652504897,0.00673033129765,-0.0174173283196,-1.52488434505
1385571335757132216,-0.982736582423,-0.891126510031,-0.121083777908,0.00464802058476,-0.0193705489112,-1.52340694839
1385571335767492946,-0.982514464255,-0.891165289396,-0.121514297286,0.00189405188106,-0.0201511150122,-1.52240742388
1385571335777246691,-0.982055114596,-0.891286431784,-0.121942848443,-0.000858380504218,-0.020346895862,-1.52112518984
1385571335787185325,-0.981610611501,-0.891311267389,-0.122631991666,-0.00151188249492,-0.0216939957715,-1.51956124324
1385571335797268597,-0.981188804933,-0.891511456547,-0.123048534543,-0.00297334906371,-0.0237251882108,-1.51796098577
1385571335807163171,-0.980850356753,-0.891544565137,-0.123684337461,-0.00450004786629,-0.0253317413444,-1.51691030849
1385571335817194636,-0.980490912776,-0.891679099972,-0.124347211471,-0.00717858797477,-0.0280573730288,-1.51543101653
1385571335827169851,-0.980145750639,-0.89184821224,-0.125079023329,-0.0110285985525,-0.0310576165097,-1.51367362591
1385571335837122699,-0.979779822462,-0.892002626845,-0.125807937184,-0.0136892941474,-0.0342657946882,-1.51250996612
1385571335847239714,-0.979406621894,-0.89218076909,-0.126618714535,-0.0165375725952,-0.0379951178298,-1.51114003113
1385571335857170280,-0.978978354782,-0.892378560208,-0.127424723324,-0.0184960688341,-0.0420021865833,-1.51070151927
1385571335867181970,-0.978679682135,-0.892611402265,-0.128516227195,-0.0196824397414,-0.0459140453854,-1.5100385919
1385571335877243337,-0.97834653671,-0.892854704712,-0.129657167406,-0.0201994941228,-0.0502369667719,-1.50962768685
1385571335887240684,-0.978032615082,-0.893148766667,-0.130851732929,-0.0206295601982,-0.054103424928,-1.5091798636
1385571335897172252,-0.977797055841,-0.89357074065,-0.132009801702,-0.021836131691,-0.0557624972123,-1.50946247748
1385571335907161542,-0.977330609555,-0.893655402494,-0.133428890095,-0.0225624438906,-0.0582840095492,-1.50787092647
1385571335917517436,-0.977176072531,-0.893919596681,-0.134829711246,-0.0225423512213,-0.0608208315403,-1.50708285664
1385571335927275460,-0.976897133443,-0.89442330835,-0.136242488429,-0.0227388143064,-0.0643564742446,-1.50664649594
1385571335937209988,-0.976543047405,-0.894641899128,-0.138029604338,-0.0215340910214,-0.0647527096267,-1.50613889853
1385571335947295849,-0.976450479,-0.895237380589,-0.139733169536,-0.0212010617249,-0.0680367474838,-1.50558332249
1385571335957211023,-0.976168934666,-0.895922046045,-0.141749623326,-0.0206904328554,-0.0693933072983,-1.50609540568
1385571335967244392,-0.976108567388,-0.896318352561,-0.14361475933,-0.0207514590434,-0.0726442890706,-1.50534544988
1385571335977264434,-0.975891676648,-0.896881504241,-0.14578237241,-0.0209071517257,-0.0745487476186,-1.50516548984
1385571335987208274,-0.975917635737,-0.897526715388,-0.148200144229,-0.0206420476913,-0.0773019416774,-1.5051925153
1385571335997192769,-0.97593345035,-0.898228918844,-0.150602007853,-0.0200195463696,-0.0804518379694,-1.50559849589
1385571336007220853,-0.975882797277,-0.898972428954,-0.15305962305,-0.0203285007367,-0.0830452593067,-1.50570710706
1385571336017222436,-0.976020223686,-0.899796930876,-0.155549982236,-0.0201408161351,-0.0867881990152,-1.50598037094
1385571336027222096,-0.975971941641,-0.900889223869,-0.158466063768,-0.0210396275065,-0.0898541435361,-1.50550526319
1385571336037229227,-0.97594033874,-0.901876964536,-0.161318791606,-0.0205988873818,-0.0929132168306,-1.50445106813
1385571336047234038,-0.976065618086,-0.902867471513,-0.164081265604,-0.0206758238987,-0.0930840537389,-1.50388171412
1385571336057184546,-0.975961642134,-0.904154985148,-0.167173566181,-0.019276367652,-0.0954148494385,-1.50259178391
1385571336067497416,-0.976055439738,-0.905477398403,-0.170240264094,-0.0180110424726,-0.0981611609053,-1.50158969865
1385571336077238488,-0.976213029163,-0.907135491237,-0.173587403409,-0.0167287826121,-0.100413316153,-1.50065277363
1385571336087250370,-0.976297082125,-0.908815136027,-0.176845292925,-0.0160503888612,-0.100798636071,-1.50016918445
1385571336097180507,-0.976391305169,-0.910401117434,-0.180092433235,-0.015775640693,-0.0986481412828,-1.50044264775
1385571336107243717,-0.976451642115,-0.912142011101,-0.183661105594,-0.0155659557287,-0.0992720067435,-1.50050086586
1385571336117222989,-0.976713407758,-0.914188869643,-0.187075752171,-0.0159014033706,-0.100605800134,-1.50059405492
1385571336127502037,-0.976861246633,-0.916456764705,-0.19077879747,-0.0164576802231,-0.0987909838555,-1.50164663594
1385571336137256111,-0.976929989493,-0.91842714023,-0.194363826676,-0.016892611523,-0.0976576949734,-1.5008346951
1385571336147247639,-0.977176662259,-0.920522243939,-0.198043885727,-0.0177826131988,-0.0963671031798,-1.5012280799
1385571336157943370,-0.977320609027,-0.923068004803,-0.20187762588,-0.0182012474984,-0.0955428484648,-1.50151759243
1385571336167343156,-0.977593532791,-0.925637335818,-0.205494563392,-0.019392546165,-0.09161238724,-1.50186262562
1385571336177277140,-0.977860488996,-0.928072052299,-0.209396387042,-0.0203881309842,-0.0909155342228,-1.50097580694
1385571336187386715,-0.978021166029,-0.930822241155,-0.213384964269,-0.0219025645977,-0.0879829545569,-1.50115546115
1385571336197191077,-0.97845988762,-0.933560550973,-0.217446165481,-0.02217910805,-0.08646552514,-1.50107158366
1385571336207278876,-0.978642327486,-0.936484025138,-0.221414970849,-0.0219204281608,-0.0840548490144,-1.50094570047
1385571336217247506,-0.978903408807,-0.939269307473,-0.225461359593,-0.0205539136783,-0.0808188093985,-1.50089375209
1385571336227229696,-0.979188676817,-0.942310577211,-0.229582268876,-0.0196098211107,-0.0786405942451,-1.50036896445
1385571336237428146,-0.979373297757,-0.945440677014,-0.233927712073,-0.0189811992125,-0.0742034392595,-1.50022254605
1385571336247214826,-0.979687013609,-0.948498337948,-0.238058896708,-0.0172201672104,-0.0719230075872,-1.49983059197
1385571336257324596,-0.979921056224,-0.951871150936,-0.242391527219,-0.0145563115934,-0.0676357633656,-1.50003481899
1385571336267272866,-0.979975171271,-0.954850774512,-0.246889439544,-0.0110639324569,-0.0634053111746,-1.50035933624
1385571336277748070,-0.980401864236,-0.958471850018,-0.25128556966,-0.00796557629371,-0.0603907377033,-1.50061385559
1385571336287278238,-0.980621542786,-0.961726527749,-0.255625463122,-0.00353852928219,-0.0562793502489,-1.5009630949
1385571336297247235,-0.980695964412,-0.965406375285,-0.260224816517,0.00130838051028,-0.0523698847054,-1.50218200232
1385571336307272614,-0.980975373585,-0.968726584489,-0.264766778518,0.00599120166242,-0.0493150230997,-1.50128450284
1385571336317230922,-0.98101281753,-0.972280044345,-0.269596218883,0.0109610824985,-0.0439767154175,-1.50187392982
1385571336327251610,-0.981196571307,-0.975784995633,-0.274140586309,0.0157345252421,-0.040100536498,-1.50214124139
1385571336337250124,-0.981410530363,-0.979375390379,-0.278871663479,0.0204685078649,-0.0346489444261,-1.50249353208
1385571336347347091,-0.981436116149,-0.983048444266,-0.283829278013,0.0250470607891,-0.0295585277502,-1.50287532447
1385571336357278197,-0.9816262696,-0.986648003956,-0.288639463325,0.0294710370777,-0.0245622284192,-1.50287279652
1385571336367237025,-0.981517603766,-0.990332814619,-0.293526532512,0.0335707955226,-0.0190806237053,-1.50333743956
1385571336377248362,-0.981498244465,-0.993954081849,-0.298486227513,0.038524091475,-0.0146093090582,-1.50336620226
1385571336387203158,-0.98159082751,-0.997765497365,-0.303177686587,0.0421708781811,-0.00928097745202,-1.50316579548
1385571336397258570,-0.981297412935,-1.00127647882,-0.308452170322,0.0465638796162,-0.0044336594092,-1.50337618336
1385571336407269726,-0.981206600166,-1.00498713799,-0.313442524279,0.0512152471148,3.99014316938e-05,-1.5032386276
1385571336417226541,-0.980955683227,-1.00865104185,-0.318311205332,0.0557196231886,0.00419847791839,-1.50316698284
1385571336427325772,-0.980623307453,-1.01209338727,-0.323582978915,0.0597138959496,0.0107306130759,-1.50333162339
1385571336437275520,-0.980362603378,-1.01587528064,-0.328586209271,0.0639885050901,0.0131371056943,-1.50311399232
1385571336447186730,-0.979964828768,-1.01953982351,-0.333766628022,0.066917054701,0.0171538220813,-1.50324817171
1385571336457222476,-0.979494711017,-1.02297209883,-0.339233528016,0.070400736213,0.0232718359204,-1.50307064879
1385571336467254116,-0.979022965304,-1.02666729582,-0.344183360568,0.0726482982007,0.0260672470526,-1.50243743474
1385571336477227137,-0.978297908277,-1.03015886699,-0.349424388729,0.0757559040609,0.0292985670606,-1.50229309134
1385571336487237382,-0.97760688947,-1.0335616149,-0.354883133065,0.0787756264185,0.0335554254513,-1.50189529068
1385571336497245641,-0.976877796752,-1.03698662651,-0.360240523842,0.0822475666538,0.0375023619696,-1.50147199762
1385571336507218061,-0.975830852476,-1.04033462784,-0.365513504632,0.0856759733089,0.0402372835035,-1.50152629776
1385571336517167784,-0.974839243858,-1.04367142215,-0.371073971709,0.0893219599984,0.0429457338467,-1.50122604681
1385571336527201944,-0.973813515248,-1.04681298395,-0.376760583142,0.0925454716069,0.0459617476106,-1.50138262597
1385571336537245538,-0.972702372872,-1.0501448943,-0.382164014575,0.095194763891,0.0477931736588,-1.50128342418
1385571336547174917,-0.971429195673,-1.05330743506,-0.387696236486,0.0972743317576,0.0495326525259,-1.50081806105
1385571336557222328,-0.970083029031,-1.05620387434,-0.393605894284,0.100072414814,0.053581585807,-1.50081922988
1385571336567318649,-0.968749776496,-1.0592494617,-0.399601032123,0.101310402566,0.0540114448957,-1.50070495067
1385571336577247287,-0.967184723799,-1.06217376472,-0.40555924487,0.102806000707,0.0562293476769,-1.50054303698
1385571336587175737,-0.965654783995,-1.06511693802,-0.411713721347,0.105001110845,0.05703085206,-1.50074327744
1385571336597166434,-0.963831159244,-1.06797198878,-0.417609125952,0.107378467016,0.058094246306,-1.50043112839
1385571336607188568,-0.961979429149,-1.07065885847,-0.423415314942,0.109883007825,0.0595639375887,-1.50106732759
1385571336617199591,-0.960141725963,-1.07350058349,-0.429248525592,0.111337431693,0.0607000965447,-1.50069553816
1385571336627187546,-0.958171092154,-1.07611093009,-0.434545878068,0.112810676635,0.0618738057093,-1.50070265573
1385571336637205265,-0.956128212439,-1.07868798377,-0.43998082714,0.114294547054,0.0625302787792,-1.50078963977
1385571336647208783,-0.954014282896,-1.08126023801,-0.445261119998,0.115310737311,0.0637217678534,-1.50075969402
1385571336657273730,-0.951836526373,-1.08373110489,-0.450299673453,0.116003279977,0.065455864504,-1.50121688507
1385571336667224019,-0.949658951754,-1.08613511542,-0.455129087739,0.116824737565,0.0666384393908,-1.50089479679
1385571336677168905,-0.947162673759,-1.08850329504,-0.459694111809,0.117407202613,0.0666179561585,-1.50116425503
1385571336687192680,-0.944758397069,-1.09082998148,-0.464482850861,0.117198899726,0.068062592223,-1.50082822328
1385571336697260235,-0.94227157619,-1.09312658008,-0.469062468858,0.11743058697,0.0671909997075,-1.50105052323
1385571336707142376,-0.939675708162,-1.09531508642,-0.473293947027,0.116628550762,0.0682833901946,-1.50132951151
1385571336717192896,-0.937050858163,-1.09740541685,-0.477414922548,0.116492124372,0.0680924913059,-1.50118966551
1385571336727179901,-0.934371458144,-1.09953086016,-0.481235789861,0.115929869162,0.0699029468179,-1.5014074582
1385571336737246348,-0.931416137025,-1.10153774706,-0.484829488423,0.116092845763,0.0694587197567,-1.50104053597
1385571336747233659,-0.928577366825,-1.1035291013,-0.488369824091,0.116032513862,0.0699935008757,-1.50158138911
1385571336757142034,-0.92556567985,-1.10545294152,-0.491947220195,0.115141530549,0.0711787139401,-1.50163676835
1385571336767225512,-0.922481388063,-1.10730564083,-0.495215757533,0.115064445014,0.0697670949191,-1.50207667785
1385571336777216528,-0.919435509636,-1.10904022226,-0.498046740581,0.114266920734,0.0720435866384,-1.50217346487
1385571336788453194,-0.916193386845,-1.11078901771,-0.501017497465,0.114151738084,0.0711306716607,-1.50228213576
1385571336797395359,-0.913013992314,-1.11255974264,-0.503623833927,0.113423615773,0.0713028383158,-1.5026697482
1385571336807470486,-0.909600389718,-1.11417581132,-0.505958146855,0.112698947945,0.0710375575331,-1.50255765778
1385571336817340196,-0.906272572279,-1.11579070491,-0.508289635998,0.112977151864,0.0714000938427,-1.5033743406
1385571336827375314,-0.902792416524,-1.11731433597,-0.510513431571,0.111804899052,0.0716072337117,-1.50346713946
1385571336837448040,-0.899192926304,-1.11876491516,-0.512544136817,0.111614126248,0.0700620282219,-1.50382452952
1385571336847389948,-0.895553909459,-1.12005947731,-0.514543206951,0.110891091578,0.0699449738523,-1.50414922324
1385571336857391850,-0.891859915509,-1.12150700304,-0.516112263092,0.111100538902,0.0707573582745,-1.50401928747
1385571336867311140,-0.888131429735,-1.12270881297,-0.517587276926,0.110952435867,0.0707255272026,-1.50432538113
1385571336877256076,-0.884290778444,-1.12405309822,-0.519014633771,0.11094615913,0.0707867263094,-1.50452411168
1385571336887270217,-0.880352820962,-1.12523988726,-0.520240760479,0.110773693272,0.0698600316948,-1.5051495879
1385571336897275665,-0.876425873668,-1.12638361575,-0.521280072159,0.110381118422,0.0694283479492,-1.50507214847
1385571336907303232,-0.872415841186,-1.12744416069,-0.52217641038,0.109706215016,0.0713357636843,-1.50485039331
1385571336917263472,-0.868233441213,-1.12846310156,-0.522916527227,0.109659223026,0.0676322010941,-1.50575071883
1385571336927460259,-0.864154484082,-1.12944926758,-0.523650741466,0.109496253689,0.067892628864,-1.50564694866
1385571336937262517,-0.859800353925,-1.13035047031,-0.52425108134,0.109627476484,0.0663861799157,-1.50655345755
1385571336947304673,-0.855515547011,-1.13117762595,-0.524681594384,0.10968183175,0.0658641708738,-1.50658533362
1385571336957202475,-0.851108530955,-1.13203867127,-0.525052571307,0.109219096818,0.0656928075853,-1.50708500352
1385571336967234099,-0.846727102303,-1.13275380971,-0.525254040021,0.108186602677,0.064241817491,-1.50722687723
1385571336977440691,-0.842195587793,-1.13357885843,-0.525323803387,0.108401999358,0.0643907359547,-1.50754197805
1385571336987293869,-0.83779334079,-1.13422782283,-0.525210218753,0.107778769045,0.0661935543939,-1.50740009516
1385571336997283356,-0.83312701424,-1.13485544355,-0.525176713416,0.107306830769,0.0655851011628,-1.50785471707
1385571337007253029,-0.828309962592,-1.13534761162,-0.525103262216,0.106457869528,0.0624921260753,-1.50888153791
1385571337017214853,-0.823757718217,-1.13597681547,-0.524614066112,0.106285800929,0.066061902084,-1.5087314345
1385571337027208279,-0.818853648117,-1.13640237863,-0.524126346643,0.106406574738,0.0634904177513,-1.50961589223
1385571337037225853,-0.814048581819,-1.13672957032,-0.523646347212,0.106150300003,0.0620657776663,-1.50981840455
1385571337047450110,-0.809101547138,-1.1370473409,-0.523121360665,0.104838079971,0.0635258864791,-1.50986386065
1385571337057268802,-0.804061079545,-1.13747233079,-0.522251828589,0.104801700583,0.0619401279534,-1.50973223596
1385571337067389943,-0.799048207456,-1.13773070756,-0.521480611282,0.104406648508,0.0622705995929,-1.50975554353
1385571337077499899,-0.793877615816,-1.13789809329,-0.520696235623,0.103974474711,0.0620428912101,-1.51014264989
1385571337087432221,-0.788674852037,-1.13811589037,-0.519685348033,0.10420710497,0.0604679479688,-1.51030033579
1385571337097472303,-0.783486382445,-1.13822603785,-0.518606098308,0.103950930052,0.0610894398681,-1.51077032879
1385571337107265034,-0.778167538514,-1.13826346911,-0.517501405081,0.103677262766,0.0589016297437,-1.51176491605
1385571337117297371,-0.772792496341,-1.1384015717,-0.516370312477,0.103055743423,0.0601449544974,-1.5112331325
1385571337127301130,-0.767316431547,-1.13826000185,-0.515162149613,0.103178720669,0.0591577853885,-1.51224434381
1385571337137237818,-0.761897509985,-1.13837764803,-0.513813551848,0.102579224973,0.0596155735237,-1.51158117042
1385571337147268740,-0.756328675342,-1.13828518259,-0.512389420235,0.102991568533,0.0597145525565,-1.51156524378
1385571337157307069,-0.750784705953,-1.1381898196,-0.510793226061,0.102646199442,0.0592145039442,-1.51168648606
1385571337167272052,-0.745094798937,-1.13801791648,-0.509374980205,0.103088921048,0.059534051334,-1.51194145505
1385571337177435714,-0.739197648258,-1.13781189167,-0.507864312508,0.102661645793,0.0592904602744,-1.51222761923
1385571337187261611,-0.733569307063,-1.13756382235,-0.506369775134,0.103427154821,0.0596515995253,-1.51243689555
1385571337197205169,-0.72760551491,-1.13703928339,-0.504680479821,0.104267144678,0.0597457993325,-1.51394166825
1385571337207244959,-0.721693601806,-1.13681862781,-0.502979853524,0.104659927293,0.0601254312452,-1.51286488782
1385571337217259285,-0.715766117201,-1.13649809945,-0.501358431644,0.105252899585,0.0601365030454,-1.51313531555
1385571337227277043,-0.709724434486,-1.13592334665,-0.49954777978,0.105557940256,0.0590531893715,-1.51446004848
1385571337237271954,-0.70349939939,-1.13539787338,-0.497830591402,0.104383477147,0.057609181209,-1.51314578192
1385571337247225861,-0.697348840781,-1.13496941959,-0.495984155969,0.103606331203,0.0595862443097,-1.51346716696
1385571337257263801,-0.691343455477,-1.13449468275,-0.493885943149,0.102606446983,0.0580357718342,-1.5137831327
1385571337267157761,-0.685046801286,-1.13382116292,-0.492350656182,0.101213891645,0.0557899678871,-1.51520199007
1385571337278073228,-0.678710849853,-1.13326315051,-0.490239641992,0.098539961094,0.0566358353846,-1.51467243055
1385571337287236754,-0.672381134332,-1.13259717154,-0.488311989265,0.0964523034473,0.0549159883122,-1.51471023125
1385571337297305106,-0.665942629318,-1.13197117843,-0.486484451197,0.0938474693976,0.0535367845766,-1.51498457001
1385571337307247818,-0.659567558966,-1.13118142943,-0.484476439919,0.0912732139274,0.0533988016541,-1.51514180568
1385571337317253430,-0.653015536274,-1.13035240036,-0.482429907157,0.0891689568268,0.0497203386331,-1.51546543512
1385571337327234966,-0.646366174875,-1.12953224048,-0.480488937048,0.0870091822402,0.0486200632638,-1.51558403821
1385571337337211267,-0.639884286397,-1.12882739762,-0.478671272943,0.0843896016765,0.0483551313087,-1.51569141609
1385571337347304017,-0.633070026284,-1.12785147702,-0.476763293852,0.0828862468921,0.0472724569519,-1.51558826659
1385571337357214982,-0.626394746072,-1.12694390668,-0.474831958826,0.0801222982186,0.0447404338749,-1.51476378694
1385571337367170984,-0.619740091484,-1.12607060863,-0.472768420285,0.0791618557048,0.0435688788225,-1.51515818909
1385571337377204933,-0.612849905933,-1.12507952154,-0.470734652667,0.0770942822837,0.0427360945472,-1.51529649407
1385571337387262426,-0.606131593642,-1.1237379365,-0.468944623414,0.0756773678201,0.0410072056945,-1.51612574812
1385571337397908572,-0.599223494656,-1.12308792845,-0.467074034796,0.0734403995632,0.0423994233646,-1.51544057052
1385571337407268346,-0.59230547513,-1.1217102291,-0.465129808458,0.0710889433407,0.0401995284132,-1.51527993321
1385571337417316496,-0.585478568614,-1.12089266624,-0.463267569743,0.0710524818796,0.0384584264654,-1.51493516222
1385571337427720980,-0.57826861992,-1.11992525028,-0.461246234647,0.0682978556088,0.0387844980886,-1.51484994811
1385571337437256858,-0.571383623456,-1.11870629716,-0.459276264467,0.0671182592755,0.0373080063286,-1.5147100066
1385571337447186228,-0.564285107794,-1.11771021728,-0.457475657521,0.065030362466,0.0369572127294,-1.51491114242
1385571337457208883,-0.557108280909,-1.11650789394,-0.455672065201,0.0631375381223,0.0372945156336,-1.51484599358
1385571337467249246,-0.550219307362,-1.11521161151,-0.453734295589,0.0621326596073,0.0345126258608,-1.51449281453
1385571337477225076,-0.542937710407,-1.11405957983,-0.451909200044,0.0598259781946,0.034359253212,-1.51420538636
1385571337487219392,-0.535927487831,-1.11295323638,-0.450268890749,0.058370556508,0.0329343302107,-1.51434481194
1385571337497169903,-0.528740417921,-1.11158432398,-0.448405527135,0.0574914977412,0.0332257586991,-1.51375480311
1385571337507229356,-0.521535653535,-1.11035597348,-0.446654622969,0.0567930440713,0.0327306820087,-1.51364445196
1385571337517349902,-0.514268756778,-1.10916023343,-0.444823643961,0.0564955159862,0.0339868463784,-1.51326119048
1385571337527293022,-0.506867102123,-1.10775749056,-0.443331442874,0.0555280153339,0.0305133296017,-1.51247743264
1385571337537320116,-0.499845723337,-1.1064776012,-0.441645705598,0.0550839976698,0.0306364689092,-1.51313036048
1385571337547212295,-0.492501682135,-1.10522618574,-0.440148772268,0.0547991000169,0.0321986224535,-1.5129200818
1385571337557247855,-0.485131373993,-1.10388081998,-0.438435933397,0.0542953131198,0.0320020986198,-1.51255667311
1385571337567348143,-0.477927324453,-1.1024524162,-0.437095880854,0.0528849385798,0.0322839323446,-1.5118386695
1385571337578638569,-0.470457682928,-1.10115054997,-0.435573349696,0.0518872814473,0.0315344803998,-1.51123309608
1385571337588430306,-0.463166701941,-1.09972862021,-0.434192730929,0.0504880014666,0.0325032043827,-1.51116487153
1385571337597390812,-0.455944332088,-1.0982477304,-0.432943395748,0.0500814906043,0.0312350578441,-1.51036749453
1385571337607265938,-0.448732458132,-1.09687871821,-0.431534135684,0.0492887593789,0.0308261587915,-1.51020730793
1385571337617297476,-0.441134754837,-1.09545405821,-0.430384027844,0.0473688557363,0.0324803383707,-1.50997508463
1385571337627730515,-0.433989016819,-1.09391961029,-0.429281584612,0.0470794029682,0.0307921125956,-1.5093274968
1385571337637202101,-0.426433344371,-1.09240334266,-0.428114274198,0.0460178466792,0.030872734126,-1.50852416371
1385571337647397804,-0.419138576571,-1.09095315147,-0.427065915279,0.0456999662063,0.0304818097332,-1.50877284945
1385571337657231176,-0.411914829735,-1.08942399546,-0.426019649184,0.0447242775919,0.0303548722456,-1.50816328218
1385571337667211129,-0.404512017484,-1.08793425939,-0.425265605326,0.0434626842109,0.0313509302517,-1.50791728459
1385571337677163886,-0.397064174699,-1.08648167183,-0.424234671036,0.0422742395118,0.0312940656041,-1.50823275178
1385571337687231186,-0.389703259784,-1.08492916402,-0.423449764754,0.0418118053414,0.0319596707517,-1.50706979924
1385571337697548707,-0.382266622719,-1.08313472553,-0.42271634883,0.0407818235071,0.0293943495167,-1.50623604257
1385571337707245076,-0.375003059181,-1.08185700504,-0.421991295967,0.0417890334699,0.0304283438413,-1.50668057256
1385571337717206748,-0.367626069866,-1.08002841346,-0.421230237807,0.0400349706458,0.0299799815379,-1.50675036499
1385571337727352141,-0.360079016648,-1.07852469597,-0.420696080522,0.0388237695291,0.0288428548696,-1.50531471566
1385571337737215919,-0.352852098792,-1.07696960755,-0.420271076128,0.0380580639075,0.0280092174411,-1.50454355947
1385571337747181004,-0.345554250741,-1.07543162805,-0.419696227375,0.035668760197,0.0270171322471,-1.50425132821
1385571337757393419,-0.338239677234,-1.07384188527,-0.419282932764,0.0336032825714,0.0271464190408,-1.50413280002
1385571337767306423,-0.330917774993,-1.07200146058,-0.41904172642,0.029804911228,0.0250428339199,-1.50329213732
1385571337777462938,-0.323479459278,-1.07045942614,-0.418481425137,0.0273589957184,0.0258810197615,-1.50338551698
1385571337787221992,-0.316284842278,-1.06890695929,-0.418355650054,0.0253903227104,0.0249677616175,-1.50273592967
1385571337797449550,-0.309102234904,-1.06709792329,-0.418190451934,0.0224670274212,0.0230038811435,-1.50148586332
1385571337807235386,-0.301637054024,-1.06573961369,-0.418041396938,0.0204507612901,0.0250830342966,-1.50134377401
1385571337817299090,-0.294514485434,-1.06399887596,-0.417892306769,0.0172296187915,0.0228892805998,-1.50151803392
1385571337827311131,-0.287494506904,-1.06235993639,-0.417760535869,0.0145477712511,0.0215010894606,-1.50112942858
1385571337837233528,-0.280038129027,-1.06082857066,-0.417798680867,0.011217778483,0.0223576348278,-1.50015983341
1385571337847268233,-0.273068187422,-1.05894352648,-0.417885301138,0.00767570890134,0.0199980726491,-1.49965506796
1385571337857182339,-0.26591121681,-1.05741225003,-0.417838410759,0.00456785428253,0.0206730324021,-1.50008101707
1385571337867510350,-0.258695208246,-1.05591712479,-0.418077385511,0.00217692835296,0.0206144297407,-1.49874454751
1385571337877520321,-0.251875870984,-1.05420149113,-0.418326109738,-0.000766172942073,0.0188722240115,-1.49819752103
1385571337887337927,-0.244915689609,-1.05257555794,-0.418499200455,-0.00371679249993,0.0179921370127,-1.49829343004
1385571337897251134,-0.237866072827,-1.05091768368,-0.418568919898,-0.00604134484541,0.0172475523011,-1.49799583327
1385571337907202535,-0.230778617578,-1.04931739663,-0.418784470788,-0.00834516084001,0.0169123623906,-1.49680816918
1385571337917206254,-0.223950852186,-1.04731069087,-0.419061005611,-0.0105860999956,0.0160664920417,-1.49852877922
1385571337927684697,-0.216983021796,-1.04592888557,-0.419547453386,-0.0126641204484,0.0160879502512,-1.49609522696
1385571337937359716,-0.21024485299,-1.04439557702,-0.419838558525,-0.0140123529994,0.0162001334989,-1.49593544982
1385571337947187860,-0.203476512642,-1.04274395313,-0.420037915127,-0.0159885095235,0.0143400983845,-1.49608806723
1385571337957519839,-0.196912706473,-1.04104459827,-0.420623490663,-0.0176660098189,0.0138151085466,-1.49493991093
1385571337967257017,-0.19019200334,-1.03952149518,-0.421034695185,-0.02000867966,0.0143405555304,-1.49444636497
1385571337977518372,-0.183496903522,-1.03785038809,-0.421332637339,-0.0220403226085,0.0138144220285,-1.49388301914
1385571337987415508,-0.177122738337,-1.03625936494,-0.421954526226,-0.023590550635,0.0146947941961,-1.49310303397
1385571337997284882,-0.170576997675,-1.03431604534,-0.422536997002,-0.0252096877869,0.0122700633643,-1.4933807011
1385571338007221408,-0.164193305287,-1.03304738195,-0.42292451512,-0.0271067343561,0.0136291966695,-1.49233878596
1385571338017268563,-0.15780588974,-1.03132754581,-0.423404615109,-0.0283319192967,0.012672406605,-1.49124212639
1385571338027259257,-0.151449602469,-1.02975199592,-0.424007426811,-0.0302081885335,0.0128249031414,-1.49088855212
1385571338037280629,-0.145373846895,-1.02815850326,-0.424715160148,-0.0311561192996,0.012309433348,-1.49039758487
1385571338047305134,-0.139064008414,-1.02642032003,-0.425460289363,-0.0328743767672,0.012508161929,-1.48940288853
1385571338057193300,-0.133186669209,-1.02475564266,-0.426078250857,-0.0337999890399,0.0134674417033,-1.49028651138
1385571338067353959,-0.127258142991,-1.02333472923,-0.426879520143,-0.0349462230984,0.013415161339,-1.48970121771
1385571338077218871,-0.121144522783,-1.02180929986,-0.427642546144,-0.0359959918022,0.0142435658262,-1.48850085986
1385571338087138240,-0.115278514625,-1.02019501423,-0.428590468943,-0.0365437901485,0.0126292146535,-1.48753579039
1385571338097165864,-0.109491276945,-1.01862973181,-0.429387980278,-0.036730486493,0.013797142828,-1.48750325431
1385571338107166589,-0.103662044288,-1.01696381682,-0.43010759222,-0.0377733815692,0.012338896524,-1.48586505836
1385571338117238104,-0.0981555667472,-1.01555303217,-0.431014698199,-0.0377811737287,0.0120962038993,-1.48592852645
