%time,field.linear.x,field.linear.y,field.linear.z,field.angular.x,field.angular.y,field.angular.z
1385569247547531260,-0.0,0.0,0.0,1.0,0.0,0.0
1385569247736226920,-0.0,0.0,6.13378939583e-08,1.0,0.0,0.153491786214
1385569247936770408,-0.169495351127,-0.232961814869,-0.0115488307827,1.0,0.0,0.103044908252
1385569248136296193,-0.178069049086,-0.244965039462,-0.00792456228654,1.0,0.0,0.0748960924946
1385569248336646172,-0.150103636241,-0.206775203071,-0.00307717080304,1.0,0.0,0.0555078154625
1385569248536526030,-0.100255262653,-0.138325002883,0.00368951007063,1.0,0.0,0.0440483034313
1385569248736519921,-0.0509082934654,-0.0706072103908,0.0116574810422,1.0,0.0,0.0372999566362
1385569248936159930,-0.0153332522095,-0.0219148009266,0.0205876275564,1.0,0.0,0.0333890800462
1385569249136474240,0.00199579467485,0.00199085144724,0.0301266049318,1.0,0.0,0.0310765036631
1385569249336577903,0.00360403230181,0.0042082960037,0.0401491309386,1.0,0.0,0.0297194957988
1385569249536331030,-0.00479330621834,-0.0073975875637,0.050501094636,1.0,0.0,0.0289437012718
1385569249736553340,-0.0172713572305,-0.0239351281856,0.0611969301366,1.0,0.0,0.0283647190096
1385569249936373344,-0.0292447702265,-0.0386858780024,0.0722199999807,1.0,0.0,0.0276666522406
1385569250136656310,-0.0376282740945,-0.0484101628702,0.0832064395847,1.0,0.0,0.0267163240614
1385569250336194386,-0.0447533267462,-0.0503798534986,0.0942001101823,1.0,0.0,0.023992707976
1385569250536191078,-0.0489366647347,-0.0474183856768,0.105064050047,1.0,0.0,0.0199238530831
1385569250736559475,-0.0522302141215,-0.0336668055737,0.117828169502,1.0,0.0,0.0136237796511
1385569250936272361,-0.0529232182204,-0.0246039282881,0.120494204601,1.0,0.0,0.0082503824178
1385569251136425057,-0.0472961716444,-0.0141055606509,0.120922917559,1.0,0.0,0.00406627066093
1385569251336543234,-0.0375215972482,-0.0105237451475,0.117072529021,1.0,0.0,0.00138219740161
1385569251536252687,-0.0333678213866,-0.00472597667158,0.109213144774,1.0,0.0,-0.00038247422471
1385569251736280611,-0.0316749433556,-0.00161467528878,0.103570779694,1.0,0.0,-0.00163004648785
1385569251936396821,-0.0302605593688,0.00178566575537,0.106523960485,1.0,0.0,-0.00279918789493
1385569252136198014,-0.0303416667677,0.0039143119955,0.115323600808,1.0,0.0,-0.00360389738707
1385569252336120784,-0.0323483543109,0.0059335246978,0.127582077735,1.0,0.0,-0.00437146711066
1385569252536255261,-0.0355181826411,0.00827718539458,0.140598761231,1.0,0.0,-0.00520023915556
1385569252736272907,-0.0415885141872,0.00863959027141,0.151346444685,1.0,0.0,-0.00599647267965
1385569252936290264,-0.0471599709974,0.0101943807418,0.155665331975,1.0,0.0,-0.00696419541167
1385569253136206686,-0.0495656066182,0.00950187500549,0.157083570035,1.0,0.0,-0.00789095551341
1385569253336709477,-0.0542760942599,0.00994853383884,0.153934998727,1.0,0.0,-0.00879869560553
1385569253536182273,-0.0565732889367,0.00958036271697,0.148731072078,1.0,0.0,-0.00972560757806
1385569253736167740,-0.0564917627301,0.0068180277962,0.14187584964,1.0,0.0,-0.0104322095819
1385569253936476004,-0.055006244081,0.00277913594512,0.134376669696,1.0,0.0,-0.010796325038
1385569254136238888,-0.0517120471235,-0.000498346791236,0.127396191775,1.0,0.0,-0.0111030481664
1385569254336367801,-0.0484311574623,-0.00304781372941,0.12011425084,1.0,0.0,-0.011452849036
1385569254536284737,-0.0452334716157,-0.00566826508648,0.112814758564,1.0,0.0,-0.0116572635677
1385569254736101251,-0.0424070255509,-0.00734202873744,0.105641275567,1.0,0.0,-0.0117277230541
1385569254936617584,-0.0400689657185,-0.0078472070677,0.0990716462848,1.0,0.0,-0.0117358996359
1385569255136200950,-0.0391023854425,-0.00630624155024,0.0924095101232,1.0,0.0,-0.0118009569698
1385569255336140016,-0.0386151215304,-0.00375184411102,0.0862017105679,1.0,0.0,-0.0118852809197
1385569255536154376,-0.0384526819545,-0.00117210981637,0.0803976202094,1.0,0.0,-0.01184113132
1385569255736187000,-0.0384349474448,0.00131101216087,0.0749829872487,1.0,0.0,-0.0116947387202
1385569255936195649,-0.0382503621472,0.00351555099991,0.0701915664465,1.0,0.0,-0.0116080044102
1385569256136235616,-0.0378956945914,0.00511791939393,0.0656896141169,1.0,0.0,-0.0115533675501
1385569256336219136,-0.0368410859473,0.00566073888082,0.0616678147726,1.0,0.0,-0.011376102732
1385569256536176043,-0.0354450995226,0.00548856359029,0.05782117154,1.0,0.0,-0.0111165282654
1385569256736153133,-0.0337315488923,0.00521771702589,0.0541701041305,1.0,0.0,-0.0109913682787
1385569256936187400,-0.0318969427318,0.00422519661202,0.051207071478,1.0,0.0,-0.0106347299552
1385569257136234884,-0.0302023189857,0.00365368836551,0.0484889569377,1.0,0.0,-0.0103711405501
1385569257336677698,-0.0291087395449,0.00358016579267,0.0456134889257,1.0,0.0,-0.0102061767899
1385569257536189517,-0.028254950817,0.00336977899035,0.0432892949998,1.0,0.0,-0.00989199917105
1385569257736146066,-0.0277168842078,0.00370307537343,0.0411663008101,1.0,0.0,-0.00966021677314
1385569257936262046,-0.0274847710788,0.00414878052671,0.0392730866706,1.0,0.0,-0.00942708551588
1385569258136262815,-0.0276106520176,0.00417922582088,0.0372852391558,1.0,0.0,-0.00903089292691
1385569258336176769,-0.0275433018642,0.00454479105905,0.0357675062168,1.0,0.0,-0.0086942139774
1385569258536191217,-0.0275165828677,0.00508872117694,0.0341182510778,1.0,0.0,-0.00844917618863
1385569258736206884,-0.0272786386582,0.00615168118637,0.0324343168825,1.0,0.0,-0.00844321113108
1385569258936172324,-0.0270108814823,0.00706543218495,0.0306359367881,1.0,0.0,-0.00844735528126
1385569259136179143,-0.0262150905788,0.00800793903986,0.0292803605971,1.0,0.0,-0.00847184399969
1385569259336232544,-0.0252126662918,0.00883765207793,0.0277175549749,1.0,0.0,-0.00854656872107
1385569259536226960,-0.0238106977779,0.009082921462,0.0266000867171,1.0,0.0,-0.00853116088356
1385569259736195626,-0.0225707187985,0.00895739982322,0.0252614220739,1.0,0.0,-0.00853723417196
1385569259936289814,-0.0216092911882,0.00891080202919,0.0240155623795,1.0,0.0,-0.00858414019249
1385569260136191728,-0.0208905186763,0.00877400174544,0.0228311426921,1.0,0.0,-0.00859432133087
1385569260336146182,-0.0206764551078,0.00831026790093,0.0216157973814,1.0,0.0,-0.00834744396477
1385569260536109530,-0.0204735270307,0.00798151042887,0.0208574640217,1.0,0.0,-0.00804933259052
1385569260736170934,-0.0202950786776,0.00776644018322,0.0202105521009,1.0,0.0,-0.00777480267235
1385569260936323399,-0.0196086840763,0.00816686387673,0.0194542169871,1.0,0.0,-0.00753671673472
1385569261136392990,-0.0184395479173,0.00945576118223,0.0187698011735,1.0,0.0,-0.00746503071993
1385569261336307469,-0.0170014336671,0.0115241990997,0.0182265536729,1.0,0.0,-0.00749681610427
1385569261536222200,-0.0158711277177,0.0137589280567,0.0175603363271,1.0,0.0,-0.0077555882874
1385569261736213399,-0.0153074031915,0.0155883750806,0.0169827069632,1.0,0.0,-0.00790149942292
1385569261936251018,-0.0152028523984,0.0165528449081,0.0161716813763,1.0,0.0,-0.00774940707316
1385569262136317497,-0.0152592540245,0.0169141577546,0.0155438708545,1.0,0.0,-0.00764921200332
1385569262336153618,-0.015178039427,0.0164875359044,0.014985217945,1.0,0.0,-0.00755529527377
1385569262536212988,-0.0147191697473,0.0156497369642,0.0147850599525,1.0,0.0,-0.00759724910205
1385569262736212819,-0.0140062161419,0.0142550733932,0.0141930660838,1.0,0.0,-0.00749728208438
1385569262936136272,-0.0133165242081,0.0120319499375,0.0134532666571,1.0,0.0,-0.00709216921062
1385569263136190981,-0.0125684890981,0.00978074250243,0.0126784516907,1.0,0.0,-0.00668320050981
1385569263336136713,-0.0121631985057,0.0080679752465,0.0118397336373,1.0,0.0,-0.00624529522049
1385569263536233928,-0.0118699322903,0.00740132062096,0.0114068944733,1.0,0.0,-0.00589824413556
1385569263736239171,-0.0117001663381,0.00774082470997,0.0107418510755,1.0,0.0,-0.005642721756
1385569263936130460,-0.0116922242278,0.00869592499186,0.0102103345523,1.0,0.0,-0.00542820739051
1385569264136166509,-0.0118874452036,0.00987563078245,0.00982773463962,1.0,0.0,-0.00504164952227
1385569264336185659,-0.0119685731853,0.0108934057053,0.00948341849601,1.0,0.0,-0.00452279011392
1385569264536132743,-0.012175043876,0.0111617262361,0.00905045543283,1.0,0.0,-0.00373446328612
1385569264736264547,-0.0119935497786,0.011158795811,0.00837782677636,1.0,0.0,-0.00294331026532
1385569264936296489,-0.0113980123307,0.0106333977859,0.00758864267486,1.0,0.0,-0.00196958788263
1385569265136241653,-0.0103398063907,0.00980763381408,0.00707591903333,1.0,0.0,-0.00105307646473
1385569265336239215,-0.00899914822017,0.00854547683278,0.00685195770249,1.0,0.0,-0.000219426551669
1385569265536172616,-0.00773397857061,0.00681580484552,0.00672120966209,1.0,0.0,0.000660142879082
1385569265736176574,-0.00689454017682,0.00457139334606,0.00647216605992,1.0,0.0,0.00167321974727
1385569265936203103,-0.00665858751592,0.00238777054971,0.00638441032987,1.0,0.0,0.00251003840481
1385569266136283630,-0.00712539501403,0.00011594359152,0.00616487022802,1.0,0.0,0.00356458405229
1385569266336196808,-0.00786909078083,-0.00154529171731,0.00575186926574,1.0,0.0,0.00442819142404
1385569266536203961,-0.00865288347624,-0.00302592916234,0.00529303441649,1.0,0.0,0.005166487107
1385569266736243912,-0.00922947532092,-0.00416301270175,0.00481722479316,1.0,0.0,0.00593066321297
1385569266936255035,-0.00958612478461,-0.00504890193681,0.00405289946618,1.0,0.0,0.00682493645363
1385569267136196527,-0.00986294540838,-0.00563904142855,0.00341035490856,1.0,0.0,0.00780913663329
1385569267336433292,-0.0101910347287,-0.00590476787321,0.00289566703014,1.0,0.0,0.00877813471298
1385569267536195106,-0.0106926414718,-0.00617714704993,0.00244078606125,1.0,0.0,0.0096419348587
1385569267736242280,-0.0112255796676,-0.0066334866393,0.00191510208659,1.0,0.0,0.0105040095413
1385569267936241131,-0.0117284218444,-0.00684077560927,0.00133998835336,1.0,0.0,0.0112710792166
1385569268136200202,-0.0122713040058,-0.00672542509824,0.00104716628926,1.0,0.0,0.0120578006304
1385569268336218173,-0.0128616090118,-0.00633515166251,0.000955736285448,1.0,0.0,0.0127701252012
1385569268536166082,-0.0131881164209,-0.00561623276182,0.00104808534528,1.0,0.0,0.0133106885027
1385569268736143815,-0.013414231934,-0.0049552359726,0.000933091852222,1.0,0.0,0.0137895596451
1385569268936322312,-0.0132846074982,-0.00384119029285,0.00102023795652,1.0,0.0,0.0140781588574
1385569269136290093,-0.0129265653415,-0.00275193923327,0.00134050173576,1.0,0.0,0.0144000424762
1385569269336217030,-0.012525200509,-0.00156386559819,0.00164696077434,1.0,0.0,0.0147657942575
1385569269536177976,-0.0120689745605,-2.83189403653e-05,0.00221222948533,1.0,0.0,0.0150966702755
1385569269736174159,-0.0115384416976,0.00182347224988,0.00314227559316,1.0,0.0,0.0154530129151
1385569269936176100,-0.0109330601578,0.00402238354669,0.00394644983834,1.0,0.0,0.0158554430382
1385569270136214139,-0.0104204001818,0.00630306901375,0.004428257635,1.0,0.0,0.0161829864851
1385569270336146667,-0.0102137805649,0.00791666686345,0.00485511208462,1.0,0.0,0.0164906510126
1385569270536203456,-0.0102522111598,0.00880478595904,0.00512047261953,1.0,0.0,0.0166534341085
1385569270736166346,-0.0105482711932,0.00903644089722,0.00531155964052,1.0,0.0,0.0167519590732
1385569270936207126,-0.0110861958935,0.00899400426881,0.0052381643708,1.0,0.0,0.0168086385912
1385569271136296436,-0.0117230464132,0.00899844258206,0.00489271040087,1.0,0.0,0.0168858371586
1385569271336207812,-0.0121780317803,0.00915927325254,0.00442308614558,1.0,0.0,0.0170511933984
1385569271536253962,-0.0121858482899,0.00961794265531,0.00374926253006,1.0,0.0,0.0173430142988
1385569271736209954,-0.0117055391196,0.010363857631,0.00273199356402,1.0,0.0,0.0177869603759
1385569271936303864,-0.0109922073517,0.0109033167917,0.00158626828986,1.0,0.0,0.018299812205
1385569272136258337,-0.0102491148521,0.0109701573838,0.000342349615487,1.0,0.0,0.0189344279767
1385569272336239889,-0.00950630383708,0.0104163613461,-0.000734086650577,1.0,0.0,0.0195269901587
1385569272536113818,-0.00915602832249,0.00928386918191,-0.00178914318755,1.0,0.0,0.0200926379927
1385569272736251219,-0.00947353016927,0.00791054239742,-0.00252933371871,1.0,0.0,0.0205492236992
1385569272936243988,-0.0103800099707,0.00647512794919,-0.00303175334756,1.0,0.0,0.021031838315
1385569273136134734,-0.011606967692,0.005213586142,-0.00315038892299,1.0,0.0,0.0215391023221
1385569273336165024,-0.0129619842565,0.00384180534607,-0.00290430453583,1.0,0.0,0.0222330400479
1385569273536152950,-0.0142357744382,0.00253497461619,-0.00269816945697,1.0,0.0,0.0230765353863
1385569273736230490,-0.0151285795143,0.0017186651492,-0.00237205689282,1.0,0.0,0.0238977719315
1385569273936156817,-0.0156744299584,0.00116622423157,-0.00213762567698,1.0,0.0,0.0247264312782
1385569274136183232,-0.0156295740003,0.000742348873236,-0.00188243279592,1.0,0.0,0.0254575463904
1385569274336234843,-0.0152948353922,0.000222369473414,-0.00165463252036,1.0,0.0,0.0261985707804
1385569274536210851,-0.0145422391075,-0.000192275126905,-0.00130634986777,1.0,0.0,0.026786298641
1385569274736334899,-0.0137546502293,-0.000455605697133,-0.00111589930181,1.0,0.0,0.0272779154702
1385569274936244763,-0.0132778401524,-0.000733677536128,-0.000826848587272,1.0,0.0,0.0276706269235
1385569275136108868,-0.0131841761569,-0.000986957269093,-0.000645803010692,1.0,0.0,0.027901540964
1385569275336188187,-0.0136028862459,-0.00183781514842,-0.000471239150912,1.0,0.0,0.0282996818474
1385569275536153048,-0.01452062061,-0.00289358028118,-9.69190307254e-05,1.0,0.0,0.0285982657033
1385569275736137814,-0.0158886471369,-0.00432486788219,0.00048952974173,1.0,0.0,0.0290535592357
1385569275936186610,-0.0174780514694,-0.00568494718316,0.00139193016176,1.0,0.0,0.0294693665713
1385569276136094534,-0.0190030917372,-0.00702831213675,0.00205115440657,1.0,0.0,0.0297961106984
1385569276336355253,-0.0200681160444,-0.00855255635808,0.00261628832563,1.0,0.0,0.0302719427196
1385569276536155979,-0.020395553623,-0.00971817390999,0.00282074818185,1.0,0.0,0.0306430456972
1385569276736177188,-0.0201331852924,-0.0103562352641,0.00299218521855,1.0,0.0,0.0307657422499
1385569276936160975,-0.019419124536,-0.010442295573,0.00298583766379,1.0,0.0,0.0307397128512
1385569277136134789,-0.0181015054105,-0.0100192603509,0.00279018852345,1.0,0.0,0.0305878917239
1385569277336166814,-0.0164438279409,-0.00938198810957,0.00256009284607,1.0,0.0,0.0303791125698
1385569277536286122,-0.0145882763893,-0.00846859625112,0.00236937062523,1.0,0.0,0.0301678759682
1385569277736198847,-0.012812846442,-0.00719312078369,0.00221049366342,1.0,0.0,0.0299957287819
1385569277936218235,-0.0113347084953,-0.00560436246168,0.00241383565794,1.0,0.0,0.0297474959507
1385569278136346776,-0.0101620618489,-0.0041063288207,0.00255926121179,1.0,0.0,0.0295148697188
1385569278336178076,-0.00929090890244,-0.00323164426114,0.00251545428578,1.0,0.0,0.0294173082774
1385569278536148547,-0.00887612243513,-0.00301272302149,0.00262428782838,1.0,0.0,0.0294227402338
1385569278736169586,-0.00880387058124,-0.00350763884675,0.00255347717614,1.0,0.0,0.0294829578551
1385569278936137378,-0.00888596981026,-0.00472820044123,0.00281417944003,1.0,0.0,0.0295446446226
1385569279136198437,-0.009030687268,-0.00660779836866,0.00302579907013,1.0,0.0,0.0296658060961
1385569279336273905,-0.00911160596474,-0.00880070979906,0.00302698455531,1.0,0.0,0.0297636155916
1385569279536262256,-0.00910811639431,-0.0106897402646,0.00289349711179,1.0,0.0,0.0297758809831
1385569279736260148,-0.00898412602239,-0.01206040329,0.00272378262991,1.0,0.0,0.0297951051856
1385569279936206842,-0.0087456626585,-0.0126448318418,0.0024015918325,1.0,0.0,0.0298126771176
1385569280136196937,-0.00837583403528,-0.0123974179511,0.0018190908657,1.0,0.0,0.0297770710153
1385569280336320481,-0.00811620609507,-0.0117708496223,0.000852626550152,1.0,0.0,0.0297602297729
1385569280536137345,-0.0081574190501,-0.0113244249405,0.000118296184099,1.0,0.0,0.0298306767372
1385569280736183089,-0.00878610355083,-0.011304135953,-0.000780517963978,1.0,0.0,0.0298579712709
1385569280936340832,-0.00992075581108,-0.0117174447316,-0.00150138788262,1.0,0.0,0.0297520938211
1385569281136246132,-0.0111139981394,-0.0125404755317,-0.0022027810075,1.0,0.0,0.0295887874377
1385569281336215911,-0.0120950003693,-0.013658575314,-0.00264720155199,1.0,0.0,0.0293710133684
1385569281536120243,-0.0129214584043,-0.0146987594826,-0.00286057181986,1.0,0.0,0.0291690018382
1385569281736196709,-0.0136070762573,-0.0156948959369,-0.00278515469945,1.0,0.0,0.0291680854692
1385569281936290792,-0.0140384307761,-0.0161233332807,-0.00252590584774,1.0,0.0,0.0292389150948
1385569282136123656,-0.01457055445,-0.0157900427592,-0.00209688720509,1.0,0.0,0.0292155713974
1385569282336203914,-0.0151507236173,-0.0145001262376,-0.00130876862312,1.0,0.0,0.0290186505467
1385569282536303643,-0.0156114865632,-0.0121981889127,-0.000595126198934,1.0,0.0,0.0285966143336
1385569282736152418,-0.0158153692247,-0.00939818922786,-3.34672689556e-05,1.0,0.0,0.028200895161
1385569282936245295,-0.0158140248768,-0.00672472553493,0.000572622690577,1.0,0.0,0.0280484431332
1385569283136211609,-0.0160790645081,-0.00465461457913,0.00120921546023,1.0,0.0,0.0279569455088
1385569283336190727,-0.0163625479753,-0.00379463106721,0.00204170236969,1.0,0.0,0.0279671226314
1385569283536255157,-0.0165960224064,-0.00371105859045,0.0027070423744,1.0,0.0,0.0278246982589
1385569283736171421,-0.0164265121309,-0.00401336045782,0.00316970160105,1.0,0.0,0.0276059256324
1385569283936180353,-0.0160450221362,-0.00421117813511,0.00334610199505,1.0,0.0,0.0272781499931
1385569284136130971,-0.0158374923679,-0.0043302797216,0.00348432375595,1.0,0.0,0.0269860927543
1385569284336203752,-0.0158978535472,-0.00427547791218,0.00336221371314,1.0,0.0,0.0266957491638
1385569284536141385,-0.01607473397,-0.00397290248261,0.00332781588499,1.0,0.0,0.0262984655841
1385569284736238243,-0.0163755100873,-0.00340625464324,0.00301393521346,1.0,0.0,0.0256904844836
1385569284936194283,-0.016577833058,-0.00300792477302,0.00296964772349,1.0,0.0,0.0252569762154
1385569285136203954,-0.0167924683312,-0.0023560518695,0.0030828097535,1.0,0.0,0.0248014020583
1385569285336178271,-0.0166559953644,-0.0016382782043,0.00308501949226,1.0,0.0,0.0244914987928
1385569285536260903,-0.0162073603556,-0.000883075036964,0.00304227310154,1.0,0.0,0.0243671586266
1385569285736223978,-0.0154027789182,0.000831872982854,0.00276019953971,1.0,0.0,0.023912349981
1385569285936196646,-0.0142153423465,0.00312316706886,0.00227442319915,1.0,0.0,0.0231119418085
1385569286136208224,-0.0125443244301,0.00553567003257,0.00192382135739,1.0,0.0,0.0223140325477
1385569286336297966,-0.0107549590843,0.00754886305392,0.00153748190072,1.0,0.0,0.0214232484344
1385569286536210875,-0.00886106705677,0.00939359947779,0.00104739262794,1.0,0.0,0.0202903910753
1385569286736154423,-0.00692573136695,0.0103807128646,0.000620440168271,1.0,0.0,0.0192086418873
1385569286936192455,-0.00527405482151,0.0103740672044,0.000128576880308,1.0,0.0,0.0179918391788
1385569287136240562,-0.00417248031055,0.00963561700102,-6.43556740661e-05,1.0,0.0,0.0168022440512
1385569287336154384,-0.00359850701618,0.00882675112639,-0.000304975143017,1.0,0.0,0.0154730531228
1385569287536190389,-0.00332096715891,0.00807710683023,-0.000261050724844,1.0,0.0,0.0142576542466
1385569287736213032,-0.00305609135356,0.00786787390496,-0.000477957886063,1.0,0.0,0.0128497177868
1385569287936105552,-0.00300207396552,0.0080318663883,-0.000481914575532,1.0,0.0,0.0116222976255
1385569288136196145,-0.00328762823837,0.00880927790342,-0.000293026409132,1.0,0.0,0.0105692760611
1385569288336145893,-0.00402524951459,0.00965202763517,-8.99496337385e-05,1.0,0.0,0.00964185744267
1385569288536289272,-0.00533035647402,0.00999432121247,0.000265446428688,1.0,0.0,0.00914035777331
1385569288736159123,-0.00697717223925,0.00961573062171,0.000491574561388,1.0,0.0,0.00882980290786
1385569288936267424,-0.00845658305891,0.00859922036885,0.000418048274777,1.0,0.0,0.00851964379278
1385569289136247952,-0.00952633690952,0.00646811881807,0.000311030901945,1.0,0.0,0.0083822477523
1385569289336253357,-0.010030824441,0.00346652918901,6.99489280666e-05,1.0,0.0,0.00830922751393
1385569289536139286,-0.0101082366981,0.000273702146081,-0.000406267669742,1.0,0.0,0.00822775200565
1385569289736151212,-0.0098781369595,-0.00255968849327,-0.000773037782785,1.0,0.0,0.00811397197472
1385569289936237722,-0.00965167191344,-0.00452205908619,-0.00123209394302,1.0,0.0,0.0079109668307
1385569290136188238,-0.00944826707834,-0.00528002125019,-0.00156330296447,1.0,0.0,0.007757302219
1385569290336166346,-0.00946994067623,-0.00488042334337,-0.00207065498485,1.0,0.0,0.00760789752794
1385569290536258109,-0.00977563844621,-0.0033997170924,-0.00272190547414,1.0,0.0,0.00748436067202
1385569290736172204,-0.0100657400096,-0.00151291937857,-0.00313374982878,1.0,0.0,0.00740870908087
1385569290936204079,-0.00984392223916,0.000317798741751,-0.00330149064919,1.0,0.0,0.00749913299029
1385569291136209935,-0.00915194568919,0.00163634905687,-0.00336963290792,1.0,0.0,0.00765717753433
1385569291336319688,-0.008242798187,0.00204396060587,-0.00328627048448,1.0,0.0,0.0079315850984
1385569291536263684,-0.00723193482252,0.00182490954989,-0.00331363137597,1.0,0.0,0.00822727043525
1385569291736266531,-0.00582548894745,0.00163336093324,-0.00352046959443,1.0,0.0,0.0083371459933
1385569291936138941,-0.00419238923929,0.00175276726473,-0.00348881198156,1.0,0.0,0.00845685863603
1385569292136203359,-0.0029710617544,0.00183666930667,-0.00338939563634,1.0,0.0,0.00852952378464
1385569292336168128,-0.00228379301157,0.00215030131524,-0.00324334122877,1.0,0.0,0.00861771337205
1385569292536205806,-0.002069407871,0.00235248394595,-0.00315034212014,1.0,0.0,0.00869911449388
1385569292736246055,-0.00216393186455,0.00270525468464,-0.00289182382923,1.0,0.0,0.00870082839467
1385569292936168372,-0.00269132193617,0.00285741560363,-0.00243793870852,1.0,0.0,0.00869143776577
1385569293136178157,-0.00364024983454,0.00265171432811,-0.00194885331663,1.0,0.0,0.00845540612268
1385569293336173827,-0.00481414340524,0.00222676589439,-0.00147065824307,1.0,0.0,0.00827879839178
1385569293536231781,-0.00582799292928,0.00157292434946,-0.000979102527305,1.0,0.0,0.00801084000343
1385569293736198944,-0.00640063122291,0.00048871002215,-0.000625306811078,1.0,0.0,0.00770513822769
1385569293936158297,-0.00675187530454,-0.000777969161414,-0.000480199316261,1.0,0.0,0.00750328633091
1385569294136159764,-0.00684371384923,-0.00187902313235,-0.00046144991351,1.0,0.0,0.00752674355072
1385569294336251805,-0.00682912398786,-0.00265096819569,-0.00046346265626,1.0,0.0,0.00757584336016
1385569294536195758,-0.00676841941958,-0.00313799214268,-0.000561753225459,1.0,0.0,0.00775909258997
1385569294736195567,-0.00691640328592,-0.0030603007581,-0.000913020641207,1.0,0.0,0.00779012085355
1385569294936342838,-0.00694846606242,-0.00225438730781,-0.00103743867673,1.0,0.0,0.00792562373567
1385569295136254851,-0.00694228538691,-0.000645243049758,-0.00109472990987,1.0,0.0,0.00785419795956
1385569295336152349,-0.00724503000603,0.00117021873944,-0.000907223885793,1.0,0.0,0.00787306673597
1385569295536162958,-0.00759601159865,0.00279407727147,-0.000471986389639,1.0,0.0,0.00797658469249
1385569295736169663,-0.00794549728891,0.00390721164316,0.000224953032796,1.0,0.0,0.00812346260923
1385569295936225130,-0.00805320014462,0.00429458798311,0.000894882517554,1.0,0.0,0.00841734088944
1385569296136187468,-0.00794417420777,0.00452543089461,0.00144972164526,1.0,0.0,0.0087705915077
1385569296336183622,-0.00762637386913,0.00510036357941,0.00184489368701,1.0,0.0,0.00910097047886
1385569296536143477,-0.00699401989708,0.00590884361917,0.00223739795453,1.0,0.0,0.00970463572979
1385569296736231691,-0.00611205002406,0.0067719159244,0.00252088949134,1.0,0.0,0.0104289711875
1385569296936153383,-0.00511425767721,0.0076653281161,0.00256245193172,1.0,0.0,0.0110643534416
1385569297136233366,-0.00450384372372,0.00832300518763,0.00246426876146,1.0,0.0,0.0119427835901
1385569297336183746,-0.00440725706186,0.00922738873505,0.00232314784875,1.0,0.0,0.0127240149413
1385569297536198431,-0.00509776486035,0.0102026674196,0.00222140822858,1.0,0.0,0.0134818879066
1385569297736205837,-0.00607025592031,0.0112740818776,0.00190645495407,1.0,0.0,0.0144066748633
1385569297936153812,-0.00721474578631,0.0123414218562,0.00161540612879,1.0,0.0,0.0155031217039
1385569298136229382,-0.00836841992812,0.0131770993136,0.00146772301845,1.0,0.0,0.0166571980841
1385569298336191814,-0.00931520917062,0.0136409883534,0.0011524658144,1.0,0.0,0.0178101713494
1385569298536199850,-0.01015277408,0.0138785629433,0.000697178820879,1.0,0.0,0.0190142046399
1385569298736163354,-0.0109458135131,0.0142193543562,6.11321672581e-05,1.0,0.0,0.0202034407129
1385569298936181374,-0.0116216945484,0.0148287244445,-0.000493575966418,1.0,0.0,0.0213982718971
1385569299136112262,-0.0121891943655,0.0160555298283,-0.00111754789791,1.0,0.0,0.022571290386
1385569299336161276,-0.0126341477072,0.0178913304228,-0.00159232341409,1.0,0.0,0.023643803635
1385569299536106699,-0.0130028455079,0.019894304466,-0.00189291897119,1.0,0.0,0.0247954368234
1385569299736192487,-0.0132488845951,0.0213673993855,-0.00226606560972,1.0,0.0,0.0261174034744
1385569299936202302,-0.012972999665,0.022269006841,-0.0025594940173,1.0,0.0,0.0273201758752
1385569300136239806,-0.012230716089,0.0224930582153,-0.0027434477739,1.0,0.0,0.0286534753329
1385569300336279863,-0.0109708687853,0.022381377005,-0.00287640558682,1.0,0.0,0.0300969913136
1385569300536179115,-0.00917753704045,0.022128098073,-0.00309867765936,1.0,0.0,0.031423248159
1385569300736216770,-0.0073328669451,0.0217339189399,-0.00325098916928,1.0,0.0,0.0328997861627
1385569300936181275,-0.00522568587947,0.0214197496672,-0.00335478581094,1.0,0.0,0.0343303669786
1385569301136309654,-0.00312232923126,0.0208341705069,-0.00307410011797,1.0,0.0,0.0356983470805
1385569301336231946,-0.00140031689475,0.0196872666079,-0.00250944025551,1.0,0.0,0.0369591642252
1385569301536150618,-0.000445340535711,0.018040534921,-0.00194418912218,1.0,0.0,0.0381915253031
1385569301736244519,-0.000204637649377,0.0159025987367,-0.00143329126661,1.0,0.0,0.0393967817746
1385569301936167926,-0.000472545009712,0.0135827655465,-0.000918943194365,1.0,0.0,0.0404043305801
1385569302136170486,-0.00107135628252,0.0112183258159,-0.000504839413881,1.0,0.0,0.0412332441425
1385569302336226891,-0.00183483935901,0.00928189804716,-0.000108374418795,1.0,0.0,0.0418306417036
1385569302536168784,-0.00274062035726,0.00854201237445,0.000316381265026,1.0,0.0,0.0423761632287
1385569302736153644,-0.00370378809842,0.0095076342647,0.00076378408303,1.0,0.0,0.0429287218804
1385569302936233512,-0.00442465123961,0.0118904316861,0.00119546204437,1.0,0.0,0.043390106474
1385569303136155486,-0.00477175212564,0.0150363392725,0.00153402329594,1.0,0.0,0.0437143569087
1385569303336161321,-0.00495541634407,0.0181699984974,0.00204294965573,1.0,0.0,0.0441248476136
1385569303536157530,-0.00536610337663,0.0206316182897,0.00252750344249,1.0,0.0,0.0445111696764
1385569303736183215,-0.00624496625975,0.0220533676967,0.00289380804889,1.0,0.0,0.0449371181058
1385569303936171969,-0.0074875986588,0.0223258817332,0.00319041857343,1.0,0.0,0.0456233344611
1385569304136234326,-0.00839064124715,0.0219977406259,0.00347274248625,1.0,0.0,0.0462419225405
1385569304336263378,-0.00902134982171,0.020853669738,0.00372699848867,1.0,0.0,0.0469911095118
1385569304536575359,-0.00912528328842,0.0195204590869,0.00346286895448,1.0,0.0,0.0476781000044
1385569304736271421,-0.00897338509182,0.0187537247203,0.00330334632743,1.0,0.0,0.0481579703787
1385569304936257006,-0.00901045198801,0.0189155416847,0.00285750383198,1.0,0.0,0.0486018026221
1385569305136331747,-0.00910772700991,0.0201124543701,0.00248677335807,1.0,0.0,0.048871010223
1385569305336251785,-0.00946228546401,0.0222185920181,0.00229700693215,1.0,0.0,0.049148408114
1385569305536176453,-0.00984336495028,0.0246832758857,0.00192339033701,1.0,0.0,0.0493793974327
1385569305736158861,-0.0102678952013,0.0270359449216,0.00155252865073,1.0,0.0,0.0496695998753
1385569305936248070,-0.0106590166054,0.0288732814366,0.00123313589322,1.0,0.0,0.0500133275935
1385569306136214965,-0.0110942424601,0.0298079584833,0.00112810024754,1.0,0.0,0.0503617075451
1385569306336170754,-0.0113108111308,0.0295807304373,0.000856984100672,1.0,0.0,0.0507438100672
1385569306536290782,-0.011092445683,0.0285897814147,0.000749419189764,1.0,0.0,0.0510717381919
1385569306736259606,-0.0108182673382,0.0270471644525,0.00122600695342,1.0,0.0,0.0513331314668
1385569306936327954,-0.0107570853361,0.0251987201254,0.00233184162461,1.0,0.0,0.0515199130045
1385569307136287522,-0.011107207237,0.0232330824309,0.00305432037616,1.0,0.0,0.0517477779991
1385569307336346597,-0.0118798416554,0.0212730325028,0.00387253013577,1.0,0.0,0.0519113953344
1385569307536308359,-0.0136825787753,0.0192390949288,0.00427546305836,1.0,0.0,0.0522305035733
1385569307736195449,-0.016036115298,0.017562793523,0.00455263971423,1.0,0.0,0.0524149483253
1385569307936267242,-0.0188624403561,0.0169120418758,0.00479488245015,1.0,0.0,0.0525436740331
1385569308136111827,-0.0214143984841,0.0175298076774,0.00510286402829,1.0,0.0,0.0525535667153
1385569308336177250,-0.023172123155,0.0192944980051,0.00546707479736,1.0,0.0,0.0523340130542
1385569308536141131,-0.0240931494562,0.021792262488,0.00566438468885,1.0,0.0,0.051953306289
1385569308736239386,-0.0241858143107,0.0246034942141,0.00570049201375,1.0,0.0,0.0514973569167
1385569308936242941,-0.0232178040017,0.0272423608535,0.0057511055376,1.0,0.0,0.0509156447189
1385569309136276940,-0.021574331072,0.0290479715818,0.00575547902574,1.0,0.0,0.050220591505
1385569309336167463,-0.0195404251536,0.0295943362578,0.00579814124138,1.0,0.0,0.0494502271808
1385569309536233596,-0.0178150669038,0.028364199975,0.00557687756786,1.0,0.0,0.0489015010535
1385569309736281311,-0.0162827594077,0.0258997466598,0.005411112827,1.0,0.0,0.0484017190251
1385569309936316440,-0.0154439825947,0.0224228745088,0.00510498475689,1.0,0.0,0.0480979786649
1385569310136211422,-0.0152262953063,0.0184547430769,0.00510053908167,1.0,0.0,0.0479759250434
1385569310336100144,-0.0151165779892,0.0145569585303,0.00491525256529,1.0,0.0,0.0476798028759
1385569310536095423,-0.0155407021929,0.0107075035761,0.00421971211272,1.0,0.0,0.0474295670092
1385569310736217794,-0.0160415175535,0.00761952606912,0.00324906672126,1.0,0.0,0.0470549899528
1385569310936140473,-0.0164920801497,0.0054479286529,0.00196486574133,1.0,0.0,0.046547676658
1385569311136146213,-0.0170007064704,0.00436091376584,0.000995686090526,1.0,0.0,0.0459710527542
1385569311336143353,-0.0171411800121,0.00452785045549,0.000142134389947,1.0,0.0,0.0452824964694
1385569311536158230,-0.0168290413437,0.00535696125857,-0.000362654270415,1.0,0.0,0.0446963061814
1385569311736208190,-0.0160639375554,0.00665216146403,-0.000679237430247,1.0,0.0,0.0440287207573
1385569311936258370,-0.0156010175779,0.00799133816708,-0.00076714950772,1.0,0.0,0.0432612890949
1385569312136264379,-0.0156965765101,0.0089696979162,-0.000554052457699,1.0,0.0,0.042443723985
1385569312336161459,-0.0162362730481,0.00908827191125,-0.000819667529338,1.0,0.0,0.0416959068248
1385569312536198376,-0.0168309137228,0.00857754690554,-0.0016353556667,1.0,0.0,0.0407691865248
1385569312736194431,-0.0174568945168,0.00731037508278,-0.00240611906351,1.0,0.0,0.0398114942146
1385569312936204781,-0.017700046865,0.00578304683011,-0.0031054003828,1.0,0.0,0.0389101205358
1385569313136202189,-0.0176221251627,0.00448928063944,-0.00358477928977,1.0,0.0,0.0378438476601
1385569313336243273,-0.0174622325636,0.00411741442228,-0.00349650045223,1.0,0.0,0.0367511624477
1385569313536287826,-0.0169671392723,0.00468870636622,-0.00308997138264,1.0,0.0,0.0359000351584
1385569313736311778,-0.0160038911589,0.00609804178975,-0.00290197353053,1.0,0.0,0.0350856578165
1385569313936180576,-0.014716679208,0.0081550114427,-0.00268303716955,1.0,0.0,0.0344278352478
1385569314136178810,-0.0134145959448,0.0103715654031,-0.00256480571489,1.0,0.0,0.0339727283549
1385569314336206338,-0.012349802527,0.01262304274,-0.0025467880031,1.0,0.0,0.0336685194002
1385569314536155542,-0.01161780314,0.0143641550313,-0.00280464460609,1.0,0.0,0.0334271169645
1385569314736268774,-0.0116455316832,0.0148277925783,-0.00314899544082,1.0,0.0,0.0334361546239
1385569314936416658,-0.0120270781811,0.0141040864601,-0.00354677871692,1.0,0.0,0.0335533351163
1385569315136246800,-0.0126502041708,0.0123060912902,-0.00395117413639,1.0,0.0,0.0335711555434
1385569315336220230,-0.0136715306996,0.00970089927511,-0.00435280831223,1.0,0.0,0.033649606908
1385569315536161958,-0.0148370776479,0.0069579630204,-0.00463651371596,1.0,0.0,0.033675886134
1385569315736207248,-0.0159983460932,0.00445529949007,-0.00517663447711,1.0,0.0,0.0336957453307
1385569315936224502,-0.0167435684349,0.00249136794278,-0.00553535758057,1.0,0.0,0.0338422306482
1385569316136157353,-0.01678475695,0.001446959862,-0.00590130847745,1.0,0.0,0.0340482979471
1385569316336334674,-0.0162319771686,0.00152212426329,-0.00596972140669,1.0,0.0,0.0341364691845
1385569316536353939,-0.0155466398532,0.00236740993614,-0.00600064394356,1.0,0.0,0.0342590998462
1385569316736174045,-0.0147285028372,0.00373061169192,-0.00571474018725,1.0,0.0,0.0342983123409
1385569316936300294,-0.0138841877665,0.00495163874872,-0.00528803245144,1.0,0.0,0.0341270711854
1385569317136160041,-0.0133318291831,0.00593458139906,-0.00478430586458,1.0,0.0,0.0338099681096
1385569317336271618,-0.0131604205634,0.00651143469756,-0.00436349152699,1.0,0.0,0.0334672980437
1385569317536412333,-0.0132395417338,0.00621357364558,-0.00387379500592,1.0,0.0,0.0332229638382
1385569317736148639,-0.01320091039,0.00529555225799,-0.00338998490984,1.0,0.0,0.0328266922767
1385569317936154387,-0.0131846463362,0.00374186249776,-0.00259713478317,1.0,0.0,0.032373839564
1385569318136214739,-0.0128734953661,0.00197124006339,-0.00182637150958,1.0,0.0,0.031827858333
1385569318336136444,-0.0119318413898,0.000381673244515,-0.00101695632929,1.0,0.0,0.0312937240492
1385569318536261574,-0.0102324322105,-0.000636777717881,-0.00028030131139,1.0,0.0,0.0307991280157
1385569318736179547,-0.00825573070851,-0.0011687928078,0.000370933871652,1.0,0.0,0.030332994277
1385569318936306169,-0.00670284415401,-0.00115090175927,0.000822842324431,1.0,0.0,0.0297777029941
1385569319136238112,-0.00586792475386,-0.00066394964615,0.00100579199699,1.0,0.0,0.0292546043562
1385569319336329964,-0.00601624429813,-3.10119295197e-05,0.00103753419791,1.0,0.0,0.0288888436719
1385569319536138568,-0.00676079749803,0.000768618102005,0.00111991560366,1.0,0.0,0.0287010692886
1385569319736267878,-0.00790710263219,0.00154470294313,0.00121501045474,1.0,0.0,0.028609026861
1385569319936176748,-0.00867320581794,0.00220684505144,0.00154907932069,1.0,0.0,0.0282841336735
1385569320136222061,-0.00890441368772,0.00192228908319,0.00171927355954,1.0,0.0,0.0279506319877
1385569320336274615,-0.00845133342158,0.000707063639804,0.00166983612904,1.0,0.0,0.0274873021219
1385569320536219519,-0.00731398603585,-0.00142837053318,0.00164256851267,1.0,0.0,0.0270083379984
1385569320736275060,-0.00578382836139,-0.00401501244312,0.00114877377475,1.0,0.0,0.0264374127679
1385569320936277534,-0.00434975323562,-0.00661727901681,0.000516157881634,1.0,0.0,0.0257461283996
1385569321136173428,-0.0033281922569,-0.00893048327231,-4.20016380054e-05,1.0,0.0,0.0247672040268
1385569321336172749,-0.00295504257311,-0.0108619647243,-0.000746670030474,1.0,0.0,0.0237417488217
1385569321536144202,-0.00342849464371,-0.012142268014,-0.00152750064547,1.0,0.0,0.0227829516488
1385569321736271348,-0.0048913922403,-0.0126676005256,-0.0019274437099,1.0,0.0,0.0218379219364
1385569321936271559,-0.00716799682657,-0.0122488285912,-0.00196684160075,1.0,0.0,0.0208836892017
1385569322136206657,-0.0100252832631,-0.0112278773801,-0.00194667041365,1.0,0.0,0.0200087275591
1385569322336450283,-0.0128953386673,-0.00963693081242,-0.00165274169746,1.0,0.0,0.0191717483912
1385569322536233369,-0.0152667499018,-0.00745294981166,-0.0013242333919,1.0,0.0,0.0182433771272
1385569322736139947,-0.0165178893771,-0.00483509293279,-0.000915899023262,1.0,0.0,0.0174447915668
1385569322936273994,-0.016616055554,-0.00229981472471,-0.000291369608903,1.0,0.0,0.0168927757208
1385569323136164032,-0.0154810933439,-0.000546101865843,0.000274796104454,1.0,0.0,0.0165915572181
1385569323336189797,-0.0132700217147,-0.000153709033632,0.000513549363479,1.0,0.0,0.0162869772506
1385569323536251847,-0.0101193843396,-0.00111078201622,0.000582788425952,1.0,0.0,0.0159528299234
1385569323736206920,-0.00672499858833,-0.00312510388717,0.000580095916425,1.0,0.0,0.0157639323993
1385569323936283304,-0.0038649589076,-0.00545651231562,0.000429551260322,1.0,0.0,0.0156636129253
1385569324136306437,-0.00224976363897,-0.00762278635726,0.000370511080736,1.0,0.0,0.0156086163591
1385569324336285424,-0.0019659682615,-0.0095669714096,0.000411839462268,1.0,0.0,0.0156308234381
1385569324536293809,-0.00250341932416,-0.0112765224012,0.000621154770341,1.0,0.0,0.0159148428435
1385569324736141872,-0.00358623037854,-0.0127041641629,0.000853593278059,1.0,0.0,0.0163230608257
1385569324936174750,-0.00508291838166,-0.0131472249948,0.000894658398067,1.0,0.0,0.016536572276
1385569325136708000,-0.0065127938393,-0.0128428823099,0.00071753257497,1.0,0.0,0.0167450356467
1385569325336150242,-0.00808045413247,-0.0123263454244,0.000254633836616,1.0,0.0,0.0170148832394
1385569325536270259,-0.00938236602701,-0.0118698057402,-0.000172281204342,1.0,0.0,0.0173004959969
1385569325736699873,-0.0102135023472,-0.0112015096047,-0.000414206398236,1.0,0.0,0.017557362753
1385569325936398524,-0.0104101630013,-0.00997408149442,-0.000764568428052,1.0,0.0,0.0178033794898
1385569326136583070,-0.00970113578667,-0.00830748438892,-0.000786344040322,1.0,0.0,0.0180884157023
1385569326336216559,-0.00829381692143,-0.00707479896613,-0.000814638772268,1.0,0.0,0.0185100639525
1385569326536196355,-0.00650393575532,-0.00694306517562,-0.000787782062924,1.0,0.0,0.0192240611207
1385569326736240066,-0.00502117186601,-0.00792533591702,-0.000649401300008,1.0,0.0,0.019848235751
1385569326936304861,-0.00399139390133,-0.00957622257392,-0.000373716762897,1.0,0.0,0.0205459285785
1385569327136167657,-0.00370374139163,-0.0109602257411,-0.000174622379364,1.0,0.0,0.0211415796935
1385569327336330079,-0.00407477644256,-0.011344103023,9.11247451811e-05,1.0,0.0,0.0217426547916
1385569327536195895,-0.00520950036735,-0.010457261486,0.000250887957999,1.0,0.0,0.0223401536231
1385569327736129772,-0.0067087438472,-0.0087846737907,0.000510097941809,1.0,0.0,0.0231950126422
1385569327936125151,-0.0083284483804,-0.00620954264427,0.00084347085851,1.0,0.0,0.0239013089306
1385569328136148673,-0.00932383846976,-0.0029980129426,0.000977419499884,1.0,0.0,0.0244918543712
1385569328336174192,-0.00940538664849,0.000348240231192,0.000968854400379,1.0,0.0,0.024878210613
1385569328536275971,-0.00852904348022,0.00361945108837,0.000910443314844,1.0,0.0,0.0250506269589
1385569328736345191,-0.00687313417726,0.00594496311067,0.000651584411143,1.0,0.0,0.0250346381592
1385569328936173535,-0.00462413080406,0.00690495271682,0.00044143886275,1.0,0.0,0.0249566222829
1385569329136147674,-0.00226880166024,0.0058931500215,0.000419969049662,1.0,0.0,0.0250998767908
1385569329336291011,-0.000203595150033,0.00319764116863,0.00038642660598,1.0,0.0,0.0251597689505
1385569329536249729,0.00137831971461,-0.000281258214448,0.000288591780354,1.0,0.0,0.0249828590199
1385569329736199661,0.00220118971189,-0.00400274351554,0.000318375411109,1.0,0.0,0.0247213153375
1385569329936332604,0.0019777074515,-0.00729353930037,0.000601599989321,1.0,0.0,0.0247851742425
1385569330136230325,0.000575681903743,-0.00913688185649,0.00106454217113,1.0,0.0,0.024817200773
1385569330336193429,-0.00182124413297,-0.00937469085221,0.0014011371286,1.0,0.0,0.0248399450348
1385569330536166832,-0.00464005875261,-0.00752687857343,0.00164119315687,1.0,0.0,0.0248188435194
1385569330736155470,-0.00720932694971,-0.00400944044786,0.00163788474788,1.0,0.0,0.0249166306811
1385569330936172284,-0.00904924092126,0.000606811253619,0.0015242367706,1.0,0.0,0.0251624367001
1385569331136145674,-0.0097073340226,0.00493224014238,0.00139740429135,1.0,0.0,0.0255569045024
1385569331336146751,-0.00900584480381,0.00784150510739,0.00116014965087,1.0,0.0,0.0258756616971
1385569331536130513,-0.00691788598216,0.00863646122214,0.000970597696549,1.0,0.0,0.0261722992108
1385569331736134104,-0.00370416998841,0.00757805846885,0.000807454081615,1.0,0.0,0.0262166397497
1385569331936246383,-0.000127921085132,0.00501713675368,0.000616943236232,1.0,0.0,0.0261901817423
1385569332136203910,0.00291810398245,0.00123889023986,0.000561137793074,1.0,0.0,0.0262050552577
1385569332336105517,0.00467248653007,-0.00308521672264,0.000582524138014,1.0,0.0,0.0263494277137
1385569332536156558,0.00466691483476,-0.0070170594766,0.000701342725086,1.0,0.0,0.0264003743324
1385569332736252488,0.00298731611783,-0.00956137569209,0.000802456866175,1.0,0.0,0.0263229148825
1385569332936233323,-8.36902687996e-05,-0.0102825987102,0.000818244756383,1.0,0.0,0.0260282271667
1385569333136523545,-0.00409116824142,-0.00862662016486,0.000811061068559,1.0,0.0,0.02581293754
1385569333336710096,-0.00836194303807,-0.00490112286231,0.000739040684467,1.0,0.0,0.0257124205234
1385569333536203729,-0.0120969493456,5.20036400538e-05,0.000666170626505,1.0,0.0,0.0256271128847
1385569333736295381,-0.0144250290995,0.00548764754484,0.000582137018145,1.0,0.0,0.025455642686
1385569333936186850,-0.0148679515546,0.0108646144266,0.000562664975805,1.0,0.0,0.0252347311057
1385569334136412649,-0.0134446917058,0.0149922119495,0.000408086700466,1.0,0.0,0.0252142706622
1385569334336145319,-0.0106862609941,0.0173846164526,0.0001861568899,1.0,0.0,0.0251944352749
1385569334536265882,-0.00699570254746,0.0178726525691,-5.59418822085e-05,1.0,0.0,0.0254596830087
1385569334736242006,-0.00283789301107,0.0163743133074,-0.000530663600227,1.0,0.0,0.0258489720571
1385569334936206441,0.00111810055777,0.0128619234973,-0.0010336869215,1.0,0.0,0.0263255728155
1385569335136121619,0.00423555496699,0.00847472154973,-0.00141909821134,1.0,0.0,0.0266165786633
1385569335336343544,0.00595513067064,0.00409653864819,-0.00141015680633,1.0,0.0,0.0267810361703
1385569335536361554,0.00589284895361,0.000474942366929,-0.00134497027974,1.0,0.0,0.026923337716
1385569335736353617,0.00436786527422,-0.00190426846402,-0.00127986046575,1.0,0.0,0.0271846115428
1385569335936160035,0.00154774575748,-0.00245716823672,-0.00106225135619,1.0,0.0,0.0274931024085
1385569336136229846,-0.00217525697547,-0.00134001867805,-0.000794865350328,1.0,0.0,0.0278622045311
1385569336336241326,-0.00597269632123,0.00132423355742,-0.000499327635343,1.0,0.0,0.0283165069806
1385569336536262817,-0.00900328446431,0.0054046723059,-0.00023272802119,1.0,0.0,0.028947652614
1385569336736181992,-0.0107081954376,0.0100519173803,-2.97850508958e-05,1.0,0.0,0.0297786543916
1385569336936310471,-0.0107105934083,0.0147402593822,-2.08486092072e-05,1.0,0.0,0.0307175932853
1385569337136704638,-0.00920340549861,0.0183456793793,-0.000121808118634,1.0,0.0,0.0316508310573
1385569337336174369,-0.00661092510921,0.0205953403924,-0.000144478008648,1.0,0.0,0.0324988705838
1385569337536217324,-0.00300721365332,0.0214112604219,-0.00016672007052,1.0,0.0,0.0332896891224
1385569337736183630,0.000936581287913,0.0204894901722,-0.000116795245317,1.0,0.0,0.034305816093
1385569337936138443,0.00495211210109,0.0182331617736,-0.0001656521445,1.0,0.0,0.0352362331618
1385569338136128212,0.00835071779142,0.0151959164437,-0.00020732966181,1.0,0.0,0.0362201387578
1385569338336139093,0.0104534375434,0.0117134527073,-0.000292079860774,1.0,0.0,0.0370123610766
1385569338536281031,0.0104185753764,0.00796452763604,-0.000304927404581,1.0,0.0,0.0378599614079
1385569338736113583,0.00813007233293,0.00442914223559,-0.000144902255798,1.0,0.0,0.0388451373273
1385569338936176610,0.00446006008042,0.00142914267169,-0.000265082896618,1.0,0.0,0.0396099585203
1385569339136167648,-3.33864102924e-05,-0.000206704657184,-0.000429041550314,1.0,0.0,0.0401406025627
1385569339336294821,-0.00493035815931,-0.000483415531175,-0.0006206256348,1.0,0.0,0.0403252121117
1385569339536169719,-0.00968412135469,0.000798848928893,-0.000710088622941,1.0,0.0,0.0404112010958
1385569339736172192,-0.0136658994007,0.00384386139805,-0.000719660488083,1.0,0.0,0.0404849077201
1385569339936338452,-0.0160456231742,0.00837799649355,-0.000468560411995,1.0,0.0,0.0406550425045
1385569340136369595,-0.0159684081685,0.0136240815337,-7.2864765623e-05,1.0,0.0,0.0407300518098
1385569340336182510,-0.0133945947711,0.0183520931141,0.000537678887396,1.0,0.0,0.0408245096764
1385569340536249430,-0.00891305221428,0.0215427502364,0.00143149716839,1.0,0.0,0.0410179642022
1385569340736232700,-0.00328929164245,0.0223426672535,0.00241565473088,1.0,0.0,0.0413171661197
1385569340936205694,0.00214227820998,0.0204391701622,0.00311953300719,1.0,0.0,0.0416491927743
1385569341136239867,0.00644352608747,0.0160376405362,0.0035529700374,1.0,0.0,0.0416500404201
1385569341336279741,0.00861472316749,0.00981176006889,0.00387229921441,1.0,0.0,0.0414519368317
1385569341536297984,0.00797749662258,0.00297697898488,0.0039558921986,1.0,0.0,0.0412053728387
1385569341736148690,0.00481638142553,-0.00268618258811,0.00393981522007,1.0,0.0,0.040761498638
1385569341936142524,-0.000639411952134,-0.00615365110168,0.00390224162107,1.0,0.0,0.0402097799153
1385569342136174349,-0.00742756824197,-0.00703894588259,0.00378533913252,1.0,0.0,0.039546022048
1385569342336182464,-0.0141665864662,-0.00539099969462,0.00404162310512,1.0,0.0,0.0388272174604
1385569342536268549,-0.019899052991,-0.00197896895006,0.00438592658762,1.0,0.0,0.0383418993911
1385569342736258947,-0.0236107827978,0.00225219397939,0.00452472936607,1.0,0.0,0.0378106611627
1385569342936206572,-0.0249338903515,0.00638763556433,0.00452748916409,1.0,0.0,0.0373751691867
1385569343136290421,-0.0238149893809,0.00977672883446,0.00410037300602,1.0,0.0,0.0368259612381
1385569343336270836,-0.0207831102519,0.0114264167462,0.00332830968463,1.0,0.0,0.0362510405314
1385569343536403334,-0.0167053412597,0.0111230346114,0.00242479204588,1.0,0.0,0.0355260556278
1385569343736126261,-0.012673195416,0.00898213903306,0.00147816032636,1.0,0.0,0.034798658431
1385569343936246940,-0.0100360632896,0.00551261206548,0.000757013423952,1.0,0.0,0.034007842103
1385569344136333401,-0.00952030214568,0.00119050513686,0.000370869759397,1.0,0.0,0.0333263968642
1385569344336171938,-0.0112284642861,-0.00282406919368,5.43475439769e-05,1.0,0.0,0.0325227220862
1385569344536122424,-0.0146705138395,-0.00581668188426,-0.000364812648305,1.0,0.0,0.0317515961724
1385569344736316146,-0.0189425241922,-0.00761846822729,-0.00126599844847,1.0,0.0,0.0311072760813
1385569344936192744,-0.0231302717564,-0.00781228538058,-0.00207147262111,1.0,0.0,0.0304186581244
1385569345136133483,-0.0267685539341,-0.00678362564969,-0.00261964314914,1.0,0.0,0.0297880316442
1385569345336306862,-0.0292472021441,-0.00462813853383,-0.00312683521647,1.0,0.0,0.0291337799026
1385569345536206348,-0.03030377866,-0.00199305184,-0.0032350811288,1.0,0.0,0.0287613975964
1385569345736186596,-0.0297934493156,0.000455391490808,-0.00332930472968,1.0,0.0,0.0285036960495
1385569345936279819,-0.0282432285751,0.00226721334419,-0.00347601207843,1.0,0.0,0.0283571003679
1385569346136227037,-0.0262774481808,0.0028266894564,-0.0034742956679,1.0,0.0,0.0286305682522
1385569346336136857,-0.0244107083029,0.00276906722046,-0.00346445256121,1.0,0.0,0.029115278804
1385569346536213554,-0.0227264386348,0.00238732725452,-0.00365788768997,1.0,0.0,0.0296038492559
1385569346736252894,-0.0215937902164,0.00169187505454,-0.00384411214952,1.0,0.0,0.0302338248667
1385569346936236665,-0.0211296135821,0.00114651470808,-0.00377786489052,1.0,0.0,0.0310224027663
1385569347136186544,-0.0214635922533,0.000987195723646,-0.00368657738631,1.0,0.0,0.0317676806692
1385569347336155411,-0.0224329281296,0.00105330712832,-0.00348818152237,1.0,0.0,0.0324570457342
1385569347536199319,-0.0239832215315,0.00131169769815,-0.00319132943602,1.0,0.0,0.0333176362524
1385569347736197699,-0.0262029068297,0.00199130138861,-0.0028996859609,1.0,0.0,0.0343110035449
1385569347936212586,-0.028324799958,0.00344810386138,-0.00246253676887,1.0,0.0,0.0352607820205
1385569348136201450,-0.029839230438,0.00516018312462,-0.00190227916615,1.0,0.0,0.0363618091251
1385569348336262080,-0.0303831637106,0.00698900066531,-0.00152792571375,1.0,0.0,0.037508744932
1385569348536094352,-0.0300593239114,0.00885975726451,-0.00108178880951,1.0,0.0,0.0383858901668
1385569348736183717,-0.0291737294105,0.0102079935435,-0.000517322219898,1.0,0.0,0.038919863329
1385569348936263960,-0.0278439975466,0.0102811271738,3.4839401426e-05,1.0,0.0,0.0393857718791
1385569349136270423,-0.0263538663302,0.00950472069664,0.000403162654032,1.0,0.0,0.0397609503971
1385569349336143143,-0.0249926192597,0.00771230742994,0.000899991103988,1.0,0.0,0.0403989392434
1385569349536355021,-0.0235895184668,0.00606498746369,0.00091289082996,1.0,0.0,0.0410469947754
1385569349736139602,-0.022303181312,0.00491779695141,0.00100611762561,1.0,0.0,0.0416175390708
1385569349936228597,-0.0215703446599,0.00437983928958,0.00102351002211,1.0,0.0,0.0419809452808
1385569350136307856,-0.0215223045829,0.00383826610457,0.00113758096154,1.0,0.0,0.042426136798
1385569350336195669,-0.0219977279896,0.00369140744976,0.00123153495052,1.0,0.0,0.0430375604119
1385569350536150037,-0.0228355761153,0.00397022902863,0.00107923092797,1.0,0.0,0.043780413375
1385569350736173272,-0.0235154143928,0.0049792702632,0.00100905879971,1.0,0.0,0.0444241739923
1385569350936146711,-0.0237865436963,0.00671173582675,0.000864408945706,1.0,0.0,0.044788850333
1385569351136198846,-0.0237442798676,0.00797250819636,0.000689667449059,1.0,0.0,0.0452430096937
1385569351336258183,-0.0229057166253,0.00901016317009,0.000746818396324,1.0,0.0,0.0457828348399
1385569351536245780,-0.0214640090143,0.00909157545165,0.00102184453512,1.0,0.0,0.0465950903277
1385569351736226576,-0.0195872773174,0.00835909428544,0.00122439221538,1.0,0.0,0.0474513170073
1385569351936219279,-0.0176682612332,0.00695456122499,0.00132560678426,1.0,0.0,0.0485258264532
1385569352136222666,-0.0162679372296,0.00516916612942,0.00155232570042,1.0,0.0,0.0498217586691
1385569352336312293,-0.0157382403855,0.00310739223968,0.00162834023477,1.0,0.0,0.051154919427
1385569352536219602,-0.0160959466922,0.00090108484792,0.00150663300285,1.0,0.0,0.0524802368628
1385569352736187760,-0.0174223971359,-0.0010240613608,0.00120783199232,1.0,0.0,0.0535421544952
1385569352936203958,-0.0196458554865,-0.00243841318471,0.00105385074683,1.0,0.0,0.0545312655467
1385569353136296710,-0.0226079646574,-0.00294859273531,0.00102862494221,1.0,0.0,0.0555531567293
1385569353336280793,-0.0257774405395,-0.0021964655839,0.00145145001721,1.0,0.0,0.0564589724553
1385569353536219584,-0.0285981122301,-0.000480993664323,0.00157551515054,1.0,0.0,0.0573711259481
1385569353736231086,-0.03041030235,0.00212174700472,0.00181026557012,1.0,0.0,0.058234503569
1385569353936303510,-0.0310726550971,0.00533325013158,0.00214182712434,1.0,0.0,0.058957470332
1385569354136195788,-0.0303613533997,0.00808098129553,0.00266929934973,1.0,0.0,0.0596546923102
1385569354336248874,-0.0285673770335,0.00983941304031,0.00286352789665,1.0,0.0,0.0602458391182
1385569354536290562,-0.0260704732801,0.00994071241429,0.00265893351161,1.0,0.0,0.0608348440199
1385569354736165953,-0.0233877185558,0.00838466438502,0.0024335995315,1.0,0.0,0.061463469997
1385569354936149481,-0.0211545614249,0.00577738378375,0.0019628272951,1.0,0.0,0.062015882602
1385569355136211331,-0.0197547719121,0.00270201464291,0.00139012792015,1.0,0.0,0.0624124093817
1385569355336201913,-0.0193250562739,-0.000589913066466,0.00071573261119,1.0,0.0,0.0626897502846
1385569355536192968,-0.0198962898653,-0.0033814093469,-0.000102636884554,1.0,0.0,0.0628059760316
1385569355736195724,-0.0213770878415,-0.00503900591645,-0.00077256170886,1.0,0.0,0.0626711909908
1385569355936183619,-0.0236116022717,-0.00537726741758,-0.00162673308423,1.0,0.0,0.0621488072635
1385569356136101941,-0.0265227370501,-0.00484631692397,-0.00252684666946,1.0,0.0,0.0613197735933
1385569356336191305,-0.0297183990704,-0.00365812505142,-0.00315930640865,1.0,0.0,0.0603008766296
1385569356536218517,-0.0321980185423,-0.0018623458405,-0.00385199813358,1.0,0.0,0.0589990416276
1385569356736241809,-0.0336039060974,-8.23074628731e-05,-0.00459795537035,1.0,0.0,0.0577242880517
1385569356936176884,-0.0338665104639,0.00160945101141,-0.00515904729734,1.0,0.0,0.0564856513679
1385569357136172320,-0.0331753345412,0.00222570418665,-0.00541719251529,1.0,0.0,0.0553973444452
1385569357336140307,-0.0319466151358,0.00178822118617,-0.00544904533169,1.0,0.0,0.0542798970254
1385569357536213703,-0.0306397473686,0.000279200488015,-0.00530159705857,1.0,0.0,0.0531707969608
1385569357736165214,-0.0294499401753,-0.00196579435419,-0.00507370387371,1.0,0.0,0.0520630985445
1385569357936161258,-0.0282318698579,-0.00494345042063,-0.00500773490532,1.0,0.0,0.051144656495
1385569358136323729,-0.0271595856958,-0.00770757121188,-0.00500435437193,1.0,0.0,0.0501565438703
1385569358336272030,-0.0265096791294,-0.0105806721025,-0.00489328529309,1.0,0.0,0.0493212659444
1385569358536195459,-0.026414014142,-0.0130417468802,-0.00471450974832,1.0,0.0,0.0487090683032
1385569358736198832,-0.0271370291427,-0.0142866600376,-0.00472920397899,1.0,0.0,0.0480062866951
1385569358936202402,-0.0286401677769,-0.0145278540584,-0.00465903763055,1.0,0.0,0.0472366809235
1385569359136167661,-0.0304981422765,-0.01410442391,-0.00436535147887,1.0,0.0,0.0465736777856
1385569359336182312,-0.0322081143271,-0.0131219089083,-0.00391507385243,1.0,0.0,0.0460101413272
1385569359536203927,-0.0333568758009,-0.0111687349687,-0.00318784291145,1.0,0.0,0.0452325925192
1385569359736249085,-0.0333140059253,-0.00920103248167,-0.00219814011823,1.0,0.0,0.0444597217993
1385569359936193625,-0.0316455828809,-0.00715975223346,-0.00114729605595,1.0,0.0,0.0436669736062
1385569360136252732,-0.0284354122541,-0.00505962931852,-0.00012285288597,1.0,0.0,0.0428770405656
1385569360336269718,-0.0239636171301,-0.00344689343777,0.00118587855407,1.0,0.0,0.0421888532532
1385569360536171108,-0.0190598088098,-0.00268051000898,0.00236189692756,1.0,0.0,0.0416039032929
1385569360736158837,-0.0142743906527,-0.00288020213924,0.00343338751967,1.0,0.0,0.0410802480964
1385569360936300811,-0.0105261117453,-0.00476147457637,0.00421901652749,1.0,0.0,0.0406900560196
1385569361136145399,-0.00843612774295,-0.00829502014374,0.00518831576363,1.0,0.0,0.0405563367324
1385569361336179677,-0.00846298760765,-0.0127338287974,0.00588867263973,1.0,0.0,0.0406720796448
1385569361536311975,-0.0103011675047,-0.0163941733345,0.00667816272542,1.0,0.0,0.0407735091524
1385569361736156678,-0.013361275918,-0.0184642111664,0.00772328544957,1.0,0.0,0.0408531494392
1385569361936260423,-0.0169029631212,-0.0183453527929,0.00864728392579,1.0,0.0,0.0407962858025
1385569362136150027,-0.0199150322804,-0.0160175300351,0.00972001112501,1.0,0.0,0.0407177442096
1385569362336155244,-0.0220284784847,-0.0124451705407,0.0102158049971,1.0,0.0,0.0407580657453
1385569362536143474,-0.0229007772454,-0.00842462799599,0.0101477301566,1.0,0.0,0.0407880033913
1385569362736157567,-0.0226402982485,-0.00525975911719,0.00969838188142,1.0,0.0,0.0408521476318
1385569362936313549,-0.0216539479722,-0.00370897865902,0.00868286369741,1.0,0.0,0.0410386773901
1385569363136237204,-0.0205520621086,-0.00311932830672,0.00764700573215,1.0,0.0,0.0410560621075
1385569363336221089,-0.0194966066979,-0.00369681493886,0.0067637907349,1.0,0.0,0.0411839040169
1385569363536201921,-0.0184216769446,-0.00491838120758,0.00557870459845,1.0,0.0,0.0414494975679
1385569363736142438,-0.0174413483334,-0.00618644993802,0.00413851570064,1.0,0.0,0.041735121241
1385569363936255727,-0.0170305986374,-0.00751427669259,0.0027601478378,1.0,0.0,0.0418331029877
1385569364136164996,-0.0168245112982,-0.00869147879389,0.00166229529297,1.0,0.0,0.0419836735527
1385569364336141405,-0.0168189433443,-0.00926455347646,0.000751074825343,1.0,0.0,0.0422389185961
1385569364536182343,-0.0171131082103,-0.00869153554255,-2.27578653148e-06,1.0,0.0,0.0424056523956
1385569364736187600,-0.0175183407313,-0.00682850227159,-0.000531886123084,1.0,0.0,0.0423105633955
1385569364936328119,-0.0176100708328,-0.00453068422666,-0.00108797995388,1.0,0.0,0.0422181229675
1385569365136168738,-0.0172418195835,-0.00247544860162,-0.00150056641602,1.0,0.0,0.0423953205153
1385569365336185059,-0.0164885000047,-0.00070260564639,-0.00152837350675,1.0,0.0,0.0425452873814
1385569365536189832,-0.0153565671558,0.000228244659175,-0.00162723823654,1.0,0.0,0.0426722837125
1385569365736280291,-0.0138040874186,0.000752427450551,-0.00167382846574,1.0,0.0,0.0429094369296
1385569365936230962,-0.0119353443089,0.00120168334165,-0.00194833919735,1.0,0.0,0.0431644077002
1385569366136243321,-0.00993138592958,0.00162396008785,-0.00224147426759,1.0,0.0,0.0433787077677
1385569366336210000,-0.00817161346206,0.00152494726237,-0.00253252645998,1.0,0.0,0.0437554833372
1385569366536180876,-0.00718194138536,0.00126238747748,-0.00305159525716,1.0,0.0,0.0442145269656
1385569366736250680,-0.00678367026894,0.000980150978098,-0.00349610064668,1.0,0.0,0.0447554625606
1385569366936261486,-0.00713049913256,0.000720559232223,-0.00389210569283,1.0,0.0,0.0452402868512
1385569367136149145,-0.00804507417084,0.000749922299728,-0.00389132261976,1.0,0.0,0.0455745129728
1385569367336304538,-0.00920486563695,0.00149205832696,-0.00370155175082,1.0,0.0,0.0457778616861
1385569367536238323,-0.00987343670422,0.00303597504398,-0.00357113252648,1.0,0.0,0.0459778847151
1385569367736188332,-0.00959672213614,0.00534482933434,-0.0033358807759,1.0,0.0,0.0460218276174
1385569367936329505,-0.00822385640771,0.00768393981003,-0.00313425930707,1.0,0.0,0.0459993097754
1385569368136250202,-0.00595719253736,0.00944635590989,-0.00300220015289,1.0,0.0,0.0459785715961
1385569368336137779,-0.00327731202336,0.010151515975,-0.00280504932169,1.0,0.0,0.0460432766152
1385569368536162562,-0.000606032145188,0.0100245546126,-0.00250053814469,1.0,0.0,0.0459943727964
1385569368736218523,0.00112294644355,0.0090823668372,-0.00223629709733,1.0,0.0,0.0459440989392
1385569368936230683,0.00144481298495,0.00764710338187,-0.00182958351674,1.0,0.0,0.0460428109401
1385569369136207121,0.000409284207325,0.0059395078131,-0.00137945606131,1.0,0.0,0.0462351915669
1385569369336187693,-0.0017777746461,0.00453403410094,-0.000963524030426,1.0,0.0,0.0464065370656
1385569369536336115,-0.00492726374791,0.00378295327905,-0.000334548009647,1.0,0.0,0.0467143582797
1385569369736303816,-0.00829681098163,0.00418974074583,0.000539706204777,1.0,0.0,0.0470026932449
1385569369936223288,-0.0108957883186,0.00598817195631,0.001146068282,1.0,0.0,0.0471832619295
1385569370136239273,-0.0120210301937,0.00867748160206,0.00147658938916,1.0,0.0,0.0474003097696
1385569370336161752,-0.011488094907,0.0113849510935,0.00148666738003,1.0,0.0,0.0475837963696
1385569370536193803,-0.00987779129485,0.0133477701437,0.00113958152601,1.0,0.0,0.0477557844295
1385569370736186404,-0.00797384696365,0.0139752084996,0.000497363917036,1.0,0.0,0.0479898164966
1385569370936208709,-0.00663907737407,0.0131756935128,-0.000168745151964,1.0,0.0,0.0483065759947
1385569371136175454,-0.00638731119241,0.011173536448,-0.000765838338264,1.0,0.0,0.0486090724317
1385569371336315016,-0.0069494861668,0.00838578994996,-0.00119037591618,1.0,0.0,0.0490953699198
1385569371536281696,-0.00803820105867,0.00572669207154,-0.00159230181256,1.0,0.0,0.0496038859703
1385569371736231605,-0.00917463231747,0.00369790383571,-0.00160463105962,1.0,0.0,0.0501940899887
1385569371936328005,-0.0100750975109,0.00259673128926,-0.00163255063068,1.0,0.0,0.0509962743745
1385569372136246214,-0.0103861646638,0.00267545367078,-0.00171291542933,1.0,0.0,0.0518827030273
1385569372336171585,-0.0100515796069,0.00358245932708,-0.00167769023777,1.0,0.0,0.0528569979941
