%time,field.header.seq,field.header.stamp,field.header.frame_id,field.child_frame_id,field.transform.translation.x,field.transform.translation.y,field.transform.translation.z,field.transform.rotation.x,field.transform.rotation.y,field.transform.rotation.z,field.transform.rotation.w
1385569241987342795,644615,1385569241987342795,/world,vicon/Archie/Archie,-0.604999734979,0.555559701154,0.114953661092,6.68944279133e-05,-0.00469207263892,0.665394809911,0.746476876349
1385569241997301789,644616,1385569241997301789,/world,vicon/Archie/Archie,-0.604997912329,0.555564238895,0.114958530222,4.50100479915e-05,-0.0046216976514,0.66539864878,0.746473895114
1385569242007278151,644617,1385569242007278151,/world,vicon/Archie/Archie,-0.604994889142,0.555562944469,0.114959423513,1.38476298611e-05,-0.00464722344176,0.665384550866,0.746486304356
1385569242017303046,644618,1385569242017303046,/world,vicon/Archie/Archie,-0.604993348635,0.555565971109,0.11495331027,5.01152694713e-05,-0.00465035485961,0.665393784882,0.746478052409
1385569242027250736,644619,1385569242027250736,/world,vicon/Archie/Archie,-0.604990088631,0.555560654802,0.114960017944,2.91793522869e-05,-0.00464220602767,0.665395117273,0.746476916576
1385569242037222732,644620,1385569242037222732,/world,vicon/Archie/Archie,-0.604992715801,0.555564746888,0.114951236847,1.91656482612e-05,-0.00463053796724,0.665405981624,0.746467304957
1385569242047250455,644621,1385569242047250455,/world,vicon/Archie/Archie,-0.605008269846,0.5555652399,0.114952383324,2.84696474984e-05,-0.00467205458919,0.665411605975,0.746462032343
1385569242057150531,644622,1385569242057150531,/world,vicon/Archie/Archie,-0.604997434709,0.555567467003,0.114954005184,2.27425420329e-05,-0.00464347237468,0.665392187871,0.746479520126
1385569242067385266,644623,1385569242067385266,/world,vicon/Archie/Archie,-0.605004373668,0.555569348193,0.114949116903,5.08401751342e-05,-0.00467467997941,0.66540111364,0.746471367669
1385569242077362874,644624,1385569242077362874,/world,vicon/Archie/Archie,-0.605001906258,0.555564523829,0.114958364107,4.31587707732e-05,-0.00464065374443,0.665404433394,0.746468621235
1385569242087161188,644625,1385569242087161188,/world,vicon/Archie/Archie,-0.604999141171,0.555571028758,0.114953401125,1.17817675946e-05,-0.00464411929768,0.665392124212,0.746479573099
1385569242097289441,644626,1385569242097289441,/world,vicon/Archie/Archie,-0.604992527775,0.555567459376,0.114948851254,4.45784696446e-05,-0.00465112900184,0.665389054442,0.746482264519
1385569242107185719,644627,1385569242107185719,/world,vicon/Archie/Archie,-0.604994672204,0.555565429759,0.114956239335,2.85319719943e-05,-0.00463548789152,0.66539878386,0.746473690009
1385569242117261478,644628,1385569242117261478,/world,vicon/Archie/Archie,-0.605007213266,0.555569967357,0.114947791248,6.20951045566e-05,-0.00467773821464,0.665407801983,0.746465385647
1385569242127202060,644629,1385569242127202060,/world,vicon/Archie/Archie,-0.60500221865,0.555568916976,0.11495819372,3.43023178191e-06,-0.00463024744643,0.66539885482,0.746473659817
1385569242137400178,644630,1385569242137400178,/world,vicon/Archie/Archie,-0.605000316903,0.555568915971,0.114951178551,4.01554629048e-05,-0.00467872277633,0.665390105787,0.746481155195
1385569242147331676,644631,1385569242147331676,/world,vicon/Archie/Archie,-0.605004712283,0.55556966933,0.114951908869,1.0693591809e-05,-0.00464416502083,0.665405887256,0.74646730459
1385569242157234228,644632,1385569242157234228,/world,vicon/Archie/Archie,-0.604992299787,0.55556850733,0.114956928731,4.05779344428e-05,-0.00465952953845,0.665397526771,0.746474660323
1385569242167328690,644633,1385569242167328690,/world,vicon/Archie/Archie,-0.604999292959,0.555572249745,0.114954285626,1.54188432166e-05,-0.00464838201521,0.665394422856,0.746477497544
1385569242177318216,644634,1385569242177318216,/world,vicon/Archie/Archie,-0.605002092146,0.555568091666,0.114950039597,3.91305365409e-05,-0.00467259735004,0.665393427577,0.746478232663
1385569242187185341,644635,1385569242187185341,/world,vicon/Archie/Archie,-0.605000445144,0.555574767198,0.11495123129,3.83031341734e-05,-0.00464124432741,0.66538794304,0.746483317055
1385569242197344427,644636,1385569242197344427,/world,vicon/Archie/Archie,-0.604995435737,0.55557475238,0.114961280352,-1.82771628929e-06,-0.00460188944512,0.665391741595,0.746480175777
1385569242207303079,644637,1385569242207303079,/world,vicon/Archie/Archie,-0.605000742466,0.555571382274,0.114955247929,1.34273207673e-05,-0.0046248245314,0.665397332947,0.746475049901
1385569242217359505,644638,1385569242217359505,/world,vicon/Archie/Archie,-0.604995136726,0.555567330005,0.114945302973,1.89885449552e-05,-0.00463534295183,0.66540466675,0.746468447225
1385569242227281105,644639,1385569242227281105,/world,vicon/Archie/Archie,-0.604998584398,0.555574081889,0.114956121104,3.69884413596e-05,-0.00465221710184,0.665398548067,0.746473795748
1385569242237137896,644640,1385569242237137896,/world,vicon/Archie/Archie,-0.604993675863,0.555565908113,0.114962381162,5.09722573304e-05,-0.00464803819369,0.665402667896,0.746470148566
1385569242247365413,644641,1385569242247365413,/world,vicon/Archie/Archie,-0.604998029017,0.555567806266,0.114951786639,2.91843639345e-05,-0.00462348466932,0.665401919495,0.746470969342
1385569242257372653,644642,1385569242257372653,/world,vicon/Archie/Archie,-0.604994311864,0.555568109518,0.114957249403,3.41205515111e-05,-0.00464079693024,0.665394324951,0.746477631388
1385569242267324814,644643,1385569242267324814,/world,vicon/Archie/Archie,-0.605001602527,0.555574349235,0.114948228591,3.39755264633e-05,-0.00465800034725,0.665400003637,0.746472462345
1385569242277428543,644644,1385569242277428543,/world,vicon/Archie/Archie,-0.604995007,0.555562736272,0.114958299555,1.7761598372e-05,-0.00463732135602,0.665407805269,0.746465637268
1385569242287270090,644645,1385569242287270090,/world,vicon/Archie/Archie,-0.604984758801,0.555578367017,0.114954446009,3.33652707273e-06,-0.00463983117365,0.665386776737,0.746484366413
1385569242297183515,644646,1385569242297183515,/world,vicon/Archie/Archie,-0.604995030979,0.555571300634,0.11495305841,3.35626970345e-05,-0.00464820339647,0.665394925191,0.746477050289
1385569242307065173,644647,1385569242307065173,/world,vicon/Archie/Archie,-0.604999590443,0.555577738772,0.114955874571,4.62592903246e-05,-0.00463569196831,0.665400677995,0.746471999437
1385569242317179179,644648,1385569242317179179,/world,vicon/Archie/Archie,-0.60500059101,0.555574384333,0.114963270819,2.26117476715e-05,-0.00462392610465,0.665398091872,0.746474378749
1385569242327207619,644649,1385569242327207619,/world,vicon/Archie/Archie,-0.604998441702,0.555570097587,0.114958957329,2.48663265321e-05,-0.00464008024376,0.665392486507,0.746479274955
1385569242337425397,644650,1385569242337425397,/world,vicon/Archie/Archie,-0.60499540232,0.555574044346,0.114959326207,4.1705930379e-05,-0.00464791882134,0.665386683958,0.746484397642
1385569242347297720,644651,1385569242347297720,/world,vicon/Archie/Archie,-0.60500919449,0.555580089117,0.114951537793,4.79595268571e-05,-0.00464307565671,0.665390080946,0.746481399451
1385569242357345293,644652,1385569242357345293,/world,vicon/Archie/Archie,-0.605000721253,0.555565825099,0.114958700872,2.9427382231e-05,-0.00465768071388,0.665387073674,0.746483990004
1385569242367337695,644653,1385569242367337695,/world,vicon/Archie/Archie,-0.604997290199,0.555565181044,0.114958499084,5.83970828898e-05,-0.00466777382903,0.665386618201,0.746484331246
1385569242377275183,644654,1385569242377275183,/world,vicon/Archie/Archie,-0.605012297477,0.555565732793,0.114945951973,4.79287593372e-05,-0.00466900380588,0.665393373303,0.746478303014
1385569242387283634,644655,1385569242387283634,/world,vicon/Archie/Archie,-0.60500346244,0.5555634104,0.114952237478,4.76477347525e-05,-0.00466588826398,0.665392266057,0.746479309484
1385569242397347209,644656,1385569242397347209,/world,vicon/Archie/Archie,-0.604994944599,0.555559810415,0.114954610812,3.69013754723e-05,-0.00464838538885,0.66538750308,0.746483664856
1385569242407248296,644657,1385569242407248296,/world,vicon/Archie/Archie,-0.604995031112,0.555568900726,0.114950317498,5.31505436511e-05,-0.00467580100894,0.665395065824,0.746476751438
1385569242417267896,644658,1385569242417267896,/world,vicon/Archie/Archie,-0.605000243359,0.555561178297,0.114956920423,2.51350561038e-05,-0.00463598259078,0.665403177976,0.746469770167
1385569242427289917,644659,1385569242427289917,/world,vicon/Archie/Archie,-0.604996553538,0.555566105791,0.114951296757,2.97622126727e-05,-0.00465129068139,0.665391042788,0.746480491899
1385569242437238351,644660,1385569242437238351,/world,vicon/Archie/Archie,-0.604993459792,0.555558037738,0.114961579921,1.732872322e-05,-0.00464011700971,0.665398444801,0.746473963826
1385569242447234492,644661,1385569242447234492,/world,vicon/Archie/Archie,-0.605001406238,0.555559498907,0.114962130296,1.66512940812e-05,-0.00463797817733,0.665397998844,0.746474374654
1385569242457053357,644662,1385569242457053357,/world,vicon/Archie/Archie,-0.605000163392,0.555563547063,0.114950216322,4.4392662152e-05,-0.00466396013374,0.665391630264,0.746479888463
1385569242467216231,644663,1385569242467216231,/world,vicon/Archie/Archie,-0.605002230777,0.555570078488,0.114951986095,1.15333064215e-05,-0.00463441206496,0.665381148387,0.746489416846
1385569242477330988,644664,1385569242477330988,/world,vicon/Archie/Archie,-0.605000115321,0.55556060477,0.11495643248,2.91394195415e-05,-0.00465013915717,0.665398438262,0.746473906922
1385569242487287694,644665,1385569242487287694,/world,vicon/Archie/Archie,-0.604993523032,0.555563191324,0.114952206815,3.46949001697e-05,-0.00463547015521,0.665398982111,0.746473513139
1385569242497298413,644666,1385569242497298413,/world,vicon/Archie/Archie,-0.605002339128,0.55556626761,0.114954642812,2.16365027571e-05,-0.0046440114318,0.665387738288,0.746483483023
1385569242507157528,644667,1385569242507157528,/world,vicon/Archie/Archie,-0.605005666844,0.555561942058,0.114955607975,3.90344704107e-05,-0.00463934299198,0.665399849532,0.746472715654
1385569242517304299,644668,1385569242517304299,/world,vicon/Archie/Archie,-0.60499829032,0.555565210254,0.114953087217,4.28631507458e-05,-0.00463225552722,0.665394273719,0.746477729657
1385569242527290881,644669,1385569242527290881,/world,vicon/Archie/Archie,-0.605001882414,0.55556707147,0.11495368684,1.81189521527e-05,-0.00463916742571,0.665395505229,0.74647659
1385569242537164628,644670,1385569242537164628,/world,vicon/Archie/Archie,-0.604990676826,0.555553870841,0.114943635716,7.44069444386e-05,-0.00468640330008,0.665395270467,0.746476500721
1385569242547314876,644671,1385569242547314876,/world,vicon/Archie/Archie,-0.604991692508,0.555562687097,0.114960662615,5.56919471609e-05,-0.00465284408716,0.665404465288,0.746468516091
1385569242557249927,644672,1385569242557249927,/world,vicon/Archie/Archie,-0.604989766103,0.555561971442,0.11495161001,2.7190553569e-05,-0.00464238512374,0.665403341609,0.746469584442
1385569242567431852,644673,1385569242567431852,/world,vicon/Archie/Archie,-0.604999479569,0.555556422506,0.114949820477,6.0464165194e-05,-0.00467004143692,0.66539926266,0.746473045935
1385569242577320664,644674,1385569242577320664,/world,vicon/Archie/Archie,-0.604992325375,0.555567600464,0.114959631096,1.58836057447e-05,-0.00465014984528,0.665396185767,0.746475915097
1385569242587187223,644675,1385569242587187223,/world,vicon/Archie/Archie,-0.604995225943,0.555560544836,0.114955185843,5.08699181018e-05,-0.0046530991261,0.665400414886,0.746472125368
1385569242597481302,644676,1385569242597481302,/world,vicon/Archie/Archie,-0.604996369571,0.555563940251,0.114951801035,3.69037051346e-05,-0.00464878769406,0.665398422291,0.746473929232
1385569242607195694,644677,1385569242607195694,/world,vicon/Archie/Archie,-0.605000891164,0.555562785369,0.114948159675,1.24677172992e-05,-0.00465333133215,0.665408055624,0.746465314574
1385569242617179009,644678,1385569242617179009,/world,vicon/Archie/Archie,-0.604995216305,0.555566499767,0.11495557261,5.5522755464e-05,-0.00466886368416,0.665394537969,0.746477265206
1385569242627367926,644679,1385569242627367926,/world,vicon/Archie/Archie,-0.604995598751,0.555564823935,0.114951641408,5.45135755076e-05,-0.00468567994873,0.665405131317,0.746467717084
1385569242637186104,644680,1385569242637186104,/world,vicon/Archie/Archie,-0.605004723583,0.555561490838,0.114956156296,4.30186836579e-05,-0.00466687810162,0.665411580122,0.746462087073
1385569242647264866,644681,1385569242647264866,/world,vicon/Archie/Archie,-0.604999330716,0.555552132009,0.114945929491,2.69248725547e-05,-0.00466772109322,0.665401882627,0.746470726989
1385569242657239538,644682,1385569242657239538,/world,vicon/Archie/Archie,-0.604998417861,0.555565276859,0.114954085355,3.26882601806e-05,-0.00465753148719,0.665400775086,0.746471777663
1385569242667327238,644683,1385569242667327238,/world,vicon/Archie/Archie,-0.605005822981,0.555566168729,0.114953167641,5.19455684313e-05,-0.00464902135199,0.66540809929,0.746465300802
1385569242677623613,644684,1385569242677623613,/world,vicon/Archie/Archie,-0.605018010987,0.555572943966,0.114934997639,7.13362839825e-05,-0.00461267132208,0.6653898656,0.746481778031
1385569242687426223,644685,1385569242687426223,/world,vicon/Archie/Archie,-0.604989737456,0.5555576359,0.114939434109,9.20493037282e-06,-0.00465034671077,0.665403080271,0.74646976828
1385569242697302676,644686,1385569242697302676,/world,vicon/Archie/Archie,-0.604995552854,0.555566604104,0.114953247394,4.49001172045e-05,-0.00467753414952,0.665390754404,0.746480584217
1385569242707057542,644687,1385569242707057542,/world,vicon/Archie/Archie,-0.605000800566,0.555567585015,0.114943746428,5.3958620272e-05,-0.00467101534802,0.665388349299,0.746482768268
1385569242717320686,644688,1385569242717320686,/world,vicon/Archie/Archie,-0.604999339606,0.555563156265,0.114956405978,3.05676622169e-05,-0.00463959708773,0.665408497576,0.746465005581
1385569242727331215,644689,1385569242727331215,/world,vicon/Archie/Archie,-0.604995859939,0.555561012919,0.114956406561,3.60087598704e-05,-0.00464923079475,0.6654046756,0.746468352341
1385569242737247042,644690,1385569242737247042,/world,vicon/Archie/Archie,-0.604999817283,0.55555787424,0.11496070792,3.13061219893e-05,-0.00464579181279,0.665398343287,0.746474018562
1385569242747248941,644691,1385569242747248941,/world,vicon/Archie/Archie,-0.604997652186,0.5555617166,0.114952820045,3.57618814445e-05,-0.00467291298935,0.665390292904,0.746481025019
1385569242757173398,644692,1385569242757173398,/world,vicon/Archie/Archie,-0.604992466947,0.555565930272,0.114956330294,3.60368120624e-05,-0.00465587342231,0.665395368518,0.746476607201
1385569242767392366,644693,1385569242767392366,/world,vicon/Archie/Archie,-0.604991510427,0.555568580352,0.114950259822,3.81597026394e-05,-0.00464464449258,0.665405501827,0.746467644282
1385569242778779487,644694,1385569242778779487,/world,vicon/Archie/Archie,-0.605004919548,0.55556352339,0.114951020844,4.55919141814e-05,-0.00465294403725,0.665398533556,0.746473803676
1385569242787441794,644695,1385569242787441794,/world,vicon/Archie/Archie,-0.604991190943,0.555565588448,0.114953255444,2.26203881549e-05,-0.00465774263969,0.66539265491,0.746479014918
1385569242797379024,644696,1385569242797379024,/world,vicon/Archie/Archie,-0.604992203666,0.555566473337,0.114947668213,2.95485887347e-05,-0.00464773454392,0.665395517662,0.746476525261
1385569242807092568,644697,1385569242807092568,/world,vicon/Archie/Archie,-0.604978612547,0.555569039324,0.114946318912,3.36474824315e-05,-0.00465079662067,0.665393599986,0.746478215393
1385569242817334987,644698,1385569242817334987,/world,vicon/Archie/Archie,-0.604983326178,0.555558624331,0.114939501054,1.92713674753e-05,-0.00465963034673,0.665393884276,0.746477907404
1385569242827309580,644699,1385569242827309580,/world,vicon/Archie/Archie,-0.604984010133,0.555565234653,0.11495687692,2.24648408672e-05,-0.00465009922174,0.665392995325,0.746478759139
1385569242837414833,644700,1385569242837414833,/world,vicon/Archie/Archie,-0.604998903641,0.55556110797,0.114955127887,3.21520802845e-05,-0.00467652672197,0.665403334369,0.746469377587
1385569242847409933,644701,1385569242847409933,/world,vicon/Archie/Archie,-0.604995923623,0.555569877125,0.114953173686,3.56912239066e-05,-0.0046530958088,0.665402809861,0.746469991396
1385569242857364691,644702,1385569242857364691,/world,vicon/Archie/Archie,-0.604991727803,0.555566557086,0.114952500829,2.64516274296e-05,-0.00463960329388,0.665398871095,0.746473586757
1385569242867652080,644703,1385569242867652080,/world,vicon/Archie/Archie,-0.604999792551,0.555569983991,0.114950061016,5.53974244139e-05,-0.004674941614,0.665396372348,0.746475592044
1385569242877780657,644704,1385569242877780657,/world,vicon/Archie/Archie,-0.605000375671,0.55556283569,0.114956634165,4.99116899213e-05,-0.00467370902862,0.665397153412,0.746474903921
1385569242887215809,644705,1385569242887215809,/world,vicon/Archie/Archie,-0.604990485952,0.555565787033,0.114963742274,2.39187156224e-05,-0.0046237728343,0.665406004037,0.746467326776
1385569242898295771,644706,1385569242898295771,/world,vicon/Archie/Archie,-0.604980814409,0.555559341531,0.114945909845,2.24596979922e-05,-0.00463256995318,0.665400647253,0.746472047318
1385569242907327766,644707,1385569242907327766,/world,vicon/Archie/Archie,-0.605001785585,0.555570266353,0.114958766441,3.74443596485e-05,-0.00463720278477,0.665394480899,0.746477514556
1385569242917545118,644708,1385569242917545118,/world,vicon/Archie/Archie,-0.604987430326,0.555571318724,0.11496063988,1.78997627404e-05,-0.00463108810539,0.665399864825,0.746472754087
1385569242927305607,644709,1385569242927305607,/world,vicon/Archie/Archie,-0.604995577524,0.555572602862,0.114953252056,4.04628718559e-05,-0.004678511423,0.66539380236,0.746477861477
1385569242937168891,644710,1385569242937168891,/world,vicon/Archie/Archie,-0.605004511498,0.555565169225,0.114947679271,5.59736129833e-05,-0.00467784533888,0.665390501714,0.746480806759
1385569242947316770,644711,1385569242947316770,/world,vicon/Archie/Archie,-0.604993359807,0.555567200544,0.114950311018,3.04002230745e-05,-0.00466943563284,0.665394739194,0.746477083707
1385569242957123219,644712,1385569242957123219,/world,vicon/Archie/Archie,-0.605001740471,0.555568947924,0.114961319514,3.71453744187e-05,-0.00464472017358,0.665406522299,0.746466734206
1385569242967185621,644713,1385569242967185621,/world,vicon/Archie/Archie,-0.605000588963,0.555569886368,0.114954972798,2.56517002774e-05,-0.00465491071021,0.66541202806,0.746461763295
1385569242977222576,644714,1385569242977222576,/world,vicon/Archie/Archie,-0.604999357715,0.555567811406,0.114949975414,2.50821906833e-05,-0.00465955581764,0.665406092134,0.746467025702
1385569242987401857,644715,1385569242987401857,/world,vicon/Archie/Archie,-0.604991506654,0.555571888268,0.114952955923,2.6547969419e-05,-0.00463762284787,0.665399858955,0.746472718491
1385569242997397291,644716,1385569242997397291,/world,vicon/Archie/Archie,-0.604994225275,0.555561846387,0.114947514993,-1.55278598642e-06,-0.00464383410176,0.665401885342,0.746470874037
1385569243007300538,644717,1385569243007300538,/world,vicon/Archie/Archie,-0.604993332475,0.555572776346,0.114951258025,4.39451399133e-05,-0.00465048673294,0.66539929033,0.746473144507
1385569243017379878,644718,1385569243017379878,/world,vicon/Archie/Archie,-0.604992098793,0.555571491844,0.11494939492,1.69627226909e-05,-0.00465835874996,0.665401830109,0.74647083258
1385569243027258179,644719,1385569243027258179,/world,vicon/Archie/Archie,-0.605002767743,0.555575300858,0.114947628525,3.30836265367e-05,-0.0046821695841,0.665390742329,0.746480566537
1385569243037125446,644720,1385569243037125446,/world,vicon/Archie/Archie,-0.604995511713,0.555574219127,0.114955470184,1.46287808185e-05,-0.00462877834148,0.665417662424,0.746456903466
1385569243047496195,644721,1385569243047496195,/world,vicon/Archie/Archie,-0.605001028332,0.555570824607,0.114957511996,3.86507142046e-05,-0.00464453542184,0.665390586444,0.746480940325
1385569243057360406,644722,1385569243057360406,/world,vicon/Archie/Archie,-0.604997088348,0.555574650194,0.114950293513,6.62022049995e-05,-0.00467920445056,0.665394884807,0.746476890423
1385569243067345072,644723,1385569243067345072,/world,vicon/Archie/Archie,-0.605009348923,0.555577011021,0.114957464262,4.71573925541e-05,-0.00465959695503,0.665398477369,0.746473812165
1385569243077336519,644724,1385569243077336519,/world,vicon/Archie/Archie,-0.605001728184,0.555576674195,0.114957555161,4.8148540058e-05,-0.00465293243255,0.665406038768,0.746467113457
1385569243087359749,644725,1385569243087359749,/world,vicon/Archie/Archie,-0.60499774674,0.555573941465,0.114955507143,-1.32071731174e-07,-0.00464204805068,0.665390935444,0.74648064571
1385569243097258582,644726,1385569243097258582,/world,vicon/Archie/Archie,-0.604997058376,0.555573751868,0.11495633578,2.67360362197e-05,-0.00465132578401,0.665394849658,0.746477098445
1385569243107174528,644727,1385569243107174528,/world,vicon/Archie/Archie,-0.605007226074,0.555569969713,0.114953678169,4.3912093942e-05,-0.00466603948353,0.665400521812,0.746471949721
1385569243117311853,644728,1385569243117311853,/world,vicon/Archie/Archie,-0.604997738442,0.555567201372,0.114963474821,1.60118439554e-05,-0.00463901747759,0.665403258182,0.746469680068
1385569243127303622,644729,1385569243127303622,/world,vicon/Archie/Archie,-0.604996467977,0.555566647017,0.114951917667,2.54791818488e-05,-0.00463926412896,0.665394285059,0.74647767682
1385569243137335942,644730,1385569243137335942,/world,vicon/Archie/Archie,-0.604990105439,0.555563292704,0.11494152838,-6.74523544025e-07,-0.00462992862957,0.665399875875,0.746472751644
1385569243147358789,644731,1385569243147358789,/world,vicon/Archie/Archie,-0.604998646182,0.555560391941,0.114959942076,3.30737292867e-05,-0.00463826140376,0.665404155336,0.746468884481
1385569243157296862,644732,1385569243157296862,/world,vicon/Archie/Archie,-0.604998958375,0.555564210652,0.114960106714,3.99628402201e-05,-0.00464470222737,0.665408537773,0.746464937558
1385569243167510322,644733,1385569243167510322,/world,vicon/Archie/Archie,-0.604999635294,0.55556604974,0.114954192222,4.89767180021e-05,-0.00465321984653,0.665400696089,0.746471874079
1385569243177385128,644734,1385569243177385128,/world,vicon/Archie/Archie,-0.604992457707,0.555554795687,0.114957203968,5.14507708578e-05,-0.00465375216431,0.665409643831,0.746463894533
1385569243187186709,644735,1385569243187186709,/world,vicon/Archie/Archie,-0.604989969254,0.555557752447,0.114956479644,4.123091299e-05,-0.00463624130338,0.665396382709,0.74647582509
1385569243197256737,644736,1385569243197256737,/world,vicon/Archie/Archie,-0.605001111541,0.55555984921,0.114952639249,2.94443386133e-05,-0.0046415840385,0.665401206232,0.746471492808
1385569243207155981,644737,1385569243207155981,/world,vicon/Archie/Archie,-0.604990318131,0.55555845184,0.114955319233,2.68641554271e-05,-0.00464676347961,0.665397634424,0.746474644559
1385569243217305704,644738,1385569243217305704,/world,vicon/Archie/Archie,-0.604992339703,0.555560277294,0.114956406493,2.67360382355e-05,-0.00462100537879,0.665405269021,0.746467999015
1385569243227348553,644739,1385569243227348553,/world,vicon/Archie/Archie,-0.60499703899,0.555557747337,0.114956861337,2.08673858356e-05,-0.00463442475263,0.665398787709,0.746473693433
1385569243237302684,644740,1385569243237302684,/world,vicon/Archie/Archie,-0.605005118867,0.555559302069,0.114957677981,1.76118070029e-05,-0.00464828194787,0.665395950265,0.746476136615
1385569243247308138,644741,1385569243247308138,/world,vicon/Archie/Archie,-0.604987609996,0.555552662345,0.114954339088,2.44059940812e-05,-0.00464709402516,0.665400442589,0.746472139416
1385569243257235975,644742,1385569243257235975,/world,vicon/Archie/Archie,-0.604994975627,0.555557151937,0.11495841748,2.8618221842e-05,-0.00463535496799,0.665393931591,0.746478016064
1385569243267242461,644743,1385569243267242461,/world,vicon/Archie/Archie,-0.60499719095,0.555559311692,0.114954768592,7.31917428374e-06,-0.00463502779272,0.665390734752,0.746480868187
1385569243277221841,644744,1385569243277221841,/world,vicon/Archie/Archie,-0.604997531237,0.55556258028,0.114952298325,2.93366177304e-05,-0.00462964610813,0.665393971184,0.746478016172
1385569243287188438,644745,1385569243287188438,/world,vicon/Archie/Archie,-0.604983671939,0.55556542557,0.114959816192,1.75164038712e-05,-0.00462619031031,0.665383395126,0.746487465097
1385569243297261017,644746,1385569243297261017,/world,vicon/Archie/Archie,-0.604994108256,0.555556054336,0.114957589173,1.84706522979e-05,-0.00463559698215,0.66539823643,0.746474177622
1385569243307290376,644747,1385569243307290376,/world,vicon/Archie/Archie,-0.60500106393,0.555561675374,0.114953421966,3.43503556261e-05,-0.00466056299805,0.665393977512,0.746477817931
1385569243317305936,644748,1385569243317305936,/world,vicon/Archie/Archie,-0.605004282743,0.555559584364,0.11496170751,2.8307829891e-05,-0.0046392814433,0.665389903217,0.746481582467
1385569243327306246,644749,1385569243327306246,/world,vicon/Archie/Archie,-0.604997528433,0.555562500295,0.114956131349,4.59581083448e-05,-0.00466282953513,0.665385792496,0.746485099016
1385569243337304684,644750,1385569243337304684,/world,vicon/Archie/Archie,-0.605002994924,0.555562339066,0.114954910019,3.35773785439e-05,-0.00466579344001,0.665385727455,0.746485139131
1385569243347300026,644751,1385569243347300026,/world,vicon/Archie/Archie,-0.604994409146,0.555553223641,0.114962731851,2.29097529078e-05,-0.00462099627655,0.665389510986,0.746482045691
1385569243357162425,644752,1385569243357162425,/world,vicon/Archie/Archie,-0.605009630823,0.55555621574,0.114961719578,2.2427063854e-05,-0.00462216283163,0.66539654743,0.746475766368
1385569243367313096,644753,1385569243367313096,/world,vicon/Archie/Archie,-0.605000107911,0.555558198497,0.114966237086,1.0929344892e-05,-0.00462396538868,0.665394834738,0.746477282125
1385569243377506089,644754,1385569243377506089,/world,vicon/Archie/Archie,-0.604996968752,0.555560587959,0.114959622251,-1.53399528056e-05,-0.00462829898751,0.665396766463,0.746475533286
1385569243387360398,644755,1385569243387360398,/world,vicon/Archie/Archie,-0.605005380718,0.555560038506,0.114957123421,2.74505497909e-05,-0.00463788722708,0.665394822568,0.746477206181
1385569243397361873,644756,1385569243397361873,/world,vicon/Archie/Archie,-0.604999155045,0.555567622184,0.114955486696,4.52928534526e-05,-0.00466039760316,0.665396851432,0.746475256621
1385569243407369811,644757,1385569243407369811,/world,vicon/Archie/Archie,-0.604994792503,0.555570606071,0.114964354593,1.26528805282e-05,-0.00462081421853,0.665393007877,0.746478930034
1385569243417328371,644758,1385569243417328371,/world,vicon/Archie/Archie,-0.605007023121,0.555564518866,0.114961713037,1.88130126883e-05,-0.00464071306706,0.665386011147,0.746485043117
1385569243427280025,644759,1385569243427280025,/world,vicon/Archie/Archie,-0.604994011618,0.555567805118,0.114961207326,1.58908691087e-05,-0.00464045710376,0.665391176274,0.746480440763
1385569243437091592,644760,1385569243437091592,/world,vicon/Archie/Archie,-0.605002453671,0.555567699122,0.11495534825,1.57653474613e-05,-0.00462327369122,0.665393185023,0.746478756842
1385569243447355344,644761,1385569243447355344,/world,vicon/Archie/Archie,-0.605002637461,0.555566828878,0.114957123185,3.587706436e-05,-0.0046462262073,0.665385189443,0.746485740631
1385569243457194722,644762,1385569243457194722,/world,vicon/Archie/Archie,-0.604992478832,0.555563138081,0.114942119129,9.68956966563e-06,-0.00462712563402,0.665396400749,0.746475866646
1385569243467278786,644763,1385569243467278786,/world,vicon/Archie/Archie,-0.604996943447,0.555561996345,0.114955125303,9.06035143216e-06,-0.00462949904883,0.665406382271,0.746466954452
1385569243477311642,644764,1385569243477311642,/world,vicon/Archie/Archie,-0.604997598139,0.555564201093,0.114961844713,2.72115951156e-05,-0.0046259038474,0.665393785123,0.746478205304
1385569243487305518,644765,1385569243487305518,/world,vicon/Archie/Archie,-0.604994035621,0.55555859427,0.11494998889,1.11976413832e-05,-0.00464000789119,0.665391889264,0.746479808101
1385569243497442182,644766,1385569243497442182,/world,vicon/Archie/Archie,-0.604992925299,0.555567297935,0.114964090522,7.68930961405e-06,-0.00463772092905,0.665389049458,0.746482353674
1385569243507256720,644767,1385569243507256720,/world,vicon/Archie/Archie,-0.605010608599,0.555567952813,0.114957847731,1.60509871215e-05,-0.00463157214279,0.665400750071,0.746471962023
1385569243517266350,644768,1385569243517266350,/world,vicon/Archie/Archie,-0.604991852251,0.555566885331,0.114956526467,1.42411564808e-06,-0.00463905800789,0.66539620983,0.74647596283
1385569243527283049,644769,1385569243527283049,/world,vicon/Archie/Archie,-0.604995562412,0.555563598678,0.114964329979,8.13361604043e-06,-0.00463609290371,0.665404065354,0.746468978851
1385569243537179127,644770,1385569243537179127,/world,vicon/Archie/Archie,-0.604997057082,0.555570429708,0.114955738885,1.79694936604e-05,-0.00462304583642,0.66539702646,0.746475334021
1385569243547157365,644771,1385569243547157365,/world,vicon/Archie/Archie,-0.604995843553,0.555562136594,0.114959396477,2.89232219582e-05,-0.00463548410907,0.665398665491,0.74647379553
1385569243557375124,644772,1385569243557375124,/world,vicon/Archie/Archie,-0.604993791416,0.555560374914,0.114944279603,-4.12945361596e-06,-0.004642764011,0.665398486165,0.746473910686
1385569243567254167,644773,1385569243567254167,/world,vicon/Archie/Archie,-0.604992824375,0.555565335781,0.114953788381,1.52824234542e-05,-0.00463650724499,0.665394722109,0.74647730465
1385569243577226362,644774,1385569243577226362,/world,vicon/Archie/Archie,-0.604992250764,0.555569399883,0.114953750066,1.34393361549e-05,-0.0046374615327,0.665402006866,0.746470805208
1385569243587123850,644775,1385569243587123850,/world,vicon/Archie/Archie,-0.60499017731,0.555560686425,0.114954721174,1.30652297471e-05,-0.00464375016334,0.665399749093,0.746472778687
1385569243597234024,644776,1385569243597234024,/world,vicon/Archie/Archie,-0.604988703022,0.555560547553,0.114958080792,2.84831965681e-05,-0.00464926085482,0.665397894616,0.746474397018
1385569243607196776,644777,1385569243607196776,/world,vicon/Archie/Archie,-0.604997273205,0.555568417874,0.114949157329,3.41007171652e-05,-0.00466429754624,0.665391897717,0.746479648495
1385569243617245355,644778,1385569243617245355,/world,vicon/Archie/Archie,-0.604987098328,0.555561562064,0.114942710255,8.49536566405e-06,-0.00463298435006,0.665400174233,0.746472466682
1385569243627167503,644779,1385569243627167503,/world,vicon/Archie/Archie,-0.6049993782,0.555569486596,0.114952097064,4.47906813702e-05,-0.00467129251232,0.665393474148,0.746478199
1385569243637197410,644780,1385569243637197410,/world,vicon/Archie/Archie,-0.60500447109,0.555568650961,0.114953163547,5.17648174336e-05,-0.00467485035598,0.665399561691,0.746472749935
1385569243647249667,644781,1385569243647249667,/world,vicon/Archie/Archie,-0.604991159009,0.555569833585,0.114954621261,3.75117045373e-05,-0.00464878205311,0.665399625548,0.746472856666
1385569243657134952,644782,1385569243657134952,/world,vicon/Archie/Archie,-0.60499266894,0.555570657379,0.11495517248,1.39696732039e-05,-0.00464310541613,0.665398882976,0.74647355473
1385569243667261167,644783,1385569243667261167,/world,vicon/Archie/Archie,-0.605001389029,0.555562491897,0.114952839644,7.42353902026e-05,-0.00467071827048,0.66539315775,0.746478482275
1385569243677293344,644784,1385569243677293344,/world,vicon/Archie/Archie,-0.604993381256,0.555564003794,0.114957253854,3.66422009427e-05,-0.00463611383537,0.665404073043,0.746468971012
1385569243687177321,644785,1385569243687177321,/world,vicon/Archie/Archie,-0.604989541705,0.555570801496,0.114950882558,6.10346687572e-05,-0.00468338037638,0.665390077956,0.746481149381
1385569243697285640,644786,1385569243697285640,/world,vicon/Archie/Archie,-0.604990363911,0.555572162246,0.114949519815,2.20794085605e-05,-0.00465130570304,0.66539500989,0.746476955894
1385569243707146151,644787,1385569243707146151,/world,vicon/Archie/Archie,-0.60499805822,0.555577850394,0.114946593093,2.98457841894e-05,-0.00465082213518,0.665391391347,0.74648018412
1385569243717226114,644788,1385569243717226114,/world,vicon/Archie/Archie,-0.604996779841,0.555567803031,0.114948563425,1.86731379577e-05,-0.00466496398365,0.665400155009,0.746472284466
1385569243727298857,644789,1385569243727298857,/world,vicon/Archie/Archie,-0.604994472977,0.555568559043,0.114950810219,3.46004098895e-05,-0.00467703784361,0.665400137207,0.746472224215
1385569243737143481,644790,1385569243737143481,/world,vicon/Archie/Archie,-0.604996628785,0.555574586422,0.114948871799,3.4651748691e-05,-0.00465841972935,0.665396137974,0.746475905501
1385569243747217980,644791,1385569243747217980,/world,vicon/Archie/Archie,-0.604998859298,0.555569995058,0.114953655518,2.04860683245e-05,-0.00465603318048,0.665401601548,0.74647105074
1385569243757136903,644792,1385569243757136903,/world,vicon/Archie/Archie,-0.604999196769,0.555568950346,0.114946918847,2.35372779513e-05,-0.00465627020861,0.66540468886,0.746468297141
1385569243767224995,644793,1385569243767224995,/world,vicon/Archie/Archie,-0.604992766415,0.55557142158,0.114956575075,2.37196833037e-05,-0.00465609358873,0.665408013922,0.746465334251
1385569243777310123,644794,1385569243777310123,/world,vicon/Archie/Archie,-0.604986345467,0.555573242473,0.114953522122,3.24049973156e-05,-0.00466193614388,0.665404800463,0.746468161962
1385569243787163442,644795,1385569243787163442,/world,vicon/Archie/Archie,-0.605000843739,0.555577590834,0.114946499693,4.03648787347e-05,-0.00467589092129,0.665390811912,0.746480543509
1385569243797252748,644796,1385569243797252748,/world,vicon/Archie/Archie,-0.604997798627,0.555577503049,0.114948140916,4.17729109134e-05,-0.0046525829851,0.665404128823,0.746468818553
1385569243807214283,644797,1385569243807214283,/world,vicon/Archie/Archie,-0.604999078013,0.555572639398,0.114949160797,4.38843348108e-05,-0.00466477381955,0.665399059566,0.746473261067
1385569243817252254,644798,1385569243817252254,/world,vicon/Archie/Archie,-0.604994713989,0.555571535241,0.114956166371,3.43936897165e-05,-0.00464793978914,0.665401329704,0.746471342987
1385569243827255501,644799,1385569243827255501,/world,vicon/Archie/Archie,-0.604996333517,0.555568390034,0.114938775866,-5.60664279778e-06,-0.0046480313263,0.665398767246,0.746473627345
1385569243837216788,644800,1385569243837216788,/world,vicon/Archie/Archie,-0.604989605153,0.555573021845,0.114955407506,3.30219889078e-05,-0.00465898314301,0.665398376994,0.746473906228
1385569243847259288,644801,1385569243847259288,/world,vicon/Archie/Archie,-0.604989350172,0.555564129992,0.114945120052,2.69828729718e-05,-0.00465231220707,0.665387284962,0.74648383524
1385569243857191758,644802,1385569243857191758,/world,vicon/Archie/Archie,-0.604994290444,0.555574816075,0.114945130426,3.78236830501e-05,-0.00467632035627,0.66539765754,0.746474438904
1385569243867284549,644803,1385569243867284549,/world,vicon/Archie/Archie,-0.604999060343,0.555572707416,0.114948321694,5.32653423453e-05,-0.00467370599601,0.66539960129,0.746472721697
1385569243877247058,644804,1385569243877247058,/world,vicon/Archie/Archie,-0.604995745747,0.555570124101,0.114954105733,3.54807750452e-05,-0.00466712825499,0.665410443413,0.746463099189
1385569243887315668,644805,1385569243887315668,/world,vicon/Archie/Archie,-0.604996675697,0.555572370563,0.114957223059,1.75724105753e-05,-0.00463796514324,0.665401123596,0.746471589337
1385569243897339246,644806,1385569243897339246,/world,vicon/Archie/Archie,-0.605002747025,0.555568113923,0.114954684465,2.28910152519e-05,-0.00466052347927,0.665400245886,0.746472231079
1385569243907173001,644807,1385569243907173001,/world,vicon/Archie/Archie,-0.604999356843,0.555569178407,0.1149578976,3.98778775012e-05,-0.004636776024,0.665407916399,0.746465540739
1385569243917529714,644808,1385569243917529714,/world,vicon/Archie/Archie,-0.605000123862,0.555559519616,0.114938872554,4.90144392957e-05,-0.00467928540491,0.665403110313,0.746469559106
1385569243927346076,644809,1385569243927346076,/world,vicon/Archie/Archie,-0.604991580393,0.555569643993,0.11495320769,5.08892208919e-05,-0.00463992067338,0.66539954431,0.746472983422
1385569243937107301,644810,1385569243937107301,/world,vicon/Archie/Archie,-0.604998135147,0.555566306701,0.114947509719,4.89925758739e-05,-0.00466793921761,0.665393486667,0.746478208553
1385569243947296632,644811,1385569243947296632,/world,vicon/Archie/Archie,-0.604985143144,0.555564766531,0.114961078927,4.1004928515e-05,-0.0046487927904,0.665397405318,0.746474835504
1385569243957111977,644812,1385569243957111977,/world,vicon/Archie/Archie,-0.604998363617,0.555570579184,0.114949146326,3.6425051393e-05,-0.00463065145967,0.665401082643,0.746471670567
1385569243967426698,644813,1385569243967426698,/world,vicon/Archie/Archie,-0.604995281505,0.555561353913,0.114959276285,3.10278423958e-05,-0.00463719571362,0.665406139521,0.746467122478
1385569243977293970,644814,1385569243977293970,/world,vicon/Archie/Archie,-0.604997167702,0.555568799552,0.114953643149,5.2530749926e-05,-0.0046677666045,0.665397547381,0.746474589745
1385569243987164729,644815,1385569243987164729,/world,vicon/Archie/Archie,-0.604985452515,0.555571248739,0.114962385405,2.50348849943e-05,-0.00461296160727,0.665404719201,0.746468538938
1385569243997439672,644816,1385569243997439672,/world,vicon/Archie/Archie,-0.605002537452,0.55556614606,0.114957536966,5.40520859054e-05,-0.00464233258924,0.665405352248,0.746467791018
1385569244007214473,644817,1385569244007214473,/world,vicon/Archie/Archie,-0.60499473951,0.555561393039,0.114945529285,3.1178240827e-05,-0.00465479650441,0.665402316627,0.746470420663
1385569244017353817,644818,1385569244017353817,/world,vicon/Archie/Archie,-0.60499320793,0.555572764875,0.114953374332,3.58313344649e-05,-0.00465143609448,0.665402834221,0.746469980019
1385569244027334218,644819,1385569244027334218,/world,vicon/Archie/Archie,-0.6049960934,0.555567123132,0.114959621145,3.77255477114e-05,-0.00465871696181,0.665404587858,0.746468371327
1385569244037210461,644820,1385569244037210461,/world,vicon/Archie/Archie,-0.604991778694,0.555571501415,0.11495095512,4.45744147648e-05,-0.00466220285787,0.665401782972,0.746470849461
1385569244047361070,644821,1385569244047361070,/world,vicon/Archie/Archie,-0.60499738042,0.555575578768,0.114956623561,1.62863403303e-05,-0.00465611855341,0.665396499278,0.746475598425
1385569244057339305,644822,1385569244057339305,/world,vicon/Archie/Archie,-0.604988340477,0.555578553372,0.114950467532,2.73940755771e-05,-0.00465664256144,0.665394499996,0.746477376954
1385569244067301778,644823,1385569244067301778,/world,vicon/Archie/Archie,-0.605002252787,0.55557176724,0.11495268781,4.30995686266e-05,-0.00465948596348,0.665396732406,0.746475368539
1385569244077302486,644824,1385569244077302486,/world,vicon/Archie/Archie,-0.604995508468,0.555574928608,0.114949829476,3.0984474324e-05,-0.00465832015499,0.665387827268,0.746483314225
1385569244087237359,644825,1385569244087237359,/world,vicon/Archie/Archie,-0.604993820548,0.55556970916,0.114936448143,3.92647183703e-05,-0.00466525165356,0.66539450547,0.74647731779
1385569244097211000,644826,1385569244097211000,/world,vicon/Archie/Archie,-0.604984685103,0.555587660852,0.114916659803,1.16805341355e-05,-0.00465107130267,0.665384775541,0.746486080163
1385569244107166436,644827,1385569244107166436,/world,vicon/Archie/Archie,-0.60498706554,0.555579828979,0.114953474392,4.82281149548e-05,-0.00468954648156,0.665394982883,0.746476739478
1385569244117292199,644828,1385569244117292199,/world,vicon/Archie/Archie,-0.604995977921,0.555571204601,0.114939567129,3.70545633698e-05,-0.00466803904694,0.665412462257,0.74646129378
1385569244127243745,644829,1385569244127243745,/world,vicon/Archie/Archie,-0.605001388604,0.555580223265,0.114951018297,4.14739640629e-05,-0.0046554683317,0.665403894515,0.746469009443
1385569244137153335,644830,1385569244137153335,/world,vicon/Archie/Archie,-0.604995009299,0.555578661862,0.114942268664,3.9833387403e-05,-0.00465378809524,0.665392155553,0.746479483977
1385569244147344192,644831,1385569244147344192,/world,vicon/Archie/Archie,-0.604997230637,0.5555724632,0.114956779544,4.7351450836e-05,-0.0046749449074,0.665402125644,0.746470464142
1385569244157350165,644832,1385569244157350165,/world,vicon/Archie/Archie,-0.605004403967,0.555577996068,0.114949836173,5.14495300836e-05,-0.00468619972799,0.665403283855,0.746469360872
1385569244167352535,644833,1385569244167352535,/world,vicon/Archie/Archie,-0.604988592042,0.555576618717,0.114953092271,3.91108510152e-05,-0.00466682905972,0.66539537239,0.746476535183
1385569244177270069,644834,1385569244177270069,/world,vicon/Archie/Archie,-0.604990051762,0.555571758216,0.114935443846,4.26426696617e-05,-0.00469652118367,0.665396137842,0.746475666459
1385569244187165640,644835,1385569244187165640,/world,vicon/Archie/Archie,-0.604992830152,0.555575246594,0.114954011306,4.5168210963e-05,-0.00465183300593,0.665405227167,0.746467843961
1385569244197361082,644836,1385569244197361082,/world,vicon/Archie/Archie,-0.604994860797,0.555567273884,0.114936671531,4.47019422706e-05,-0.00467886925219,0.66540620391,0.74646680434
1385569244207144636,644837,1385569244207144636,/world,vicon/Archie/Archie,-0.60499316272,0.555575616028,0.114948335554,3.6177230817e-05,-0.00465369180336,0.665389122429,0.746482188399
1385569244217278294,644838,1385569244217278294,/world,vicon/Archie/Archie,-0.604990871433,0.555573897339,0.114951386371,2.83767764053e-05,-0.00467078773037,0.665394912238,0.746476921079
1385569244227334178,644839,1385569244227334178,/world,vicon/Archie/Archie,-0.604991583332,0.555575142727,0.114934493669,2.47827768931e-05,-0.00465455685887,0.665400330815,0.746472192541
1385569244237202758,644840,1385569244237202758,/world,vicon/Archie/Archie,-0.604996783526,0.555582595105,0.114951264176,2.20591321814e-05,-0.00464826165222,0.665390921252,0.746480619369
1385569244247274761,644841,1385569244247274761,/world,vicon/Archie/Archie,-0.604992187448,0.555569343605,0.114956343143,4.58638384169e-05,-0.00465821205978,0.665397655012,0.746474553928
1385569244257185997,644842,1385569244257185997,/world,vicon/Archie/Archie,-0.604999969276,0.555575174117,0.114956311804,3.16874903219e-05,-0.00466154768549,0.665390289607,0.746481099202
1385569244267321531,644843,1385569244267321531,/world,vicon/Archie/Archie,-0.60499799005,0.555571526731,0.114958826064,1.41555955402e-05,-0.00464109025539,0.665393746525,0.746478145806
1385569244277282584,644844,1385569244277282584,/world,vicon/Archie/Archie,-0.604999881415,0.555567851981,0.114951223119,5.3622052987e-05,-0.00467576154322,0.665396409148,0.746475554236
1385569244287262268,644845,1385569244287262268,/world,vicon/Archie/Archie,-0.604996403948,0.555573573046,0.114955501509,2.32748155746e-05,-0.00464672204723,0.66540284691,0.746469998564
1385569244297278626,644846,1385569244297278626,/world,vicon/Archie/Archie,-0.605000179745,0.555568992912,0.11495245151,2.01996776279e-05,-0.00464812144995,0.665397541619,0.74647471904
1385569244307235791,644847,1385569244307235791,/world,vicon/Archie/Archie,-0.604999727363,0.555574380271,0.114952465929,3.09309254266e-05,-0.0046682943413,0.665397554947,0.746474580908
1385569244317441759,644848,1385569244317441759,/world,vicon/Archie/Archie,-0.604989060322,0.555562151991,0.114943253274,2.59838906619e-05,-0.00463976466718,0.66539394125,0.746477980156
1385569244327388534,644849,1385569244327388534,/world,vicon/Archie/Archie,-0.604996260209,0.555563519923,0.114961934672,2.84045786432e-05,-0.00465815446533,0.665405738207,0.746467349823
1385569244337288305,644850,1385569244337288305,/world,vicon/Archie/Archie,-0.605001953479,0.555564167179,0.114958006721,2.50386039138e-05,-0.00464766248054,0.665397127666,0.746475090744
1385569244347336688,644851,1385569244347336688,/world,vicon/Archie/Archie,-0.605000440423,0.555569373758,0.11495437732,2.68406016564e-05,-0.00465912978955,0.665385081834,0.746485756503
1385569244357212381,644852,1385569244357212381,/world,vicon/Archie/Archie,-0.604999852634,0.555559288668,0.114956882499,5.57328860285e-05,-0.0046722963476,0.665398254039,0.746473931268
1385569244367290825,644853,1385569244367290825,/world,vicon/Archie/Archie,-0.604992602098,0.555570665533,0.114954235197,1.53004129753e-05,-0.00463456809487,0.665395709525,0.746476436527
1385569244377278207,644854,1385569244377278207,/world,vicon/Archie/Archie,-0.604999025002,0.555567985351,0.114961013012,3.88053917876e-05,-0.00464325042364,0.665391482407,0.746480149676
1385569244387188582,644855,1385569244387188582,/world,vicon/Archie/Archie,-0.604993715165,0.555565727024,0.114959838457,2.75653488396e-05,-0.00463243057784,0.665397194181,0.746475126044
1385569244397314816,644856,1385569244397314816,/world,vicon/Archie/Archie,-0.604990138138,0.555567834819,0.114959741559,1.09441554469e-05,-0.00464730769958,0.665394911078,0.746477069121
1385569244407263208,644857,1385569244407263208,/world,vicon/Archie/Archie,-0.604989814404,0.555560234085,0.114943163033,6.483032126e-06,-0.00464500499083,0.665393131849,0.746478669471
1385569244417415816,644858,1385569244417415816,/world,vicon/Archie/Archie,-0.605004262569,0.555564681686,0.114956869722,6.29870156774e-05,-0.00467439139069,0.665396793804,0.746475219209
1385569244427389351,644859,1385569244427389351,/world,vicon/Archie/Archie,-0.605009858661,0.555567938659,0.114950948472,3.37719229085e-05,-0.00466386597893,0.665388516381,0.746482665225
1385569244437175299,644860,1385569244437175299,/world,vicon/Archie/Archie,-0.604985890864,0.555561916443,0.114942200393,1.69609206885e-05,-0.00466016240748,0.66538931152,0.746481980166
1385569244447398232,644861,1385569244447398232,/world,vicon/Archie/Archie,-0.604991635095,0.555566680805,0.114956672685,4.32361202389e-05,-0.00467799430256,0.665383077208,0.746487424586
1385569244457307035,644862,1385569244457307035,/world,vicon/Archie/Archie,-0.605000343471,0.555567321281,0.114952928313,2.85261662648e-06,-0.00463499290254,0.665388793936,0.746482598416
1385569244467377650,644863,1385569244467377650,/world,vicon/Archie/Archie,-0.604996697599,0.555567029737,0.114948617135,3.43307800453e-05,-0.00464480161007,0.665401602417,0.746471119428
1385569244477321226,644864,1385569244477321226,/world,vicon/Archie/Archie,-0.604997651649,0.555557405391,0.114959092268,1.49523550043e-05,-0.0046539678351,0.665397134724,0.746475045437
1385569244487387343,644865,1385569244487387343,/world,vicon/Archie/Archie,-0.604995072633,0.555561647589,0.114940324784,2.49176681632e-05,-0.00464819833913,0.665393675085,0.746478164978
1385569244497299030,644866,1385569244497299030,/world,vicon/Archie/Archie,-0.60499638011,0.555566204242,0.114960930018,3.17676483091e-05,-0.00463689963579,0.665390793487,0.746480803568
1385569244507193427,644867,1385569244507193427,/world,vicon/Archie/Archie,-0.604994231896,0.555571654174,0.114952585388,2.58152697004e-05,-0.00465584866276,0.665393648822,0.746478140681
1385569244517243492,644868,1385569244517243492,/world,vicon/Archie/Archie,-0.604996085455,0.555565052182,0.1149536508,1.9140777891e-05,-0.00464019889643,0.665391488863,0.746480163659
1385569244527385720,644869,1385569244527385720,/world,vicon/Archie/Archie,-0.604998827015,0.555573040579,0.114958363501,2.28283944469e-05,-0.00464649107377,0.665401108673,0.746471549475
1385569244537418610,644870,1385569244537418610,/world,vicon/Archie/Archie,-0.604987101558,0.555569256028,0.114958038851,1.84746523956e-05,-0.00463350265805,0.665402333335,0.746470538671
1385569244547305707,644871,1385569244547305707,/world,vicon/Archie/Archie,-0.604994169335,0.555571438843,0.114955932797,6.13284609185e-06,-0.00463504462972,0.665399747998,0.746472833858
1385569244557801984,644872,1385569244557801984,/world,vicon/Archie/Archie,-0.605008120521,0.555574482192,0.114955735078,5.63738510522e-05,-0.00465902021717,0.665384372623,0.7464863877
1385569244567365408,644873,1385569244567365408,/world,vicon/Archie/Archie,-0.605003595053,0.555570387658,0.114941233388,2.30698484404e-05,-0.00467109049652,0.665404701504,0.746468193293
1385569244577354348,644874,1385569244577354348,/world,vicon/Archie/Archie,-0.605000575875,0.555570024512,0.114954563603,2.74738430434e-05,-0.00464944786635,0.665401366303,0.746471301258
1385569244587242294,644875,1385569244587242294,/world,vicon/Archie/Archie,-0.604998165338,0.555571974192,0.114958343663,2.87238586467e-05,-0.00463425562495,0.665390239081,0.746481314291
1385569244597294449,644876,1385569244597294449,/world,vicon/Archie/Archie,-0.604999786738,0.555568692964,0.114958020248,3.27216663139e-05,-0.0046535824387,0.665397561596,0.746474666765
1385569244607423566,644877,1385569244607423566,/world,vicon/Archie/Archie,-0.604996744723,0.555577665264,0.114949977589,2.92113374895e-05,-0.0046445819772,0.665400152864,0.746472413136
1385569244617359197,644878,1385569244617359197,/world,vicon/Archie/Archie,-0.604997795816,0.555572030386,0.114949240225,4.44108864565e-05,-0.0046671489114,0.665398444417,0.746473794528
1385569244627459041,644879,1385569244627459041,/world,vicon/Archie/Archie,-0.604994582199,0.55557209504,0.114960422535,4.88015223764e-05,-0.00464349439297,0.665398716636,0.74647369912
1385569244637316506,644880,1385569244637316506,/world,vicon/Archie/Archie,-0.605002288456,0.555570888692,0.114956774889,2.93385367272e-05,-0.00463912638068,0.665400588198,0.746472059003
1385569244647399847,644881,1385569244647399847,/world,vicon/Archie/Archie,-0.604997798817,0.555569642993,0.114959902997,2.82274949428e-05,-0.00464413156436,0.665393256625,0.746478563178
1385569244657156254,644882,1385569244657156254,/world,vicon/Archie/Archie,-0.604997732777,0.555575209507,0.114953110278,2.91503627672e-05,-0.00467353775849,0.665385134875,0.746485619073
1385569244667331724,644883,1385569244667331724,/world,vicon/Archie/Archie,-0.604986593066,0.555575432117,0.114955649668,3.39199424855e-05,-0.00464259698854,0.665390601638,0.746480939069
1385569244677402706,644884,1385569244677402706,/world,vicon/Archie/Archie,-0.604995158461,0.555572810488,0.114959998213,4.77162622529e-05,-0.00464411153401,0.665391638122,0.746480005003
1385569244687357807,644885,1385569244687357807,/world,vicon/Archie/Archie,-0.604993901852,0.555578235363,0.114950047072,2.9430245759e-05,-0.00465740736395,0.665393832482,0.746477967114
1385569244697378954,644886,1385569244697378954,/world,vicon/Archie/Archie,-0.604990932982,0.555570522792,0.114935145062,1.22041828658e-05,-0.00464913900922,0.66539438639,0.746477525394
1385569244707166826,644887,1385569244707166826,/world,vicon/Archie/Archie,-0.604994812349,0.555571916407,0.114958526561,4.18385584148e-05,-0.00468108783639,0.665399370758,0.746472881665
1385569244717333320,644888,1385569244717333320,/world,vicon/Archie/Archie,-0.604993547058,0.555580853683,0.114952490558,1.29172136482e-05,-0.00463329926791,0.665400097412,0.746472533142
1385569244727360175,644889,1385569244727360175,/world,vicon/Archie/Archie,-0.604999000252,0.555582232756,0.114945653203,1.93711151754e-05,-0.00465353132241,0.665396750496,0.746475390552
1385569244737147996,644890,1385569244737147996,/world,vicon/Archie/Archie,-0.604988789826,0.555574847836,0.114954843134,4.00350680999e-05,-0.00462695823013,0.665400886058,0.746471868518
1385569244747284055,644891,1385569244747284055,/world,vicon/Archie/Archie,-0.604998498358,0.555574538328,0.114948242006,4.29003783826e-05,-0.00465889938075,0.665410526353,0.74646307627
1385569244757409402,644892,1385569244757409402,/world,vicon/Archie/Archie,-0.604994990132,0.555581980181,0.114943678491,6.00656074129e-05,-0.0046826882237,0.665397816925,0.746474255453
1385569244767293680,644893,1385569244767293680,/world,vicon/Archie/Archie,-0.604986098283,0.55558084698,0.114951229981,4.20309210476e-05,-0.00466075476513,0.66539932258,0.74647305183
1385569244777344954,644894,1385569244777344954,/world,vicon/Archie/Archie,-0.604987212255,0.555580348624,0.114954162923,4.2085044435e-05,-0.00465945739841,0.665398837224,0.746473492568
1385569244787425211,644895,1385569244787425211,/world,vicon/Archie/Archie,-0.604993223644,0.555579912243,0.114949469649,4.26252782418e-05,-0.00467762883333,0.665401475281,0.746471027345
1385569244797305455,644896,1385569244797305455,/world,vicon/Archie/Archie,-0.604986247776,0.555570813206,0.114947587818,2.35013188143e-05,-0.00463075704587,0.665403839724,0.746469212773
1385569244807392293,644897,1385569244807392293,/world,vicon/Archie/Archie,-0.604995093718,0.555580171539,0.114947638206,2.99667766885e-05,-0.00467322341882,0.665396296299,0.746475672046
1385569244817551334,644898,1385569244817551334,/world,vicon/Archie/Archie,-0.605004338762,0.555577262051,0.114938330612,2.36139617935e-05,-0.00467218538175,0.665413879689,0.746460004852
1385569244827335971,644899,1385569244827335971,/world,vicon/Archie/Archie,-0.604984976591,0.555578263243,0.114952428557,2.79653118019e-05,-0.00461918800072,0.665405675055,0.746467648278
1385569244837424344,644900,1385569244837424344,/world,vicon/Archie/Archie,-0.604991443009,0.555582150183,0.114947005708,4.13663993001e-05,-0.00466669724993,0.66539806677,0.746474134156
1385569244847373870,644901,1385569244847373870,/world,vicon/Archie/Archie,-0.604997648765,0.555583148249,0.114956986166,2.6931645488e-05,-0.00465277581581,0.665407571092,0.746465749573
1385569244857220295,644902,1385569244857220295,/world,vicon/Archie/Archie,-0.604998648524,0.55556833554,0.114945270141,4.89329773976e-05,-0.00468431797439,0.665399603873,0.746472653174
1385569244867301310,644903,1385569244867301310,/world,vicon/Archie/Archie,-0.604995916884,0.555572846917,0.114950295399,1.50464507728e-05,-0.00463184426655,0.665397281298,0.746475052385
1385569244877296971,644904,1385569244877296971,/world,vicon/Archie/Archie,-0.604995075991,0.555580864552,0.114944882591,4.28674785982e-05,-0.00468242121764,0.665390618488,0.746480674848
1385569244887314206,644905,1385569244887314206,/world,vicon/Archie/Archie,-0.604993844261,0.555576998379,0.114952660426,4.64913714737e-05,-0.00465007856861,0.665396639271,0.746475510017
1385569244897336995,644906,1385569244897336995,/world,vicon/Archie/Archie,-0.604997523272,0.555576832915,0.114954089774,6.2087595767e-05,-0.00463828630603,0.665388574905,0.746482770619
1385569244907337493,644907,1385569244907337493,/world,vicon/Archie/Archie,-0.604991889244,0.555578201056,0.114950586779,6.68232707899e-05,-0.00466079741978,0.66538177421,0.746488691844
1385569244917408229,644908,1385569244917408229,/world,vicon/Archie/Archie,-0.604985590774,0.555590366258,0.114921422657,2.61440635711e-05,-0.0046349178288,0.665385208418,0.746485794421
1385569244927393904,644909,1385569244927393904,/world,vicon/Archie/Archie,-0.604996087015,0.555577973153,0.114950463309,4.02297014011e-05,-0.00464712322892,0.665396741627,0.746475437546
1385569244937284745,644910,1385569244937284745,/world,vicon/Archie/Archie,-0.604993334494,0.555577368091,0.11494927915,5.31852865343e-05,-0.00464901856431,0.665390858659,0.746480668879
1385569244947356878,644911,1385569244947356878,/world,vicon/Archie/Archie,-0.604991147869,0.555574614193,0.114949838095,3.38547610294e-05,-0.00466264028115,0.665395084672,0.746476818082
1385569244957229844,644912,1385569244957229844,/world,vicon/Archie/Archie,-0.604999269948,0.555574355997,0.114952106104,1.68379623314e-05,-0.00464459481581,0.665399040518,0.746473404974
1385569244967316361,644913,1385569244967316361,/world,vicon/Archie/Archie,-0.604993712549,0.555576707887,0.11495314575,3.91587281183e-05,-0.00466461041904,0.665379618939,0.746490591084
1385569244977550270,644914,1385569244977550270,/world,vicon/Archie/Archie,-0.605000358469,0.555580624126,0.114954675232,3.20525719513e-05,-0.00464684940745,0.665388875601,0.746482451227
1385569244987236491,644915,1385569244987236491,/world,vicon/Archie/Archie,-0.605003690692,0.55557681096,0.114953399103,4.23854852662e-05,-0.00464722838649,0.665393461868,0.746478360286
1385569244997325521,644916,1385569244997325521,/world,vicon/Archie/Archie,-0.604992568851,0.555577864597,0.114948439946,6.49541830113e-05,-0.00468699718784,0.665382491022,0.746487889038
1385569245007163526,644917,1385569245007163526,/world,vicon/Archie/Archie,-0.604999074214,0.55558415073,0.114944909282,5.7184613592e-05,-0.00467704665867,0.665392888027,0.746478684577
1385569245017407360,644918,1385569245017407360,/world,vicon/Archie/Archie,-0.604996810496,0.555574905341,0.114957140647,8.11154927308e-05,-0.00465781428246,0.665389887705,0.746481477015
1385569245027328143,644919,1385569245027328143,/world,vicon/Archie/Archie,-0.604989517468,0.555577623734,0.114963514731,3.84090905132e-05,-0.00462689463856,0.66539443481,0.746477619554
1385569245037226629,644920,1385569245037226629,/world,vicon/Archie/Archie,-0.604997025708,0.555575725853,0.114938841314,4.6875096023e-05,-0.00466958554123,0.665397579099,0.746474550472
1385569245047307587,644921,1385569245047307587,/world,vicon/Archie/Archie,-0.604996623713,0.555583406827,0.114948542417,3.75223579542e-05,-0.0046667799591,0.6653918548,0.746479671072
1385569245057174889,644922,1385569245057174889,/world,vicon/Archie/Archie,-0.604991180039,0.555575243378,0.114953711139,4.44791567559e-05,-0.00466882225334,0.665386242751,0.74648466031
1385569245067416898,644923,1385569245067416898,/world,vicon/Archie/Archie,-0.604992701266,0.555581609805,0.114951962284,3.74797618598e-05,-0.0046230708102,0.665397185282,0.746475191571
1385569245077291123,644924,1385569245077291123,/world,vicon/Archie/Archie,-0.604993653546,0.555580057408,0.114939978283,5.301359851e-05,-0.00468671269862,0.665395160613,0.746476598526
1385569245087140248,644925,1385569245087140248,/world,vicon/Archie/Archie,-0.604991774576,0.555582110914,0.1149467465,2.18305603643e-05,-0.00465484445711,0.665395918667,0.746476123776
1385569245097387268,644926,1385569245097387268,/world,vicon/Archie/Archie,-0.60499070805,0.555579876451,0.114950817517,2.97872675815e-05,-0.00465995027211,0.665393345193,0.746478385588
1385569245107307238,644927,1385569245107307238,/world,vicon/Archie/Archie,-0.604995571337,0.555580570058,0.114945045008,4.37015491366e-05,-0.00468449710234,0.665395697398,0.746476134556
1385569245117448315,644928,1385569245117448315,/world,vicon/Archie/Archie,-0.604995317809,0.555581096927,0.114950315455,4.1406945233e-05,-0.00466660797438,0.665392171151,0.746479389954
1385569245127330837,644929,1385569245127330837,/world,vicon/Archie/Archie,-0.604990684575,0.555578920129,0.114952912403,4.52016998719e-05,-0.00465053822916,0.665399374464,0.746473069115
1385569245137280265,644930,1385569245137280265,/world,vicon/Archie/Archie,-0.604989834564,0.555575115663,0.114951622184,3.45843673172e-05,-0.00464021634133,0.665403649885,0.746469322823
1385569245147367013,644931,1385569245147367013,/world,vicon/Archie/Archie,-0.604988787932,0.555571477403,0.114960029697,5.34191289753e-05,-0.00462497399466,0.665395707568,0.746476496021
1385569245157228204,644932,1385569245157228204,/world,vicon/Archie/Archie,-0.60498825079,0.555566050199,0.114934392509,5.85235222666e-05,-0.00469247871211,0.665388490818,0.746482507166
1385569245167350893,644933,1385569245167350893,/world,vicon/Archie/Archie,-0.604998916029,0.555574066789,0.114947547762,3.96848191717e-05,-0.00468370786151,0.665391329794,0.746480032915
1385569245177273603,644934,1385569245177273603,/world,vicon/Archie/Archie,-0.604994699684,0.555574845371,0.114952411693,5.78209682739e-05,-0.00466188076989,0.665395582962,0.746476377187
1385569245187079945,644935,1385569245187079945,/world,vicon/Archie/Archie,-0.604997596255,0.555576437047,0.114953035466,4.64941439709e-05,-0.00465153186752,0.665385900323,0.746485073354
1385569245197297821,644936,1385569245197297821,/world,vicon/Archie/Archie,-0.60499785793,0.555567343368,0.114953294171,5.10599601409e-05,-0.00468424891092,0.665395936567,0.746475922455
