%time,field.linear.x,field.linear.y,field.linear.z,field.angular.x,field.angular.y,field.angular.z
1385569247546332737,0.0,0.0,0.0,0.0,0.0,0.0
1385569247546345258,-0.604986260952,-0.555563881112,-0.114954530372,-0.00613556673711,0.00698198342728,-1.45611779967
1385569247556190975,-0.604998202507,-0.555567972751,-0.11494242841,-0.00614789371528,0.00701865719785,-1.45605376417
1385569247566091190,-0.605001911477,-0.555570831765,-0.114952262613,-0.00612672470143,0.00700819744271,-1.45612880784
1385569247576290268,-0.604994623231,-0.555568421216,-0.114953284121,-0.00611333957273,0.00697140126314,-1.45610133557
1385569247586125847,-0.604998081205,-0.555571045003,-0.114956468717,-0.0061339195396,0.00704637143517,-1.45608514008
1385569247596110505,-0.604998611347,-0.555566284928,-0.114953605002,-0.00614050149921,0.00699699720341,-1.4561159763
1385569247606020043,-0.604997157595,-0.555560973669,-0.114940086409,-0.00616605839506,0.00702308858969,-1.45608405112
1385569247616062594,-0.605000604468,-0.555563456945,-0.114951891492,-0.00615532723902,0.00694216596838,-1.45615075415
1385569247626219920,-0.60498974641,-0.55557059131,-0.114952976576,-0.00613676151923,0.00695384770764,-1.45610263668
1385569247636123188,-0.605000812865,-0.555572006048,-0.114947556116,-0.00616582331114,0.00700052364313,-1.45610060504
1385569247646122241,-0.60500977686,-0.5555634026,-0.114947465985,-0.00616608853536,0.00700975810138,-1.45609945506
1385569247656127190,-0.605003155408,-0.555575106256,-0.114957650943,-0.00612631200541,0.00700610674828,-1.45606505368
1385569247666119967,-0.604997507779,-0.555571232343,-0.114950106235,-0.00615882771541,0.00695440784478,-1.45611691669
1385569247676197956,-0.604992744553,-0.555568380701,-0.114950803946,-0.00612437868359,0.00701303048343,-1.45611773115
1385569247686106304,-0.604985477998,-0.555565655519,-0.114963523089,-0.00609796330101,0.00697257085892,-1.4561114074
1385569247696069841,-0.604998284294,-0.555569479361,-0.114960762281,-0.00612229741207,0.00692817418673,-1.45608576388
1385569247706041445,-0.604986438636,-0.555572364578,-0.114951755858,-0.00613798069412,0.00693056160147,-1.45608665076
1385569247716059448,-0.605005967027,-0.555570552481,-0.114954265898,-0.00616051252386,0.00692119914074,-1.45608023129
1385569247726054542,-0.604995221994,-0.555562318205,-0.114952372399,-0.00614046436364,0.00697141625478,-1.45613152032
1385569247736214287,-0.604991011873,-0.555567477632,-0.114953440316,-0.0061357567326,0.00699381121145,-1.45609718478
1385569247746272817,-0.604993563762,-0.555563157015,-0.114952275775,-0.00614195891182,0.00697331662072,-1.4561386531
1385569247756199689,-0.604998625008,-0.555571200141,-0.11495746472,-0.00616154632825,0.00697787554569,-1.45605859749
1385569247766270140,-0.605002400075,-0.555567185252,-0.114955915129,-0.00616874381035,0.00700263615832,-1.4561300144
1385569247776311321,-0.604993155297,-0.555571446312,-0.114952823337,-0.00613424221119,0.00692710613229,-1.45607217206
1385569247786162214,-0.605006184321,-0.555567891348,-0.114955316423,-0.00615228702892,0.00700052972316,-1.45609713152
1385569247796079348,-0.604996691505,-0.555568998587,-0.114954000685,-0.00612058908477,0.00691542708578,-1.45609412339
1385569247806046848,-0.604992751263,-0.555576236533,-0.114962785827,-0.00615391143676,0.00698257051318,-1.45607550761
1385569247816091336,-0.605000864397,-0.555566347026,-0.114958566335,-0.00612966578936,0.00695358109895,-1.45609834505
1385569247826076271,-0.604987758753,-0.555565358964,-0.114937353673,-0.00615200995911,0.00694760730372,-1.45610604535
1385569247836069415,-0.604996017362,-0.555575822634,-0.114960747674,-0.00614660293327,0.00694007025889,-1.4560810295
1385569247846102394,-0.605003152554,-0.555575903169,-0.114949748695,-0.00617568445896,0.00698037906998,-1.45609234733
1385569247856098484,-0.604992601559,-0.555574022474,-0.11494933161,-0.00615515520991,0.00693334424536,-1.45606185535
1385569247866037969,-0.605001075699,-0.555563454555,-0.114934882149,-0.0061430772415,0.00704483620201,-1.45610005176
1385569247876032795,-0.604995315052,-0.555570059213,-0.114949860179,-0.00615886047876,0.00699333323604,-1.45608526674
1385569247886216299,-0.60499798595,-0.555567671816,-0.114948917284,-0.00613119560323,0.00698152830321,-1.45612260193
1385569247896080447,-0.604987797299,-0.555565752636,-0.114952739363,-0.00613627342051,0.00699236090414,-1.45610316417
1385569247906123739,-0.604997572365,-0.555577312418,-0.114950570522,-0.00614141094429,0.00706407120386,-1.45607629741
1385569247916053363,-0.604993345653,-0.555567586223,-0.114955191457,-0.00614987588121,0.00707035267508,-1.45608434689
1385569247926155747,-0.605002612797,-0.555571398643,-0.114953693198,-0.00613919482922,0.00699388752823,-1.4560935039
1385569247936117941,-0.604996350058,-0.555566957053,-0.114957742477,-0.00615495723737,0.00699700271713,-1.45610509843
1385569247946084766,-0.604999818182,-0.555574045171,-0.114958577923,-0.0061286170043,0.00692252554174,-1.4561032855
1385569247956030986,-0.60499312871,-0.555567693956,-0.114952247835,-0.00614465659752,0.00693727538881,-1.45609214136
1385569247966110348,-0.604994525353,-0.55557198798,-0.114952145137,-0.00613976371104,0.0070558225735,-1.45608029094
1385569247976160286,-0.605000105518,-0.555562830564,-0.114960190806,-0.00616280173689,0.00699132538289,-1.45610504395
1385569247986164883,-0.604995457143,-0.555563467559,-0.114955949475,-0.00614977046373,0.00692333465331,-1.45611324214
1385569247996169979,-0.605005203596,-0.555566580223,-0.1149507643,-0.0061200475316,0.00700743056683,-1.45611437224
1385569248006102556,-0.604996200255,-0.555568417416,-0.114951635771,-0.0061521853658,0.0069381654471,-1.45608695206
1385569248016147640,-0.605008875898,-0.555564227144,-0.114954817939,-0.00612766334955,0.00702081308897,-1.45612545568
1385569248026046942,-0.604991804783,-0.555563414479,-0.114956892825,-0.00611643652677,0.00700504270144,-1.4561102104
1385569248036084898,-0.604994217799,-0.555566759401,-0.114957954619,-0.00614994200615,0.00698029560396,-1.45608992425
1385569248046076794,-0.604998523041,-0.55556859193,-0.114954838687,-0.00613967166469,0.00701896931695,-1.4560943837
1385569248056072558,-0.605001006933,-0.555574854816,-0.114948095942,-0.00616226781603,0.0069969664237,-1.45608975704
1385569248066294863,-0.604995029451,-0.555564653939,-0.114952567338,-0.0061433155802,0.00697382448381,-1.45613512334
1385569248076200306,-0.60498770067,-0.555573084133,-0.114956255303,-0.00617348820796,0.00695053971511,-1.45607155842
1385569248086102518,-0.604985688365,-0.555567555417,-0.114964471651,-0.0060918388209,0.00698104433997,-1.45618396484
1385569248096089309,-0.605004642163,-0.555564548084,-0.114968301413,-0.00618099518075,0.00705260919647,-1.45582114009
1385569248106159072,-0.605004094145,-0.555572264933,-0.114969526815,-0.0062040568409,0.00698049215718,-1.45611251176
1385569248116105966,-0.605004950693,-0.555566024167,-0.114957996666,-0.00607290068062,0.00702251615557,-1.45587102345
1385569248126078452,-0.605018361386,-0.555571927324,-0.114970975184,-0.00616970719337,0.00707936149782,-1.45588929214
1385569248136117595,-0.605011377384,-0.555566703177,-0.114989175921,-0.0063172150812,0.00696918028642,-1.45608764233
1385569248146092678,-0.605018672332,-0.555612161305,-0.114958507956,-0.00615590128686,0.00707018781208,-1.45642591484
1385569248156077331,-0.605014501483,-0.555568260678,-0.114951872869,-0.00608115281468,0.00722166160401,-1.45561511035
1385569248166057039,-0.605011159241,-0.555571368823,-0.114977566955,-0.00625438362389,0.00703340336933,-1.45549373787
1385569248176036962,-0.60502621051,-0.555575892492,-0.11499009477,-0.0062532824982,0.00697332296228,-1.45615519381
1385569248186063588,-0.605026625728,-0.555607640997,-0.114974870673,-0.00609921255826,0.00705270594819,-1.45663401422
1385569248196110367,-0.605060073524,-0.555585965819,-0.114954777518,-0.0061075025266,0.00703598944505,-1.45604168817
1385569248206016865,-0.60505524154,-0.555618936313,-0.114966880638,-0.00620973881019,0.00705656049159,-1.45588481731
1385569248216060937,-0.605067076328,-0.555610356462,-0.114971534119,-0.0063095192653,0.00688772265768,-1.4564980554
1385569248226015711,-0.605062400669,-0.555627045047,-0.114955112664,-0.0063679770929,0.00712544210469,-1.45630834742
1385569248236060423,-0.605078022213,-0.555618486544,-0.114934902504,-0.00619154839775,0.00713807050742,-1.45601240438
1385569248246065791,-0.605057845719,-0.555626577066,-0.114975542611,-0.00616571801496,0.0069463227791,-1.45658657434
1385569248256074122,-0.605066737818,-0.555630968605,-0.114994301049,-0.00606825911285,0.00688760710137,-1.45680261774
1385569248266101201,-0.605065168085,-0.555620192175,-0.114960581131,-0.00620746957994,0.00707940404787,-1.45612877909
1385569248276068822,-0.605058383073,-0.555624776936,-0.114959497167,-0.00618888773916,0.00706530133428,-1.45620091324
1385569248286066289,-0.605059623918,-0.555618756987,-0.114976960003,-0.00618763683042,0.00697654890427,-1.4568396617
1385569248296089124,-0.605055192262,-0.555653346598,-0.114972815338,-0.00630421570334,0.00719789699144,-1.45665617737
1385569248306023806,-0.605055748551,-0.555623728523,-0.114974967423,-0.0063704690795,0.00717324931073,-1.45604655409
1385569248316018551,-0.605042330837,-0.55563943263,-0.11494603732,-0.00605585076006,0.00696522512165,-1.4565333032
1385569248326050029,-0.605098283253,-0.555644588885,-0.115045139462,-0.00601967290905,0.00775488790671,-1.4568029236
1385569248336133010,-0.60506613562,-0.555624128378,-0.114984077983,-0.00615841812684,0.00695275264162,-1.4563524309
1385569248346115998,-0.605062763421,-0.555617198797,-0.114979101558,-0.00626391041896,0.00693683085406,-1.45610071989
1385569248356108670,-0.605067272539,-0.555617228282,-0.114962621586,-0.00612620823796,0.0070013927598,-1.45665882854
1385569248366070687,-0.605067618006,-0.555632565256,-0.11496876849,-0.00616629669547,0.007097666357,-1.45657685106
1385569248376121864,-0.605061139014,-0.555622822256,-0.114976552243,-0.00631432802005,0.00701079724981,-1.45605178972
1385569248386199559,-0.605050093888,-0.555623914215,-0.114981745859,-0.00622430499216,0.00690261950525,-1.45650264029
1385569248396110397,-0.605060221619,-0.555639027009,-0.114960245927,-0.00611629360699,0.00704771562632,-1.4567361447
1385569248406020164,-0.605063841369,-0.555624310149,-0.114981459621,-0.00612015812922,0.00706467968386,-1.45635565621
1385569248416114882,-0.605119805926,-0.555649151543,-0.11494610727,-0.0062001558902,0.00756747527535,-1.45607000802
1385569248426065057,-0.60508556434,-0.555626290012,-0.114973812646,-0.00595947385265,0.00688999669055,-1.45662389944
1385569248436061020,-0.605074261092,-0.555631018854,-0.114962383483,-0.00619216424349,0.0070593313035,-1.45661094273
1385569248446055641,-0.605065224955,-0.555626904247,-0.114970572391,-0.00620644919785,0.00700621651036,-1.4562147453
1385569248456047994,-0.605067655774,-0.555627530145,-0.114990274803,-0.00608295122038,0.00690439910629,-1.45637108154
1385569248466049689,-0.60506872251,-0.555631356677,-0.114986873193,-0.00607176616817,0.00689346467109,-1.4565793056
1385569248476102663,-0.605070125435,-0.55559605949,-0.115017756606,-0.00640771530543,0.00717480554525,-1.45627111848
1385569248486184523,-0.6050620067,-0.555624246128,-0.114966331966,-0.00621933903693,0.00699108365306,-1.45631741055
1385569248496120112,-0.605063111951,-0.55562371761,-0.114972270939,-0.00620643323028,0.00698415429628,-1.45659165484
1385569248506391967,-0.605073661102,-0.555636485533,-0.114972917921,-0.00618771228501,0.00704109967096,-1.45635286406
1385569248516110237,-0.605052883721,-0.555649673463,-0.114918590222,-0.00582898861956,0.00679638558241,-1.45651107199
1385569248526172133,-0.60507052517,-0.555627651347,-0.114956994508,-0.00621244736431,0.00700835709899,-1.45658359437
1385569248536166848,-0.60506143315,-0.555630406073,-0.114970926379,-0.00618241722362,0.00695109726406,-1.45637482482
1385569248546083774,-0.605062812693,-0.555628220646,-0.114967468548,-0.00627657510197,0.00705028225927,-1.45615154029
1385569248556104645,-0.605062288891,-0.555625671695,-0.114957441189,-0.0062636065171,0.00703026105835,-1.4566110496
1385569248566159649,-0.605060668736,-0.555638198804,-0.114953734841,-0.00618561501894,0.0071030025488,-1.45667740201
1385569248576093289,-0.605060757878,-0.555615404699,-0.114974210028,-0.00623270772517,0.00697266572917,-1.45612833109
1385569248586074060,-0.60509119667,-0.555611711698,-0.115016096712,-0.00647150605163,0.0073103324462,-1.45633827527
1385569248596106513,-0.605067107845,-0.555614615459,-0.114959723461,-0.00603997712888,0.00702678329197,-1.45675671653
1385569248606088286,-0.605072542339,-0.55563017618,-0.114967284963,-0.00599922177446,0.00695856647431,-1.45657329012
1385569248616072611,-0.605061473897,-0.555625261549,-0.114941265433,-0.00602396464914,0.00688578120762,-1.4560655298
1385569248626074031,-0.605066568541,-0.555621335252,-0.114967160655,-0.00620809575014,0.00709375087226,-1.45650571602
1385569248636053518,-0.605061076381,-0.555633857233,-0.11498062179,-0.0061953179649,0.0069535057907,-1.4567120179
1385569248646049167,-0.605060822803,-0.55561999541,-0.114980658078,-0.00624650990121,0.00706788459861,-1.45636708136
1385569248656096243,-0.605075969876,-0.555629038462,-0.114986443438,-0.00597451006323,0.00704633541558,-1.45633027378
1385569248666069156,-0.605071903705,-0.55561120862,-0.115004464172,-0.00574817021065,0.00696603382734,-1.45635197156
1385569248676051099,-0.605045896473,-0.55561990237,-0.115036308083,-0.00578950393423,0.00700593612434,-1.45654972086
1385569248686046180,-0.605052508428,-0.555588507267,-0.115048020042,-0.00587386488166,0.00680606660962,-1.45653588646
1385569248696105373,-0.605065670586,-0.555633215466,-0.115003978277,-0.00607015767962,0.00700278231042,-1.45626211285
1385569248706009825,-0.605044053353,-0.555606124778,-0.114954290938,-0.00645903852986,0.00692752354779,-1.45628911832
1385569248716061804,-0.605070255873,-0.555624340058,-0.114983921766,-0.00651226504639,0.00693644034657,-1.4570896182
1385569248726064457,-0.605116010539,-0.555656796843,-0.115089887647,-0.00604760221878,0.007787234329,-1.45648832835
1385569248736114156,-0.605037762061,-0.555600116367,-0.115041026483,-0.00565916548311,0.00706107837128,-1.45610535689
1385569248746100712,-0.6050343996,-0.55560340168,-0.115039957476,-0.00503992302352,0.00694625412581,-1.4573028679
1385569248756138279,-0.605041876689,-0.555572873967,-0.114996561434,-0.00514845154887,0.00703608932878,-1.45677004905
1385569248766323217,-0.605013218077,-0.555594588047,-0.115017887865,-0.00590302042345,0.00706292588119,-1.45640694418
1385569248776103002,-0.605056281524,-0.555630165149,-0.1150413207,-0.00624068701892,0.0069334978692,-1.45739010346
1385569248786083754,-0.605070822868,-0.555612961148,-0.115030176283,-0.00618000311068,0.006896578096,-1.45659313377
1385569248796079091,-0.605052945692,-0.555606449612,-0.115027769262,-0.00610709592141,0.00689680372309,-1.45668326865
1385569248806084925,-0.605070106678,-0.555622792234,-0.115028117117,-0.00549991264124,0.00677582053935,-1.45730480068
1385569248816137484,-0.605054143625,-0.555569815418,-0.115040910642,-0.00530666863917,0.00699843051067,-1.45620235289
1385569248826087321,-0.605042405848,-0.555581952483,-0.115049483599,-0.00570840655146,0.00699357691057,-1.45685959275
1385569248836083223,-0.605113097893,-0.555621535528,-0.115136428522,-0.00567677257336,0.00734104866533,-1.45720267304
1385569248846072248,-0.605068852326,-0.555572188858,-0.115030347309,-0.00604676224408,0.00685002659515,-1.45621315591
1385569248856087391,-0.605075161204,-0.555585567384,-0.115021182422,-0.00633507940535,0.00696338790061,-1.45703697569
1385569248866076634,-0.605099124224,-0.555599390078,-0.114998661473,-0.00558831167142,0.00686130262475,-1.4569917964
1385569248876082212,-0.605060560864,-0.555554548529,-0.11504426025,-0.00588945368592,0.00686680394432,-1.45635142792
1385569248886093287,-0.605082933827,-0.555581052752,-0.115056207844,-0.00615976131536,0.00662155404683,-1.45719010211
1385569248896112098,-0.605093246161,-0.555569132593,-0.11503600353,-0.00593279439287,0.00699036235347,-1.45662203975
1385569248906082677,-0.605113058754,-0.555671020953,-0.11511164928,-0.00611028640206,0.00802766922605,-1.45668445661
1385569248916080393,-0.605087435918,-0.555597238473,-0.115013272187,-0.00597910543811,0.00696266782089,-1.45726312266
1385569248926076439,-0.60512547902,-0.555558259152,-0.115117328744,-0.00548673449247,0.00762831954305,-1.45645487909
1385569248936138222,-0.605071788921,-0.555563470124,-0.115029092274,-0.00575103016195,0.00690455631465,-1.45645101917
1385569248946108125,-0.605136782304,-0.555595942639,-0.11499608466,-0.00587979153778,0.00754870593184,-1.45714627671
1385569248956148110,-0.605055858939,-0.555550058209,-0.115020608247,-0.00589665694815,0.00681281659205,-1.45610568913
1385569248966119559,-0.605096497138,-0.555550063646,-0.115054081542,-0.00657401714427,0.007012751362,-1.45657214842
1385569248976075030,-0.605095882418,-0.555588959964,-0.114984600532,-0.00595953826287,0.0070211658418,-1.45707825349
1385569248986097597,-0.605122019351,-0.555570041029,-0.115071825347,-0.0055792006752,0.00764238719172,-1.45613532387
1385569248996082492,-0.605099524252,-0.55560652622,-0.115106844097,-0.00588635137923,0.00771556376805,-1.4568927398
1385569249006003828,-0.605092138178,-0.555575506784,-0.115044551778,-0.00590475238036,0.00701492620042,-1.45675382409
1385569249016035037,-0.605150209766,-0.555547552443,-0.114940589254,-0.00594323730756,0.00743329034424,-1.45569835561
1385569249026014828,-0.605096881235,-0.555591750974,-0.114963583648,-0.00639275679885,0.00698145622189,-1.45683495302
1385569249036064245,-0.605115209134,-0.555557688661,-0.114997783768,-0.00629154470974,0.0071638387082,-1.45633936937
1385569249046054102,-0.605072811745,-0.555544474561,-0.114997264199,-0.00604318137746,0.00677866193535,-1.45597215162
1385569249056064244,-0.605051952633,-0.55559221714,-0.11502448424,-0.00598988959922,0.00681756675607,-1.45693174523
1385569249066066056,-0.605040429001,-0.555523685384,-0.114995685851,-0.00525070247391,0.00685820829327,-1.45605082528
1385569249076050369,-0.605076755175,-0.555545794165,-0.114998433954,-0.00545172505965,0.00695318214027,-1.45615859679
1385569249086126277,-0.605151528875,-0.555608632182,-0.114988172588,-0.00596014678165,0.00714538680427,-1.45692036743
1385569249096101360,-0.605077592072,-0.555518256586,-0.115002304899,-0.00551874085663,0.00682810849144,-1.45584804663
1385569249106037113,-0.605085747126,-0.555547382234,-0.115019352511,-0.00610069994523,0.00722076990137,-1.45622933656
1385569249116023454,-0.605106115462,-0.555564842835,-0.115010246683,-0.005960322463,0.00692987297259,-1.4568447016
1385569249126097930,-0.605091519368,-0.555517037683,-0.115005295075,-0.00563414991741,0.00663604789344,-1.45582802763
1385569249136137840,-0.605096740008,-0.5555649708,-0.115015222023,-0.0060484058945,0.00700574010832,-1.45655614065
1385569249146120987,-0.605101536101,-0.555566420318,-0.115007731747,-0.0056461612805,0.00713436470115,-1.45642558566
1385569249156229656,-0.605121493746,-0.555510043187,-0.114952337727,-0.00545397661851,0.00723129239503,-1.45571839315
1385569249166079513,-0.605091729263,-0.555577121715,-0.114986034311,-0.00577579729675,0.00685494377416,-1.45691965744
1385569249176067327,-0.605108682943,-0.555552561537,-0.115067787903,-0.00568208323421,0.00680120907265,-1.45624557649
1385569249186059127,-0.605092708589,-0.555529396685,-0.115035325017,-0.00595909571135,0.0067097782536,-1.45579133921
1385569249196050996,-0.605104995916,-0.555577284793,-0.114957525356,-0.00606474076996,0.006972607781,-1.45681332019
1385569249206058164,-0.605070357697,-0.555544506159,-0.114924272112,-0.00585838121177,0.00716523161931,-1.45603026495
1385569249216073047,-0.605095098925,-0.55554150813,-0.114997328383,-0.00608021761229,0.00685106154865,-1.456103649
1385569249226061981,-0.605123785719,-0.555608093342,-0.115106510307,-0.0060046806189,0.00632420151194,-1.45697797698
1385569249236063487,-0.605100053918,-0.555511308623,-0.115004586689,-0.00512007185326,0.00686415916309,-1.45583575635
1385569249246046091,-0.605077209999,-0.555537976542,-0.114929731071,-0.00536061317805,0.00719113719567,-1.45632371011
1385569249256049636,-0.605090133069,-0.555549769064,-0.115016912374,-0.0057292601697,0.00715147458366,-1.45657036138
1385569249266048950,-0.605105541747,-0.55553435759,-0.115031837934,-0.00612368950441,0.00660169948743,-1.45575715109
1385569249276034688,-0.605113177573,-0.555588009677,-0.115013740652,-0.00661960287836,0.00672077268583,-1.45667417546
1385569249286055487,-0.605146750484,-0.555579574607,-0.115054380607,-0.00576452232604,0.00780460920595,-1.45634360759
1385569249296078481,-0.605100460221,-0.555514317703,-0.114989404946,-0.00537412895523,0.00702412848916,-1.45569273716
1385569249306077319,-0.605150441741,-0.555601278246,-0.115075074773,-0.00515299062836,0.00740237083828,-1.45659226702
1385569249316008267,-0.605100692839,-0.555541982544,-0.114996765835,-0.00551679229156,0.0067923132109,-1.4560734502
1385569249326051227,-0.605115280607,-0.55554748546,-0.114985111014,-0.0059670785452,0.00714383259715,-1.45624983148
1385569249336112914,-0.605102191586,-0.555588338199,-0.114982330532,-0.00628769309926,0.00667669901474,-1.45639974538
1385569249346066022,-0.605116267578,-0.555543619098,-0.11499596616,-0.00599488675003,0.00670024478652,-1.45587650236
1385569249356080087,-0.605134414112,-0.555583720177,-0.115064784941,-0.00582196455111,0.00785321199473,-1.45650453528
1385569249366321889,-0.605136386688,-0.555527962846,-0.114994939439,-0.00526918818366,0.00703906493075,-1.45612184262
1385569249376099062,-0.605161910629,-0.555556642086,-0.115107519239,-0.00477617434452,0.00740679558214,-1.45648442202
1385569249386061859,-0.605072631948,-0.555538645482,-0.115036105451,-0.00513766882394,0.00681249930546,-1.45644327321
1385569249396081286,-0.605211204346,-0.555523930571,-0.114980592374,-0.00538849597332,0.00754007616125,-1.45613503376
1385569249406092413,-0.605147040273,-0.55551129132,-0.114990581059,-0.00599112675538,0.00667583402688,-1.45655781215
1385569249416067481,-0.605172742779,-0.555541752067,-0.114951990185,-0.00660366717519,0.00703069736176,-1.45607867667
1385569249426053144,-0.605165851212,-0.555537503532,-0.114968623471,-0.0056871933891,0.00688986913975,-1.45660831917
1385569249436055679,-0.605150691886,-0.55551969227,-0.114984237513,-0.00486668952408,0.00722658865291,-1.45644075858
1385569249446114624,-0.605130121066,-0.555550552862,-0.115012426772,-0.0048177657341,0.00662911837355,-1.45627223047
1385569249456049294,-0.60514746508,-0.555514917157,-0.114988429582,-0.00511032969388,0.00723791366267,-1.45698937456
1385569249466100358,-0.605151064831,-0.555526131669,-0.114970165885,-0.00557542868531,0.00706679746993,-1.45608350853
1385569249476049572,-0.605173661123,-0.555546551175,-0.114991844653,-0.0061388996145,0.00658383771708,-1.45679094557
1385569249486068910,-0.605129751322,-0.55551391134,-0.11505811342,-0.00572244598767,0.00666403210774,-1.45697547917
1385569249496057786,-0.60512884156,-0.555529524522,-0.115093620533,-0.00497481139638,0.00759471644577,-1.45652218581
1385569249506058028,-0.605132952454,-0.555519699356,-0.114982478302,-0.00513560227245,0.00720367569955,-1.45745466417
1385569249516074568,-0.605132321571,-0.555520562951,-0.114987279772,-0.0050966991452,0.00652996617198,-1.45667155347
1385569249526094795,-0.605184298626,-0.555561753926,-0.115043275283,-0.00569172001215,0.00679075921204,-1.4574046721
1385569249536135472,-0.605155349234,-0.555541903096,-0.115045502978,-0.00574637034431,0.00669245995449,-1.4577018343
1385569249546162826,-0.605160050873,-0.555563899452,-0.115010861476,-0.00558961765051,0.0066948812041,-1.45726133055
1385569249556155706,-0.605152382443,-0.555513468247,-0.115002936466,-0.00520513883931,0.00710770757938,-1.45811965848
1385569249566188268,-0.605165338021,-0.555508707874,-0.115056008029,-0.00495538199545,0.00683690770149,-1.4575536075
1385569249576075176,-0.60517228171,-0.555586734509,-0.115054696777,-0.00545497455839,0.00641118160318,-1.45809672343
1385569249586079672,-0.605226404038,-0.555523354624,-0.115008771029,-0.00574661591585,0.00653160240612,-1.45857218477
1385569249596144487,-0.605180218053,-0.555576154792,-0.114982520894,-0.0058130129926,0.0071553670342,-1.45791707492
1385569249606015778,-0.605178535989,-0.555568269915,-0.115033471652,-0.00557274963635,0.0068373232411,-1.45852794679
1385569249616066976,-0.605130975553,-0.555581015389,-0.115054134657,-0.00539257642859,0.00657100577355,-1.45799667737
1385569249626083909,-0.60513913168,-0.555566604084,-0.11504542552,-0.0050875780137,0.00662965447766,-1.45849353123
1385569249636076066,-0.605180733202,-0.555495466207,-0.115070759315,-0.00504901288922,0.00782114204205,-1.45874359528
1385569249646057722,-0.60519029296,-0.555488276883,-0.115062225172,-0.00531085216192,0.00770968516676,-1.45885190067
1385569249656053643,-0.605218401397,-0.555524762123,-0.115160602384,-0.00590397713683,0.00744842489883,-1.45932506486
1385569249666046163,-0.605338091838,-0.555561928157,-0.115057157401,-0.00685156396381,0.00687975630499,-1.45967177241
1385569249676101680,-0.605392071557,-0.555675798791,-0.114867366492,-0.00668412147989,0.00645358314231,-1.45977985675
1385569249686076802,-0.605401719922,-0.555616266725,-0.114928425911,-0.00574262967483,0.00703010402808,-1.46033868536
1385569249696137068,-0.605424870557,-0.555639279851,-0.11495987949,-0.00630083864654,0.00694662943463,-1.46012669867
1385569249706053525,-0.605495312224,-0.555741084468,-0.115196261467,-0.00590836580025,0.00712285535847,-1.46011446147
1385569249716058698,-0.605392245649,-0.555614250995,-0.115224698394,-0.00518359623726,0.00730011101152,-1.46067849979
1385569249726044252,-0.605544263095,-0.555689624137,-0.115064206193,-0.00453867189924,0.00773773926694,-1.4603169424
1385569249736124294,-0.605554959146,-0.555641878561,-0.115064832011,-0.00455851825611,0.00741824713633,-1.46137801714
1385569249746054465,-0.605429316155,-0.555570086576,-0.115211261732,-0.00517927123943,0.00726359450984,-1.46079554781
1385569249756060908,-0.605572891579,-0.55558921288,-0.115242814251,-0.00587873781326,0.00710001515816,-1.46121125536
1385569249766082697,-0.605588647544,-0.555487234376,-0.115164038693,-0.00588571855092,0.00714318809088,-1.46137767488
1385569249776087640,-0.605475292059,-0.555563378297,-0.115196077008,-0.00569746028249,0.00673061689949,-1.4608134564
1385569249786079962,-0.605644544952,-0.555406180913,-0.115118107688,-0.00505122709847,0.00786747490387,-1.46207747905
1385569249796067397,-0.605547300009,-0.555535381621,-0.115153953758,-0.0052028446395,0.00730937434291,-1.4616112341
1385569249806128677,-0.60553569927,-0.555432287407,-0.115219528139,-0.00513265046432,0.00641082441131,-1.4625489065
1385569249816068127,-0.605539882755,-0.555504742667,-0.115226905952,-0.0049110838242,0.00696788900452,-1.4620997359
1385569249826081242,-0.605715743972,-0.555402299331,-0.115085983752,-0.00479784281,0.00838248756342,-1.46234807094
1385569249836115146,-0.605620774754,-0.555433373887,-0.11507459379,-0.00534061640411,0.00787983114514,-1.46201327003
1385569249846048523,-0.605650289179,-0.55538657139,-0.115184737588,-0.00501693739324,0.00703222959771,-1.46253439311
1385569249856075870,-0.605685929844,-0.555362826552,-0.115173422082,-0.00439349473142,0.00741542339244,-1.46269262103
1385569249866127231,-0.605699022271,-0.555304233166,-0.115207034558,-0.00396461057583,0.00748024856465,-1.46302404492
1385569249876049770,-0.605707732653,-0.555173677147,-0.115044229409,-0.00449646509586,0.00749177296033,-1.46309246332
1385569249886086966,-0.605714066627,-0.555147894905,-0.115047782719,-0.0058758901262,0.00744853138134,-1.46333353804
1385569249896076396,-0.605863666275,-0.55504527789,-0.115219149118,-0.0065499539955,0.00630858179602,-1.46459463628
1385569249906092543,-0.605953548433,-0.555157463043,-0.11529531639,-0.00726968906254,0.00620016438123,-1.46512520499
1385569249916054305,-0.60617007098,-0.555001536308,-0.115071469892,-0.00667023162868,0.00743369427695,-1.46584946163
1385569249926261991,-0.606122101945,-0.55495284648,-0.114833535253,-0.00623447361638,0.00752299655198,-1.46597351287
1385569249936325657,-0.606319452258,-0.554872642996,-0.115100602027,-0.00537787990307,0.0079118820784,-1.46685525051
1385569249946117552,-0.606487389837,-0.554824584936,-0.115276204665,-0.00525297230083,0.00633185012066,-1.46769767704
1385569249956108473,-0.606531325056,-0.55485031646,-0.115255611494,-0.00463702515554,0.00627593567493,-1.46850699921
1385569249966150242,-0.606687795402,-0.554756094351,-0.114961230893,-0.00467930939664,0.00643923295434,-1.46946038713
1385569249976075238,-0.606875669133,-0.554757582052,-0.115020594344,-0.00512687272572,0.00736672351127,-1.47104906455
1385569249986040111,-0.607008694469,-0.554541064529,-0.115349561647,-0.00611208735331,0.00898116366549,-1.47207539756
1385569249996235650,-0.607265765756,-0.554541143062,-0.115309303192,-0.0069167425842,0.00764922019165,-1.47362708498
1385569250006178974,-0.607407426165,-0.554436692224,-0.114960409432,-0.00772230665605,0.00956828436812,-1.47448246599
1385569250016063853,-0.607494014504,-0.554381914141,-0.114994027424,-0.00661859769721,0.00558564090275,-1.47554592932
1385569250026070325,-0.607715281665,-0.554209306325,-0.115083638776,-0.0063248047453,0.00622748181105,-1.47624282356
1385569250036104417,-0.60788660518,-0.554075857831,-0.11512338544,-0.00623439238673,0.00792905189658,-1.4777409879
1385569250046060912,-0.608122840885,-0.553903796274,-0.115200339483,-0.00593465199625,0.00786657267423,-1.47862093628
1385569250056064877,-0.608349736879,-0.553964420019,-0.115189007923,-0.00574246530533,0.00736193312648,-1.48121265855
1385569250066085755,-0.608650342129,-0.553826553769,-0.115301848348,-0.00641576991671,0.00598782295424,-1.48187008274
1385569250076108108,-0.608825606225,-0.553629010029,-0.115101999349,-0.0071168023428,0.00752331999366,-1.48312388328
1385569250086146328,-0.608999108141,-0.553371428505,-0.115305148865,-0.00797320636807,0.00799602286858,-1.48384432673
1385569250096366582,-0.6091219597,-0.553179446629,-0.115225661964,-0.00745073312831,0.00659656661215,-1.48543838186
1385569250106058014,-0.609235999116,-0.553103247617,-0.11501518164,-0.00795625832481,0.00695619413864,-1.48641735326
1385569250116220320,-0.609337028275,-0.552823817683,-0.114769987167,-0.00785624307858,0.00746659974253,-1.48685292236
1385569250126059875,-0.609416806813,-0.552777521301,-0.115169476297,-0.00744534501543,0.00741772832095,-1.48765209771
1385569250136559967,-0.609494728561,-0.55247406177,-0.115329676139,-0.00672317918248,0.00810298972032,-1.48889124729
1385569250146099522,-0.609576949965,-0.552450730593,-0.115039084982,-0.00588577405175,0.00667352641915,-1.48899784003
1385569250156156840,-0.609649246002,-0.552229989915,-0.114789121697,-0.00600607731794,0.00720342269343,-1.49046035822
1385569250166235712,-0.609776349989,-0.552281669342,-0.115225190393,-0.00609972202592,0.00722108591949,-1.49134936405
1385569250176125915,-0.609863455176,-0.55215548734,-0.115475581037,-0.00586970614415,0.0060981327567,-1.49241644492
1385569250186083733,-0.609986414463,-0.552051977029,-0.115219148467,-0.00574064953695,0.0075224784877,-1.49334436214
1385569250196162890,-0.610028545249,-0.551702737197,-0.114955498652,-0.0061403049249,0.0114582014811,-1.49455350106
1385569250206276496,-0.610203772196,-0.551767906713,-0.115167412593,-0.0055806780613,0.00852970012604,-1.49539642929
1385569250216101943,-0.610276688795,-0.551692169382,-0.115418189811,-0.0056331426993,0.00508922538235,-1.49744217969
1385569250226096262,-0.610557369357,-0.551457150837,-0.115144637377,-0.00581330440436,0.0052690919295,-1.49779058115
1385569250236239806,-0.610758520977,-0.55125911626,-0.114896931457,-0.00670847673341,0.00669507504188,-1.49989606055
1385569250246122413,-0.61102369502,-0.551030624358,-0.115124357887,-0.00692035967156,0.00785250211792,-1.50067648862
1385569250256116436,-0.61122354184,-0.550791629798,-0.115463236658,-0.0064095099503,0.00824878284205,-1.50263387531
1385569250266093249,-0.611401658291,-0.55052608514,-0.115345654071,-0.00625005444229,0.0085680221391,-1.50405020333
1385569250276085028,-0.611636810629,-0.550284752137,-0.115016509635,-0.006084630091,0.0074339395676,-1.50538814167
1385569250286047139,-0.611796831791,-0.550024184511,-0.114898070114,-0.00619568354105,0.00577227312725,-1.50638329736
1385569250296182901,-0.612204006949,-0.549790471793,-0.115299664035,-0.00612855495706,0.00769964945656,-1.50806194606
1385569250306064855,-0.612471286128,-0.549551852815,-0.115349619437,-0.00717296543904,0.00931328656795,-1.51012182169
1385569250316118860,-0.612828836972,-0.549401542163,-0.11513182909,-0.00847443719119,0.00898431376027,-1.51148475873
1385569250326097771,-0.613147112383,-0.549210047085,-0.114959206184,-0.00903595644381,0.00840147494667,-1.5132450689
1385569250336175907,-0.613597908207,-0.548917238472,-0.115115197561,-0.00829916748157,0.0054215757831,-1.5138157213
1385569250346091714,-0.613803913717,-0.548714633665,-0.115553090642,-0.00722335404262,0.005639390378,-1.5152312854
1385569250356191520,-0.614107069182,-0.548420279669,-0.115471873277,-0.00593341868834,0.00635022807352,-1.51717425584
1385569250366287659,-0.614486228236,-0.548186954071,-0.115468446906,-0.00568764675302,0.00587025659296,-1.51973976195
1385569250376124118,-0.614732778715,-0.547883094622,-0.11588297025,-0.00445837740011,0.00661407588749,-1.52220749411
1385569250386094347,-0.615147922035,-0.547628744831,-0.11600895105,-0.00397214727157,0.00604354057728,-1.52426758869
1385569250396119451,-0.615486828043,-0.547341087487,-0.116133228013,-0.0021696797624,0.00574847493112,-1.52638388487
1385569250406113569,-0.615793054674,-0.547038436514,-0.116506657401,0.00102626294645,0.00548844107035,-1.5282102404
1385569250416392627,-0.616288830396,-0.546759677675,-0.116964486732,0.00277177468272,0.00645135774205,-1.53069634708
1385569250426235635,-0.616832837621,-0.546394503806,-0.117763551928,0.00605878465242,0.00565407497709,-1.53249439887
1385569250436107188,-0.617046997413,-0.546013047702,-0.117989055005,0.00799407947294,0.00666193148152,-1.53602392187
1385569250446181532,-0.617483789967,-0.545644675304,-0.118504161398,0.0119862146341,0.00612671932185,-1.53784999749
1385569250456105774,-0.617940911382,-0.545238165291,-0.11917215342,0.0134381363991,0.00554807312999,-1.54076109855
1385569250466111844,-0.618235038662,-0.544745465781,-0.120012175184,0.0165067908534,0.00425193349253,-1.54298909432
1385569250476093555,-0.618682863186,-0.544355016747,-0.120780379,0.0195088549921,0.00474302830173,-1.54566724954
1385569250486048919,-0.619142859211,-0.543956070547,-0.121550310604,0.0212507802796,0.00502074302484,-1.5471477148
1385569250496054165,-0.61959552547,-0.543433947982,-0.122356938677,0.0222379310676,0.00315361997854,-1.54828003953
1385569250506047908,-0.619893708437,-0.542933260658,-0.123469012868,0.0249195447228,0.00314123185375,-1.54933146083
1385569250516074090,-0.620104500064,-0.542446118718,-0.124390235509,0.0268413314855,0.00183196186962,-1.55107388164
1385569250526167075,-0.620359634859,-0.541971078801,-0.125539363659,0.0282308318798,0.00322248121928,-1.55259744314
1385569250536098846,-0.620578007974,-0.54145228495,-0.126848449881,0.0299538813286,0.00243468818463,-1.55312852354
1385569250546076036,-0.62056554385,-0.540964660333,-0.127938196119,0.0307657441741,0.00286477480446,-1.55481845069
1385569250556159023,-0.620735486628,-0.540381061082,-0.129231670219,0.0318365713035,0.00230419281452,-1.55571187637
1385569250566097208,-0.62082633026,-0.539839925477,-0.130598348292,0.0316735198817,0.00149127116471,-1.55772566475
1385569250576183516,-0.620842620112,-0.539470397657,-0.132009933165,0.0311152631732,0.00102314704666,-1.55887761951
1385569250586085373,-0.620823977647,-0.539061926985,-0.133908018609,0.032261917117,0.000346098179422,-1.55955566198
1385569250596107123,-0.620643322176,-0.538375969041,-0.135543968541,0.0326367144318,-0.000635989698869,-1.56009487284
1385569250606123189,-0.620657149407,-0.537959553519,-0.137470402868,0.032879748149,-0.00148088884522,-1.56027773115
1385569250616101107,-0.620441771522,-0.537338589558,-0.139409542503,0.0325586471797,-0.00324725037579,-1.56083284972
1385569250626116638,-0.620227183192,-0.53678929162,-0.141618748256,0.0319063761996,-0.0048043526924,-1.56123882283
1385569250636129591,-0.619884081952,-0.536232373375,-0.143700105833,0.0307076245653,-0.00702579731471,-1.56172310633
1385569250646051149,-0.61955182557,-0.535718208305,-0.145978132699,0.0300428899228,-0.00928932128114,-1.56228530157
1385569250656114029,-0.619195855347,-0.535126156043,-0.148192909068,0.0302755029417,-0.0139125061786,-1.56244142517
1385569250666331901,-0.618606708402,-0.534689742557,-0.15109134864,0.0311220256146,-0.0166112649902,-1.56300293554
1385569250676103618,-0.618178968622,-0.53407493392,-0.15352889815,0.0318613889775,-0.0201463226475,-1.56368429134
1385569250686100354,-0.617686114689,-0.533653963423,-0.156307074113,0.0332655077628,-0.0216556856871,-1.56457440029
1385569250696331405,-0.617059072528,-0.533063928996,-0.1591624627,0.0344037322636,-0.0246087751727,-1.56560088633
1385569250706077077,-0.616763466441,-0.532722779328,-0.162145083092,0.0350129838714,-0.0269191938995,-1.56703846255
1385569250716162670,-0.616060094816,-0.532278404687,-0.165153645809,0.0356169105371,-0.029101413887,-1.5676737293
1385569250726104697,-0.615619202089,-0.531901034079,-0.168188390288,0.0353062356341,-0.0306252115895,-1.56879251679
1385569250736518316,-0.614785550357,-0.531526745327,-0.171500865365,0.0367813588487,-0.0321322250028,-1.56933706141
1385569250746116718,-0.614008125894,-0.531280445072,-0.174791728095,0.0374451016133,-0.0338570763142,-1.57010583668
1385569250756154764,-0.6133989993,-0.531018868102,-0.17828531697,0.0389876138323,-0.0364852117267,-1.57112133121
1385569250766267322,-0.612493916756,-0.530916144631,-0.181643684324,0.0396162886698,-0.0365459144766,-1.57249642786
1385569250776186410,-0.611725059296,-0.530869659897,-0.185073400838,0.0403099336757,-0.0375428191132,-1.57288264021
1385569250786169021,-0.610748933469,-0.530715077073,-0.188605665599,0.040847636403,-0.0392471682453,-1.57362969689
1385569250796052038,-0.609803490005,-0.530808560219,-0.192181615442,0.0413518022626,-0.0407883861522,-1.57433546996
1385569250806378783,-0.608936017773,-0.530852350496,-0.195924581066,0.042736934,-0.0406885340728,-1.57489029823
1385569250816206613,-0.607956241778,-0.530893825587,-0.199586840167,0.0429284802867,-0.0407430147124,-1.57518071619
1385569250826279510,-0.607090941816,-0.53102755638,-0.203334826443,0.043149245336,-0.0399948660898,-1.5757621856
1385569250836135780,-0.605991782287,-0.531282528908,-0.207259152232,0.043407472739,-0.0386357684315,-1.57574491227
1385569250846218412,-0.604839857285,-0.531457173422,-0.211146675445,0.0455369693154,-0.0377940870175,-1.57564156639
1385569250856277265,-0.603780823824,-0.531791877225,-0.215094641552,0.0479330157484,-0.036165300805,-1.57627343813
1385569250866180704,-0.60250467919,-0.532136358468,-0.219236970192,0.0488833831176,-0.0336094421583,-1.57632336377
1385569250876190705,-0.60148360814,-0.532534984939,-0.223322012773,0.049535709622,-0.0311007634791,-1.57714500439
1385569250886079994,-0.600359435743,-0.532878393913,-0.227312077193,0.0485092154449,-0.0286157953685,-1.57759230071
1385569250896162246,-0.599043246514,-0.533309199777,-0.231552700245,0.0488767469601,-0.026278078416,-1.57776519957
1385569250906077416,-0.597786173073,-0.533819638319,-0.235666765178,0.0482276639818,-0.0228456456866,-1.57801868801
1385569250916092371,-0.596485027549,-0.534292215461,-0.239844026182,0.0477524886788,-0.0212332891471,-1.57796273693
1385569250926117557,-0.595045359544,-0.534905690092,-0.244065354764,0.0474534677047,-0.0184396674382,-1.57819986688
1385569250936165428,-0.593832515008,-0.535461456685,-0.24823934028,0.046560003966,-0.0148836245817,-1.57892382224
1385569250946086233,-0.592350283519,-0.535976444332,-0.25251038905,0.0460912003696,-0.0122028842422,-1.57894165389
1385569250956258845,-0.590904200182,-0.536558808587,-0.256728447096,0.0458498186034,-0.0101889306361,-1.57941540776
1385569250966222009,-0.589422879044,-0.537100760066,-0.261041790257,0.0460766151589,-0.0068574203561,-1.57995497438
1385569250976118300,-0.587837831662,-0.537590989845,-0.26536443438,0.0449195094629,-0.00266251980583,-1.58012055326
1385569250986101559,-0.586540634283,-0.538165081816,-0.269492472477,0.0434379270144,0.00162101720737,-1.5806673285
1385569250996102007,-0.584909514754,-0.538769810999,-0.273845906848,0.0407301110943,0.00491257040712,-1.58113666192
1385569251006169820,-0.583482482043,-0.539320721696,-0.278215343385,0.0383027773653,0.00784436217545,-1.58147945598
1385569251016079256,-0.58202483601,-0.539913079793,-0.282463168252,0.0360169168094,0.0119639426692,-1.58167424574
1385569251026072985,-0.580506788696,-0.540469976418,-0.286746914927,0.0324043859695,0.0147144469305,-1.58119567581
1385569251036088911,-0.578911276401,-0.541105903477,-0.291098786083,0.0297033951817,0.0177277565972,-1.58132740274
1385569251046090897,-0.577368599805,-0.541669997678,-0.295429521267,0.0271898601866,0.0191621287391,-1.58104712128
1385569251056074732,-0.575610428531,-0.542240774042,-0.299826765169,0.0247146241601,0.020706843785,-1.58106700647
1385569251066094510,-0.573954461087,-0.542849366629,-0.304120323878,0.0232547222651,0.0229160469986,-1.58126067287
1385569251076090858,-0.57223421002,-0.543312324954,-0.308614801527,0.0211957900268,0.0249563437288,-1.58072713088
1385569251086084299,-0.570593195994,-0.543956188943,-0.313191464883,0.019646766879,0.0274101518486,-1.58097450574
1385569251096094589,-0.568863330327,-0.544477708929,-0.317448420083,0.0179236805667,0.0300440851814,-1.58080738391
1385569251106080895,-0.567033877196,-0.544970051389,-0.322157441046,0.0180293518974,0.0314814224995,-1.58036314256
1385569251116111365,-0.565297265849,-0.545361827391,-0.326646052628,0.0170057266864,0.0325227190314,-1.58088096938
1385569251126045626,-0.56364723255,-0.545798355436,-0.330958817189,0.0149414818757,0.03396291373,-1.58098746537
1385569251136174892,-0.561810877681,-0.546187373512,-0.33567212854,0.014386081507,0.035919798705,-1.58085418731
1385569251146053366,-0.560039004854,-0.546620147768,-0.340323494883,0.013282173932,0.0385004771046,-1.58096226515
1385569251156084130,-0.558386422293,-0.546963662252,-0.344883236533,0.0122385443585,0.0396716722498,-1.58058931968
1385569251166072812,-0.556673630756,-0.547347225509,-0.349384337524,0.0120229919334,0.0397187710915,-1.58033126299
1385569251176148184,-0.554774946016,-0.547622010697,-0.354035412739,0.0114487292961,0.0405765576482,-1.5800171203
1385569251186116827,-0.552985767622,-0.547948156107,-0.358750079165,0.0113788427215,0.0415266742041,-1.58035173679
1385569251196370590,-0.551375603786,-0.548138282795,-0.363395927849,0.0109463992639,0.0419736703193,-1.58049562419
1385569251206169330,-0.549522387341,-0.548403265195,-0.368270152314,0.0112503359951,0.0431723987401,-1.58056775575
1385569251216047380,-0.547715532516,-0.548622564698,-0.373045839204,0.0109675123174,0.0442612935354,-1.58121548833
1385569251226298616,-0.545963352955,-0.548673891822,-0.377912236556,0.0116634590973,0.0439052618301,-1.58085175437
1385569251236098225,-0.544194501891,-0.548709870184,-0.382965642169,0.0115899388285,0.0458717351219,-1.58064797906
1385569251246152545,-0.542535643985,-0.549008912774,-0.387902624794,0.0125937084213,0.0448784524051,-1.58095259842
1385569251256048946,-0.540614780898,-0.548976793084,-0.393230258297,0.0140782810837,0.0444179457264,-1.58101139341
1385569251266083777,-0.538828687873,-0.549068885792,-0.398318976544,0.0146962788234,0.043385728549,-1.58124474727
1385569251276133932,-0.537162756123,-0.549148778541,-0.403104075635,0.0148181327772,0.0430105115472,-1.58167364648
1385569251286091480,-0.535390952604,-0.54902766605,-0.407728971144,0.014529702725,0.0427244856377,-1.58138319621
1385569251296095504,-0.53370986238,-0.548924615278,-0.412280921463,0.0143730372109,0.0410085384196,-1.58222753165
1385569251306122922,-0.532017020358,-0.548900678434,-0.416730513697,0.0135267736168,0.0402506145105,-1.58212497797
1385569251316107436,-0.530247987709,-0.548861150949,-0.420911681294,0.0129112448216,0.0391654429723,-1.5820212656
1385569251326098502,-0.528663766805,-0.548782905584,-0.425027523249,0.0126355777731,0.0386951939275,-1.58275728258
1385569251336365537,-0.526836633462,-0.548617827185,-0.429094662928,0.0132054696199,0.0374252036733,-1.58261751327
1385569251346085925,-0.525149671434,-0.548500355006,-0.432855946002,0.0117195813242,0.0368922484193,-1.58293125795
1385569251356113140,-0.523636951668,-0.548330737005,-0.436621484259,0.0114778191681,0.0360877041135,-1.58280566062
1385569251366128440,-0.521818051001,-0.548242317521,-0.440096690693,0.0108515575087,0.0343630597636,-1.5833090487
1385569251376057254,-0.520248950337,-0.547915778834,-0.443464125784,0.0104451662751,0.0343467107745,-1.58339336702
1385569251386071854,-0.518483036369,-0.547747018057,-0.446927421889,0.0106735593275,0.0333266390544,-1.58322237936
1385569251396075039,-0.516770665355,-0.547553525461,-0.450146705427,0.0106011640053,0.0334326935996,-1.58365567589
1385569251406091213,-0.515026450622,-0.54723297833,-0.452929020179,0.010817823692,0.0307687648633,-1.58350915685
1385569251416084321,-0.51338762015,-0.54707226448,-0.455846065524,0.0105302588502,0.0309652826053,-1.58387203756
1385569251426071542,-0.511776601837,-0.546603851004,-0.458414773643,0.0105244855959,0.0285698702265,-1.58429006019
1385569251436039700,-0.509978290348,-0.546329055272,-0.461152991465,0.011053441725,0.0284152642286,-1.58417358357
1385569251446088403,-0.508610258161,-0.546108449108,-0.463265873527,0.010207182499,0.0262599246457,-1.58459802982
1385569251456069838,-0.506712335975,-0.545808604467,-0.46572955847,0.0103381209192,0.0262111085429,-1.58433294597
1385569251466070172,-0.5051581951,-0.545429418117,-0.467856471302,0.0101150115693,0.0261536834843,-1.58459525836
1385569251476077559,-0.503431454665,-0.545251828975,-0.469655189119,0.00875356365557,0.0234754794969,-1.58512751645
1385569251486079172,-0.501855574024,-0.544889710927,-0.471593170888,0.00941372151985,0.0225133927982,-1.58448647573
1385569251496126150,-0.500177594799,-0.544508387334,-0.473395554055,0.00963465151748,0.0218266821016,-1.58487147268
1385569251506081137,-0.498503212082,-0.544187730894,-0.475025372564,0.00910348854034,0.0199317458119,-1.5847300018
1385569251516078281,-0.496818166301,-0.543745154655,-0.476410246571,0.00901822483407,0.0195835919709,-1.58490164231
1385569251526037158,-0.495363216606,-0.543459061671,-0.477740574174,0.00795089212557,0.0185210938148,-1.58528008449
1385569251536077078,-0.493738171595,-0.543003294213,-0.479092615351,0.00711670426446,0.0145879995742,-1.58476868167
1385569251546060181,-0.492154556016,-0.542756427505,-0.480073775625,0.00685314988726,0.0150281991791,-1.58536272257
1385569251556017661,-0.490391821175,-0.542332578366,-0.481148341389,0.00737057238032,0.0134612966735,-1.58532554606
1385569251566058404,-0.488791579243,-0.542169826125,-0.482065937143,0.00656772133544,0.0144972112689,-1.5859061195
1385569251576112952,-0.487294254291,-0.541561130099,-0.482709870467,0.00658543963315,0.0104918571548,-1.58552534039
1385569251586055482,-0.485610235837,-0.541250357216,-0.483269538318,0.00689223884041,0.00971802397988,-1.58547656657
1385569251596128353,-0.483950995425,-0.540860919545,-0.483821380741,0.00659574964304,0.00925419848899,-1.58579672799
1385569251606054731,-0.482351299336,-0.540608654835,-0.484241500504,0.00657694180493,0.0102569836903,-1.58612035258
1385569251616016734,-0.480749745715,-0.540116985565,-0.484382477736,0.00628142315216,0.00757991106149,-1.58683152059
1385569251626065792,-0.479125167047,-0.539917549211,-0.48470144203,0.00656723114383,0.00787064719443,-1.58659011037
1385569251636090225,-0.477567409737,-0.539447017906,-0.484686917703,0.00702099983767,0.00695604708183,-1.58617237188
1385569251646082374,-0.475907095861,-0.539143675793,-0.48468823033,0.00733452579568,0.00635708107879,-1.58569857152
1385569251656052634,-0.474324537979,-0.538755318325,-0.484545930251,0.00732759187889,0.00591364770753,-1.5860354607
1385569251666071092,-0.472726046885,-0.538412380317,-0.484301152638,0.00748052641803,0.00575154098975,-1.58639048655
1385569251676135005,-0.471230395796,-0.538075440142,-0.483895625818,0.00762647465433,0.00553244410182,-1.58648013724
1385569251686066437,-0.469552826472,-0.537743213274,-0.483550000733,0.0080175548061,0.00572722435666,-1.58683640508
1385569251696082854,-0.467869245086,-0.537378090895,-0.482961845537,0.00843723908521,0.00440799776382,-1.58676966652
1385569251706056012,-0.466340893978,-0.537051908173,-0.482387232654,0.0091277254931,0.00385592882733,-1.58745395868
1385569251716080343,-0.464489167115,-0.536753646619,-0.481685175644,0.0101476856897,0.00756634861744,-1.5882035487
1385569251726063427,-0.462892398227,-0.536517672784,-0.480919076473,0.0109039683322,0.00673463794512,-1.58844051278
1385569251736139087,-0.461289813634,-0.536071826877,-0.479995680954,0.0113130063043,0.00634710023313,-1.58921394477
1385569251746096626,-0.459726601673,-0.535878842968,-0.47908905214,0.0114086274573,0.00616182797508,-1.58909605406
1385569251756074654,-0.458072151401,-0.535361277444,-0.478000319164,0.0122771054807,0.00598542406658,-1.58889355781
1385569251766059559,-0.456536862723,-0.535145302817,-0.477005696766,0.0131478248327,0.00419696830997,-1.58879536569
1385569251776025917,-0.454883276132,-0.53491867223,-0.476005265054,0.0137041254418,0.00436595788888,-1.58904259324
1385569251786016906,-0.453318906485,-0.534507237446,-0.474772063308,0.0143651886173,0.0039418791413,-1.58878228075
1385569251796177510,-0.451724749639,-0.534367438421,-0.473481300683,0.0139346157815,0.00421721796561,-1.58902822902
1385569251806078349,-0.450032481046,-0.53407607612,-0.472194731665,0.0145531534027,0.00325274899011,-1.58891354831
1385569251816064889,-0.448430556803,-0.533782880282,-0.470883225521,0.0150748041435,0.00338286414225,-1.58947620531
1385569251826077012,-0.446832410605,-0.533522126648,-0.469688767837,0.0154404301121,0.00490071567386,-1.58958389316
1385569251836038932,-0.44509014811,-0.533191494233,-0.468035231024,0.0156285186813,0.00546191638451,-1.58990099072
1385569251846052646,-0.443459666074,-0.533025769749,-0.466551117518,0.0163195719721,0.00491792440564,-1.58997050377
1385569251856114467,-0.441882930674,-0.532811428073,-0.465196324288,0.0166387079096,0.00422180262855,-1.58996314622
1385569251866066254,-0.440208628423,-0.532664166278,-0.463669453884,0.0163848401197,0.00464745207115,-1.59066644128
1385569251876061667,-0.43873147856,-0.532336168139,-0.461877047459,0.0155701125568,0.0015066039317,-1.5899539453
1385569251886064109,-0.437041166606,-0.532149085315,-0.460449041028,0.0157369044316,0.00212870350832,-1.58976123422
1385569251896109143,-0.435366597921,-0.532077467085,-0.458699091378,0.0149387058083,0.00145410151498,-1.59096341498
1385569251906059661,-0.433549705322,-0.53165945813,-0.457077342895,0.016778326107,0.00291385956966,-1.59073038455
1385569251916093365,-0.432077753049,-0.53156815133,-0.455273096624,0.0146847841847,-0.000158505113987,-1.59079671013
1385569251926038029,-0.430326087109,-0.531489863743,-0.453675606161,0.014731286527,1.6421286654e-05,-1.59048903547
1385569251936066097,-0.428704469011,-0.531310990489,-0.451826483048,0.0138829220606,-0.00132987396348,-1.59035693206
1385569251946052316,-0.427025789726,-0.531207922099,-0.450034192998,0.0137131199813,-0.00183917426688,-1.5908157396
1385569251956065926,-0.425342958215,-0.531043637242,-0.448301686099,0.012718382304,-0.00299022529275,-1.59123447896
1385569251966108569,-0.42357776874,-0.530939489006,-0.446556843374,0.0126005723121,-0.00269554161505,-1.59194497667
1385569251976049161,-0.422052519425,-0.53077488664,-0.444679557558,0.0118298193398,-0.00416233208305,-1.59160660886
1385569251986045297,-0.420265499292,-0.530902829075,-0.443072908685,0.0115400632953,-0.00298792171135,-1.59186163347
1385569251996121635,-0.418626694029,-0.530680826738,-0.441144745165,0.0105668271854,-0.00425988726906,-1.59184039241
1385569252006057111,-0.416808007043,-0.53071233347,-0.439517127543,0.0104476001412,-0.00410905091188,-1.59209177728
1385569252016055913,-0.415081891657,-0.530447153294,-0.437617361416,0.0106004494781,-0.00557153967902,-1.59217439186
1385569252026061569,-0.41352645774,-0.530571719663,-0.435997688673,0.00972982119913,-0.00525751673629,-1.59240294014
1385569252036120615,-0.411716564024,-0.530404633762,-0.434109610426,0.00945523902842,-0.00548347159317,-1.59286871209
1385569252046101559,-0.409989945439,-0.530596439452,-0.432471734084,0.0100292758403,-0.00442126861024,-1.59253091467
1385569252056065645,-0.408222085565,-0.530469717166,-0.430708255645,0.0116540000886,-0.00358054776806,-1.59205494406
1385569252066063588,-0.406367386369,-0.530471533128,-0.428834392869,0.0111934948142,-0.00283969955441,-1.59269124051
1385569252076068878,-0.404684550526,-0.530536471577,-0.427081332554,0.0114331676251,-0.003949715915,-1.59293929449
1385569252086067359,-0.403108388341,-0.530552061398,-0.425470998524,0.0111554170038,-0.00498829954318,-1.59242607451
1385569252096150412,-0.401260184512,-0.530640636758,-0.423789149852,0.0116620143951,-0.00476402511171,-1.59268715011
1385569252106107812,-0.399589344547,-0.530685985043,-0.422369948108,0.0118259194326,-0.00470018019794,-1.59270665337
1385569252116011125,-0.397711828596,-0.530777687806,-0.420626071162,0.011974849347,-0.00489996521525,-1.5925173528
1385569252126099121,-0.396122368514,-0.530853291643,-0.419068778168,0.0120499064551,-0.0049260055068,-1.59275041486
1385569252136099161,-0.394246311299,-0.531070698869,-0.417718390557,0.0118371627034,-0.00388391550545,-1.59329208755
1385569252146323924,-0.392578017391,-0.531085214718,-0.416047582186,0.0119312997728,-0.00448320153615,-1.59366856079
1385569252156091502,-0.390884623605,-0.531183530781,-0.414603442957,0.0119597538655,-0.00430257611769,-1.59389193571
1385569252166113884,-0.389014501215,-0.531385550293,-0.412955845998,0.0112999540001,-0.00353400906814,-1.59365924867
1385569252176067949,-0.387368713757,-0.531476953184,-0.411667314174,0.0113229818703,-0.00293093830484,-1.59418147187
1385569252186052341,-0.385589475419,-0.531724891805,-0.410461502916,0.0107674603079,-0.00385862616277,-1.59385390376
1385569252196059898,-0.383867230199,-0.531728656108,-0.408987730819,0.00982926071182,-0.00319894724057,-1.59446756283
1385569252206115073,-0.38222600341,-0.532073175332,-0.407912822494,0.00954366422618,-0.00180668490483,-1.59470579755
1385569252216000499,-0.380452814342,-0.532328763873,-0.406652297815,0.00928800329064,-0.00256121664329,-1.59484263008
1385569252226068731,-0.378676652107,-0.532426467756,-0.405304191669,0.00880680410955,-0.00217013314038,-1.59551320438
1385569252236066634,-0.376968519988,-0.532598676965,-0.404458741759,0.0097996693617,-0.000971378015047,-1.59533168458
1385569252246119639,-0.375207097364,-0.532990075898,-0.403370921489,0.00862096416253,-0.00278000248415,-1.59562793892
1385569252256065164,-0.373373988757,-0.533186870412,-0.402285426615,0.0109840438603,-0.00194649027684,-1.59513332548
1385569252266085451,-0.37143895905,-0.533662972799,-0.401430839321,0.0105781578628,-4.44055331742e-05,-1.59611755065
1385569252276063673,-0.369874330678,-0.533817798999,-0.400414337499,0.0112931461383,-0.00171953007388,-1.59608059278
1385569252286076088,-0.368099576949,-0.5341096724,-0.399684583486,0.0110930413253,-0.00198888014577,-1.59599315173
1385569252296127004,-0.366249916454,-0.534429069871,-0.398751792378,0.0110830338906,-0.00230165562276,-1.59661459367
1385569252306275968,-0.364665013421,-0.534765406236,-0.398080563571,0.0114857763702,-0.00226027681913,-1.59667201889
1385569252316122635,-0.362786280717,-0.535180297828,-0.397455755162,0.0115055308099,-0.0017272671273,-1.59654523897
1385569252326059843,-0.360917494354,-0.5353953581,-0.396684107045,0.0115276389537,-0.00280429179114,-1.59639521067
1385569252336064756,-0.359332100598,-0.535912396148,-0.396125679187,0.0109172925397,-0.00135075197275,-1.59711775124
1385569252346094356,-0.3574374486,-0.536438480902,-0.395600159833,0.0107657925629,-0.00332577070654,-1.59720896192
1385569252356065569,-0.355702409126,-0.536580546564,-0.394957922003,0.0110510107678,-0.0037958908389,-1.59737980974
1385569252366080949,-0.354082808775,-0.537102486898,-0.394566497467,0.0107237315276,-0.00475357494386,-1.59753069105
1385569252376122021,-0.352244351666,-0.537578170071,-0.394058789628,0.00991683073757,-0.00577498978303,-1.59776358133
1385569252386045329,-0.350506473879,-0.537875929488,-0.393907098196,0.00948419611315,-0.00467861898436,-1.59755762075
1385569252396040647,-0.348678891683,-0.538397490946,-0.393342515329,0.00887385497807,-0.00650092631302,-1.59738391174
1385569252406187286,-0.347024753914,-0.538746111313,-0.392884166173,0.00788968020781,-0.00698313859269,-1.59747517391
1385569252416091567,-0.345321959759,-0.539338358287,-0.392649315067,0.00712177575985,-0.00751997017264,-1.59736819796
1385569252426042959,-0.343450830667,-0.539866408132,-0.392453708696,0.00668649620615,-0.00688715617949,-1.59840945863
1385569252436105775,-0.34188845106,-0.540318014575,-0.392175132334,0.00727854075338,-0.0067165359618,-1.59817432842
1385569252446101922,-0.340095487013,-0.540822992745,-0.391968874726,0.00701158541436,-0.00621528060917,-1.59854204838
1385569252456090948,-0.338234030791,-0.541264014953,-0.391828935061,0.00705659689055,-0.00589415453171,-1.5984947918
1385569252466083850,-0.336759161724,-0.541769158217,-0.391859046013,0.00772660494042,-0.00541172111809,-1.59865073825
1385569252476050201,-0.334882418515,-0.542504958199,-0.391757397525,0.00679708603807,-0.00518755871919,-1.59893191255
1385569252486087546,-0.333137656032,-0.543027670112,-0.391663652567,0.0069066541944,-0.00557159172092,-1.59854056325
1385569252496075881,-0.33175125986,-0.543654905859,-0.391639953185,0.00516245910144,-0.00576712166972,-1.599703304
1385569252506110097,-0.329865776129,-0.544177221877,-0.391698345863,0.00548854846757,-0.00619733735133,-1.5999851985
1385569252516078063,-0.328319011849,-0.544807323039,-0.391840734619,0.00472540327482,-0.00585794407264,-1.60010239309
1385569252526073911,-0.326628870233,-0.545497366909,-0.39192188254,0.00362812417764,-0.00613457678592,-1.60001362672
1385569252536155462,-0.325054817526,-0.546185861062,-0.392104982076,0.00225670928447,-0.00640639715381,-1.60019455374
1385569252546336430,-0.323582897875,-0.546900512464,-0.392086448849,0.00198461350369,-0.0053762247696,-1.60007360719
1385569252556248416,-0.321863792941,-0.547611896825,-0.392651817422,0.000865267161926,-0.00822440170187,-1.6003739442
1385569252566243610,-0.320381739358,-0.54819366823,-0.392824465377,0.00155128717227,-0.00889152507389,-1.60031934271
1385569252576106638,-0.318546618543,-0.548924699421,-0.392937917451,0.00195311146858,-0.00814897864831,-1.60095292218
1385569252586214686,-0.316900007707,-0.54952772442,-0.393401399476,0.00278126554098,-0.00691374855492,-1.60185646518
1385569252596171902,-0.315348422385,-0.550391671237,-0.393714463593,0.00299568601601,-0.00690337951493,-1.60183526592
1385569252606228061,-0.313733203911,-0.550975994343,-0.39395150897,0.00235430627421,-0.00730795318937,-1.60191225915
1385569252616235535,-0.312077623302,-0.551648569636,-0.394534337572,0.00313229824679,-0.00629698409643,-1.6018379152
1385569252626297287,-0.310662151267,-0.552511932381,-0.394845600264,0.00311398521536,-0.00676611579896,-1.60174608544
1385569252636489115,-0.30904289792,-0.553248523454,-0.395264228097,0.00194296031866,-0.00635563868424,-1.60242275568
1385569252646259187,-0.307509564172,-0.554118025325,-0.395913605453,0.00237869360023,-0.00549436020309,-1.60252750167
1385569252656083828,-0.305993667931,-0.554847739883,-0.396421216329,0.00256310736985,-0.00588174383066,-1.60253928597
1385569252666147631,-0.30431519427,-0.555571696079,-0.397254146668,0.00350489338613,-0.00528281391416,-1.60298345943
