%time,field.linear.x,field.linear.y,field.linear.z,field.angular.x,field.angular.y,field.angular.z
1385568059093685738,-0.0,0.0,0.0,1.0,0.0,0.0
1385568059133248591,-0.0,0.0,3.6489769245e-08,1.0,0.0,0.104693428311
1385568059184119176,-0.103336808075,0.00792989482602,-0.00996284851577,1.0,0.0,0.00637895151979
1385568059234161235,-0.0825504442514,0.00629668412279,-0.0117655478795,1.0,0.0,0.0468003625275
1385568059283189887,-0.103474542774,0.00785178500882,-0.0120252956756,1.0,0.0,0.0258270272609
1385568059333094329,-0.104975501493,0.00792231726408,-0.0118580912474,1.0,0.0,0.0322743363011
1385568059383115402,-0.110159558573,0.00827194351338,-0.0114550110977,1.0,0.0,0.0267144528814
1385568059433404820,-0.11084969292,0.00826850074367,-0.0108641177628,1.0,0.0,0.026654302946
1385568059483184729,-0.110434856216,0.00821660413265,-0.010100256569,1.0,0.0,0.0245251574799
1385568059533564944,-0.108071875081,0.00796102436875,-0.00917319521972,1.0,0.0,0.0235131297927
1385568059583257292,-0.104482889877,0.00764577512558,-0.00810721201717,1.0,0.0,0.0222150118399
1385568059633219050,-0.0997813829604,0.00725444120427,-0.00691490811541,1.0,0.0,0.0212222570275
1385568059683285481,-0.0942923084176,0.00677831499989,-0.00559875382457,1.0,0.0,0.0202561772051
1385568059733570678,-0.0882294918584,0.00636300209092,-0.00419359313396,1.0,0.0,0.0193775543422
1385568059783285876,-0.0818306414653,0.0056894217735,-0.00263690811172,1.0,0.0,0.0186898038689
1385568059833316498,-0.0752334868567,0.00524193897442,-0.000997301744308,1.0,0.0,0.0179466803219
1385568059883134619,-0.068632064484,0.00458874992714,0.000708128632849,1.0,0.0,0.0174369090984
1385568059933093412,-0.062144921827,0.00411870180559,0.00250554719599,1.0,0.0,0.0168610101091
1385568059983438428,-0.0558880911906,0.00354395328153,0.00441470626243,1.0,0.0,0.0164119511588
1385568060033336293,-0.0499714372648,0.0031423501284,0.0063594083733,1.0,0.0,0.0159552734759
1385568060083393604,-0.0444389534909,0.00265200416802,0.00838990333896,1.0,0.0,0.0155918318968
1385568060133162092,-0.0393608038292,0.00228226305613,0.0104876210229,1.0,0.0,0.0152298723902
1385568060183163694,-0.0347556910471,0.00185349579688,0.0126394904379,1.0,0.0,0.0149543758194
1385568060233484575,-0.0306430090331,0.00159137053206,0.0148820849288,1.0,0.0,0.0146330939529
1385568060283222400,-0.0270639451759,0.00124930882522,0.0171224313036,1.0,0.0,0.0144386698514
1385568060333363089,-0.0239665928665,0.00101159281683,0.0194386604572,1.0,0.0,0.0141941481548
1385568060383233902,-0.0213658542404,0.000819661686413,0.0217966365015,1.0,0.0,0.0139907981509
1385568060433289079,-0.019208235127,0.000734225136975,0.024187142547,1.0,0.0,0.0137711778287
1385568060483207789,-0.0175078928813,0.000490303057196,0.0266337921312,1.0,0.0,0.0136263890125
1385568060533345991,-0.0161810129278,0.000460468256879,0.0291103971212,1.0,0.0,0.0134520574092
1385568060583440029,-0.0152995764266,0.000397717371741,0.0316023573114,1.0,0.0,0.0133194306586
1385568060633388444,-0.0147325263913,0.000322793437534,0.0340990476518,1.0,0.0,0.0131809360528
1385568060683145937,-0.0143874238864,0.000267953159436,0.0366435898815,1.0,0.0,0.0130614225885
1385568060733214759,-0.0142509545526,0.000351629854956,0.0392923181328,1.0,0.0,0.012929750467
1385568060783552547,-0.0143605769515,0.000320855025505,0.0419551019201,1.0,0.0,0.0128199349098
1385568060833351767,-0.014689183213,0.000377593687167,0.0445955901398,1.0,0.0,0.0127076049788
1385568060883141547,-0.0151290356548,0.000453922626665,0.0472783123769,1.0,0.0,0.0126010961789
1385568060933420769,-0.015757875272,0.000430622648643,0.0499599616171,1.0,0.0,0.0125163312762
1385568060983348375,-0.0164283484258,0.000603355488866,0.05264537568,1.0,0.0,0.0124131974144
1385568061034313517,-0.0170897589821,0.000564443960731,0.0553922397523,1.0,0.0,0.0123653625498
1385568061083265941,-0.0178709500352,0.000715256667568,0.0581475411661,1.0,0.0,0.0122239262809
1385568061134249792,-0.018707987231,0.000741473944243,0.0608749849473,1.0,0.0,0.0121986068384
1385568061183239645,-0.0193291161724,0.000818523719305,0.0636803008731,1.0,0.0,0.0120449979335
1385568061233383891,-0.0202471108914,0.000945545177409,0.0664286589092,1.0,0.0,0.0119409008601
1385568061284148959,-0.0208673391817,0.000887635091257,0.0692607720593,1.0,0.0,0.0119117955615
1385568061333452339,-0.0216751983683,0.000762082304954,0.0720450596678,1.0,0.0,0.0119765933303
1385568061383317735,-0.0222872741363,0.000850211671788,0.0748403293651,1.0,0.0,0.011971066932
1385568061433169297,-0.0226008341522,0.000934316100695,0.0777003749445,1.0,0.0,0.0117992495194
1385568061483456349,-0.023042975328,0.00107617277326,0.0805337459111,1.0,0.0,0.0117043119247
1385568061533195301,-0.0233844934241,0.000970609459784,0.0833504864506,1.0,0.0,0.0116560997317
1385568061583154900,-0.0236035327171,0.00118246418036,0.0861767658113,1.0,0.0,0.0114593394484
1385568061633165066,-0.0237343458208,0.00137810617039,0.0890090530292,1.0,0.0,0.0112497284538
1385568061683397579,-0.023519858619,0.00161494622477,0.0919455613907,1.0,0.0,0.0108985048339
1385568061733095540,-0.0235395391341,0.00111576351989,0.0948200279781,1.0,0.0,0.0102884996477
1385568061783218345,-0.023174741929,0.00171462765923,0.0976788627657,1.0,0.0,0.00983022993179
1385568061834388144,-0.0228896173869,0.00139000211829,0.100551673362,1.0,0.0,0.00929261327919
1385568061883462169,-0.0232559549136,0.00183477299725,0.103245466952,1.0,0.0,0.00865074169829
1385568061933166918,-0.0233422891337,0.00110281586142,0.105833560413,1.0,0.0,0.00790347816454
1385568061983502525,-0.0245116442347,0.000982450633282,0.108181119751,1.0,0.0,0.00714772908082
1385568062033436295,-0.0247942574834,-2.74209706462e-05,0.110495375247,1.0,0.0,0.00622702929898
1385568062084082485,-0.0253797905244,-0.00112615489902,0.112640464634,1.0,0.0,0.00568459211995
1385568062134146473,-0.025429024828,-0.00140418640664,0.114634775518,1.0,0.0,0.00497735312718
1385568062184203372,-0.0266581234886,-0.00159540554486,0.11602806023,1.0,0.0,0.00460366153746
1385568062233501335,-0.0284829529962,-0.00126372290231,0.116391364853,1.0,0.0,0.00420334039798
1385568062283629677,-0.0304329370844,-0.00105113475801,0.116730169523,1.0,0.0,0.00389817950961
1385568062333453598,-0.0320024966636,-0.00132758442484,0.116661909639,1.0,0.0,0.00357600292107
1385568062383725264,-0.0326315495502,-0.00201904214984,0.116639370587,1.0,0.0,0.00338840924498
1385568062433568180,-0.0333367176372,-0.00224382557148,0.11650185521,1.0,0.0,0.00310278946327
1385568062483633454,-0.0343413729275,-0.00272390004618,0.116134524297,1.0,0.0,0.00287902708403
1385568062533582213,-0.0362503153108,-0.00299404459792,0.115367060926,1.0,0.0,0.00278242136282
1385568062583889161,-0.0385442914963,-0.00312496459596,0.114230371306,1.0,0.0,0.00257026775633
1385568062633549284,-0.040733724353,-0.00354468722056,0.11292472803,1.0,0.0,0.00245676127452
1385568062683751103,-0.0430156246716,-0.00400244319236,0.111450774602,1.0,0.0,0.00233747881077
1385568062733543829,-0.0457667076651,-0.00388814759166,0.109714711053,1.0,0.0,0.00226967395914
1385568062783427358,-0.0500239419428,-0.00315422499762,0.107009810713,1.0,0.0,0.00226358402547
1385568062833570635,-0.0526889189902,-0.00349147310585,0.104776334536,1.0,0.0,0.00227947832765
1385568062883483633,-0.056939501312,-0.00341018234624,0.102160024411,1.0,0.0,0.00232235538813
1385568062933500935,-0.0612231925366,-0.00360021703153,0.0994530602314,1.0,0.0,0.00240151923747
1385568062983710052,-0.0645020849719,-0.00348364206434,0.097587316796,1.0,0.0,0.00242559315475
1385568063033535774,-0.0675564532407,-0.00336186453155,0.096334042221,1.0,0.0,0.00244889612664
1385568063083537388,-0.07175494478,-0.00345251019474,0.0952727522676,1.0,0.0,0.0025436945525
1385568063133571995,-0.0739727855363,-0.00317300611112,0.0949296011996,1.0,0.0,0.00256089222423
1385568063183694435,-0.0780468814085,-0.0028951713688,0.0951493804143,1.0,0.0,0.0025912962676
1385568063233470841,-0.0802009234541,-0.00252530266564,0.0960511893662,1.0,0.0,0.00259964122289
1385568063283497353,-0.0818742076746,-0.00234649342548,0.0973502298884,1.0,0.0,0.00262551941236
1385568063333495639,-0.084765789454,-0.00197639170878,0.0993049980567,1.0,0.0,0.00254526003368
1385568063383455853,-0.0861250784909,-0.00199981644061,0.101582702552,1.0,0.0,0.00256211550684
1385568063433473375,-0.0867672294425,-0.00197838628381,0.104021330527,1.0,0.0,0.00249345713979
1385568063483509859,-0.0891207612041,-0.00263606144633,0.106835093686,1.0,0.0,0.00254512928776
1385568063533563441,-0.0899034510791,-0.00308294199243,0.10973334781,1.0,0.0,0.00253954938828
1385568063583524650,-0.090487947604,-0.0034074459305,0.112892209252,1.0,0.0,0.00248549705689
1385568063633507540,-0.091031313992,-0.00428687496385,0.115697128084,1.0,0.0,0.00256318872128
1385568063683454193,-0.0919974425525,-0.00505271274125,0.118909123321,1.0,0.0,0.00247647024129
1385568063733645395,-0.0913133699959,-0.00546114919842,0.122023625756,1.0,0.0,0.00259728775062
1385568063783736016,-0.0922659576486,-0.00564130332257,0.125279003434,1.0,0.0,0.00258289573526
1385568063833613660,-0.091316944993,-0.00670692997132,0.12831576067,1.0,0.0,0.00261789272206
1385568063883434092,-0.0907532208398,-0.00778671962585,0.131524207713,1.0,0.0,0.00262665461032
1385568063933555856,-0.0887134239747,-0.0091352533719,0.135087290397,1.0,0.0,0.00263655170109
1385568063983429789,-0.0869864385873,-0.0105237565759,0.138585933292,1.0,0.0,0.00256017264347
1385568064033562514,-0.086138588862,-0.0122665028343,0.141812178826,1.0,0.0,0.00268929672717
1385568064083474772,-0.0849172817247,-0.0132553859569,0.14467368265,1.0,0.0,0.00273592494977
1385568064133605013,-0.0839846493527,-0.014000679972,0.147302314905,1.0,0.0,0.00274393491594
1385568064183507175,-0.0827099102363,-0.0151761656301,0.149046059109,1.0,0.0,0.00285033252388
1385568064233748677,-0.0819387109512,-0.0161773992636,0.150273371446,1.0,0.0,0.00284785814595
1385568064283463018,-0.0800005099092,-0.0168480386449,0.151482255108,1.0,0.0,0.00294867075432
1385568064333503056,-0.0788328505023,-0.0176038218188,0.152451871576,1.0,0.0,0.0029666010665
1385568064383577447,-0.0773155737245,-0.0179355654015,0.153272637262,1.0,0.0,0.00294640180669
1385568064433552882,-0.0767821664751,-0.0184912881954,0.153655063647,1.0,0.0,0.00305694569399
1385568064483653878,-0.075660670554,-0.019136160642,0.153982930141,1.0,0.0,0.00309737608107
1385568064533459500,-0.0747490001655,-0.0198866718288,0.154196781651,1.0,0.0,0.00314498582577
1385568064583508007,-0.0735789904507,-0.0201883870401,0.154387841554,1.0,0.0,0.00317824140253
1385568064633616173,-0.0731192093096,-0.0203604350831,0.154294969404,1.0,0.0,0.0031947156867
1385568064683670393,-0.0726726385591,-0.0204193296176,0.153964650753,1.0,0.0,0.00326108337639
1385568064733507319,-0.0724003717341,-0.0208835632203,0.153460472084,1.0,0.0,0.00325801138173
1385568064783594604,-0.0722454609587,-0.0210147490698,0.152781977899,1.0,0.0,0.00336491516744
1385568064833488693,-0.0720462040064,-0.0206410412429,0.152083390772,1.0,0.0,0.00339718071077
1385568064883471361,-0.0715196151885,-0.0203664388951,0.151464256373,1.0,0.0,0.00343467210142
1385568064933547274,-0.0715740626514,-0.0207119665871,0.150589868253,1.0,0.0,0.00351232099551
1385568064983607344,-0.0712566054253,-0.0202417547672,0.14969903721,1.0,0.0,0.00349623824222
1385568065033496823,-0.071081863788,-0.0199459962801,0.148770292935,1.0,0.0,0.00353612714602
1385568065083507787,-0.0712925261973,-0.0193343282474,0.147660770902,1.0,0.0,0.00352801664383
1385568065133500771,-0.0719241095954,-0.0185942570951,0.146237000758,1.0,0.0,0.00352947483134
1385568065186599717,-0.0724774907813,-0.0182109280106,0.144708325699,1.0,0.0,0.00353033879275
1385568065233538412,-0.0728842395993,-0.0179794890507,0.143200603554,1.0,0.0,0.00357674611619
1385568065283518356,-0.0740112632696,-0.0175210956545,0.14142390956,1.0,0.0,0.00352747378054
1385568065333459368,-0.0743049366232,-0.0174639093356,0.139872994454,1.0,0.0,0.00356912534263
1385568065383528108,-0.0746073182004,-0.0169732548955,0.138480414546,1.0,0.0,0.00361001359492
1385568065433505908,-0.0752484319659,-0.0164655068001,0.136998813819,1.0,0.0,0.00358258650565
1385568065483419086,-0.075836517985,-0.0159523224218,0.135499334995,1.0,0.0,0.0035422358873
1385568065533818927,-0.0762427086787,-0.015488928332,0.134041329522,1.0,0.0,0.00348642788608
1385568065583546543,-0.077073596294,-0.0155296602604,0.132461105032,1.0,0.0,0.00353004558633
1385568065633618502,-0.0775221705805,-0.0149522304765,0.130972532784,1.0,0.0,0.00341807261347
1385568065683733788,-0.0777058317745,-0.0142458941439,0.129631877562,1.0,0.0,0.00340984861611
1385568065733507700,-0.0783107285746,-0.0136542699084,0.128256431849,1.0,0.0,0.00331273192837
1385568065783480299,-0.0784095839418,-0.0130009520986,0.126912009717,1.0,0.0,0.00322604856469
1385568065833550754,-0.0789023220327,-0.0128447736082,0.125498499611,1.0,0.0,0.00315456194954
1385568065883581185,-0.0786548476267,-0.0124831002921,0.124262369411,1.0,0.0,0.00309237131771
1385568065933435792,-0.0791639681842,-0.0125685450685,0.122643094776,1.0,0.0,0.00304048310648
1385568065983540216,-0.0791224198934,-0.0123057166753,0.121190208951,1.0,0.0,0.00296899980428
1385568066033441326,-0.0792539846172,-0.0125007255342,0.119623454297,1.0,0.0,0.00297772234219
1385568066083621412,-0.0795026172461,-0.0123666178097,0.117909210437,1.0,0.0,0.00291257631636
1385568066133519841,-0.0795431610419,-0.0122821076781,0.116148066452,1.0,0.0,0.00287301937445
1385568066183566572,-0.0793952713892,-0.0122559051651,0.114530167625,1.0,0.0,0.00280235829761
1385568066233461193,-0.0795061352794,-0.0121921796216,0.112710733141,1.0,0.0,0.00274290289589
1385568066283441502,-0.0792223228217,-0.0118849927695,0.111053353788,1.0,0.0,0.00263991250072
1385568066333497271,-0.0793305832675,-0.0119727282413,0.109239094072,1.0,0.0,0.0025861993788
1385568066384079419,-0.0787319305983,-0.0115556796961,0.107737662896,1.0,0.0,0.0024246758622
1385568066433458714,-0.0786664142795,-0.0118198591889,0.106075741162,1.0,0.0,0.00241528318497
1385568066483519431,-0.0783820644097,-0.0115716029656,0.10437695432,1.0,0.0,0.00224295386177
1385568066533544307,-0.0780858542931,-0.0117041849229,0.102707114392,1.0,0.0,0.00219744787088
1385568066583502440,-0.0779631770372,-0.0117110083235,0.100923916153,1.0,0.0,0.00208198985369
1385568066633576709,-0.0774949711037,-0.0117249791065,0.0993257759412,1.0,0.0,0.00202488020003
1385568066683762473,-0.0772557683436,-0.0119406646392,0.0976418076856,1.0,0.0,0.00198566418444
1385568066733640763,-0.0768496202992,-0.011818312511,0.0961775770074,1.0,0.0,0.00187524524016
1385568066783496809,-0.0766790613942,-0.012031626927,0.0945735888564,1.0,0.0,0.00181921258125
1385568066833546744,-0.0763617993174,-0.0121535741533,0.0929280878071,1.0,0.0,0.0017785488712
1385568066883505563,-0.0759632850872,-0.0121823336577,0.0915784955317,1.0,0.0,0.00170036374597
1385568066933418059,-0.0757429704788,-0.0126606971224,0.0900168201566,1.0,0.0,0.00171184706482
1385568066983466238,-0.0754836573438,-0.0126722446514,0.0885407623505,1.0,0.0,0.00167695791759
1385568067033801032,-0.0750803800686,-0.012844065643,0.0872552739584,1.0,0.0,0.00165335077589
1385568067083444231,-0.0748135319595,-0.0130686020582,0.085881983819,1.0,0.0,0.00167187250869
1385568067133533183,-0.074618095485,-0.0128858931291,0.0844090154777,1.0,0.0,0.0015744412949
1385568067183529367,-0.0742528431643,-0.0133744776434,0.0831313783228,1.0,0.0,0.00162674981371
1385568067233669067,-0.0741372996964,-0.0131984684776,0.081653232824,1.0,0.0,0.0015646392508
1385568067283597607,-0.0739336841353,-0.0134116193165,0.0801994050245,1.0,0.0,0.00157176972047
1385568067333707060,-0.0736618123847,-0.0136742440939,0.0787601432397,1.0,0.0,0.00160367987824
1385568067383827094,-0.0735144438777,-0.0132587878043,0.0774585207295,1.0,0.0,0.00150581552261
1385568067433451101,-0.0733738810673,-0.0130765565006,0.076124488379,1.0,0.0,0.00144619912898
1385568067483576141,-0.0731055131182,-0.012853075634,0.0749306168535,1.0,0.0,0.00135003198928
1385568067533557769,-0.0729833605,-0.0127562634229,0.0736074692448,1.0,0.0,0.00128332411894
1385568067584440415,-0.0728113833132,-0.0123394237183,0.0724046765585,1.0,0.0,0.00114584811106
1385568067633518718,-0.0724816823691,-0.012212418422,0.0713985902699,1.0,0.0,0.00104783424308
1385568067683543179,-0.0722998945634,-0.011547878881,0.0703107423713,1.0,0.0,0.000842049721162
1385568067733599212,-0.0720898849228,-0.0116648041491,0.0692269552241,1.0,0.0,0.000774485208395
1385568067783522411,-0.0718658750757,-0.0113233750221,0.068142909397,1.0,0.0,0.000618694184509
1385568067833577510,-0.0716322076453,-0.0109125832443,0.0671299783031,1.0,0.0,0.000474075979651
1385568067883538917,-0.0713653083072,-0.0108009961086,0.0660171794069,1.0,0.0,0.000366539256767
1385568067933465060,-0.0711622991474,-0.0104203421148,0.0649573084326,1.0,0.0,0.000213390797973
1385568067983496087,-0.0709107589515,-0.0101887180211,0.0638836610192,1.0,0.0,8.39218781806e-05
1385568068033640641,-0.0705707020073,-0.0098002459974,0.0629183682179,1.0,0.0,-8.56869196384e-05
1385568068083601711,-0.0702164134258,-0.00936314886236,0.0619299706022,1.0,0.0,-0.000278170906519
1385568068133553414,-0.0698477047242,-0.00920343239149,0.060948834202,1.0,0.0,-0.000404843061318
1385568068183534744,-0.0695038165537,-0.00922003277465,0.0600033459215,1.0,0.0,-0.000485611872511
1385568068233554088,-0.0691465539575,-0.00903796825821,0.0589548614821,1.0,0.0,-0.000618934169423
1385568068283545311,-0.0687878396695,-0.00895661385467,0.0579132653488,1.0,0.0,-0.000714958817165
1385568068333491659,-0.0683531879437,-0.00873785886135,0.0569227803604,1.0,0.0,-0.000843586062577
1385568068383539951,-0.0679715385836,-0.00877870829215,0.0560013512934,1.0,0.0,-0.000908679017559
1385568068433562357,-0.0675528245856,-0.00839971494391,0.0551269228897,1.0,0.0,-0.00105696385131
1385568068483634889,-0.067037654203,-0.00821235284839,0.0542616530986,1.0,0.0,-0.00117066628718
1385568068533574265,-0.0667281064331,-0.00799470608314,0.0534076955092,1.0,0.0,-0.00128922196889
1385568068583563170,-0.0662780933258,-0.0078289025084,0.0525316174518,1.0,0.0,-0.00140375760798
1385568068633718079,-0.0657117613648,-0.00766833727208,0.0517180610041,1.0,0.0,-0.00151111465555
1385568068683524972,-0.0653405096804,-0.00740096572145,0.0508748811265,1.0,0.0,-0.00165577334101
1385568068733495685,-0.0648866620613,-0.00756573661166,0.0501246758756,1.0,0.0,-0.00168393102108
1385568068783553994,-0.0644775055326,-0.00726651535665,0.0492802840236,1.0,0.0,-0.001821614563
1385568068833517563,-0.0639165792298,-0.00722779678695,0.0485801607651,1.0,0.0,-0.00188851043462
1385568068883537086,-0.0635391381469,-0.00700780001605,0.0477350228682,1.0,0.0,-0.00200738167999
1385568068933536717,-0.0631463364758,-0.00688886992256,0.0468233463558,1.0,0.0,-0.00209345271712
1385568068983538309,-0.0625854842072,-0.0068152076593,0.0461363140931,1.0,0.0,-0.00215434774122
1385568069033448242,-0.0621744203345,-0.00668984656503,0.045384062493,1.0,0.0,-0.00223353631137
1385568069083551102,-0.0617131170922,-0.00649700497605,0.0446600072977,1.0,0.0,-0.00232759194552
1385568069133459076,-0.0611979958571,-0.00667687149897,0.0438808664328,1.0,0.0,-0.0023558811786
1385568069183539508,-0.0607868700491,-0.00657297084329,0.0431897038816,1.0,0.0,-0.00242002635549
1385568069233528006,-0.0602956585238,-0.00652946163991,0.0425149443294,1.0,0.0,-0.00244029543496
1385568069283647089,-0.0598566501458,-0.00616488918269,0.0420165209088,1.0,0.0,-0.00255097116775
1385568069333571554,-0.0595258129371,-0.00607306038987,0.0413410337346,1.0,0.0,-0.002618614399
1385568069383550575,-0.0590893124141,-0.00610856616253,0.0407453003304,1.0,0.0,-0.00265090293934
1385568069433571914,-0.0587278493608,-0.00593003757332,0.0402199220257,1.0,0.0,-0.002696993991
1385568069483531906,-0.0583435315876,-0.00593415815149,0.0397380374182,1.0,0.0,-0.00272617159317
1385568069533514320,-0.058093342536,-0.00582138516075,0.0390694451199,1.0,0.0,-0.00276699965374
1385568069583475398,-0.0578282725699,-0.00560975115322,0.0384965664108,1.0,0.0,-0.00284291964622
1385568069633505914,-0.0575570457004,-0.00555027421039,0.0380066398072,1.0,0.0,-0.00288806660213
1385568069683554048,-0.0572705554804,-0.00565965924908,0.0375873986883,1.0,0.0,-0.00287502210344
1385568069733568111,-0.0569399287875,-0.00552916838012,0.0372889390871,1.0,0.0,-0.00291864066566
1385568069783486543,-0.0566571675051,-0.00556790181602,0.0370017941955,1.0,0.0,-0.00292094781276
1385568069833458357,-0.0563873771085,-0.00559601205777,0.0366423934461,1.0,0.0,-0.00292780077002
1385568069883431561,-0.0559183827014,-0.00552351998147,0.0363193329175,1.0,0.0,-0.00291521685633
1385568069933497488,-0.0558289761734,-0.00593276579228,0.0359543274668,1.0,0.0,-0.00283908278003
1385568069983492695,-0.0555235889479,-0.00559810689118,0.0355385778447,1.0,0.0,-0.00289474066753
1385568070033635747,-0.0552684308307,-0.00570713241511,0.0351072370768,1.0,0.0,-0.00286299173125
1385568070083909218,-0.054937650782,-0.00577113060325,0.0347252314318,1.0,0.0,-0.00285177355694
1385568070133557514,-0.054660898712,-0.00554670825279,0.0342941072978,1.0,0.0,-0.00289620859507
1385568070183483084,-0.0543612091047,-0.0054390516471,0.033950549407,1.0,0.0,-0.00291598813199
1385568070233557460,-0.0540420092037,-0.00527036132591,0.033556992355,1.0,0.0,-0.00298295148934
1385568070283884476,-0.0537492914043,-0.00502149608438,0.0331448092421,1.0,0.0,-0.00304436515516
1385568070333766690,-0.0536096040589,-0.00451695607275,0.0323568653275,1.0,0.0,-0.00323963784374
1385568070383558813,-0.053045579085,-0.0045010371343,0.0324330475335,1.0,0.0,-0.00325354882261
1385568070433539804,-0.0527403243418,-0.00426664421255,0.0322176539686,1.0,0.0,-0.00336105341695
1385568070483416124,-0.0523085403459,-0.00390333750429,0.0319512307649,1.0,0.0,-0.00349231202447
1385568070533486055,-0.0518508825074,-0.00372622887227,0.0317133899285,1.0,0.0,-0.00357872240361
1385568070584104219,-0.05146410104,-0.0038152432412,0.03140657527,1.0,0.0,-0.00363613216081
1385568070633465426,-0.0510099365234,-0.00336507952849,0.0309802789459,1.0,0.0,-0.00376638716449
1385568070683464199,-0.0505839762917,-0.00338373214959,0.0306258309763,1.0,0.0,-0.00382129301061
1385568070733518237,-0.050093884267,-0.00312906020393,0.0302657510065,1.0,0.0,-0.00392820381233
1385568070783459852,-0.0497942852401,-0.00320934236855,0.0293641041941,1.0,0.0,-0.0039681126711
1385568070833547286,-0.0488262604242,-0.00270932633444,0.0293525299494,1.0,0.0,-0.00406009014458
1385568070883542188,-0.0486855986788,-0.00278999629462,0.0290995075896,1.0,0.0,-0.00410518091373
1385568070933518449,-0.0480755901019,-0.00237795381555,0.0287714925786,1.0,0.0,-0.0042238524025
1385568070983509470,-0.0475750000258,-0.00231148521327,0.0285078395098,1.0,0.0,-0.00428077515049
1385568071033496494,-0.0469622415344,-0.00239294564499,0.028248946023,1.0,0.0,-0.00427765619193
1385568071083555765,-0.0465476245713,-0.00202630999543,0.0280379947392,1.0,0.0,-0.00439662755088
1385568071133623994,-0.0460124404219,-0.00189541253491,0.0277641086247,1.0,0.0,-0.0044482623751
1385568071183474645,-0.045538916878,-0.00172152492765,0.0275043897309,1.0,0.0,-0.00452222344946
1385568071233673355,-0.0450371008151,-0.00155567032987,0.0271880257726,1.0,0.0,-0.0045734245865
1385568071283676077,-0.0445698013154,-0.0015060784873,0.0268368094731,1.0,0.0,-0.00461290278248
1385568071333478562,-0.0440630105694,-0.00148166629348,0.0264334583216,1.0,0.0,-0.00461012425972
1385568071383518173,-0.0436857779737,-0.000976764295764,0.0260215925113,1.0,0.0,-0.00475168690105
1385568071433457191,-0.0431912012037,-0.000956062243428,0.0257072993668,1.0,0.0,-0.00474032060478
1385568071483531204,-0.0427911761207,-0.000660655370231,0.0253781791784,1.0,0.0,-0.00481887021067
1385568071533478355,-0.0423867514373,-0.000346526033806,0.0250471704607,1.0,0.0,-0.00490300070835
1385568071583519509,-0.0420095460366,7.85969950409e-06,0.0247283819187,1.0,0.0,-0.00498318170537
1385568071634099700,-0.0413997906072,0.00025384398606,0.0243079767396,1.0,0.0,-0.00504341724114
1385568071683426455,-0.0414075384707,0.000504845996851,0.0240334089717,1.0,0.0,-0.00511984911348
1385568071733522775,-0.0410151406201,0.00101773336118,0.0237360278707,1.0,0.0,-0.00524341499431
1385568071783737488,-0.0408102863946,0.00133755628282,0.0234391250256,1.0,0.0,-0.00533263963441
1385568071833552965,-0.0405505948874,0.00164243159541,0.0231233690871,1.0,0.0,-0.00542387685304
1385568071883557090,-0.0401014049909,0.00202127093201,0.0227941722104,1.0,0.0,-0.00546254699033
1385568071933609588,-0.0400497878579,0.00236925321896,0.0224387329904,1.0,0.0,-0.00556842215686
1385568071983691418,-0.0397903687874,0.00274777905842,0.0221698480723,1.0,0.0,-0.00563898081687
1385568072033446433,-0.0396622778809,0.00287764299197,0.0218865220772,1.0,0.0,-0.00567421142478
1385568072083476845,-0.0395185403011,0.0032461983973,0.0215867304045,1.0,0.0,-0.00573497143891
1385568072133451323,-0.0395322831375,0.00345089961884,0.0210592955971,1.0,0.0,-0.00581058204339
1385568072183551165,-0.0393677440758,0.00345992448838,0.0205424881856,1.0,0.0,-0.00580200283691
1385568072233521449,-0.0391675595026,0.00373956738384,0.020594327682,1.0,0.0,-0.00583043011633
1385568072283506954,-0.0390609677105,0.00390543106707,0.0203942044784,1.0,0.0,-0.00584555067138
1385568072333452990,-0.0389201562645,0.00390699220577,0.0200043470793,1.0,0.0,-0.0058200963181
1385568072383608851,-0.0388586700842,0.00395735959162,0.0197064956882,1.0,0.0,-0.00579466690119
1385568072433513919,-0.0387053477015,0.00386913890867,0.0193638924048,1.0,0.0,-0.00573619996926
1385568072483427753,-0.0385523467334,0.00387470352631,0.0190110960746,1.0,0.0,-0.00568682538327
1385568072533633812,-0.0384321183895,0.003951604034,0.0187330812213,1.0,0.0,-0.00568475334826
1385568072583646714,-0.0382900413351,0.00384284271492,0.0184568792977,1.0,0.0,-0.00563586187635
1385568072633516509,-0.0380549332937,0.00391986592968,0.0182109623018,1.0,0.0,-0.00564234545526
1385568072683508763,-0.0379201647918,0.00382068080745,0.0179717527373,1.0,0.0,-0.00558650330388
1385568072733523778,-0.0376939043694,0.00373144946211,0.0177706813177,1.0,0.0,-0.00554635654443
1385568072783562591,-0.0375179619507,0.00371022454948,0.0175689568578,1.0,0.0,-0.00552043272837
1385568072833460825,-0.0373405043433,0.00371098457688,0.0173188939697,1.0,0.0,-0.00549590263404
1385568072883497023,-0.0370723010039,0.00367323145059,0.01703850633,1.0,0.0,-0.00546610322225
1385568072933571310,-0.0369380055712,0.00357431803474,0.0168033726774,1.0,0.0,-0.00539886793456
1385568072983555513,-0.036668020971,0.00383872368496,0.0165784862222,1.0,0.0,-0.00544395770828
1385568073033466467,-0.0364081047316,0.00373305671998,0.0162828772499,1.0,0.0,-0.00537209085696
1385568073083501912,-0.0362238089475,0.00376187391012,0.0159234479748,1.0,0.0,-0.00535764136366
1385568073133735279,-0.0358900501999,0.00393867302932,0.0156833682588,1.0,0.0,-0.00533974336695
1385568073183460408,-0.0357493436734,0.00403416406505,0.0154133546503,1.0,0.0,-0.00532411232012
1385568073233620908,-0.0354360004474,0.00435972338369,0.0151355430382,1.0,0.0,-0.00536208311231
1385568073283495147,-0.0354477610558,0.00434045931818,0.0148628194311,1.0,0.0,-0.00532445032095
1385568073333538958,-0.0348635322669,0.00488573321087,0.0147103175063,1.0,0.0,-0.00538895465373
1385568073383547114,-0.0347285764684,0.0048563983508,0.0145029927487,1.0,0.0,-0.00531324175021
1385568073433498305,-0.0344103754574,0.00514660339598,0.0142488074117,1.0,0.0,-0.00532552799768
1385568073483487987,-0.0341167506057,0.00537057977456,0.0140128989111,1.0,0.0,-0.00528237739397
1385568073533586539,-0.0338458994001,0.0056946012852,0.0137892709574,1.0,0.0,-0.00525993182725
1385568073583466876,-0.033556526546,0.00585308224971,0.0135926733222,1.0,0.0,-0.00523109740297
1385568073633459735,-0.0332803140375,0.00597482009034,0.013202962345,1.0,0.0,-0.00514915072813
1385568073683631573,-0.0329859065034,0.00629475400341,0.0129413623046,1.0,0.0,-0.00515269936945
1385568073733545712,-0.0327825222972,0.00631499331717,0.0126306309594,1.0,0.0,-0.00506542453134
1385568073783770059,-0.0325108491199,0.00651028231233,0.012322144267,1.0,0.0,-0.00506001493338
1385568073833468129,-0.0323249588208,0.006689004813,0.0119653692925,1.0,0.0,-0.00503615078988
1385568073883516150,-0.0321116321866,0.00671327041,0.011632690375,1.0,0.0,-0.0049686698035
1385568073933715029,-0.0318789619168,0.00679585885094,0.0113281942538,1.0,0.0,-0.00492251433985
1385568073983494994,-0.0318044495079,0.00663783023772,0.0110661807675,1.0,0.0,-0.00481115985671
1385568074033494353,-0.0317308113549,0.00676903699734,0.0107525944367,1.0,0.0,-0.0047768996038
1385568074083485566,-0.0316598791867,0.00665527930937,0.0105096977303,1.0,0.0,-0.00465768209029
1385568074133622308,-0.0315605945319,0.00649752633387,0.0102606871976,1.0,0.0,-0.00455537175121
1385568074185888523,-0.0316164059192,0.00642596022786,0.00996630295538,1.0,0.0,-0.00445892539087
1385568074233521000,-0.0316000433695,0.00633920827701,0.00979788688627,1.0,0.0,-0.00437122353901
1385568074283523262,-0.0316786446973,0.00626140594846,0.00963348544243,1.0,0.0,-0.00430034735084
1385568074333616754,-0.0316850168979,0.00625541980914,0.00949964510625,1.0,0.0,-0.0042555630014
1385568074383463080,-0.031986817391,0.00600423642212,0.00937724083112,1.0,0.0,-0.0041427271095
1385568074433501098,-0.0319459729415,0.00610094639081,0.00921924956135,1.0,0.0,-0.0041277803857
1385568074483444660,-0.0321358229078,0.00590275442779,0.00908126257215,1.0,0.0,-0.00405406605285
1385568074533504074,-0.0321895541911,0.005898134241,0.00894774451174,1.0,0.0,-0.00404125381141
1385568074583455437,-0.0324253766125,0.00586032916913,0.00887361113313,1.0,0.0,-0.00403586136039
1385568074633584672,-0.0325430700351,0.00571200722701,0.00871807279001,1.0,0.0,-0.00399246357245
1385568074683801483,-0.0326996230333,0.00569592087784,0.00849527912462,1.0,0.0,-0.00396802905167
1385568074733456737,-0.0328514370363,0.00567921765121,0.00832870265684,1.0,0.0,-0.00396368353902
1385568074783596939,-0.0330310838316,0.00565676164741,0.00814896378094,1.0,0.0,-0.00393725392003
1385568074833416327,-0.0331382970656,0.00575586397122,0.00796751143389,1.0,0.0,-0.00395288302836
1385568074883533754,-0.0333672366665,0.00566112884148,0.00785027371236,1.0,0.0,-0.00389087264621
1385568074933911118,-0.0334187297744,0.0057707905073,0.00769448225436,1.0,0.0,-0.0038712414641
1385568074983589037,-0.0336470173795,0.00591124537112,0.0075427740768,1.0,0.0,-0.00386788973891
1385568075033511886,-0.0337733944404,0.00596341394445,0.0073788842781,1.0,0.0,-0.00380076618924
1385568075083446182,-0.0339105507767,0.00614759089118,0.00720915749655,1.0,0.0,-0.00377679948675
1385568075133467306,-0.0339896693069,0.00639674239099,0.00710736273603,1.0,0.0,-0.00375560850753
1385568075183642601,-0.0340715965049,0.00665735738779,0.00699696468963,1.0,0.0,-0.00371550858672
1385568075233442306,-0.034176641551,0.00683361236513,0.00679762548303,1.0,0.0,-0.00363578591731
1385568075283440057,-0.0342529958671,0.00727370942691,0.00672947599277,1.0,0.0,-0.00369627053578
1385568075333522260,-0.034274734362,0.0073838774231,0.00662495083908,1.0,0.0,-0.00358766666357
1385568075383560226,-0.0343405702621,0.00759073630904,0.0065534405697,1.0,0.0,-0.00349181056345
1385568075433433371,-0.03431426883,0.00782157683946,0.00654941385775,1.0,0.0,-0.00338631793992
1385568075483718697,-0.0342950123932,0.00800237026167,0.0064610563753,1.0,0.0,-0.00328936429309
1385568075533766965,-0.0342411483842,0.00818753257495,0.00644202606235,1.0,0.0,-0.00317406717177
1385568075583463601,-0.0341006006224,0.0084941771757,0.00647749656931,1.0,0.0,-0.00306988897705
1385568075633752239,-0.0340693843626,0.00850517575962,0.00647294052894,1.0,0.0,-0.00288889429513
1385568075683543412,-0.0338350635599,0.0089310149748,0.00640436159714,1.0,0.0,-0.00284543008862
1385568075733513146,-0.0338316189084,0.00900024923934,0.00626887403244,1.0,0.0,-0.00273046989188
1385568075783664699,-0.0335672714797,0.00922762218432,0.00618195568311,1.0,0.0,-0.0026180771574
1385568075834477502,-0.0333869027775,0.00938745109526,0.0061793864006,1.0,0.0,-0.00254221943416
1385568075883417555,-0.0331979995525,0.0097725162949,0.00622406899356,1.0,0.0,-0.00251382539941
1385568075933430639,-0.032888368044,0.00984358622888,0.00618028311767,1.0,0.0,-0.00242114026123
1385568075983562260,-0.0325566095475,0.0100623681511,0.00620795029194,1.0,0.0,-0.00236900423706
1385568076033566508,-0.0323075048843,0.0101003508254,0.00617638556246,1.0,0.0,-0.00230232285531
1385568076083483640,-0.0319712185682,0.0101862292415,0.0062284755396,1.0,0.0,-0.00226597690326
1385568076133524718,-0.0316436354315,0.010083141361,0.0062593163831,1.0,0.0,-0.00217221770672
1385568076183462330,-0.0313198534158,0.0102113845402,0.00625897422149,1.0,0.0,-0.00216741996446
1385568076233446158,-0.0307612079635,0.0104242966341,0.00640718021376,1.0,0.0,-0.00219410698771
1385568076283533020,-0.0306191031694,0.0100691787402,0.0064695334189,1.0,0.0,-0.00207617507579
1385568076334088292,-0.0302092504815,0.0100218441764,0.00641792177003,1.0,0.0,-0.00207126597141
1385568076383664012,-0.0299094676481,0.00991948094048,0.00657934239335,1.0,0.0,-0.00204675584099
1385568076433473249,-0.0294291126042,0.00973535360777,0.00656188925739,1.0,0.0,-0.00201499997676
1385568076483552563,-0.02905232272,0.00963644706,0.00663208646038,1.0,0.0,-0.0020075084554
1385568076533567725,-0.028542963796,0.00968699632937,0.00680657319453,1.0,0.0,-0.00202304578668
1385568076583527396,-0.0280839273362,0.00955809795859,0.00695496685579,1.0,0.0,-0.0020390136061
1385568076633512687,-0.0276380165734,0.00956622067655,0.00697828377439,1.0,0.0,-0.0021067840175
1385568076683626836,-0.0271551999181,0.00951378225491,0.00704341089504,1.0,0.0,-0.00210865463631
1385568076733503727,-0.0266592896161,0.00955371627175,0.00704916022371,1.0,0.0,-0.00216885082702
1385568076783601730,-0.0261558351743,0.0094855827179,0.00702487440209,1.0,0.0,-0.0021603247464
1385568076833544015,-0.0257025237069,0.00956461810351,0.00704447835865,1.0,0.0,-0.00220271478494
1385568076883758651,-0.0251784349155,0.00962231559553,0.00713948171706,1.0,0.0,-0.00221148022382
1385568076933439205,-0.0246619183416,0.00975575079581,0.00722558164852,1.0,0.0,-0.00223954228187
1385568076983516751,-0.0241744173539,0.0099905951492,0.0074149093241,1.0,0.0,-0.00228569570504
1385568077033503462,-0.0237124890644,0.0102019271789,0.00748444311604,1.0,0.0,-0.00237696508965
1385568077083690960,-0.0232088296639,0.0104897221668,0.00753699890144,1.0,0.0,-0.00244236395637
1385568077133536703,-0.0226927827445,0.0107758755322,0.00758247679107,1.0,0.0,-0.00255072517051
1385568077183490490,-0.0223249273236,0.0111365871595,0.00764422971418,1.0,0.0,-0.0027020885511
1385568077233618357,-0.0219301203555,0.0111803601862,0.00749793706142,1.0,0.0,-0.00274155385453
1385568077283402336,-0.0215642976657,0.0116026044242,0.00749803695793,1.0,0.0,-0.00288448872549
1385568077333678732,-0.0211399293443,0.0119599384845,0.0074897060955,1.0,0.0,-0.00300045877816
1385568077383547788,-0.0208384284239,0.0122688943263,0.00742607815999,1.0,0.0,-0.00312961607891
1385568077433677189,-0.0205346217438,0.0125350631765,0.00733773282475,1.0,0.0,-0.00320866493127
1385568077483626578,-0.0203043404294,0.0128300307527,0.00717689272507,1.0,0.0,-0.00334052414994
1385568077533575341,-0.0201019013405,0.0130350434546,0.00706024485623,1.0,0.0,-0.00339280005054
1385568077583619974,-0.0198647527073,0.0134887911206,0.00698033700095,1.0,0.0,-0.00353983958871
1385568077633523578,-0.0197453975701,0.013536783475,0.00688307069429,1.0,0.0,-0.00352128767781
1385568077683438812,-0.0196696796708,0.0139446110114,0.00682575824738,1.0,0.0,-0.00365575613544
1385568077733639609,-0.0195842574273,0.0140673275019,0.00680882462894,1.0,0.0,-0.0036561421151
1385568077783628183,-0.0195264812272,0.0142812822421,0.00683467274919,1.0,0.0,-0.00370811845764
1385568077833552811,-0.0195134326342,0.014569852826,0.00686542538979,1.0,0.0,-0.00377617288361
1385568077883516194,-0.0195081611806,0.014818671286,0.00689378604342,1.0,0.0,-0.00385368753361
1385568077933502326,-0.0195031677703,0.0150117123923,0.0068663070209,1.0,0.0,-0.0038954913639
1385568077983517357,-0.0195401242843,0.0151842539208,0.0068606815048,1.0,0.0,-0.00394062905984
1385568078033924910,-0.0195353869267,0.0154048627503,0.00688371935771,1.0,0.0,-0.0039823135623
1385568078083529416,-0.0195272588467,0.0156613244376,0.00692483228008,1.0,0.0,-0.00404684738642
1385568078133658511,-0.0194934564684,0.0158689141382,0.00694325782451,1.0,0.0,-0.00410194245873
1385568078183510484,-0.019495690297,0.016024179627,0.00688547246308,1.0,0.0,-0.00416100139376
1385568078233553442,-0.0196013670655,0.0161950737885,0.0070036381493,1.0,0.0,-0.00425758423168
1385568078283617581,-0.0193669061241,0.0165785688343,0.00709675630752,1.0,0.0,-0.00432816465727
1385568078333465348,-0.0193588975381,0.0167243517817,0.00718876583652,1.0,0.0,-0.00441828311554
1385568078383476606,-0.0192841111194,0.0168851482695,0.00725295353513,1.0,0.0,-0.00445599973899
1385568078433457491,-0.0192344456655,0.0170316036026,0.00726344881112,1.0,0.0,-0.00451885033234
1385568078483569216,-0.0192292055419,0.0170370779257,0.00732416299077,1.0,0.0,-0.00450810192872
1385568078533504352,-0.0191741302709,0.0171788450795,0.00728555624124,1.0,0.0,-0.00454226199148
1385568078583584505,-0.0191406057306,0.0172257432423,0.0072597999067,1.0,0.0,-0.00455147228598
1385568078633628138,-0.0191272534547,0.0172932635446,0.00717168501638,1.0,0.0,-0.0045645842375
1385568078683935002,-0.0191040467363,0.0173503303997,0.00714078865331,1.0,0.0,-0.00458585728643
1385568078733756896,-0.0190510676862,0.0172961337246,0.00708607728051,1.0,0.0,-0.00457143314198
1385568078783505021,-0.0190138573317,0.0172943334286,0.00696616190886,1.0,0.0,-0.00462557413106
1385568078833643626,-0.0189984049248,0.0173929942942,0.00682970330776,1.0,0.0,-0.00469052025038
1385568078883591372,-0.0189702871725,0.0173135744915,0.00666902465178,1.0,0.0,-0.00472262705476
1385568078933554808,-0.0189965694354,0.0171382974247,0.00647466423188,1.0,0.0,-0.00473635230312
1385568078983553594,-0.0189804627401,0.0171032857126,0.00636041953826,1.0,0.0,-0.00480247141577
1385568079033650060,-0.0190396095601,0.0168570617302,0.00625459333358,1.0,0.0,-0.00475490025169
1385568079083478743,-0.0190146084281,0.0167516663008,0.00614404993422,1.0,0.0,-0.00481109211819
1385568079133846192,-0.019022432825,0.0166355264711,0.00599505103174,1.0,0.0,-0.00483794972351
1385568079183501352,-0.018994948831,0.0165019895799,0.00588691031685,1.0,0.0,-0.00488783851192
1385568079233570246,-0.0189271217331,0.0164079355062,0.00580953508287,1.0,0.0,-0.00497490241954
1385568079283550194,-0.018838868982,0.0162212718715,0.00569090276482,1.0,0.0,-0.00503153041902
1385568079333620360,-0.0187067512478,0.0161233492962,0.00559053596435,1.0,0.0,-0.00517252778874
1385568079383687326,-0.0185892485206,0.0159949315068,0.00543980068058,1.0,0.0,-0.0052424305571
1385568079433642089,-0.0184261699773,0.0158052417059,0.00529982949909,1.0,0.0,-0.00534420800629
1385568079483456981,-0.0182429269342,0.0156952071839,0.00514903730166,1.0,0.0,-0.00545356960837
1385568079533669163,-0.0181123260501,0.0154378721288,0.00502497614047,1.0,0.0,-0.00552871495211
1385568079583479788,-0.0179471626206,0.0152293031242,0.00494104731846,1.0,0.0,-0.00557147651136
1385568079633667009,-0.017759213283,0.0150850477073,0.004838679376,1.0,0.0,-0.00562595155794
1385568079683489065,-0.017548325765,0.0149479627451,0.00478466909107,1.0,0.0,-0.00572817621166
1385568079733742441,-0.0173351168931,0.0147137423863,0.00470734702786,1.0,0.0,-0.00576691104125
1385568079783630795,-0.0171735422058,0.0145355001442,0.00466196972267,1.0,0.0,-0.00579877253477
1385568079833655594,-0.0169354057294,0.0143268563824,0.00458940511116,1.0,0.0,-0.00584216771334
1385568079883800949,-0.0167219283138,0.0140220633497,0.00451590754865,1.0,0.0,-0.00585610281168
1385568079933590038,-0.0165286825934,0.0138028932764,0.00442028090957,1.0,0.0,-0.00586443411719
1385568079983533789,-0.0162759116256,0.0135524897687,0.00433900607166,1.0,0.0,-0.00589115526955
1385568080033508395,-0.0160169432484,0.0133873614908,0.0042362238095,1.0,0.0,-0.00594526327685
1385568080084931852,-0.0157802395266,0.0131765954502,0.00416009477664,1.0,0.0,-0.00596797241043
1385568080133507048,-0.0154905990669,0.01302650979,0.0041043716102,1.0,0.0,-0.00603668076841
1385568080183581420,-0.015183614843,0.0129371431429,0.00401427608457,1.0,0.0,-0.00610474472275
1385568080233932806,-0.0149717583608,0.012773864976,0.00397594827802,1.0,0.0,-0.00619046080817
1385568080283622487,-0.0147077368053,0.0127155182409,0.00385912658785,1.0,0.0,-0.00624436152434
1385568080333576456,-0.0144081904716,0.0127489902102,0.0037843938354,1.0,0.0,-0.00636037951358
1385568080383522925,-0.0142628495088,0.0125968796153,0.00370301423404,1.0,0.0,-0.00636042026043
1385568080433512848,-0.0140466927274,0.0125488641173,0.00369387773475,1.0,0.0,-0.00642350244247
1385568080483411889,-0.0139045786608,0.012481955195,0.00345770297097,1.0,0.0,-0.00644219001644
1385568080533488783,-0.0137216618292,0.0125348205566,0.00337606434479,1.0,0.0,-0.00650884094643
1385568080583705568,-0.0136476745608,0.0125747956529,0.0033303711434,1.0,0.0,-0.0065033751611
1385568080634085533,-0.0135228131739,0.0126831046744,0.0032362319314,1.0,0.0,-0.00659706312466
1385568080683521462,-0.013468475231,0.0127816408002,0.00333415286653,1.0,0.0,-0.00663478159221
1385568080733428481,-0.0133045449102,0.0128513862767,0.0033456573384,1.0,0.0,-0.00668666880295
1385568080783493586,-0.0132671153542,0.0129698590625,0.00328196025131,1.0,0.0,-0.00672460184081
1385568080833595145,-0.0132733025608,0.0129352903552,0.00319597652754,1.0,0.0,-0.00674835893887
1385568080883443380,-0.0132926871538,0.0129751134562,0.00316350316234,1.0,0.0,-0.00676597609666
1385568080933656486,-0.0132842802749,0.012954653044,0.00304906682646,1.0,0.0,-0.00676526397158
1385568080983791013,-0.0133794937806,0.0129310059176,0.0029217727307,1.0,0.0,-0.00675707955995
1385568081033471781,-0.0134368200732,0.0128967988868,0.00281603148285,1.0,0.0,-0.00674130482045
1385568081083485162,-0.0134856605199,0.0127927344334,0.00274075672621,1.0,0.0,-0.00674243236244
1385568081133492626,-0.0135606832178,0.0127506487514,0.00267504841361,1.0,0.0,-0.00673909229599
1385568081183590820,-0.0135916612128,0.0125903053577,0.00265472413248,1.0,0.0,-0.0067257441297
1385568081233457306,-0.0136063744027,0.0125513589316,0.0026115673506,1.0,0.0,-0.00675013725193
1385568081283676435,-0.0136298531177,0.012393592294,0.00258675689907,1.0,0.0,-0.00672098894486
1385568081333629450,-0.0136103346098,0.0122851685566,0.00253930927633,1.0,0.0,-0.00673409401839
1385568081383475640,-0.0136718977958,0.0121364008419,0.00242211173169,1.0,0.0,-0.00668909009192
1385568081433542034,-0.0136556425521,0.0120382791867,0.00231982348209,1.0,0.0,-0.00669850834991
1385568081483538515,-0.0136538308602,0.0119007994194,0.00223699419844,1.0,0.0,-0.00668102676575
1385568081533540212,-0.0136412444855,0.0117506586644,0.00217606371345,1.0,0.0,-0.00666572225058
1385568081583716233,-0.0136285808893,0.0116259944274,0.00215283894401,1.0,0.0,-0.00667760048642
1385568081633500661,-0.013614013745,0.0115537885046,0.00209968150538,1.0,0.0,-0.0066496319553
1385568081683662993,-0.0136655707962,0.0114094166987,0.00206240476573,1.0,0.0,-0.0066071099028
1385568081734072774,-0.0136786475892,0.0113517145666,0.00203908969741,1.0,0.0,-0.00660888559177
1385568081783596736,-0.0137826862156,0.0112534836529,0.00180242819772,1.0,0.0,-0.00655688555861
1385568081833678414,-0.0136727664056,0.0112487143122,0.00187531818395,1.0,0.0,-0.00658172005317
1385568081883663582,-0.013752080496,0.0112223297545,0.00187552308463,1.0,0.0,-0.00655759664989
1385568081933627696,-0.0137048413437,0.0113513604397,0.00181411746692,1.0,0.0,-0.00659736587909
1385568081983502221,-0.0138204449254,0.0113414632062,0.00176842036467,1.0,0.0,-0.00654922575151
1385568082033524379,-0.0138293886869,0.0115635864416,0.00173321432764,1.0,0.0,-0.00658175004157
1385568082083511164,-0.0138907802143,0.0116684072846,0.0016917839429,1.0,0.0,-0.00658294375868
1385568082133548506,-0.013974449241,0.0118078703304,0.00164503188814,1.0,0.0,-0.00653835207235
1385568082183469505,-0.0141214376615,0.0119447953321,0.00157376563045,1.0,0.0,-0.00649456684052
1385568082233893490,-0.0141675754583,0.0121729919294,0.00149042354585,1.0,0.0,-0.00646799163348
1385568082283702588,-0.014360947764,0.0123466117317,0.00142553510735,1.0,0.0,-0.00645112446946
1385568082333615407,-0.014394056179,0.0127061262659,0.00137324627949,1.0,0.0,-0.00638771297578
1385568082383473681,-0.0145377579511,0.0130069480296,0.00133694335121,1.0,0.0,-0.0063514851794
1385568082433688461,-0.0146072081414,0.0133336511826,0.00126289511254,1.0,0.0,-0.00633736347199
1385568082483541413,-0.0147494742634,0.0136348253949,0.0012283342064,1.0,0.0,-0.00626455232994
1385568082533531408,-0.0148357700959,0.0140067835848,0.00117191024504,1.0,0.0,-0.00625846429996
1385568082583518779,-0.0150198946232,0.0143242117822,0.00116753181809,1.0,0.0,-0.00618905141889
1385568082633678373,-0.0151271019716,0.0146169658841,0.001117382065,1.0,0.0,-0.00615802671648
1385568082683671428,-0.0152921656217,0.0148993972824,0.00105868191106,1.0,0.0,-0.00606240601512
1385568082733537744,-0.015387076848,0.0152033607412,0.00101322969795,1.0,0.0,-0.00600093049162
1385568082783511182,-0.0155776120049,0.0153820533968,0.000985896496198,1.0,0.0,-0.00589647256876
1385568082833613203,-0.015663602677,0.0156158454762,0.000913224591776,1.0,0.0,-0.00582003376877
1385568082883702842,-0.0157611613633,0.0158093829678,0.000833016288137,1.0,0.0,-0.00576120265594
1385568082933497150,-0.0157964821251,0.0159721177784,0.000765599045652,1.0,0.0,-0.00570638297071
1385568082983678592,-0.0159422218669,0.0160968504454,0.00073440753222,1.0,0.0,-0.00559746662552
1385568083033665921,-0.0159644134957,0.0162261835934,0.000719995934747,1.0,0.0,-0.00555020546002
1385568083083679306,-0.0160210861473,0.0163199081329,0.000682287156457,1.0,0.0,-0.00547414630688
1385568083133472141,-0.0160894948147,0.0162721301798,0.000683426842704,1.0,0.0,-0.00534548793077
1385568083183618095,-0.0160283175333,0.016345570157,0.000651225475465,1.0,0.0,-0.00527287624025
1385568083233795424,-0.0159879103758,0.0163833407451,0.000620297613851,1.0,0.0,-0.00520715257864
1385568083283588422,-0.0159705370021,0.0163911389563,0.000607470425067,1.0,0.0,-0.00511435790926
1385568083333558260,-0.0158431189028,0.0164346074936,0.000551256214718,1.0,0.0,-0.00507141470167
1385568083383491338,-0.0156891194417,0.0165242236,0.000480342850722,1.0,0.0,-0.00505400813789
1385568083433708432,-0.0155092432006,0.0165534637466,0.000435114444659,1.0,0.0,-0.00503010935801
1385568083483479970,-0.0153149134511,0.0166626701291,0.000401261091211,1.0,0.0,-0.00500835108972
1385568083533800756,-0.0150632309941,0.0167273936151,0.000317473129633,1.0,0.0,-0.00501451897648
1385568083583507642,-0.0149076531407,0.0166703269108,0.000262103595853,1.0,0.0,-0.00497616170296
1385568083633537011,-0.0145220047178,0.0168071840719,8.41431083766e-05,1.0,0.0,-0.00495176685475
1385568083683504267,-0.0143760161266,0.0167335473721,-2.24817467885e-05,1.0,0.0,-0.00486854799108
1385568083733630556,-0.0139489909477,0.0168495323959,-0.000132512936664,1.0,0.0,-0.00481350273448
1385568083783718891,-0.013687801289,0.016827269296,-0.000220763877574,1.0,0.0,-0.00474444845064
1385568083833454610,-0.0133471940956,0.0168900771533,-0.000274591335303,1.0,0.0,-0.00468134355968
1385568083883622972,-0.0130504251548,0.0168644076087,-0.000314157149764,1.0,0.0,-0.00462670000903
1385568083933411590,-0.0127781421071,0.0169198433019,-0.0003414146739,1.0,0.0,-0.00456140444893
1385568083983492875,-0.0125239313993,0.0168375006695,-0.00029241961412,1.0,0.0,-0.0044871760814
1385568084033635839,-0.0122229467168,0.0169576621783,-0.000337542428582,1.0,0.0,-0.00443839340277
1385568084083688257,-0.0120667313983,0.0169166835046,-0.000295143139149,1.0,0.0,-0.00435881245315
1385568084133490620,-0.0118488148405,0.0169250593567,-0.000249707007089,1.0,0.0,-0.00429682032842
1385568084183650378,-0.0116881537902,0.0169179478139,-0.000179648741752,1.0,0.0,-0.00422013036729
1385568084233576472,-0.0115429588126,0.0168827560207,-8.79370608724e-05,1.0,0.0,-0.00414783673554
1385568084283531505,-0.0114439092507,0.0167326083243,3.77576890417e-05,1.0,0.0,-0.00401934345369
1385568084333705550,-0.0113270634365,0.0167947063106,0.000101469638228,1.0,0.0,-0.00391639487342
1385568084383477631,-0.0112128275417,0.0166758427189,0.000222424101034,1.0,0.0,-0.00385325815447
1385568084433659494,-0.0111275468615,0.0166929744494,0.00030349371796,1.0,0.0,-0.00374568724254
1385568084483461773,-0.0110727210616,0.0165169554907,0.000334756671205,1.0,0.0,-0.00363137312302
1385568084533555122,-0.0109428289334,0.0165073426162,0.000373114786844,1.0,0.0,-0.00356537317968
1385568084583571901,-0.0109059192601,0.0164389189031,0.000406290278643,1.0,0.0,-0.00346693130026
1385568084633516398,-0.0108793933775,0.0163083792678,0.000519908401989,1.0,0.0,-0.00335446775939
1385568084683458299,-0.0108748440395,0.0162100703291,0.000575088852328,1.0,0.0,-0.00322907727664
1385568084733732804,-0.0108908599062,0.0160805390925,0.000616249822304,1.0,0.0,-0.00309747505934
1385568084783460095,-0.010914640961,0.0159396703607,0.000707900818805,1.0,0.0,-0.00295894529464
1385568084833518167,-0.0109810519496,0.0158015673943,0.000749478810676,1.0,0.0,-0.0028332927317
1385568084883495898,-0.0109445431372,0.0156667837031,0.000825416490593,1.0,0.0,-0.00273445405478
1385568084933636447,-0.0110053006987,0.0154852420573,0.000857754504961,1.0,0.0,-0.00259076044478
1385568084983719502,-0.0109974917025,0.0153928826958,0.000928003023704,1.0,0.0,-0.0025089573442
1385568085033671078,-0.0109986834645,0.0151750140374,0.000978616419294,1.0,0.0,-0.00240448889373
1385568085083674312,-0.0110192133004,0.0151040435383,0.00102540297888,1.0,0.0,-0.00229940693901
1385568085133480994,-0.0109867003673,0.0149770346131,0.00100429446871,1.0,0.0,-0.00222063348675
1385568085183472531,-0.0110042981336,0.0148051902563,0.00100069673765,1.0,0.0,-0.00212512701183
1385568085233578609,-0.0110560418855,0.0146655242766,0.000981917210862,1.0,0.0,-0.00198627973789
1385568085283734483,-0.0110472317233,0.0145344847842,0.000977263027482,1.0,0.0,-0.00188956341808
1385568085333528234,-0.0110550723307,0.0144325450247,0.00097852537993,1.0,0.0,-0.00178482528722
1385568085383595912,-0.011109237715,0.0143283765745,0.000941055593686,1.0,0.0,-0.00163950176709
1385568085433519330,-0.0110704597148,0.0142660413732,0.000913546091094,1.0,0.0,-0.00155142440479
1385568085483449887,-0.0110999399231,0.0141479508566,0.000909134731834,1.0,0.0,-0.00143268865597
1385568085533506262,-0.0111203122417,0.0140804698116,0.00088471348251,1.0,0.0,-0.00131012630228
1385568085583468209,-0.0111156497485,0.0140794642569,0.000881278378276,1.0,0.0,-0.00123109809554
1385568085633489598,-0.0111113781148,0.0139282586042,0.000869989928002,1.0,0.0,-0.00113329134892
1385568085683518741,-0.011099248305,0.0139622509568,0.000893890700457,1.0,0.0,-0.00102998593348
1385568085733459375,-0.0110719601791,0.0138488711122,0.000936285465373,1.0,0.0,-0.000953522482981
1385568085783491743,-0.0110718310122,0.0137236402201,0.000976462781524,1.0,0.0,-0.000811625941403
1385568085833645158,-0.0110791841847,0.013749122504,0.00101722792558,1.0,0.0,-0.000751826330168
1385568085883585167,-0.0110282789364,0.0135949709926,0.0010375516821,1.0,0.0,-0.000568800013399
1385568085933551417,-0.0109895575605,0.0135968499253,0.00107341735901,1.0,0.0,-0.000486986164527
1385568085983485446,-0.0108988337666,0.0134789295789,0.00109169205087,1.0,0.0,-0.000357706599072
1385568086033675318,-0.0107579210952,0.0134992140082,0.00107375287507,1.0,0.0,-0.00032948780068
1385568086083594220,-0.0106969215772,0.0133966765289,0.0010537867847,1.0,0.0,-0.000221752602394
1385568086133782227,-0.010531083568,0.0134345832501,0.001041161935,1.0,0.0,-0.000189315745474
1385568086183697048,-0.0103883893173,0.0134782702081,0.00109924837742,1.0,0.0,-0.000143078380294
1385568086233806225,-0.0102558148331,0.0134959044268,0.00114896537649,1.0,0.0,-7.43162677539e-05
1385568086283823269,-0.0100816633244,0.0135503621647,0.00117971838635,1.0,0.0,-4.8647612652e-05
1385568086333657505,-0.00995305058083,0.0136327276491,0.00119388529194,1.0,0.0,5.95734761846e-06
1385568086383555464,-0.0098357896403,0.0136698026734,0.00122485322182,1.0,0.0,5.98526676394e-05
1385568086433647255,-0.00970445016302,0.0137742422322,0.00121989182665,1.0,0.0,0.000150065754829
1385568086483678613,-0.00953106217892,0.0138632678356,0.00123029145973,1.0,0.0,0.000201290593094
1385568086533557492,-0.00937041142809,0.0139391274756,0.0012055919246,1.0,0.0,0.000247538955341
1385568086583612665,-0.00919786507452,0.014078082018,0.00116746027586,1.0,0.0,0.000288547659092
1385568086633622032,-0.00901136621382,0.0141787011675,0.00113146908543,1.0,0.0,0.000334979139513
1385568086683932401,-0.00887306760365,0.014353074012,0.00112282461877,1.0,0.0,0.00037987320725
1385568086733600114,-0.00879355574961,0.0144002122274,0.00112596447826,1.0,0.0,0.000444884684746
1385568086783677219,-0.00863208067713,0.0146550697816,0.00113731384845,1.0,0.0,0.000532306585669
1385568086833625345,-0.00842109555149,0.0148639525199,0.00116253162738,1.0,0.0,0.000617534638929
1385568086883619822,-0.00832341828598,0.0150367168128,0.00120663407405,1.0,0.0,0.000722405881462
1385568086933613596,-0.00817406694399,0.0153177788866,0.00120586652973,1.0,0.0,0.000816543662689
1385568086983695917,-0.00809499820684,0.0155214782229,0.00121064364949,1.0,0.0,0.000957603201822
1385568087033668702,-0.00803576490579,0.0157745657981,0.00122335963869,1.0,0.0,0.0010360893488
1385568087083636680,-0.00784528871664,0.0160465811173,0.00125526425935,1.0,0.0,0.00115982959993
1385568087133636651,-0.00782042305977,0.0162283357356,0.00127344008611,1.0,0.0,0.00130373246282
1385568087183593266,-0.00768945236651,0.0165500744707,0.00125965791316,1.0,0.0,0.00137914461449
1385568087233786898,-0.00761165922999,0.0167618750781,0.00125893517479,1.0,0.0,0.00148109554976
1385568087283576833,-0.00752328652878,0.0170200908523,0.00127753397573,1.0,0.0,0.0015766335409
1385568087333547499,-0.00742447481375,0.017151737572,0.00130804870637,1.0,0.0,0.00167923930232
1385568087383628648,-0.00738191965992,0.0173890513939,0.00130625448048,1.0,0.0,0.00174284116801
1385568087433639692,-0.00735215090959,0.0174156801615,0.00128690249509,1.0,0.0,0.00186708067322
1385568087483827528,-0.00733883962014,0.017564662828,0.00129014121702,1.0,0.0,0.00196276280804
1385568087533612177,-0.00733298216026,0.0176541363591,0.00129949331164,1.0,0.0,0.00206811420582
1385568087583589283,-0.00733048907197,0.0177544856859,0.0013227430344,1.0,0.0,0.00214049117357
1385568087633857276,-0.00741283130779,0.0177890706346,0.00130838548545,1.0,0.0,0.00225936006931
1385568087683556666,-0.00750621153736,0.017816931991,0.00129998777566,1.0,0.0,0.00232962924939
1385568087733680108,-0.00753969445524,0.0178300451855,0.0013008478386,1.0,0.0,0.0024328393871
1385568087783669617,-0.00772105223751,0.0178170393964,0.00133673604373,1.0,0.0,0.0025167098601
1385568087833627128,-0.00784411069803,0.0177115406946,0.0013564949276,1.0,0.0,0.00261650942453
1385568087883775226,-0.00804299356501,0.0176858671381,0.00136648867345,1.0,0.0,0.00270041081857
1385568087933597759,-0.00822327392178,0.0175063123656,0.00136886566799,1.0,0.0,0.00277530462007
1385568087983974234,-0.00845047622808,0.0173645092505,0.0013497296363,1.0,0.0,0.00288730547152
1385568088033740506,-0.00870150283898,0.0171933298836,0.0012838835246,1.0,0.0,0.00295932710459
1385568088083656350,-0.00892576425093,0.0170405300027,0.00123775264443,1.0,0.0,0.0030609491399
1385568088133582206,-0.00922987829757,0.0168423645588,0.0012108238171,1.0,0.0,0.00318673455532
1385568088183664783,-0.00953212337443,0.0166664320723,0.00113904950219,1.0,0.0,0.00330440481096
1385568088233641798,-0.00981301573367,0.0165158313186,0.00107660624687,1.0,0.0,0.00339618165287
1385568088283579048,-0.0100974999617,0.0163751817745,0.00104522983857,1.0,0.0,0.00349206369396
1385568088333649108,-0.0104881218726,0.0162682167723,0.000987924692513,1.0,0.0,0.00362437303044
1385568088383820660,-0.0107541228987,0.0161730699637,0.000977089878784,1.0,0.0,0.00369604088052
1385568088433653048,-0.0110708016241,0.0161022437705,0.000956210315743,1.0,0.0,0.00383706222906
1385568088483691733,-0.0114398531235,0.016087212032,0.000976567825311,1.0,0.0,0.00394924806367
1385568088533663705,-0.0117606380783,0.0160340235825,0.00100046085385,1.0,0.0,0.00408882308661
1385568088583668417,-0.0121561614293,0.016008064509,0.0010533370495,1.0,0.0,0.00425677656365
1385568088633671272,-0.0123700481313,0.0160053111228,0.00107738249818,1.0,0.0,0.00436581268992
1385568088683643379,-0.0127070454947,0.0161134248362,0.00105743962131,1.0,0.0,0.00452141210723
1385568088733657178,-0.0129092463066,0.016134329492,0.00105696028882,1.0,0.0,0.0046390507241
1385568088783743723,-0.0130876115694,0.0161782913193,0.00107004193923,1.0,0.0,0.00473295392706
1385568088833645995,-0.0132442058434,0.0162083700386,0.00108369658714,1.0,0.0,0.00486487246481
1385568088883600891,-0.0133241892214,0.016250100964,0.00108476373908,1.0,0.0,0.00494987892115
1385568088933685287,-0.0133538281213,0.0162688416155,0.00108096948508,1.0,0.0,0.00506875580727
1385568088983622880,-0.0135049851241,0.0162023542663,0.00106315517939,1.0,0.0,0.00523058194442
1385568089033559534,-0.0135116151676,0.0161431565208,0.00103337183548,1.0,0.0,0.00540132930821
1385568089083723438,-0.01346962427,0.0160742272328,0.00101364016492,1.0,0.0,0.00553119659833
1385568089133604140,-0.013401865118,0.0160212802788,0.000922616212407,1.0,0.0,0.00570079607133
1385568089183714667,-0.0132627888074,0.0160133897493,0.000859250717829,1.0,0.0,0.00576577677118
1385568089233655926,-0.0132576097806,0.0158935500025,0.000691539775751,1.0,0.0,0.00591898693015
1385568089283825285,-0.0131095658963,0.015831525249,0.000603050661785,1.0,0.0,0.00599118087653
1385568089333804436,-0.0130070915712,0.0157088005223,0.000492842291986,1.0,0.0,0.00605513608623
1385568089383756115,-0.0129148191022,0.0156548163147,0.000375848265817,1.0,0.0,0.0061482109272
1385568089433609115,-0.0128545885884,0.0154940597036,0.000216133983249,1.0,0.0,0.00619524516766
1385568089483732430,-0.0128566942362,0.0153522919775,4.47383684859e-05,1.0,0.0,0.00630234902898
1385568089533566861,-0.0128249471204,0.0152136526348,-3.3697455881e-05,1.0,0.0,0.00639690359375
1385568089583650331,-0.0128285895775,0.0150947221011,-0.000109765547841,1.0,0.0,0.00646981029337
1385568089633681809,-0.0129511845297,0.0149868506253,-0.000232663320984,1.0,0.0,0.00657018778853
1385568089683663403,-0.0129346369142,0.0148550509939,-0.000312149329623,1.0,0.0,0.0066149593649
1385568089733643067,-0.0131848489114,0.0147845237779,-0.000328851398733,1.0,0.0,0.00671868077232
1385568089783635423,-0.0132448876005,0.0147597866338,-0.000373551136225,1.0,0.0,0.00675590153107
1385568089833655819,-0.0134472787221,0.0146755177647,-0.00040687883142,1.0,0.0,0.0068150457142
1385568089883684570,-0.0137200764509,0.0144750099456,-0.000458353522771,1.0,0.0,0.00698188505369
1385568089933708752,-0.0140905934562,0.0144400852061,-0.000475309619201,1.0,0.0,0.00707738376172
1385568089983628447,-0.0142869717583,0.0144022018614,-0.000505688888776,1.0,0.0,0.00720091407944
1385568090033618275,-0.0145957546082,0.014451038977,-0.000527382792803,1.0,0.0,0.00732376256213
1385568090083617180,-0.0148995469412,0.0144404481598,-0.000497259370887,1.0,0.0,0.00744967578798
1385568090133606692,-0.0151953481435,0.0145282947947,-0.00045588728286,1.0,0.0,0.00758486700139
1385568090183572200,-0.0154463059221,0.0146225623226,-0.000372779927737,1.0,0.0,0.00771920770688
1385568090233571290,-0.0156685628413,0.0147031491227,-0.000346981432416,1.0,0.0,0.00780949009909
1385568090283579402,-0.0160325258983,0.014859674179,-0.000360845627545,1.0,0.0,0.00796568532808
1385568090333687968,-0.0161570775806,0.0150029047893,-0.000397594813059,1.0,0.0,0.00804226133724
1385568090383613851,-0.0165264206201,0.0151061541064,-0.000423028354815,1.0,0.0,0.00818919147624
