%time,field.linear.x,field.linear.y,field.linear.z,field.angular.x,field.angular.y,field.angular.z
1385568059092943385,0.0,0.0,0.0,0.0,0.0,0.0
1385568059093017070,0.0387659537964,-0.326464981617,-0.11452240034,-0.0148106142757,0.00723633769688,-1.52475383167
1385568059102801437,0.0387734626615,-0.32647840854,-0.114525876052,-0.0148067801079,0.00722637068663,-1.52475482337
1385568059112833540,0.0386912051798,-0.32651359553,-0.1144260832,-0.0152145543416,0.00695348567407,-1.52474563411
1385568059122897689,0.0386912051798,-0.32651359553,-0.1144260832,-0.0152145543416,0.00695348567407,-1.52474563411
1385568059132972338,0.0387001588679,-0.326505216467,-0.114434337219,-0.0152906446311,0.00706199034265,-1.52476232665
1385568059142764172,0.0387001588679,-0.326505216467,-0.114434337219,-0.0152906446311,0.00706199034265,-1.52476232665
1385568059152889785,0.0386769723519,-0.326503058987,-0.114421873545,-0.0151666696146,0.00706813466819,-1.52475449462
1385568059162912871,0.0387338553,-0.326493117567,-0.114484900533,-0.014562212709,0.00697247363674,-1.52479785828
1385568059172878564,0.0386990935498,-0.326509519121,-0.11444284602,-0.0152589972936,0.00711335402596,-1.52470930661
1385568059183354478,0.0387759734595,-0.326468412197,-0.11452533767,-0.0147917119454,0.00721957912298,-1.5247459024
1385568059192966591,0.0387759734595,-0.326468412197,-0.11452533767,-0.0147917119454,0.00721957912298,-1.5247459024
1385568059202815834,0.0387732014618,-0.326473101399,-0.11452480635,-0.0148010943696,0.00725106372556,-1.52474183134
1385568059212959802,0.0388365092761,-0.326464613351,-0.114580929619,-0.0147075451647,0.00648450830002,-1.52485617186
1385568059222955902,0.0387073215525,-0.326504434192,-0.114433386845,-0.0152847032056,0.00709356777405,-1.52470874499
1385568059232848892,0.0387073215525,-0.326504434192,-0.114433386845,-0.0152847032056,0.00709356777405,-1.52470874499
1385568059243544484,0.0387079152809,-0.326505791516,-0.11442717944,-0.0152923547938,0.00701359848107,-1.52470467351
1385568059252844376,0.0387079152809,-0.326505791516,-0.11442717944,-0.0152923547938,0.00701359848107,-1.52470467351
1385568059263297967,0.0387734510888,-0.326476351614,-0.114516011421,-0.014779177408,0.00717147677382,-1.5247420324
1385568059272845965,0.0387807243951,-0.32647695387,-0.114522856401,-0.014809057745,0.00725686166701,-1.52473034033
1385568059282909213,0.0386939652758,-0.326510906458,-0.114428998204,-0.0152384341345,0.00703257077146,-1.52473755616
1385568059292863233,0.0387714514714,-0.326470093541,-0.114515744303,-0.0148220057257,0.00718605525486,-1.52476694358
1385568059302894317,0.0387683160829,-0.326477856881,-0.11451409951,-0.014734112009,0.00718557283302,-1.52477462973
1385568059312881304,0.0387683160829,-0.326477856881,-0.11451409951,-0.014734112009,0.00718557283302,-1.52477462973
1385568059322959084,0.0387094587517,-0.326508429319,-0.114431081677,-0.0152619976239,0.00707803037184,-1.52473103494
1385568059332928745,0.0386965819387,-0.326502004766,-0.114427865118,-0.0152589080634,0.00704212323596,-1.5247286131
1385568059343013836,0.0386965819387,-0.326502004766,-0.114427865118,-0.0152589080634,0.00704212323596,-1.5247286131
1385568059352869351,0.0387945831789,-0.326429494979,-0.114516680864,-0.0147765580647,0.00709705204787,-1.52454738944
1385568059362858017,0.0387945831789,-0.326429494979,-0.114516680864,-0.0147765580647,0.00709705204787,-1.52454738944
1385568059372902391,0.0387577164899,-0.326472953934,-0.114502682982,-0.0147297492817,0.00716802729612,-1.52476226312
1385568059382935680,0.0386761626415,-0.326519377018,-0.114405911688,-0.0150237388667,0.00691048402707,-1.52476807084
1385568059392874824,0.0386761626415,-0.326519377018,-0.114405911688,-0.0150237388667,0.00691048402707,-1.52476807084
1385568059402840365,0.0387699468573,-0.326478653237,-0.114519093157,-0.0147945215929,0.00719208646425,-1.52475016667
1385568059412765546,0.0387699468573,-0.326478653237,-0.114519093157,-0.0147945215929,0.00719208646425,-1.52475016667
1385568059422843149,0.0387114494683,-0.326505852704,-0.114427025546,-0.015258711797,0.00707010154011,-1.52471227105
1385568059433065496,0.0387813927035,-0.326472293096,-0.114511901775,-0.0148072546858,0.00718042568849,-1.52473408261
1385568059443062035,0.0387091243456,-0.326504025153,-0.11442587488,-0.015250394015,0.00706426057826,-1.52472654104
1385568059453009485,0.038702569541,-0.326506727498,-0.11441899426,-0.0152409403559,0.00698776217449,-1.52472502865
1385568059462819182,0.038702569541,-0.326506727498,-0.11441899426,-0.0152409403559,0.00698776217449,-1.52472502865
1385568059472903429,0.0387074655001,-0.32649955453,-0.114417542573,-0.0152928199129,0.00703766475951,-1.52473665719
1385568059482954720,0.0387074655001,-0.32649955453,-0.114417542573,-0.0152928199129,0.00703766475951,-1.52473665719
1385568059492934400,0.0387872196186,-0.326478087324,-0.114515205621,-0.0148080559396,0.0071924926817,-1.52472930817
1385568059502921873,0.0387872196186,-0.326478087324,-0.114515205621,-0.0148080559396,0.0071924926817,-1.52472930817
1385568059512846468,0.0387928428727,-0.326431233543,-0.11450640951,-0.0148162776524,0.00707329516426,-1.52454166221
1385568059523150626,0.0387928428727,-0.326431233543,-0.11450640951,-0.0148162776524,0.00707329516426,-1.52454166221
1385568059533090631,0.0387026697569,-0.326504046057,-0.114427618064,-0.0152806237489,0.00706793370527,-1.52475053569
1385568059542973817,0.0386587228753,-0.326519772921,-0.114400533848,-0.0149967150765,0.00684096533304,-1.52479879267
1385568059552860241,0.0387789665819,-0.326466312117,-0.114519361919,-0.0147863206774,0.00722403723862,-1.52476008099
1385568059562909919,0.0387501997011,-0.32647728457,-0.1145111234,-0.0147217310444,0.00717486381173,-1.52476632155
1385568059572851029,0.0387781117851,-0.326468287062,-0.114527040257,-0.0148034378037,0.00724334699665,-1.52473130995
1385568059582961457,0.0387776373604,-0.326476814294,-0.114527801875,-0.0148220151499,0.00726772402154,-1.52472260718
1385568059592961930,0.0387776373604,-0.326476814294,-0.114527801875,-0.0148220151499,0.00726772402154,-1.52472260718
1385568059602979787,0.0387043652607,-0.326493255091,-0.114439794027,-0.0152729395524,0.00712001923264,-1.52471035699
1385568059612960535,0.0386967592018,-0.326502400695,-0.114436833499,-0.0152603306913,0.00707968452931,-1.52470416353
1385568059623048051,0.0387684307398,-0.326465266282,-0.114526329481,-0.0148026504301,0.00724812995417,-1.52473120804
1385568059632803817,0.038741475277,-0.326454945955,-0.114550587434,-0.0149850714905,0.0072750473099,-1.52473657219
1385568059642999915,0.038741475277,-0.326454945955,-0.114550587434,-0.0149850714905,0.0072750473099,-1.52473657219
1385568059652790396,0.0386733100563,-0.326496405294,-0.114436309407,-0.0151884408152,0.00697163148697,-1.52477622567
1385568059663021990,0.0386733100563,-0.326496405294,-0.114436309407,-0.0151884408152,0.00697163148697,-1.52477622567
1385568059672980850,0.0387641440361,-0.326452390644,-0.114537115659,-0.014806541511,0.00724128505902,-1.52473444711
1385568059682781850,0.0387832361706,-0.326450859509,-0.114534475313,-0.0144069037605,0.00643411130862,-1.52542107454
1385568059692895892,0.0387832361706,-0.326450859509,-0.114534475313,-0.0144069037605,0.00643411130862,-1.52542107454
1385568059702971841,0.0387792341723,-0.326455206861,-0.114529473825,-0.0150389196868,0.00723366583353,-1.52358698306
1385568059712900804,0.038620104397,-0.326441786627,-0.114554343599,-0.0146352155965,0.0065758104489,-1.52598651628
1385568059722960857,0.0387657652938,-0.326485836798,-0.114513964223,-0.0148230804595,0.00719522662262,-1.52429248712
1385568059733464758,0.0387657652938,-0.326485836798,-0.114513964223,-0.0148230804595,0.00719522662262,-1.52429248712
1385568059743036769,0.0386413838407,-0.326440832479,-0.114560717879,-0.0140164373002,0.00692550904739,-1.52503948088
1385568059752874816,0.038710508688,-0.326498648842,-0.114648910899,-0.0137997723835,0.00643429049317,-1.52545235027
1385568059762813041,0.038710508688,-0.326498648842,-0.114648910899,-0.0137997723835,0.00643429049317,-1.52545235027
1385568059772829894,0.0388128937436,-0.326466816134,-0.114552285034,-0.0141119728297,0.0064645240622,-1.52493160195
1385568059782976492,0.0386724081863,-0.326499257751,-0.114418265701,-0.0144544330629,0.0069312492467,-1.52504042939
1385568059792804208,0.0386724081863,-0.326499257751,-0.114418265701,-0.0144544330629,0.0069312492467,-1.52504042939
1385568059802875712,0.0387438342137,-0.326403932978,-0.11455858025,-0.0139280990841,0.00612091362512,-1.52391999771
1385568059812876995,0.0387438342137,-0.326403932978,-0.11455858025,-0.0139280990841,0.00612091362512,-1.52391999771
1385568059822839884,0.0387139791923,-0.326407160849,-0.114515010725,-0.0138590263695,0.00579590676949,-1.52406962387
1385568059832991047,0.0387922321245,-0.326453228594,-0.114537644351,-0.0142246493454,0.0065849875498,-1.52385047757
1385568059842935132,0.0386182229207,-0.326451621518,-0.114548346278,-0.0142519240965,0.00700091267461,-1.52418960356
1385568059852933066,0.0388137196756,-0.326454994697,-0.114607508045,-0.0140934301317,0.0063992142513,-1.52399001063
1385568059863046889,0.0388137196756,-0.326454994697,-0.114607508045,-0.0140934301317,0.0063992142513,-1.52399001063
1385568059872918269,0.0386025008347,-0.326347523332,-0.114657668687,-0.0132102265029,0.00714664100449,-1.52440546533
1385568059882879197,0.0387970498758,-0.326435813163,-0.114570351385,-0.0142269551746,0.00637517462321,-1.52408592569
1385568059892919406,0.0387970498758,-0.326435813163,-0.114570351385,-0.0142269551746,0.00637517462321,-1.52408592569
1385568059902799937,0.0387554632422,-0.32639359697,-0.11454167987,-0.0139591960719,0.00616215100746,-1.52388686316
1385568059912852489,0.0388146129959,-0.326439939364,-0.114566882361,-0.0140867859782,0.00645509277043,-1.52419464266
1385568059922802147,0.0388026774872,-0.326442286256,-0.114591675005,-0.0142123707196,0.00645869128774,-1.52382065293
1385568059932785000,0.0386680049096,-0.326456568475,-0.114620001674,-0.0136276651471,0.00728205798692,-1.52396938596
1385568059942809907,0.0387286674985,-0.326459627749,-0.114522164157,-0.0140798060955,0.0071443681103,-1.52418092211
1385568059952799131,0.0387786982869,-0.326456425664,-0.114564299038,-0.0141433851522,0.00640102411017,-1.52390587798
1385568059962823376,0.0387408849778,-0.326418874294,-0.114540871554,-0.0139638707645,0.00607564878644,-1.5235580078
1385568059972804965,0.0388049599895,-0.326446095611,-0.114602396197,-0.0142357856176,0.00647879334161,-1.52425831464
1385568059982940036,0.0387516152242,-0.326446981075,-0.114679007137,-0.0136549797547,0.00668059847996,-1.52428301367
1385568059992810635,0.0387918659931,-0.326452237191,-0.114573151558,-0.0140464860199,0.00631625245612,-1.52379281548
1385568060002801609,0.0388102716788,-0.326452837225,-0.114591408567,-0.0141276669536,0.00644607719248,-1.52397622897
1385568060012808961,0.0387745881672,-0.326386622346,-0.11457505463,-0.0139596574938,0.00618757488605,-1.52399878746
1385568060022783691,0.0387264784106,-0.326471287213,-0.11453017656,-0.014234696188,0.0071271896948,-1.52391225737
1385568060032810129,0.0387932401498,-0.326416087096,-0.114560683383,-0.0142844379239,0.00632812820056,-1.52408315092
1385568060042915573,0.038774560563,-0.326462855645,-0.114550168569,-0.0139940963171,0.006250135342,-1.52406413645
1385568060052791787,0.0387315091651,-0.326460008033,-0.114529827285,-0.0141252290705,0.0071032872697,-1.52424399253
1385568060063072895,0.0388154930529,-0.326449323838,-0.114598439796,-0.0141445573301,0.00639956429713,-1.52395274649
1385568060072962854,0.0388300172119,-0.326371143683,-0.114521334501,-0.0144473541287,0.00618425201658,-1.52428327413
1385568060082788041,0.0388065451711,-0.326441933473,-0.114585805278,-0.0141878281552,0.0064527883854,-1.52423207805
1385568060092784075,0.0387827500642,-0.326440940566,-0.11457488687,-0.0141652321989,0.00642774957996,-1.52402633943
1385568060102791616,0.03879632902,-0.326440368592,-0.114595327552,-0.0144874087123,0.00631555388082,-1.52394608985
1385568060113097883,0.0387315898601,-0.326454663964,-0.114525038663,-0.0143855157057,0.00716539034106,-1.52409946474
1385568060122930030,0.0387671591753,-0.326454440043,-0.114556068177,-0.0141309644442,0.00645791877677,-1.52395530828
1385568060132796424,0.0387702499858,-0.326403963986,-0.114539183079,-0.0140189382432,0.00616330791982,-1.52379682216
1385568060142907593,0.038642813354,-0.326482059336,-0.114559149663,-0.0134193052656,0.0070829773624,-1.52431924344
1385568060152897936,0.0387993469829,-0.326448779143,-0.114576922782,-0.0141368609437,0.00652742401446,-1.52408269582
1385568060162918521,0.0387940498603,-0.326460976226,-0.114569664375,-0.0141249027178,0.00640868271144,-1.52368375986
1385568060172855038,0.0387632610199,-0.326445640183,-0.114659068157,-0.0136913191369,0.00662612567384,-1.52431576596
1385568060182922872,0.0387282642448,-0.326474888401,-0.11449318976,-0.0139915067368,0.00701779845591,-1.52439992474
1385568060192814361,0.0387301104769,-0.326469726601,-0.114516041091,-0.0142522684129,0.00715135991946,-1.52370424986
1385568060202867240,0.0386914708305,-0.326449213562,-0.114640379785,-0.0134013821361,0.00650729566807,-1.52406620853
1385568060212955668,0.0388108170818,-0.326458171167,-0.114584689917,-0.0140440474929,0.00647263309292,-1.52419730325
1385568060222891510,0.0386434128367,-0.326464749282,-0.114609537565,-0.0138387056666,0.00647809039928,-1.52443498271
1385568060233024976,0.0388080725572,-0.326440976928,-0.114625001466,-0.0138809816469,0.00639741166049,-1.52374391943
1385568060242801622,0.0387509528175,-0.32649023248,-0.114542846144,-0.0141805745275,0.00619575939564,-1.52405462022
1385568060252773612,0.0387407619446,-0.32648414802,-0.114565875058,-0.0143228217962,0.00616386154407,-1.52399864833
1385568060262771527,0.0387685371798,-0.326406408167,-0.114621231338,-0.0138305057501,0.00600178663927,-1.52356463241
1385568060272788494,0.0387769024659,-0.326441916667,-0.114570483002,-0.0141463456902,0.00629520111266,-1.52405338441
1385568060282779233,0.0388047754552,-0.326470611764,-0.114586172278,-0.0145057580605,0.00650073645066,-1.52389500249
1385568060292930575,0.0387716718926,-0.326433556867,-0.114571346877,-0.0141415324608,0.00643177689367,-1.52388630498
1385568060302799538,0.0388228123603,-0.326441424542,-0.11462048975,-0.0135516724629,0.00638026036697,-1.52433719434
1385568060312892323,0.0386889483054,-0.326460675031,-0.114662341526,-0.0131515155265,0.00604657269148,-1.5241884405
1385568060322808383,0.0385877705737,-0.326438934443,-0.114713683636,-0.0129673146955,0.00609346642821,-1.52419092661
1385568060332939814,0.0387537105508,-0.326474735348,-0.114526802382,-0.0143088935668,0.00630384631985,-1.52418832412
1385568060342787423,0.0386548744292,-0.326417851275,-0.114540560308,-0.0134586287956,0.00569436264049,-1.52380224402
1385568060352888938,0.0386642061877,-0.326486931375,-0.114515995745,-0.0141165081254,0.00566797790667,-1.52399413301
1385568060362865283,0.0387587174664,-0.326479079322,-0.11459549454,-0.0144071971316,0.00612185886523,-1.52408122306
1385568060372815115,0.0387318200296,-0.326477088948,-0.114532892525,-0.0139958131422,0.00636175851188,-1.52411414378
1385568060383303226,0.038697137641,-0.326438725659,-0.114583036107,-0.013290389448,0.00622242811183,-1.52476536533
1385568060392861475,0.0386571258712,-0.326432470476,-0.114618714703,-0.0129722839832,0.00584948148984,-1.52455286608
1385568060402875099,0.0385540411453,-0.326418258612,-0.114741959254,-0.0127138410925,0.00651172317853,-1.52461523706
1385568060412822319,0.0386907087795,-0.3264033806,-0.114704972038,-0.0138077108926,0.00642255528208,-1.52490044662
1385568060422828209,0.0386215567648,-0.326400664906,-0.114492764488,-0.0141212583033,0.00576027736766,-1.52422113997
1385568060432897481,0.0386530808761,-0.326430404504,-0.114471477972,-0.0143519900277,0.00614678556114,-1.52447262027
1385568060442946199,0.0386213030237,-0.326434308048,-0.114483948589,-0.0144467309994,0.00717237111525,-1.52454055448
1385568060452889177,0.0387159078591,-0.32648279628,-0.114550727175,-0.0138621540811,0.00582954267903,-1.52429968687
1385568060462764205,0.0386185001308,-0.326379472771,-0.114649855811,-0.0132669916119,0.00596991733388,-1.52481175517
1385568060472805620,0.0386538802003,-0.326409856785,-0.114451308815,-0.0139902101734,0.00689712710153,-1.524682474
1385568060482874322,0.0386392316927,-0.326393714674,-0.114520301921,-0.0139438002046,0.00630693455636,-1.52466645061
1385568060492820080,0.0386142868507,-0.32634880947,-0.114543448463,-0.013867876584,0.00573019176108,-1.52448083397
1385568060502831069,0.0386087784552,-0.326364240756,-0.114668800571,-0.013663069309,0.00606223886171,-1.52501873869
1385568060512889377,0.0385388072963,-0.326390143981,-0.11460747451,-0.0130401363134,0.00612261202569,-1.52468571663
1385568060522807291,0.0386960075149,-0.326370691141,-0.114543944044,-0.0137306480071,0.00627636543671,-1.52486442499
1385568060532910165,0.0386795735676,-0.326445198674,-0.114510644324,-0.0135728129109,0.00573113304761,-1.52468707603
1385568060544228959,0.0385391745725,-0.326318353431,-0.114649507519,-0.0136100945416,0.00605615229262,-1.52482086143
1385568060552827889,0.038597992038,-0.326381630466,-0.114536486489,-0.014192183422,0.00619323574857,-1.52485455296
1385568060562862182,0.0385458469366,-0.326313482364,-0.114489368288,-0.0135542636421,0.0057428081074,-1.52463594591
1385568060572923523,0.0385601993829,-0.326472890375,-0.114610814174,-0.0137853721425,0.00443443765501,-1.52464337941
1385568060583146839,0.0386057303192,-0.326445310884,-0.114645847748,-0.0140026995371,0.00484456510957,-1.52483066991
1385568060592955787,0.0383586243537,-0.326372139082,-0.114614265007,-0.0134974272535,0.00552853454655,-1.52487683741
1385568060602847455,0.0384333991836,-0.326408783786,-0.114551749238,-0.0143601112829,0.00539557626923,-1.52460020925
1385568060612961869,0.0384762377661,-0.32639132068,-0.114620094346,-0.0146349652359,0.0048684251527,-1.52499685874
1385568060622800649,0.0383637616472,-0.326335538783,-0.114831197601,-0.0139695787148,0.005275780385,-1.52509442578
1385568060632916581,0.0383726302255,-0.326294144152,-0.114684422942,-0.0136942887844,0.00460112546025,-1.52495094936
1385568060642786218,0.0384357935628,-0.326319122004,-0.114685675962,-0.0137262934434,0.00502707128247,-1.5254883151
1385568060653083303,0.0384049423657,-0.326311848497,-0.114700762634,-0.0137197978094,0.00506432105784,-1.52520834398
1385568060662840416,0.0383758698042,-0.326272196716,-0.114636362128,-0.0130269536489,0.00688959435518,-1.52581906895
1385568060672778364,0.0384348653849,-0.326210032852,-0.114580175273,-0.0132395806103,0.00578589969813,-1.52570515799
1385568060682972630,0.0385363525457,-0.32626245972,-0.114486723028,-0.0137441705669,0.00597803642744,-1.52533746579
1385568060692807063,0.0385471047615,-0.326283998796,-0.114455032689,-0.0140823386944,0.00627924898982,-1.52564629476
1385568060702787849,0.0384980670013,-0.326263573724,-0.114560368593,-0.0140383032411,0.00621756857131,-1.52551925379
1385568060712785968,0.0384792748611,-0.326279307853,-0.1145446475,-0.0138216133391,0.00574582479664,-1.52544260217
1385568060722802042,0.0384385866485,-0.326279979594,-0.114394890835,-0.0138376247933,0.00658344217492,-1.52567541505
1385568060732785989,0.0384330913643,-0.326234873781,-0.114418462864,-0.013797061511,0.00674618695128,-1.52553803515
1385568060742906540,0.0384402033121,-0.326227684623,-0.114485424783,-0.0134153171467,0.00552444487834,-1.52531775908
1385568060752807320,0.0384796384825,-0.326251994635,-0.114490128536,-0.01384257156,0.00585023594568,-1.52601376857
1385568060762777790,0.0383887567738,-0.326239910755,-0.114422042078,-0.0141186498907,0.00679445302469,-1.525523238
1385568060772783071,0.038455568389,-0.326230965924,-0.114615132092,-0.0137289967628,0.00637051863449,-1.5257612445
1385568060782802155,0.0383508418179,-0.32616429646,-0.114486304591,-0.0135903039842,0.00642743149549,-1.52577325255
1385568060792779580,0.0383263169296,-0.326199504698,-0.114625355343,-0.0131629868599,0.00741657520877,-1.52583503566
1385568060802787904,0.0384843231106,-0.326225268443,-0.114466217877,-0.0137955006382,0.00604833651776,-1.52600929408
1385568060812952851,0.0384502978422,-0.326160757451,-0.114716829091,-0.013157922257,0.0066844517724,-1.52617246969
1385568060822789984,0.0383452154982,-0.326201037174,-0.114472769741,-0.0143581285752,0.0066833439627,-1.52560476157
1385568060832774526,0.0384771933055,-0.326191689977,-0.114509079926,-0.0138238607903,0.00689912604501,-1.52604895751
1385568060842919379,0.0385239433605,-0.326143497431,-0.114568106834,-0.0131844067039,0.00642453210515,-1.52600696225
1385568060852856577,0.0383363478589,-0.326103573181,-0.114642807511,-0.0126416939963,0.00670958562701,-1.52562730691
1385568060862788561,0.0383495193635,-0.326167882868,-0.114647076223,-0.0133627199219,0.00591477132053,-1.52657454407
1385568060872780457,0.038426494469,-0.325990866869,-0.114642838926,-0.0134115393894,0.00679091761573,-1.52647002077
1385568060882773609,0.0383989307325,-0.326187560892,-0.114482201013,-0.0142844429992,0.00636941824393,-1.52604021779
1385568060892770769,0.038270568446,-0.326191725636,-0.114473638471,-0.0140615000393,0.00697875102881,-1.5259485221
1385568060902806978,0.0383774643432,-0.32616045508,-0.114576734137,-0.0134636190829,0.00677272040013,-1.5258548943
1385568060912874612,0.0383825798724,-0.326177910285,-0.114518819172,-0.0137939020835,0.00597785600358,-1.52605894917
1385568060922799627,0.0381900001899,-0.326102831684,-0.114512180977,-0.01322702241,0.00667926249542,-1.52588273664
1385568060933075897,0.0382976056817,-0.326168615147,-0.114613365943,-0.0130137054293,0.00610358254889,-1.52636965172
1385568060942804687,0.0382282075974,-0.326172505312,-0.114551499055,-0.0133257890196,0.00677747748458,-1.5261272743
1385568060952771724,0.0382660630709,-0.32615181146,-0.114548139618,-0.0134554155987,0.00684448375084,-1.52642995136
1385568060962788152,0.0382610062223,-0.326136108391,-0.114455165416,-0.0137891253848,0.00647850216143,-1.52581076929
1385568060972846282,0.0382752786829,-0.326177367678,-0.11466157903,-0.0132007511187,0.00707181196963,-1.52601827385
1385568060983221426,0.0382752786829,-0.326177367678,-0.11466157903,-0.0132007511187,0.00707181196963,-1.52601827385
1385568060992884368,0.0383263931557,-0.326183607905,-0.114529034881,-0.013737171352,0.00587098329535,-1.52671982962
1385568061003068738,0.0382479112148,-0.326095749115,-0.114588627597,-0.0134146231396,0.00624959169766,-1.5264625119
1385568061013037974,0.0383170205861,-0.326159622506,-0.114589619741,-0.0134313834473,0.00627011996415,-1.52668217706
1385568061022784060,0.0383196700969,-0.326097969851,-0.114637223577,-0.013652827716,0.00661446423869,-1.52606388978
1385568061032843867,0.0382197619345,-0.326134242013,-0.114525507938,-0.0134969882943,0.00681460280761,-1.52704956701
1385568061043592428,0.0382197619345,-0.326134242013,-0.114525507938,-0.0134969882943,0.00681460280761,-1.52704956701
1385568061053000615,0.0382840326795,-0.326077537859,-0.114486390513,-0.013681428374,0.0059563666917,-1.52592459811
1385568061062963075,0.038324453904,-0.326128744661,-0.114488874198,-0.0140071682737,0.00622606644002,-1.52664805032
1385568061072967799,0.038245538198,-0.326151336764,-0.114468866078,-0.0140378477499,0.00671317810133,-1.52678745487
1385568061083006381,0.0382039144582,-0.32611165467,-0.11460616427,-0.0129665410918,0.00599204291712,-1.52661789423
1385568061092794827,0.0381331096255,-0.326055826987,-0.114561204192,-0.0130564688892,0.00690727226993,-1.52710354281
1385568061103305988,0.0381742636637,-0.326088695707,-0.1144943641,-0.0141991309351,0.00682882922396,-1.52744078095
1385568061113090616,0.0381742636637,-0.326088695707,-0.1144943641,-0.0141991309351,0.00682882922396,-1.52744078095
1385568061122918433,0.0380665917609,-0.326070059178,-0.114444693135,-0.0139332991081,0.00679008868621,-1.52813896623
1385568061133452213,0.0380053939582,-0.326034136867,-0.114580259587,-0.0134216825107,0.00715309139081,-1.52772017877
1385568061143167037,0.0381123597607,-0.326048552366,-0.114604308106,-0.0133424331278,0.00616671507504,-1.52875762661
1385568061152966690,0.0380089853303,-0.326061239654,-0.114555469556,-0.0129200552859,0.00667255711373,-1.52801235585
1385568061163281401,0.0381127461911,-0.32604337505,-0.11458436356,-0.0130107383407,0.00621689259933,-1.52879652421
1385568061172959581,0.0380034937045,-0.3260633552,-0.114523363049,-0.013442736902,0.00673622317016,-1.52848548902
1385568061183047064,0.0380232665771,-0.32599097506,-0.114582607267,-0.0135328470945,0.00567257596354,-1.52855072241
1385568061192920121,0.0379948415147,-0.325969706732,-0.114684925194,-0.0135464116257,0.00712498729374,-1.52936148588
1385568061202990251,0.0379646785283,-0.326004752968,-0.114579672543,-0.0137351843507,0.00591132221286,-1.52815342898
1385568061212947143,0.0379306821262,-0.325995208054,-0.114591378508,-0.0132915679416,0.00724589287272,-1.52900562235
1385568061222919845,0.0379738587242,-0.32606728194,-0.114574389166,-0.0127543423712,0.00595167788315,-1.52756258552
1385568061232844105,0.0380195813429,-0.326115734372,-0.114473834842,-0.0135154512815,0.00669975913519,-1.52770776892
1385568061243071661,0.0380318858837,-0.326163984968,-0.114580455696,-0.0134631470775,0.0058729583237,-1.52710247854
1385568061252967519,0.038077566578,-0.326121446189,-0.114554053909,-0.0141169236074,0.0058737525057,-1.52651388772
1385568061262924384,0.0379376667358,-0.326126240809,-0.114546223352,-0.0133552277501,0.00747857018086,-1.52579589445
1385568061272957361,0.0381002632075,-0.326123592436,-0.114572111187,-0.0133002108494,0.00608688197534,-1.52560842456
1385568061283023552,0.0381259345307,-0.326118462811,-0.114605207327,-0.0136372893249,0.00603442566528,-1.52555425202
1385568061292876854,0.0381308034083,-0.326093711579,-0.114633470542,-0.0139014507702,0.00621210087994,-1.52553050551
1385568061302864788,0.038114197872,-0.326006972879,-0.114633747794,-0.0136017079728,0.00614672538831,-1.52572524439
1385568061312863601,0.038109714764,-0.326083980367,-0.114598443436,-0.0133085376156,0.00582904811878,-1.52515170897
1385568061322882268,0.0380596889533,-0.32590591536,-0.114626382003,-0.0125454962432,0.0051512925125,-1.52568758604
1385568061332941954,0.0380638768731,-0.326042593392,-0.114710331826,-0.0126318908634,0.00577779260464,-1.52499721639
1385568061343052686,0.0380690616543,-0.325860559674,-0.114756686698,-0.0127910478408,0.0056181118326,-1.52662015708
1385568061352883065,0.0380226098021,-0.325930679642,-0.114616590492,-0.0131654459597,0.0060246779965,-1.52620364405
1385568061362839674,0.0379742788928,-0.325717643228,-0.114556850164,-0.0135354525086,0.00571068728397,-1.52717978095
1385568061372847788,0.0378756244115,-0.325581261866,-0.11471964998,-0.0137971609637,0.00692342278933,-1.52769986498
1385568061382764250,0.0378756244115,-0.325581261866,-0.11471964998,-0.0137971609637,0.00692342278933,-1.52769986498
1385568061392794134,0.0377356395036,-0.325674959945,-0.114736029731,-0.0135317397345,0.00655842017177,-1.52846852057
1385568061402896053,0.0377333794075,-0.325607080707,-0.114606695814,-0.0132645282509,0.0057695783164,-1.52808233074
1385568061412990636,0.0376551011933,-0.325329657477,-0.114680190944,-0.0128760033503,0.00580256548298,-1.52895376167
1385568061422902196,0.0375964715817,-0.3252156129,-0.114644587992,-0.0125949486608,0.00582431882583,-1.52835638624
1385568061432956870,0.0374925911097,-0.324967449583,-0.114635522032,-0.0127961390053,0.0063158899137,-1.52907313958
1385568061442969185,0.037365798497,-0.324983647761,-0.114636287759,-0.0131063661763,0.00629077809663,-1.52838012049
1385568061452916867,0.0372959395443,-0.324781541895,-0.114576648145,-0.013535377985,0.00639618623504,-1.52902942994
1385568061462854804,0.0373110474685,-0.324818030701,-0.114594297577,-0.0138132945317,0.00720430566857,-1.52856309064
1385568061472857769,0.0373164468468,-0.324565105739,-0.114676123998,-0.013683489671,0.00699674867818,-1.52904850466
1385568061483124996,0.0372138633658,-0.324373630541,-0.114698535615,-0.0126991177133,0.00555417586696,-1.52869713032
1385568061492788799,0.0372138633658,-0.324373630541,-0.114698535615,-0.0126991177133,0.00555417586696,-1.52869713032
1385568061502888545,0.037257680626,-0.324289544753,-0.114566127937,-0.0126209554657,0.00693911305153,-1.52881789399
1385568061512885001,0.037278253122,-0.323947764238,-0.11460124123,-0.0121405810881,0.00731641898906,-1.52921268481
1385568061522836567,0.0372091009578,-0.32399862898,-0.114866553443,-0.0129057761556,0.00618112283047,-1.52994316344
1385568061532910926,0.0371000786163,-0.323869423792,-0.114941092078,-0.0128339997084,0.00558957341958,-1.53058273132
1385568061542928699,0.0371242177498,-0.323698200852,-0.114801502781,-0.0123252821789,0.00627448271554,-1.53072670414
1385568061552822950,0.0369254100141,-0.323496737276,-0.114787599006,-0.011477822297,0.00707016618344,-1.53056194615
1385568061562824018,0.0368897172634,-0.323307420324,-0.114705363119,-0.0119954124192,0.00736645613796,-1.53136869
1385568061572814702,0.0367833929108,-0.323300739889,-0.114845837171,-0.0114895740172,0.00601350118212,-1.53154194718
1385568061582962688,0.0364068084256,-0.322987304964,-0.114897727303,-0.0111642237623,0.00488213516477,-1.532889213
1385568061592776006,0.0364068084256,-0.322987304964,-0.114897727303,-0.0111642237623,0.00488213516477,-1.532889213
1385568061602822422,0.0364309366881,-0.322847124283,-0.115016976975,-0.0123334213811,0.00589990418604,-1.53413783657
1385568061612902416,0.0361248019454,-0.322731017942,-0.114932273665,-0.0118918051659,0.00705874992307,-1.53504224565
1385568061622809837,0.0358843321055,-0.322496925154,-0.114584503201,-0.0107356484314,0.00677267277213,-1.53610454717
1385568061633273929,0.0356497405449,-0.322297572302,-0.114724706598,-0.0103837095093,0.00690858876926,-1.53652136665
1385568061642887542,0.0354425283444,-0.322160430828,-0.114932580078,-0.0101289554846,0.00501097546755,-1.53864616032
1385568061652826625,0.035089172804,-0.321922758832,-0.115090073764,-0.0106528863173,0.00483267468906,-1.53951047999
1385568061662879420,0.0347853947499,-0.321576262745,-0.115125488731,-0.0125574420038,0.00744774115606,-1.54171618032
1385568061672829699,0.0342516105901,-0.321386451975,-0.115081008615,-0.0138082251994,0.00773805788439,-1.54278051235
1385568061682957664,0.0339163251037,-0.32120898882,-0.114610302685,-0.0157882459981,0.00571384008665,-1.54355259387
1385568061693012164,0.0335083939135,-0.32099723377,-0.114587721116,-0.0144609999114,0.0055260712116,-1.54460037478
1385568061702854855,0.0331195193786,-0.320652010674,-0.114675405785,-0.0131298169323,0.00692566357905,-1.54577263724
1385568061712884851,0.0329542176438,-0.320399803977,-0.115028840101,-0.0114910997471,0.00927939275493,-1.54620993354
1385568061722916569,0.0326769464384,-0.320058852961,-0.115074814233,-0.010785787911,0.00821743549167,-1.54689414363
1385568061732847852,0.0323495243352,-0.319868039479,-0.114848809724,-0.0114435743012,0.00596793554998,-1.5471232504
1385568061742956420,0.0320170616507,-0.319530733483,-0.114597125925,-0.012505694024,0.00482652875815,-1.54746190128
1385568061752905653,0.031832518445,-0.319098015059,-0.114590311591,-0.0139604007502,0.00612591530918,-1.54791740808
1385568061762887317,0.0316053618299,-0.318864304468,-0.114869553588,-0.0133047323387,0.0076766583146,-1.54818018314
1385568061772792331,0.0314813576799,-0.31855636825,-0.114896198681,-0.0137325229518,0.00812053264757,-1.54923608403
1385568061782851335,0.0312281480345,-0.318456188009,-0.114924888371,-0.0121031115949,0.00587517155181,-1.54989124714
1385568061792914632,0.0309115723896,-0.318155696265,-0.114969931411,-0.00970011446476,0.00563787735921,-1.54961758564
1385568061802826681,0.0308261779924,-0.317920352669,-0.115191906238,-0.00887310409883,0.00409912173443,-1.55107036361
1385568061813003588,0.0305561940854,-0.317615838544,-0.115411123503,-0.00878668719715,0.00366658250704,-1.55202925903
1385568061822807625,0.0298901249573,-0.317223850257,-0.115284668522,-0.00995109465901,0.000602903372096,-1.55425806776
1385568061833363172,0.0298901249573,-0.317223850257,-0.115284668522,-0.00995109465901,0.000602903372096,-1.55425806776
1385568061843352272,0.0294968664192,-0.316776181162,-0.115476542192,-0.0100629200904,0.000416645488821,-1.55551704297
1385568061852959614,0.0291566573729,-0.316698818516,-0.115849086738,-0.0113216633252,-0.000691552012346,-1.5562305864
1385568061862918329,0.0286378535323,-0.316269993628,-0.116072684306,-0.0119332715733,-0.00116828694449,-1.55716693945
1385568061872830557,0.0277330996601,-0.315808638069,-0.116430512867,-0.0135222876308,-0.00413480452894,-1.55970576698
1385568061882772873,0.0277330996601,-0.315808638069,-0.116430512867,-0.0135222876308,-0.00413480452894,-1.55970576698
1385568061892882611,0.0272890874493,-0.315481221801,-0.116469151462,-0.0146224307708,-0.00657317561823,-1.56076856184
1385568061902925047,0.0266730524742,-0.315159001262,-0.116750435454,-0.0143954005939,-0.00963460799568,-1.56176535188
1385568061912980780,0.0261604158628,-0.314927925512,-0.116831522213,-0.0148054370774,-0.01148983305,-1.56279133221
1385568061922936749,0.0257489727198,-0.314532288481,-0.117205169517,-0.0141724179975,-0.0138162890583,-1.56322037418
1385568061932925173,0.0251793000473,-0.314244836471,-0.117477377338,-0.0134307015641,-0.015654903625,-1.5643983719
1385568061942865543,0.0245347164859,-0.313869628496,-0.11790733281,-0.0128715982788,-0.0171786235761,-1.56572764679
1385568061952906234,0.0238069291393,-0.313579363345,-0.118229401822,-0.013230934495,-0.0194312273057,-1.56754200161
1385568061963105101,0.0232323140781,-0.313277263587,-0.118570525655,-0.0141383042565,-0.0209551897812,-1.56875956852
1385568061973122949,0.0224486867511,-0.312907568778,-0.119047901629,-0.0150989960517,-0.0215823457634,-1.56986354774
1385568061983003059,0.0218269698819,-0.312651828581,-0.11963619117,-0.0168681084287,-0.0222138365386,-1.57055564152
1385568061992926455,0.0211995467076,-0.312353712538,-0.120403478146,-0.0171304759899,-0.0247205383168,-1.57030881697
1385568062003021767,0.0208143779439,-0.312180735685,-0.121009706594,-0.0172713895253,-0.0255152356827,-1.57025483016
1385568062013308747,0.0202095661783,-0.31184923614,-0.121712418701,-0.017893867199,-0.0256629560125,-1.5699709342
1385568062023041517,0.0195267126022,-0.311803353862,-0.122582665889,-0.019074150421,-0.027176876086,-1.56999137061
1385568062033193514,0.0190329091162,-0.311386967935,-0.123555117966,-0.019156242051,-0.0272692393127,-1.5704775012
1385568062042976809,0.0185495423854,-0.31135621704,-0.124315766734,-0.0193448179915,-0.0281609144991,-1.57064907353
1385568062052890852,0.0181433930998,-0.311105143997,-0.125650758253,-0.0187253753122,-0.0278221471507,-1.5715511108
1385568062062848795,0.0175668617793,-0.31088460595,-0.126885614283,-0.0181393220357,-0.0281422354252,-1.57150899436
1385568062072868638,0.0172874188935,-0.310709891148,-0.128186232757,-0.018162485314,-0.028430277098,-1.57221197703
1385568062083188812,0.0166930059076,-0.310566176832,-0.12946971483,-0.016907601623,-0.0284799423326,-1.57182437647
1385568062092906207,0.0162238286678,-0.310311482243,-0.130986522761,-0.0160622635516,-0.0313394026568,-1.57125774083
1385568062102923979,0.0157350038705,-0.310051818509,-0.132753544177,-0.0142256083477,-0.0325080520187,-1.57073285867
1385568062112958737,0.0151466157637,-0.309825008669,-0.134487996957,-0.0131218446334,-0.0345956713646,-1.57042808348
1385568062123014844,0.0148002835051,-0.309711664801,-0.136255457166,-0.0122371617454,-0.0363611777798,-1.57076012429
1385568062133163637,0.0142126134881,-0.309521655595,-0.138244386239,-0.0100433697828,-0.0375876476629,-1.56993183716
1385568062142865148,0.0138415788139,-0.309213843439,-0.140619573849,-0.0081980850807,-0.0412094269934,-1.56998826153
1385568062152907655,0.0134412717944,-0.308923076539,-0.14301006635,-0.00530410667431,-0.043908527513,-1.57032957627
1385568062162875060,0.0129051007171,-0.308837848652,-0.145357037776,-0.0038858868229,-0.0470110736739,-1.56944883471
1385568062172955281,0.0122496257905,-0.308937311177,-0.147763177867,-0.00336112852048,-0.04927283811,-1.56968847971
1385568062183056313,0.0114719735226,-0.308661701183,-0.15328701942,0.000285351123665,-0.0535462022054,-1.56836677234
1385568062192874544,0.0111233623178,-0.308709427824,-0.15618257955,0.00298343116025,-0.0573687640367,-1.5682753552
1385568062202829567,0.0111233623178,-0.308709427824,-0.15618257955,0.00298343116025,-0.0573687640367,-1.5682753552
1385568062212900435,0.0107003700579,-0.308860394468,-0.159234995713,0.00487532140788,-0.0602181479371,-1.56760191212
1385568062223185706,0.010180364942,-0.309145905855,-0.162429675643,0.00730538346184,-0.0634310478828,-1.56737556352
1385568062233003968,0.00978017550824,-0.309393912256,-0.165547928246,0.00752582938621,-0.0668933747388,-1.56734112682
1385568062242888325,0.00929097574817,-0.309854448277,-0.168812187935,0.00879897491848,-0.069713043609,-1.56684362326
1385568062252867745,0.00899669394503,-0.310328417262,-0.172138231837,0.00971529877389,-0.0707137255497,-1.56689448123
1385568062262790338,0.00862235814131,-0.310881851596,-0.17561527499,0.0115986300592,-0.0727418089354,-1.56637076209
1385568062272853423,0.00797481347736,-0.311463558205,-0.17919729789,0.0112766584441,-0.0733403782666,-1.56696552263
1385568062283004384,0.00765605182419,-0.312219542763,-0.18293627146,0.0105298035599,-0.0728763458863,-1.56729362166
1385568062292830945,0.00723103487755,-0.3129476021,-0.186422753409,0.0102659688221,-0.0729785453229,-1.5672346596
1385568062302914854,0.00673771206971,-0.313850754408,-0.190091130127,0.00949559284685,-0.0720175570736,-1.56691614786
1385568062312949817,0.00644014403577,-0.314817335733,-0.194134913798,0.0106248776598,-0.0706289492376,-1.56657559818
1385568062322932367,0.00606352795146,-0.315882380589,-0.198021538099,0.0110508211111,-0.0684576405994,-1.56640618311
1385568062332821811,0.0054826439375,-0.316960789341,-0.201656899922,0.0101778310832,-0.0665070783037,-1.56608694038
1385568062343029097,0.005286051173,-0.318018550568,-0.205684748022,0.00990283060342,-0.0652019984657,-1.56650418695
1385568062352894858,0.00486482201277,-0.319248418995,-0.209633272696,0.00888534183654,-0.0628008424671,-1.56647449445
1385568062362940219,0.00459552566791,-0.3206356491,-0.213704241562,0.00802684140553,-0.0598767354846,-1.5666449185
1385568062372908010,0.00415695072396,-0.321948031609,-0.217761156952,0.00971529431143,-0.0577859480589,-1.56670128706
1385568062383125701,0.00395017496927,-0.323378414497,-0.221952416426,0.0101279958087,-0.0555993644696,-1.56667207611
1385568062392897498,0.00373217366881,-0.324837836798,-0.226263220705,0.0110074100619,-0.052637344948,-1.56691924701
1385568062403004856,0.00329114298753,-0.326221893629,-0.230407127297,0.0107415744851,-0.0503463740622,-1.56695331071
1385568062412912564,0.00308996638994,-0.327969091163,-0.234696905966,0.00988952185672,-0.0491720857583,-1.56704631338
1385568062422864613,0.0026445336301,-0.329577522709,-0.238948600861,0.0101592296092,-0.0469808225511,-1.56757496218
1385568062432826151,0.00238527226508,-0.331194274016,-0.24320428688,0.00962045683365,-0.0450361391009,-1.56721960371
1385568062442945680,0.0023236350185,-0.33293027522,-0.247671623229,0.0100600526944,-0.0446170818495,-1.56660936485
1385568062452959593,0.00194880121021,-0.334846060783,-0.252059624573,0.0102631234125,-0.0425695503748,-1.56696847995
1385568062462856790,0.00161517016878,-0.338498894093,-0.260984646974,0.00894371492253,-0.0399071501223,-1.56601999836
1385568062472790300,0.00161517016878,-0.338498894093,-0.260984646974,0.00894371492253,-0.0399071501223,-1.56601999836
1385568062483273273,0.00143740174529,-0.340442359275,-0.26541163375,0.0104014977139,-0.0392875007283,-1.56567342252
1385568062492849357,0.00122561876915,-0.342382920728,-0.269982224472,0.0096962539646,-0.0391799303663,-1.56526016507
1385568062502935264,0.000975060152273,-0.344485269353,-0.274598190753,0.00977946906387,-0.0379094683152,-1.5662147679
1385568062512984317,0.000938608273272,-0.346518629401,-0.27931875289,0.00987255524785,-0.036960541079,-1.56577374736
1385568062522931532,0.000894033061731,-0.348656684902,-0.28414801874,0.00990045998836,-0.035240240639,-1.56657451039
1385568062532861060,0.000525860621993,-0.350888975742,-0.288758159103,0.0110243435188,-0.0353904498838,-1.56620904737
1385568062542918953,0.000569048838045,-0.353085284101,-0.293590338894,0.0115148028959,-0.0343760709837,-1.56557906214
1385568062552882621,0.000349974730693,-0.355185988828,-0.29835293707,0.0119765775409,-0.0333328775187,-1.56597367545
1385568062562871314,0.000307557092073,-0.35753281017,-0.303282248059,0.0112545294473,-0.0313800838581,-1.5654864361
1385568062572897246,0.000264172350558,-0.359635480003,-0.30811308607,0.00973141512235,-0.030649896837,-1.56549467824
1385568062583164540,-1.91369051711e-05,-0.362036012949,-0.312939332538,0.00879552437904,-0.028475499563,-1.56612370958
1385568062593131088,-0.000172046319731,-0.364118199113,-0.317907227898,0.00822647401396,-0.0269905162396,-1.56539221026
1385568062602909950,-6.7690377419e-05,-0.366434083679,-0.322925374957,0.00750303696208,-0.0251919629524,-1.56544045496
1385568062612945034,-0.000359883039589,-0.368813210087,-0.32784810464,0.00701958249929,-0.0227136988969,-1.56528831462
1385568062622980682,-0.000446099445142,-0.371142023947,-0.332758578822,0.00570055675044,-0.0219716482462,-1.56515520824
1385568062633129582,-0.000399899139544,-0.373514623694,-0.337913736687,0.00491360676633,-0.020103212536,-1.56583910876
1385568062642994595,-0.000607868588801,-0.375869332159,-0.342989682647,0.00507474515233,-0.0184550375493,-1.56557932117
1385568062653012084,-0.000548000287805,-0.378267529003,-0.348082201916,0.00520913527899,-0.0177877458177,-1.56543547868
1385568062662824488,-0.000645979156021,-0.380663741312,-0.35304727435,0.00417618937263,-0.0157524734859,-1.56543858246
1385568062672993750,-0.000657675713164,-0.383100130392,-0.35815039405,0.00543238118616,-0.0152252281892,-1.56521924587
1385568062683186492,-0.00049277262103,-0.385595215202,-0.363397980112,0.00555733706941,-0.0138756354002,-1.56524975483
1385568062692924436,-0.000633866566752,-0.388050471642,-0.368465602278,0.00701483604053,-0.0136483635877,-1.56446813634
1385568062702991807,-0.000426887046603,-0.390498750847,-0.3736561885,0.00838630036754,-0.0130932237757,-1.5642975158
1385568062712967363,-0.000289593272279,-0.393108412646,-0.378921372612,0.00996915320066,-0.0132173053384,-1.56422519496
1385568062722950262,-0.000323086912204,-0.395630735701,-0.384074878063,0.0117908173898,-0.0137240051372,-1.56406448401
1385568062733245288,-6.02101337495e-05,-0.400728900648,-0.39485299739,0.0130082659703,-0.0137490826839,-1.56392087475
1385568062742879946,-6.02101337495e-05,-0.400728900648,-0.39485299739,0.0130082659703,-0.0137490826839,-1.56392087475
1385568062753278328,3.59012991587e-05,-0.405924490313,-0.406157845904,0.0117277974087,-0.0135088739354,-1.56360393213
1385568062763718034,0.000107105715999,-0.408507235809,-0.411713276344,0.0118592424944,-0.0150361859338,-1.56349233924
1385568062772993176,0.000107105715999,-0.408507235809,-0.411713276344,0.0118592424944,-0.0150361859338,-1.56349233924
1385568062783035982,1.89533267516e-05,-0.411177363275,-0.417104742245,0.011390529821,-0.0149729569116,-1.56267825667
1385568062792861831,0.000442296315504,-0.413770605074,-0.422479225851,0.01175537971,-0.0161631573106,-1.5623646446
1385568062802980816,0.000384521155419,-0.416494043961,-0.427595923699,0.0110805337543,-0.0151029183609,-1.56228305866
1385568062812956236,0.000688055903813,-0.419045695132,-0.432722475297,0.0100567289069,-0.0166067457381,-1.56206226783
1385568062822796387,0.000751902251939,-0.421772596589,-0.437574538337,0.00944875205671,-0.0172493413805,-1.5616016917
1385568062832831270,0.000813417034487,-0.424465727281,-0.442154868069,0.00775882534885,-0.0183211633003,-1.56159172718
1385568062842893076,0.00103305043034,-0.427050557782,-0.446787104455,0.00768163383164,-0.0188966216053,-1.56097755968
1385568062852796969,0.00106124465821,-0.42976055153,-0.451295145742,0.00723191384388,-0.0184113814935,-1.56098512558
1385568062862877359,0.00130891153931,-0.432431149723,-0.455655116269,0.00577726787451,-0.0171578236068,-1.56070089363
1385568062872782503,0.00142503287664,-0.435205191663,-0.45965597483,0.00482719073486,-0.0183907669289,-1.5608907589
1385568062883012271,0.00174860848917,-0.440597008095,-0.467456028605,0.00246111719511,-0.0183419990467,-1.56034239027
1385568062892820421,0.00174860848917,-0.440597008095,-0.467456028605,0.00246111719511,-0.0183419990467,-1.56034239027
1385568062902890924,0.00164622501405,-0.443119921134,-0.471156489084,0.00164924879292,-0.0166716616659,-1.56029829714
1385568062912890072,0.00208016575899,-0.445928099958,-0.474713311418,0.00112756285471,-0.0171066534056,-1.56044495121
1385568062922789395,0.00208566369816,-0.448654915144,-0.47808355981,0.000734650218541,-0.0163702095471,-1.56022541321
1385568062933034820,0.00234300281775,-0.454228419817,-0.48445295075,-0.00128453546546,-0.0146364625764,-1.56025900505
1385568062942853638,0.00234300281775,-0.454228419817,-0.48445295075,-0.00128453546546,-0.0146364625764,-1.56025900505
1385568062952839190,0.00244072168204,-0.45676846323,-0.487205679357,-0.0021425167156,-0.0153728024739,-1.56008729393
1385568062962921422,0.0026173888165,-0.459704783242,-0.489727476328,-0.00324744998796,-0.0140742118707,-1.55974315786
1385568062972849146,0.00267400611658,-0.462391856717,-0.492496927915,-0.00291705713233,-0.0149079137433,-1.56000942402
1385568062982802212,0.00286665566191,-0.465432966767,-0.494902843281,-0.00432191725324,-0.0147823784506,-1.56052063187
1385568062992885955,0.00292662994353,-0.468099478746,-0.497313037898,-0.00447144986231,-0.0134548296622,-1.55997025073
1385568063002939842,0.00305176294988,-0.473597229046,-0.501162572041,-0.00632214075821,-0.0139800287228,-1.55965179342
1385568063012783054,0.00305176294988,-0.473597229046,-0.501162572041,-0.00632214075821,-0.0139800287228,-1.55965179342
1385568063022936932,0.0033609668545,-0.47918595159,-0.504826842353,-0.00705181999979,-0.0133302999482,-1.5595306547
1385568063032899759,0.00339160021935,-0.481838137041,-0.506374100848,-0.00774141501862,-0.0119396420344,-1.55951518928
1385568063042998690,0.00339160021935,-0.481838137041,-0.506374100848,-0.00774141501862,-0.0119396420344,-1.55951518928
1385568063052838914,0.00352216020008,-0.48489399039,-0.507723161516,-0.00849666554729,-0.0119699386958,-1.55952502012
1385568063062934083,0.00358708262675,-0.487432516591,-0.50899371226,-0.00819594433243,-0.0107668974207,-1.55964468634
1385568063072877103,0.00351500673035,-0.490497901768,-0.509897496506,-0.00885323538774,-0.0111058369624,-1.55932980833
1385568063083060094,0.0036522112021,-0.493269868624,-0.511023616525,-0.00848327976525,-0.00991255801822,-1.55961701555
1385568063092847395,0.00362345961869,-0.496101425218,-0.511756200577,-0.00907533831556,-0.00939622754417,-1.55966607555
1385568063102870833,0.00373168513518,-0.498990398276,-0.512411779298,-0.00892555482124,-0.00838762224744,-1.55965190405
1385568063113334909,0.00378986517019,-0.50172496278,-0.512975050141,-0.00866476623013,-0.00698232268528,-1.55979360263
1385568063122844224,0.00386153203499,-0.504737554133,-0.513348526716,-0.00836476983993,-0.00724686952039,-1.55971979132
1385568063132928774,0.00378134591228,-0.51039858884,-0.513863982176,-0.00762343369001,-0.00492689653541,-1.5598898854
1385568063142938870,0.00378134591228,-0.51039858884,-0.513863982176,-0.00762343369001,-0.00492689653541,-1.5598898854
1385568063152816823,0.00379520603684,-0.513174521967,-0.513698828842,-0.00711172687307,-0.003985613361,-1.55973118832
1385568063162814162,0.00391996699382,-0.518800200983,-0.513425813257,-0.00737586057918,-0.00169069828201,-1.55980183095
1385568063172770269,0.00385570049829,-0.521530019936,-0.513178844535,-0.00688756707396,-8.50494312688e-05,-1.56003830638
1385568063183056520,0.00381399625757,-0.524440372128,-0.512862846184,-0.00605898857136,0.00121056006551,-1.56019003163
1385568063192941429,0.00381399625757,-0.524440372128,-0.512862846184,-0.00605898857136,0.00121056006551,-1.56019003163
1385568063202903557,0.00381722033445,-0.527057777878,-0.512230670362,-0.00544261289357,0.00180904380295,-1.55995468828
1385568063213193421,0.00373265222042,-0.529986998206,-0.511808856356,-0.00537035784903,0.00276082742365,-1.56041190025
1385568063223089375,0.00367266415919,-0.532927568064,-0.51096793444,-0.00602450145347,0.00491804413685,-1.56091353393
1385568063233037522,0.00356637600698,-0.535535813675,-0.510243841559,-0.00523220635026,0.00593823660101,-1.56016649897
1385568063242993872,0.00370390780196,-0.538349059546,-0.50941392957,-0.00410220650661,0.00630727426918,-1.56075222673
1385568063253267280,0.00349120389678,-0.543717146147,-0.507534587033,-0.00437835668795,0.00902521433163,-1.56113522241
1385568063262935793,0.00349120389678,-0.543717146147,-0.507534587033,-0.00437835668795,0.00902521433163,-1.56113522241
1385568063272886336,0.00308679281122,-0.54643937619,-0.506984139744,-0.00992646752081,0.00100008566581,-1.55964880325
1385568063283012393,0.00313210576627,-0.551961105402,-0.504016973246,-0.00480987115412,0.0115779892781,-1.56158453601
1385568063292881824,0.00313210576627,-0.551961105402,-0.504016973246,-0.00480987115412,0.0115779892781,-1.56158453601
1385568063302910924,0.00311419645734,-0.554530649697,-0.502611225278,-0.00386325054707,0.0121327811001,-1.56100082105
1385568063312932623,0.00299794563667,-0.557018809886,-0.501429561629,-0.00409245284762,0.0135584277814,-1.56174555349
1385568063322928425,0.00270767319142,-0.562470901419,-0.498590480735,-0.00447654011337,0.015078788266,-1.56157347896
1385568063332916736,0.00254873704512,-0.565048358685,-0.496878820625,-0.00482272064787,0.0153526345938,-1.56153612448
1385568063342957082,0.00254873704512,-0.565048358685,-0.496878820625,-0.00482272064787,0.0153526345938,-1.56153612448
1385568063352880090,0.00250469214799,-0.567716720919,-0.495502498765,-0.00575222088494,0.0165931494324,-1.56200662859
1385568063362861847,0.00208207437523,-0.572796259743,-0.492206786574,-0.00615523748802,0.0178076375043,-1.56162664104
1385568063372782378,0.00208207437523,-0.572796259743,-0.492206786574,-0.00615523748802,0.0178076375043,-1.56162664104
1385568063383002038,0.0019121455738,-0.57525562232,-0.490744616461,-0.00617152640113,0.0191753854926,-1.56217469287
1385568063392902397,0.00145996437968,-0.580422893555,-0.487282815139,-0.00670147988502,0.0178773694093,-1.56172410665
1385568063402890668,0.00145996437968,-0.580422893555,-0.487282815139,-0.00670147988502,0.0178773694093,-1.56172410665
1385568063413035568,0.00107916238291,-0.585334795342,-0.483708551856,-0.00845635041537,0.0186185663929,-1.56110282363
1385568063422932712,0.00107916238291,-0.585334795342,-0.483708551856,-0.00845635041537,0.0186185663929,-1.56110282363
1385568063432826581,0.0007291505522,-0.590039734344,-0.480415280367,-0.00849389723212,0.018638074436,-1.56129887058
1385568063442809436,0.000490628083791,-0.59265400337,-0.478637342288,-0.0083875301428,0.0177437604783,-1.56119488451
1385568063452797087,0.000490628083791,-0.59265400337,-0.478637342288,-0.0083875301428,0.0177437604783,-1.56119488451
1385568063462853968,-2.33177544857e-05,-0.597398119892,-0.475228876193,-0.00972886908244,0.0190525780026,-1.56094680066
1385568063472775819,-0.000249492473659,-0.599698027884,-0.473487120345,-0.0102333678235,0.0179750721072,-1.56112862444
1385568063482867406,-0.00053753889942,-0.602032611744,-0.471701636787,-0.0103325882817,0.0181631799416,-1.56095026102
1385568063492774692,-0.000830608768077,-0.604271280558,-0.469913703752,-0.0105131409208,0.0180441226452,-1.56113467447
1385568063502854595,-0.000830608768077,-0.604271280558,-0.469913703752,-0.0105131409208,0.0180441226452,-1.56113467447
1385568063512831460,-0.00135473924228,-0.608794682576,-0.466541041153,-0.0112439497282,0.0186347501979,-1.56073568179
1385568063522918092,-0.00135473924228,-0.608794682576,-0.466541041153,-0.0112439497282,0.0186347501979,-1.56073568179
1385568063532923306,-0.00200178147639,-0.613118359221,-0.463214902659,-0.0111324885696,0.0197396223414,-1.56188692942
1385568063542786524,-0.00200178147639,-0.613118359221,-0.463214902659,-0.0111324885696,0.0197396223414,-1.56188692942
1385568063552943570,-0.00298476558608,-0.617522853283,-0.460008895032,-0.0112425333575,0.0166369545378,-1.56020502653
1385568063562842750,-0.00332420674364,-0.619754651278,-0.458334314622,-0.0115848760361,0.0160606530098,-1.56070140771
1385568063572864148,-0.00370848948024,-0.621970456502,-0.456553838299,-0.0120746949529,0.0150732085998,-1.56071965329
1385568063583119567,-0.00370848948024,-0.621970456502,-0.456553838299,-0.0120746949529,0.0150732085998,-1.56071965329
1385568063592792584,-0.00460148632258,-0.626035095512,-0.453462627805,-0.0129806401519,0.0150358040864,-1.56020469754
1385568063602940877,-0.00460148632258,-0.626035095512,-0.453462627805,-0.0129806401519,0.0150358040864,-1.56020469754
1385568063613153680,-0.00548686251775,-0.63023724046,-0.450650067901,-0.013525557588,0.0135195865103,-1.56061049695
1385568063622806706,-0.00548686251775,-0.63023724046,-0.450650067901,-0.013525557588,0.0135195865103,-1.56061049695
1385568063632907284,-0.00637886483463,-0.634196390035,-0.447897448377,-0.0135843418013,0.0137359749813,-1.56173189139
1385568063642846706,-0.00637886483463,-0.634196390035,-0.447897448377,-0.0135843418013,0.0137359749813,-1.56173189139
1385568063652806670,-0.00677097998233,-0.636262102666,-0.446407298607,-0.0130134143432,0.013024055489,-1.56143147687
1385568063662774441,-0.00731943810863,-0.638239777411,-0.445035868168,-0.0119707373023,0.0124256713405,-1.55994067911
1385568063672802105,-0.0081749202726,-0.641867524493,-0.442249776153,-0.0106034056002,0.0125464358773,-1.56022406004
1385568063682786640,-0.0081749202726,-0.641867524493,-0.442249776153,-0.0106034056002,0.0125464358773,-1.56022406004
1385568063692856069,-0.00866092863663,-0.643837410578,-0.441153717569,-0.00901314791686,0.0119655323488,-1.56069193971
1385568063702926426,-0.00920083174111,-0.646022201176,-0.439762468201,-0.00808663219432,0.0113867355508,-1.56031105441
1385568063712990344,-0.00971629817381,-0.647781138843,-0.438630509744,-0.0067033333484,0.011944553383,-1.55987835049
1385568063722906778,-0.010162160269,-0.64962809047,-0.437635588709,-0.00613844111532,0.0106033574449,-1.560025596
1385568063733022680,-0.0112109321199,-0.653328892666,-0.435401826841,-0.00494121024129,0.0106284213884,-1.56010450695
1385568063742910041,-0.0112109321199,-0.653328892666,-0.435401826841,-0.00494121024129,0.0106284213884,-1.56010450695
1385568063752970028,-0.0116943374975,-0.655239649162,-0.434412748723,-0.00549056319486,0.0117079965308,-1.56069541429
1385568063762818502,-0.0130581834281,-0.658793876264,-0.432645686732,-0.00545676129497,0.00933318535949,-1.56061435949
1385568063772885484,-0.0130581834281,-0.658793876264,-0.432645686732,-0.00545676129497,0.00933318535949,-1.56061435949
1385568063782821826,-0.013568018149,-0.660565279241,-0.43169526623,-0.00684323631941,0.00873382671303,-1.56015801003
1385568063792812013,-0.0141914210558,-0.662426176709,-0.430926078664,-0.0080818696721,0.00911853265994,-1.56011084332
1385568063802875315,-0.0148166358283,-0.663998983833,-0.430179408468,-0.00778323591605,0.00812793171534,-1.55935953326
1385568063813244905,-0.0154756028293,-0.665715892476,-0.429402211116,-0.00855655380157,0.00837929023995,-1.55931589326
1385568063822829534,-0.0162104065191,-0.667255680503,-0.42873633729,-0.00816835605416,0.0090599410731,-1.55883874243
1385568063833109272,-0.0168650141244,-0.668885817762,-0.428093393421,-0.00848642417557,0.00968187549055,-1.56020529759
1385568063842912417,-0.0174700861008,-0.670600174544,-0.427591267467,-0.00935139114602,0.0115107133357,-1.55974518815
1385568063852815659,-0.0181031234212,-0.671957190414,-0.427129757013,-0.00987426685967,0.0123868653762,-1.56025429231
1385568063862783088,-0.018825788422,-0.67377589572,-0.426569938812,-0.00997800699446,0.013009289059,-1.55977538179
1385568063872895493,-0.0195544136427,-0.675432203521,-0.426106929764,-0.0107204965914,0.0149323038084,-1.56004993494
1385568063882980828,-0.020245497158,-0.676758713745,-0.425688293367,-0.0110652866131,0.0166688372293,-1.56034624265
1385568063893037261,-0.0209848668582,-0.67809489847,-0.425186928375,-0.0119488307413,0.0167648781622,-1.55979466788
1385568063902981048,-0.0217251448563,-0.679616631986,-0.424993397737,-0.0128225957672,0.01797482588,-1.56026669218
1385568063912844940,-0.0225594100352,-0.681425053517,-0.424529263797,-0.0139362017537,0.0174147377975,-1.56023693372
1385568063922792235,-0.0233285445742,-0.682601310206,-0.424410381242,-0.0135548685788,0.0209875783838,-1.56035280098
1385568063933078038,-0.024146409775,-0.684062356723,-0.424338579999,-0.0143967301813,0.0220062832354,-1.56167230914
1385568063942858529,-0.0249912182354,-0.685703866276,-0.423729762583,-0.0150537872559,0.0212089965874,-1.56017510274
1385568063952889436,-0.0256962150521,-0.686931338993,-0.423765512505,-0.0146988201144,0.0219472616101,-1.56007644523
1385568063962813474,-0.0265324684021,-0.68870619696,-0.423597705314,-0.0153575142605,0.0217015387605,-1.56043886493
1385568063972836325,-0.0272404727815,-0.689905050711,-0.423419357958,-0.0148160631003,0.0219566052676,-1.55956613619
1385568063983006992,-0.0288396629901,-0.692778936344,-0.423388749835,-0.0141914935114,0.0228342408912,-1.5598312816
1385568063992852613,-0.0297455115718,-0.693943084798,-0.423401113683,-0.0132234019931,0.0221637223638,-1.5593110084
1385568064002803345,-0.0306101682879,-0.695197905786,-0.423457582027,-0.012458126338,0.0219385655709,-1.55886150742
1385568064012893120,-0.0306101682879,-0.695197905786,-0.423457582027,-0.012458126338,0.0219385655709,-1.55886150742
1385568064022833627,-0.0323556884919,-0.697875935775,-0.423565634281,-0.0126701664655,0.0216118807009,-1.55908805582
1385568064033031525,-0.0331626279281,-0.699061711842,-0.423739609071,-0.011842900826,0.0203525886364,-1.5587712962
1385568064043035727,-0.0331626279281,-0.699061711842,-0.423739609071,-0.011842900826,0.0203525886364,-1.5587712962
1385568064052818565,-0.034212791104,-0.700321607868,-0.423950688925,-0.0113350302033,0.02048202062,-1.55887202026
1385568064062789567,-0.0349549036442,-0.701465325522,-0.424337549967,-0.010814425545,0.0202027729877,-1.55979372188
1385568064072880754,-0.036810124235,-0.703925303216,-0.424687368997,-0.00953731314599,0.017146139208,-1.55867313216
1385568064083027218,-0.0376267559386,-0.704806207007,-0.424984362291,-0.00888824355091,0.0169270011033,-1.55929662644
1385568064092987758,-0.0376267559386,-0.704806207007,-0.424984362291,-0.00888824355091,0.0169270011033,-1.55929662644
1385568064102802006,-0.0387181047202,-0.705927256074,-0.425225602932,-0.00877066564613,0.0162159536238,-1.55836171987
1385568064112908607,-0.0395390947808,-0.707346956636,-0.425744286805,-0.00886293221333,0.0150468045546,-1.55900572977
1385568064123004845,-0.0404927626411,-0.708462408384,-0.426149266943,-0.00888729883845,0.0146210899838,-1.55901717775
1385568064132851685,-0.0413811876188,-0.709401752991,-0.426625561591,-0.00823865337444,0.0137662969649,-1.5582625893
1385568064142821392,-0.0422923006627,-0.710395013225,-0.427228029666,-0.00817107994713,0.0143800483805,-1.55922293798
1385568064152828709,-0.0434232878709,-0.711324706601,-0.427625485497,-0.00728762691494,0.0156327350859,-1.55831029832
1385568064162884133,-0.0441409717351,-0.712331900598,-0.428112915383,-0.00734665710531,0.0146140027082,-1.55904172759
1385568064172900223,-0.046320381212,-0.71421438528,-0.4290724804,-0.00662732285203,0.0125406717493,-1.55828558507
1385568064183093838,-0.0472796685813,-0.715522188068,-0.429810685637,-0.00592916979053,0.0118422411856,-1.5586382255
1385568064192774353,-0.0472796685813,-0.715522188068,-0.429810685637,-0.00592916979053,0.0118422411856,-1.5586382255
1385568064202864911,-0.0481911309782,-0.716498917286,-0.430422781556,-0.00598010013063,0.0124324836547,-1.55845511299
