%time,field.header.seq,field.header.stamp,field.header.frame_id,field.child_frame_id,field.transform.translation.x,field.transform.translation.y,field.transform.translation.z,field.transform.rotation.x,field.transform.rotation.y,field.transform.rotation.z,field.transform.rotation.w
1385568056732511094,527213,1385568056732511094,/world,vicon/Archie/Archie,0.0387381146555,0.326476650169,0.114520706038,-0.00283795826764,-0.00766521704232,0.69059926271,0.723191433014
1385568056742615031,527214,1385568056742615031,/world,vicon/Archie/Archie,0.0387625205882,0.326467119273,0.114535984642,-0.00286404483276,-0.00771850192019,0.690598177436,0.723191799799
1385568056752460100,527215,1385568056752460100,/world,vicon/Archie/Archie,0.0386802261953,0.32650241339,0.11444280409,-0.00305397270678,-0.00779093321686,0.690591898646,0.723196241787
1385568056762400712,527216,1385568056762400712,/world,vicon/Archie/Archie,0.0387669383484,0.326464094531,0.114533637355,-0.00287297394762,-0.00771227081562,0.690601398311,0.723188755133
1385568056772503599,527217,1385568056772503599,/world,vicon/Archie/Archie,0.0386652994045,0.326509696133,0.114431336874,-0.00306933981336,-0.0077466480129,0.690582229772,0.723205885292
1385568056782612439,527218,1385568056782612439,/world,vicon/Archie/Archie,0.0387607069736,0.326462568367,0.114523926868,-0.00287924841004,-0.00765180134115,0.690605058053,0.723185877666
1385568056792499408,527219,1385568056792499408,/world,vicon/Archie/Archie,0.0387554091615,0.326473489857,0.114533224951,-0.00286076460738,-0.00772505310773,0.690608185657,0.723182185541
1385568056802345487,527220,1385568056802345487,/world,vicon/Archie/Archie,0.038767448702,0.326463493024,0.114530997189,-0.00287332081242,-0.00771031400858,0.690594656664,0.723195212423
1385568056812564363,527221,1385568056812564363,/world,vicon/Archie/Archie,0.0387591879323,0.326472574668,0.114535182519,-0.00287552064793,-0.0077183509687,0.690600304509,0.723189724658
1385568056822322817,527222,1385568056822322817,/world,vicon/Archie/Archie,0.0387674896984,0.326470469205,0.114532699948,-0.0028862251527,-0.00770513158176,0.690586198012,0.723203293526
1385568056832553138,527223,1385568056832553138,/world,vicon/Archie/Archie,0.0386921125467,0.326498542513,0.11444590864,-0.00309879058498,-0.00780659296919,0.690589131027,0.723198525102
1385568056842502744,527224,1385568056842502744,/world,vicon/Archie/Archie,0.038691541274,0.326500404843,0.114438563814,-0.00307815962959,-0.00778551579039,0.690586883892,0.723200986223
1385568056852964970,527225,1385568056852964970,/world,vicon/Archie/Archie,0.0387484662344,0.326479009991,0.114498944863,-0.00331514796477,-0.00751459729746,0.690625231267,0.723166184607
1385568056862618217,527226,1385568056862618217,/world,vicon/Archie/Archie,0.0387605041714,0.326468308449,0.114541665546,-0.0028548851187,-0.00771675067147,0.690586633899,0.723202877808
1385568056872409038,527227,1385568056872409038,/world,vicon/Archie/Archie,0.0387692827028,0.326467208846,0.114538008985,-0.00284906973694,-0.00772448174394,0.690604463397,0.723185792393
1385568056882378268,527228,1385568056882378268,/world,vicon/Archie/Archie,0.0386838808004,0.326503987457,0.114449864489,-0.00308475998074,-0.00780093750882,0.690586864779,0.723200810166
1385568056892530311,527229,1385568056892530311,/world,vicon/Archie/Archie,0.0387188546632,0.326486446975,0.114511083117,-0.00282817489139,-0.0075551515319,0.6906193534,0.723173443802
1385568056902470242,527230,1385568056902470242,/world,vicon/Archie/Archie,0.0387404321564,0.326491199405,0.114495990829,-0.00330492376373,-0.00749454617089,0.690625372389,0.723166304711
1385568056912398434,527231,1385568056912398434,/world,vicon/Archie/Archie,0.0387631606472,0.32647020377,0.114528862519,-0.00285954730979,-0.00766419990091,0.690599567777,0.723191067433
1385568056922531579,527232,1385568056922531579,/world,vicon/Archie/Archie,0.0387331388349,0.326475214093,0.114523880791,-0.00282411548387,-0.00767267116517,0.690601550408,0.723189223553
1385568056932457441,527233,1385568056932457441,/world,vicon/Archie/Archie,0.0387407293992,0.326479769362,0.114517774876,-0.00283430102933,-0.00761594075105,0.690602407876,0.723188964531
1385568056942492739,527234,1385568056942492739,/world,vicon/Archie/Archie,0.0386648461201,0.326508212084,0.114420189671,-0.00306734310279,-0.00769333926914,0.690590654773,0.723198417779
1385568056952307377,527235,1385568056952307377,/world,vicon/Archie/Archie,0.0387369837657,0.326473320716,0.114531801238,-0.00282778855977,-0.00766410580442,0.69059766583,0.723193009537
1385568056962452966,527236,1385568056962452966,/world,vicon/Archie/Archie,0.0388064928132,0.326463152397,0.114590356338,-0.00311134110397,-0.00736185634549,0.690641265107,0.723153348577
1385568056972430033,527237,1385568056972430033,/world,vicon/Archie/Archie,0.0388003683233,0.326461352189,0.114585058697,-0.00307567694554,-0.00738632038645,0.690648340774,0.723146494058
1385568056982410555,527238,1385568056982410555,/world,vicon/Archie/Archie,0.0387480191331,0.326474394623,0.1145267814,-0.0028809241368,-0.00764804855281,0.690605356745,0.723185625455
1385568056992503900,527239,1385568056992503900,/world,vicon/Archie/Archie,0.0387628552565,0.326474212594,0.114541399018,-0.00287257602552,-0.00773607507976,0.690593901043,0.723195661832
1385568057002274265,527240,1385568057002274265,/world,vicon/Archie/Archie,0.0387659995979,0.326470938439,0.114542410395,-0.00285851309711,-0.00772056241697,0.690588028806,0.723201490795
1385568057012511407,527241,1385568057012511407,/world,vicon/Archie/Archie,0.0387320159601,0.326479725834,0.114511017089,-0.00284955013286,-0.00761932044062,0.690600960818,0.723190250859
1385568057022520061,527242,1385568057022520061,/world,vicon/Archie/Archie,0.0386941884164,0.3264958384,0.114451795402,-0.00309277114764,-0.00780061480996,0.690590799113,0.723197022502
1385568057032446065,527243,1385568057032446065,/world,vicon/Archie/Archie,0.0386853428504,0.326501799366,0.114449656648,-0.00307763197449,-0.00782628238841,0.690586721805,0.72320070323
1385568057042486030,527244,1385568057042486030,/world,vicon/Archie/Archie,0.0386685200559,0.326502123113,0.114428416693,-0.00305082778343,-0.00772320653517,0.690577849513,0.723210396975
1385568057052448186,527245,1385568057052448186,/world,vicon/Archie/Archie,0.0387281865646,0.32647832151,0.114508961283,-0.0028279522381,-0.0075734242336,0.690603725294,0.723188177822
1385568057062528290,527246,1385568057062528290,/world,vicon/Archie/Archie,0.0387450333676,0.326466885998,0.114530057092,-0.00285264463544,-0.0076667915044,0.690605955805,0.723184967027
1385568057072637170,527247,1385568057072637170,/world,vicon/Archie/Archie,0.0387465055696,0.326479154215,0.114503120868,-0.00333667636434,-0.00750149437683,0.690629406267,0.723162234476
1385568057082477485,527248,1385568057082477485,/world,vicon/Archie/Archie,0.0387620758617,0.326456923392,0.114527539644,-0.00287719648664,-0.00766943493362,0.690595189756,0.723195122628
1385568057092575805,527249,1385568057092575805,/world,vicon/Archie/Archie,0.0386859488303,0.326484547649,0.114449735508,-0.0030992054814,-0.00781027839334,0.690589120487,0.723198493598
1385568057102580452,527250,1385568057102580452,/world,vicon/Archie/Archie,0.0387951252923,0.326440114374,0.114572634702,-0.00307957043555,-0.00736085511539,0.690642164989,0.723152635338
1385568057112546832,527251,1385568057112546832,/world,vicon/Archie/Archie,0.0386656399052,0.326490217759,0.11443524645,-0.00307704001331,-0.00775981495006,0.690588376112,0.723199842282
1385568057122513049,527252,1385568057122513049,/world,vicon/Archie/Archie,0.0386815300591,0.326488801336,0.114436735759,-0.00308958822958,-0.00775182638685,0.690579091448,0.723208740329
1385568057132758999,527253,1385568057132758999,/world,vicon/Archie/Archie,0.0387532494365,0.326472746568,0.114507002135,-0.00332379837117,-0.00753254607388,0.690622538125,0.723168530114
1385568057142495779,527254,1385568057142495779,/world,vicon/Archie/Archie,0.0386978333887,0.326480617149,0.114452105475,-0.00308925158145,-0.00781731561514,0.690583186438,0.723204126586
1385568057152624231,527255,1385568057152624231,/world,vicon/Archie/Archie,0.0387949301194,0.326430553119,0.11458051098,-0.00305989193065,-0.00738561930128,0.690641511477,0.72315309051
1385568057162495748,527256,1385568057162495748,/world,vicon/Archie/Archie,0.0386612607958,0.326492607956,0.11442963008,-0.00305477471633,-0.00772016220174,0.690587336276,0.723201353997
1385568057172462709,527257,1385568057172462709,/world,vicon/Archie/Archie,0.0386742304191,0.326481369024,0.11443910364,-0.00305288117002,-0.00779442770247,0.690584818242,0.723202969869
1385568057182365914,527258,1385568057182365914,/world,vicon/Archie/Archie,0.0386862606602,0.326477341096,0.114449069102,-0.0030969199669,-0.00781036998061,0.690579494526,0.723207694199
1385568057192407962,527259,1385568057192407962,/world,vicon/Archie/Archie,0.0387550309303,0.326451773657,0.114534185535,-0.00286765621094,-0.00766215626197,0.690596664237,0.723193829657
1385568057202504289,527260,1385568057202504289,/world,vicon/Archie/Archie,0.0387724082986,0.326440658877,0.114543844148,-0.00286748847362,-0.00773384823778,0.690585555407,0.723203675159
1385568057212416919,527261,1385568057212416919,/world,vicon/Archie/Archie,0.0387692881747,0.326445014779,0.114535684273,-0.00288880658061,-0.00767144610661,0.690595959127,0.723194320324
1385568057222652720,527262,1385568057222652720,/world,vicon/Archie/Archie,0.038821687025,0.32643002488,0.114598212461,-0.00309906627441,-0.00742012351114,0.690637543133,0.723156360389
1385568057232376769,527263,1385568057232376769,/world,vicon/Archie/Archie,0.0386825953667,0.326479299511,0.114446444228,-0.00311570679269,-0.00774854677732,0.69058987349,0.723198367689
1385568057242475026,527264,1385568057242475026,/world,vicon/Archie/Archie,0.0387685059572,0.326444749544,0.114546826147,-0.00288455355279,-0.0077126176642,0.690595139257,0.723194682305
1385568057252524770,527265,1385568057252524770,/world,vicon/Archie/Archie,0.0387629337477,0.326447424646,0.114543149413,-0.00287783274265,-0.00772580831428,0.690590955271,0.723198563648
1385568057262450742,527266,1385568057262450742,/world,vicon/Archie/Archie,0.0387356094433,0.326451898545,0.114515856102,-0.00285680101336,-0.00760059672373,0.690614897369,0.723177110499
1385568057272498537,527267,1385568057272498537,/world,vicon/Archie/Archie,0.0387702056391,0.326440636523,0.114544127475,-0.00287037273207,-0.0077291649527,0.690607885403,0.723182390265
1385568057282523906,527268,1385568057282523906,/world,vicon/Archie/Archie,0.0387437145384,0.326457608257,0.114503863513,-0.00333970904059,-0.00752092995179,0.690640189566,0.723151720258
1385568057292422640,527269,1385568057292422640,/world,vicon/Archie/Archie,0.0387025619684,0.326466612058,0.114453482433,-0.00310244622858,-0.00782374387622,0.690586555166,0.723200783796
1385568057302424603,527270,1385568057302424603,/world,vicon/Archie/Archie,0.0387569109706,0.326458455862,0.114509955703,-0.00333861754266,-0.00752404722397,0.69063111276,0.723160361492
1385568057312488970,527271,1385568057312488970,/world,vicon/Archie/Archie,0.0387712373769,0.326437267913,0.114534848715,-0.00286582460369,-0.00768886994525,0.690606020054,0.723184619163
1385568057322442022,527272,1385568057322442022,/world,vicon/Archie/Archie,0.0387018815539,0.326472151583,0.114454830272,-0.00307581615657,-0.00783457472869,0.690590888542,0.723196642316
1385568057332630327,527273,1385568057332630327,/world,vicon/Archie/Archie,0.0387597977416,0.326454231309,0.114505351762,-0.00333511909066,-0.00751019571869,0.690627251689,0.723164208991
1385568057343102922,527274,1385568057343102922,/world,vicon/Archie/Archie,0.0387794117606,0.326445608525,0.114541680523,-0.00286699427191,-0.00772165470358,0.690601494428,0.723188586944
1385568057352374983,527275,1385568057352374983,/world,vicon/Archie/Archie,0.0387978365101,0.326435979846,0.114564933046,-0.00308810706968,-0.00725128267829,0.690661515452,0.723135224953
1385568057362598955,527276,1385568057362598955,/world,vicon/Archie/Archie,0.0387722424481,0.326449270344,0.114535264076,-0.00287408972984,-0.00770007593702,0.690599345342,0.723190841101
1385568057372492435,527277,1385568057372492435,/world,vicon/Archie/Archie,0.0388312012575,0.326436948995,0.114592709289,-0.00310937847556,-0.00741625000898,0.690633842494,0.723159890068
1385568057382387385,527278,1385568057382387385,/world,vicon/Archie/Archie,0.0387722353793,0.326444936772,0.114531106107,-0.00287814709199,-0.00770627546626,0.690599729962,0.723190391643
1385568057392611182,527279,1385568057392611182,/world,vicon/Archie/Archie,0.0388284288973,0.326439596885,0.114590792341,-0.00312791446318,-0.00740190427394,0.690634641818,0.723159193736
1385568057402299163,527280,1385568057402299163,/world,vicon/Archie/Archie,0.0387650497556,0.326461940415,0.114529723249,-0.00286792226994,-0.00767059164278,0.690590094198,0.723200013027
1385568057412746121,527281,1385568057412746121,/world,vicon/Archie/Archie,0.0387579083282,0.32646657006,0.114499966335,-0.00332542567285,-0.00748728195574,0.690636043544,0.723156094844
1385568057422553944,527282,1385568057422553944,/world,vicon/Archie/Archie,0.0387776284046,0.326430743988,0.114534756568,-0.00286458492424,-0.00775025275953,0.690607775766,0.723182292224
1385568057432346731,527283,1385568057432346731,/world,vicon/Archie/Archie,0.038769762795,0.326451394757,0.114539892201,-0.00287687385176,-0.00771945696127,0.690587591772,0.723201847116
1385568057442435002,527284,1385568057442435002,/world,vicon/Archie/Archie,0.0387718112657,0.326449671362,0.114539727772,-0.00285022599799,-0.00771344298245,0.69058694057,0.723202638631
1385568057452480762,527285,1385568057452480762,/world,vicon/Archie/Archie,0.0388286553624,0.326429511619,0.114587789418,-0.00310414630243,-0.007411606904,0.690651558383,0.723143040665
1385568057462436625,527286,1385568057462436625,/world,vicon/Archie/Archie,0.0387789314363,0.326443571881,0.114532237755,-0.00288247085638,-0.00772142237483,0.690588763088,0.723200685353
1385568057472456267,527287,1385568057472456267,/world,vicon/Archie/Archie,0.0386975696705,0.326476853604,0.114438912594,-0.00310612724548,-0.00781416800999,0.69058281151,0.723204446335
1385568057482433443,527288,1385568057482433443,/world,vicon/Archie/Archie,0.0387798183517,0.326446033214,0.114533539468,-0.00287107530293,-0.00772561887502,0.690611841117,0.72317864781
1385568057492458282,527289,1385568057492458282,/world,vicon/Archie/Archie,0.0387773910587,0.326442453351,0.114529028946,-0.00286076805824,-0.00771471621635,0.690597805702,0.723192208143
1385568057502290215,527290,1385568057502290215,/world,vicon/Archie/Archie,0.0387741146324,0.326440592275,0.114532565729,-0.00285679774322,-0.00773146109762,0.690604718697,0.723185443527
1385568057512469098,527291,1385568057512469098,/world,vicon/Archie/Archie,0.0387699464219,0.326446117073,0.11454203238,-0.00286630225444,-0.00772291131323,0.690589961245,0.723199589588
1385568057522656500,527292,1385568057522656500,/world,vicon/Archie/Archie,0.0387108718957,0.326467133046,0.114449065821,-0.00308752657493,-0.00783538878067,0.690598136536,0.723189662312
1385568057532295040,527293,1385568057532295040,/world,vicon/Archie/Archie,0.0387077533375,0.326469233026,0.114447023217,-0.00309605254389,-0.00781023747519,0.690590496111,0.723197193945
1385568057542420871,527294,1385568057542420871,/world,vicon/Archie/Archie,0.0387803027616,0.326442855647,0.114536586732,-0.00286267965537,-0.00770816844294,0.690598578834,0.723191532111
1385568057552273922,527295,1385568057552273922,/world,vicon/Archie/Archie,0.038770255954,0.326437717962,0.114537183144,-0.00286922808558,-0.00769637334975,0.690601932055,0.723188429671
1385568057562438274,527296,1385568057562438274,/world,vicon/Archie/Archie,0.0387644816213,0.326441118025,0.114531540123,-0.00285440660361,-0.00766487931342,0.690616458465,0.723174950677
1385568057572350655,527297,1385568057572350655,/world,vicon/Archie/Archie,0.0387639972129,0.326439939698,0.11453729637,-0.00285724973566,-0.00772531291899,0.690609088038,0.723181334925
1385568057582441824,527298,1385568057582441824,/world,vicon/Archie/Archie,0.0386788805918,0.326467994146,0.114433192513,-0.00305220265949,-0.00777229896275,0.690597824987,0.72319079056
1385568057592548933,527299,1385568057592548933,/world,vicon/Archie/Archie,0.0387748674469,0.326434084682,0.114541471862,-0.00287580625889,-0.0077082076057,0.690599798483,0.723190314931
1385568057602407319,527300,1385568057602407319,/world,vicon/Archie/Archie,0.0386927843987,0.326472877806,0.114446361954,-0.00311405720534,-0.00778053918783,0.690601255296,0.723187162525
1385568057612533231,527301,1385568057612533231,/world,vicon/Archie/Archie,0.0387743215641,0.326440287694,0.114540774897,-0.002865809791,-0.00770953112614,0.69060434684,0.723185997092
1385568057622508627,527302,1385568057622508627,/world,vicon/Archie/Archie,0.0387694130555,0.326438831813,0.114532399437,-0.002870375319,-0.00770345865161,0.690607336042,0.723183189154
1385568057632298269,527303,1385568057632298269,/world,vicon/Archie/Archie,0.0387637328167,0.326439758814,0.114536333572,-0.00285422843993,-0.00770532032984,0.690611028005,0.723179707553
1385568057642542470,527304,1385568057642542470,/world,vicon/Archie/Archie,0.0387768944296,0.326431477844,0.114530171434,-0.0028770873652,-0.00770976877363,0.690601820034,0.723188362738
1385568057652531816,527305,1385568057652531816,/world,vicon/Archie/Archie,0.03874938403,0.326450197116,0.114511013942,-0.00286382730801,-0.00764376787234,0.690602650118,0.723188323299
1385568057662762273,527306,1385568057662762273,/world,vicon/Archie/Archie,0.0387779152184,0.326442355849,0.114526347414,-0.00288552594166,-0.00769812688835,0.690606535001,0.723183950594
1385568057672498377,527307,1385568057672498377,/world,vicon/Archie/Archie,0.0387575079498,0.326446369022,0.114515535747,-0.0028788485039,-0.00766464399754,0.690608705775,0.723182259856
1385568057682367542,527308,1385568057682367542,/world,vicon/Archie/Archie,0.0387001545319,0.326474679308,0.114438705864,-0.00311146681603,-0.00779665768329,0.690588143906,0.723199520465
1385568057692403661,527309,1385568057692403661,/world,vicon/Archie/Archie,0.0386784847702,0.326470068541,0.114425983648,-0.00306854047825,-0.00777697635404,0.69059134912,0.723196855094
1385568057702547127,527310,1385568057702547127,/world,vicon/Archie/Archie,0.0386976143021,0.326473756434,0.11444247515,-0.00310831667854,-0.00780431875494,0.690599112745,0.723188976999
1385568057712349909,527311,1385568057712349909,/world,vicon/Archie/Archie,0.0387605296055,0.326440025467,0.114535339139,-0.00286441521813,-0.00771538933239,0.690613160591,0.723177523373
1385568057722378906,527312,1385568057722378906,/world,vicon/Archie/Archie,0.0387707346586,0.326445413424,0.114527929658,-0.00288856366279,-0.00770033103703,0.690605946805,0.7231844767
1385568057732274946,527313,1385568057732274946,/world,vicon/Archie/Archie,0.0387737548694,0.326443685373,0.114533435407,-0.00286953916384,-0.00771948732313,0.69059287638,0.723196829607
1385568057742487516,527314,1385568057742487516,/world,vicon/Archie/Archie,0.0387747121451,0.326444380686,0.114535670764,-0.0028591086491,-0.00770885635021,0.690592896534,0.723196965071
1385568057752393862,527315,1385568057752393862,/world,vicon/Archie/Archie,0.0387528722753,0.326447361086,0.114522098983,-0.00283377807163,-0.00766078899174,0.690592282642,0.723198161757
1385568057762662522,527316,1385568057762662522,/world,vicon/Archie/Archie,0.0387677132436,0.32645007171,0.11452293724,-0.00287119207744,-0.0076874072519,0.690606131111,0.723184507368
1385568057772466137,527317,1385568057772466137,/world,vicon/Archie/Archie,0.0387784613741,0.326438787991,0.114531858867,-0.00286722779426,-0.00771561071162,0.690598414242,0.723191591905
1385568057782610597,527318,1385568057782610597,/world,vicon/Archie/Archie,0.0387711021165,0.32644747404,0.114535493455,-0.00286720768702,-0.00771130541172,0.690593067814,0.723196743339
1385568057792506213,527319,1385568057792506213,/world,vicon/Archie/Archie,0.0386951665841,0.326481974596,0.114445760364,-0.00308001973306,-0.00779964360607,0.69058023771,0.723207172478
1385568057802418736,527320,1385568057802418736,/world,vicon/Archie/Archie,0.0386907210448,0.326481038879,0.114444697551,-0.00308983665694,-0.00779900041834,0.690586935034,0.7232007423
1385568057812457855,527321,1385568057812457855,/world,vicon/Archie/Archie,0.0386962605587,0.32647885747,0.114446055489,-0.00308778832641,-0.00781560688462,0.690578681941,0.723208452593
1385568057822350537,527322,1385568057822350537,/world,vicon/Archie/Archie,0.0387683525205,0.326450632886,0.114534725427,-0.00285585264488,-0.0077020551493,0.690586066161,0.723203572777
1385568057832491864,527323,1385568057832491864,/world,vicon/Archie/Archie,0.0386835789346,0.326483712206,0.114434274736,-0.00307668912379,-0.00778066964819,0.690590995245,0.723197118668
1385568057842491815,527324,1385568057842491815,/world,vicon/Archie/Archie,0.0386934166712,0.326483086897,0.114445702499,-0.00308510399802,-0.00779796020904,0.690585850653,0.723201809198
1385568057852427973,527325,1385568057852427973,/world,vicon/Archie/Archie,0.0387549464989,0.326455180541,0.11452516381,-0.0028760685451,-0.00765603346642,0.690607184274,0.723183815092
1385568057862503543,527326,1385568057862503543,/world,vicon/Archie/Archie,0.0386957519253,0.326477140288,0.114431497438,-0.00310563474657,-0.00775676040321,0.690582996484,0.723204889826
1385568057872400878,527327,1385568057872400878,/world,vicon/Archie/Archie,0.0387638414908,0.326456662642,0.11452716776,-0.00288376647219,-0.00772572907833,0.690598397505,0.723191434106
1385568057882444633,527328,1385568057882444633,/world,vicon/Archie/Archie,0.0387641325902,0.326454583777,0.11453331074,-0.00287271827513,-0.00767959890993,0.690597784501,0.723192554782
1385568057892492102,527329,1385568057892492102,/world,vicon/Archie/Archie,0.0386947788529,0.326481990493,0.11443875945,-0.00310003056961,-0.00781168807043,0.690590085049,0.723197553765
1385568057902429715,527330,1385568057902429715,/world,vicon/Archie/Archie,0.0386713325977,0.326473162574,0.114465465525,-0.00312090743187,-0.00789442842579,0.6905729862,0.723212893046
1385568057912554769,527331,1385568057912554769,/world,vicon/Archie/Archie,0.0387682500201,0.326455236225,0.114530231281,-0.002868777925,-0.007717953562,0.690596433263,0.723193452453
1385568057922441146,527332,1385568057922441146,/world,vicon/Archie/Archie,0.0386384925517,0.326488827157,0.11444845741,-0.00309314561234,-0.00780809636138,0.690576334521,0.723210752327
1385568057932428580,527333,1385568057932428580,/world,vicon/Archie/Archie,0.0387964794398,0.326441595897,0.114566931367,-0.00307311530039,-0.00733018316582,0.690661461798,0.723134544579
1385568057942566797,527334,1385568057942566797,/world,vicon/Archie/Archie,0.0387663710359,0.326463053372,0.114528729059,-0.00287916356993,-0.00771724532344,0.690607218259,0.723183119708
1385568057952308892,527335,1385568057952308892,/world,vicon/Archie/Archie,0.0387690430655,0.326462775469,0.114528588639,-0.00286211262847,-0.00768311352363,0.690608897095,0.723181947597
1385568057962431261,527336,1385568057962431261,/world,vicon/Archie/Archie,0.0387569831013,0.326459588434,0.11452110446,-0.00287364458399,-0.00767790110181,0.690605975479,0.723184747236
1385568057972539171,527337,1385568057972539171,/world,vicon/Archie/Archie,0.0387775980038,0.326457802854,0.114529256922,-0.0028697825463,-0.00769384389992,0.690606598609,0.723183998075
1385568057982456677,527338,1385568057982456677,/world,vicon/Archie/Archie,0.0386993183999,0.326486000493,0.114440770845,-0.00310435958112,-0.00780408757362,0.690590323228,0.723197389813
1385568057992545170,527339,1385568057992545170,/world,vicon/Archie/Archie,0.0387672027743,0.326454592227,0.114529496096,-0.0028739830303,-0.00770569036543,0.690611090489,0.723179565704
1385568058002618311,527340,1385568058002618311,/world,vicon/Archie/Archie,0.0387372102205,0.326465817043,0.11451044615,-0.00284236399491,-0.00763466920342,0.690610694125,0.723180822445
1385568058012583577,527341,1385568058012583577,/world,vicon/Archie/Archie,0.038767253756,0.326460342991,0.114527284719,-0.00286750296362,-0.0077114559409,0.690603710648,0.723186577387
1385568058022482311,527342,1385568058022482311,/world,vicon/Archie/Archie,0.0387535553031,0.326459028605,0.114521507877,-0.00287115702965,-0.00769144339745,0.690612463435,0.723178417477
1385568058032600392,527343,1385568058032600392,/world,vicon/Archie/Archie,0.0386895079491,0.326490476087,0.114439186615,-0.00310393837758,-0.00780313330322,0.690605715275,0.723182703545
1385568058042468451,527344,1385568058042468451,/world,vicon/Archie/Archie,0.0387597281068,0.3264550361,0.114527457241,-0.00288213813098,-0.00773869704441,0.69061321314,0.723177153735
1385568058052462584,527345,1385568058052462584,/world,vicon/Archie/Archie,0.0387375684086,0.326464473136,0.114513224452,-0.00284103891194,-0.0076243033202,0.690616523623,0.723175370014
1385568058062644388,527346,1385568058062644388,/world,vicon/Archie/Archie,0.038726721057,0.326480920164,0.114492203454,-0.00286468843608,-0.00754239929796,0.690623577438,0.723169399283
1385568058072461735,527347,1385568058072461735,/world,vicon/Archie/Archie,0.0387619615204,0.326463658827,0.114532309026,-0.00287849346525,-0.00770983910535,0.690605455409,0.723184884809
1385568058082418822,527348,1385568058082418822,/world,vicon/Archie/Archie,0.0387559284,0.326462306518,0.114522250576,-0.00286404614311,-0.00767322339378,0.690606391749,0.723184437442
1385568058092915012,527349,1385568058092915012,/world,vicon/Archie/Archie,0.0387387350953,0.326471420497,0.114503320858,-0.00285064789231,-0.00754057298441,0.690622908401,0.723170112738
1385568058102413745,527350,1385568058102413745,/world,vicon/Archie/Archie,0.0387610904682,0.326463521452,0.114528497655,-0.00288468836373,-0.00768576392041,0.690608226307,0.723182470309
1385568058112465105,527351,1385568058112465105,/world,vicon/Archie/Archie,0.038775044499,0.326458106946,0.114529263792,-0.00287603786157,-0.00772736322653,0.690603642722,0.723186438564
1385568058122531848,527352,1385568058122531848,/world,vicon/Archie/Archie,0.038641299749,0.326509305555,0.11439753139,-0.00304487384946,-0.0075929462024,0.690608375951,0.723182651187
1385568058132343499,527353,1385568058132343499,/world,vicon/Archie/Archie,0.0386650204971,0.326506193713,0.114405981462,-0.00308012718193,-0.00764894351264,0.690612543602,0.723177931839
1385568058142687412,527354,1385568058142687412,/world,vicon/Archie/Archie,0.0386620522702,0.326498709511,0.114418508975,-0.00308612562552,-0.00771688770992,0.690601456932,0.723187771713
1385568058152374139,527355,1385568058152374139,/world,vicon/Archie/Archie,0.0386840515726,0.32648439572,0.114446322304,-0.00310664891099,-0.00781294836581,0.69059408915,0.723193688165
1385568058162469595,527356,1385568058162469595,/world,vicon/Archie/Archie,0.0387758521703,0.32646339852,0.114535847591,-0.00288262967126,-0.00771409374381,0.690590880125,0.723198741352
1385568058172449126,527357,1385568058172449126,/world,vicon/Archie/Archie,0.0387599399049,0.326459832724,0.114527513557,-0.00285025843221,-0.00769354304022,0.690605016614,0.723185589216
1385568058182622568,527358,1385568058182622568,/world,vicon/Archie/Archie,0.0386904107519,0.326491494334,0.114446784234,-0.00310658881025,-0.00781662560014,0.690599202499,0.723188765799
1385568058192794042,527359,1385568058192794042,/world,vicon/Archie/Archie,0.0386944465698,0.326493241509,0.114451150768,-0.00308176123875,-0.0078276243931,0.690591993513,0.723195637114
1385568058202641648,527360,1385568058202641648,/world,vicon/Archie/Archie,0.0387776852004,0.326427008972,0.114601811168,-0.00311332176889,-0.00743552597986,0.69063084856,0.723162534426
1385568058212530249,527361,1385568058212530249,/world,vicon/Archie/Archie,0.0387777421548,0.32643675814,0.114599774436,-0.0030971888571,-0.0074701164357,0.690624261379,0.723168538016
1385568058222349731,527362,1385568058222349731,/world,vicon/Archie/Archie,0.0387315212018,0.326448341759,0.114563399897,-0.00289377331703,-0.00779169730935,0.690583518975,0.723204894099
1385568058232512869,527363,1385568058232512869,/world,vicon/Archie/Archie,0.0386895210849,0.326491437681,0.114452045556,-0.0030700421363,-0.00782648817329,0.690603686113,0.723184533609
1385568058242483701,527364,1385568058242483701,/world,vicon/Archie/Archie,0.0387677922239,0.326455364581,0.114535578691,-0.00286590979868,-0.00770541295101,0.690601055579,0.723189183552
1385568058252237099,527365,1385568058252237099,/world,vicon/Archie/Archie,0.0387764505423,0.326456020245,0.114533075126,-0.00288058765089,-0.00770209898261,0.690594910003,0.723195029134
1385568058262445940,527366,1385568058262445940,/world,vicon/Archie/Archie,0.0387623532657,0.326458742421,0.114539895221,-0.00285646283134,-0.00772463761582,0.690602862541,0.723187290295
1385568058272445672,527367,1385568058272445672,/world,vicon/Archie/Archie,0.038765744788,0.326458753601,0.114536918802,-0.00286197337546,-0.00770512128661,0.690605231622,0.723185214361
1385568058282486428,527368,1385568058282486428,/world,vicon/Archie/Archie,0.0386911168513,0.326484545144,0.114451761136,-0.00311089775287,-0.00780961724705,0.690585210755,0.723202183957
1385568058292463668,527369,1385568058292463668,/world,vicon/Archie/Archie,0.0386902438727,0.326492455297,0.11444297599,-0.00309149268403,-0.00779584214413,0.690587418457,0.723200307652
1385568058302848172,527370,1385568058302848172,/world,vicon/Archie/Archie,0.0387251788049,0.326458069884,0.114528033786,-0.00335962451138,-0.00757097252971,0.690614948705,0.723175211082
1385568058312611836,527371,1385568058312611836,/world,vicon/Archie/Archie,0.0386949891174,0.326478964131,0.114449666994,-0.00307749886404,-0.00783311367503,0.690586377113,0.723200958985
1385568058322357509,527372,1385568058322357509,/world,vicon/Archie/Archie,0.0387677641525,0.32644803747,0.114535071252,-0.00286084313413,-0.00769721174272,0.690593951109,0.72319607521
1385568058332433337,527373,1385568058332433337,/world,vicon/Archie/Archie,0.0387686529047,0.326452667686,0.114532942641,-0.00287371226908,-0.00773716873587,0.69059969148,0.723190116169
1385568058342524830,527374,1385568058342524830,/world,vicon/Archie/Archie,0.0387673058004,0.326451837,0.114535557953,-0.00287211293332,-0.00771970361705,0.690593966543,0.723195776065
1385568058352385307,527375,1385568058352385307,/world,vicon/Archie/Archie,0.0387008959402,0.326488298683,0.114447172275,-0.00308749937853,-0.00782519757735,0.690579382461,0.723207681202
1385568058362465029,527376,1385568058362465029,/world,vicon/Archie/Archie,0.0387701349836,0.326453687309,0.114541682431,-0.00285246744543,-0.00771899373946,0.690589872629,0.723199770732
1385568058372463607,527377,1385568058372463607,/world,vicon/Archie/Archie,0.038771907842,0.326450158697,0.114532232607,-0.00288106662666,-0.00771046462234,0.690597707755,0.723192266437
1385568058382440850,527378,1385568058382440850,/world,vicon/Archie/Archie,0.0387689869708,0.326449388669,0.1145326053,-0.0028577499779,-0.00773174272663,0.690604822563,0.723185337567
1385568058393062434,527379,1385568058393062434,/world,vicon/Archie/Archie,0.0388320167088,0.326433395396,0.114592526433,-0.00309777323782,-0.00742699123852,0.690637212252,0.72315661143
1385568058402353656,527380,1385568058402353656,/world,vicon/Archie/Archie,0.0387590151854,0.326460044391,0.114538177947,-0.00288924603102,-0.00772964594695,0.690607778231,0.723182412312
1385568058412492716,527381,1385568058412492716,/world,vicon/Archie/Archie,0.0387759932821,0.326455447023,0.114536816156,-0.0028709209848,-0.00771059793358,0.690603465807,0.723186806785
1385568058422584961,527382,1385568058422584961,/world,vicon/Archie/Archie,0.0386943742009,0.326484129412,0.114449434073,-0.00308875510411,-0.00782789375008,0.690600263561,0.723187707059
1385568058432524256,527383,1385568058432524256,/world,vicon/Archie/Archie,0.038775076879,0.326457229892,0.114532433909,-0.00287714461037,-0.00772129057224,0.690613275967,0.723177299678
1385568058442495544,527384,1385568058442495544,/world,vicon/Archie/Archie,0.0387393664747,0.32646040758,0.114527899988,-0.00282128779302,-0.00768119945157,0.690611067511,0.723180055686
1385568058452523256,527385,1385568058452523256,/world,vicon/Archie/Archie,0.0387396603266,0.326448366926,0.114561941881,-0.00291732576158,-0.00776565839976,0.690586388599,0.72320233935
1385568058462602276,527386,1385568058462602276,/world,vicon/Archie/Archie,0.0387330398269,0.326462532134,0.114524672077,-0.00286397494316,-0.00763810045693,0.690607022472,0.723184207226
1385568058472541783,527387,1385568058472541783,/world,vicon/Archie/Archie,0.0386676482124,0.326479954804,0.114461618676,-0.00311562035541,-0.00785057098355,0.690577938239,0.723208664676
1385568058482568303,527388,1385568058482568303,/world,vicon/Archie/Archie,0.038775587757,0.326456073961,0.114533078178,-0.00287862085727,-0.00770266029554,0.690598737511,0.723191375996
1385568058492572445,527389,1385568058492572445,/world,vicon/Archie/Archie,0.038826410805,0.326445389868,0.114589456253,-0.00309904818712,-0.00742577337785,0.69064657919,0.723147672639
1385568058502399427,527390,1385568058502399427,/world,vicon/Archie/Archie,0.038741156997,0.326464262809,0.114519264432,-0.00284113366166,-0.00765228888001,0.690605384724,0.723185711297
1385568058512517721,527391,1385568058512517721,/world,vicon/Archie/Archie,0.038734539009,0.326469434659,0.114503746582,-0.0028477479055,-0.00754094788659,0.690622545454,0.723170466866
1385568058522561502,527392,1385568058522561502,/world,vicon/Archie/Archie,0.0387564779249,0.326460743582,0.114527148072,-0.00285234144467,-0.00768016874518,0.690603547238,0.723187126336
1385568058532467929,527393,1385568058532467929,/world,vicon/Archie/Archie,0.0386741111128,0.326490493168,0.114432663686,-0.00308346923854,-0.00776572735332,0.690590681207,0.723197550277
1385568058542609226,527394,1385568058542609226,/world,vicon/Archie/Archie,0.0387486698838,0.326479079386,0.114492440223,-0.00331936037038,-0.00747100527673,0.690635756647,0.723156565045
1385568058552268876,527395,1385568058552268876,/world,vicon/Archie/Archie,0.0387451976371,0.32644034097,0.114553642644,-0.00288789202677,-0.00777901035711,0.69057459385,0.723213576619
1385568058562708797,527396,1385568058562708797,/world,vicon/Archie/Archie,0.0386757286025,0.326486064794,0.114430082514,-0.003047603901,-0.00776568723043,0.690591527642,0.723196894463
1385568058572601917,527397,1385568058572601917,/world,vicon/Archie/Archie,0.0386938159176,0.326485140757,0.114435431619,-0.00307381044981,-0.00778403671241,0.690590493974,0.723197573346
1385568058582345175,527398,1385568058582345175,/world,vicon/Archie/Archie,0.0386754548737,0.326493149772,0.11442819007,-0.00308678661882,-0.00774563603499,0.69058796934,0.723200341173
1385568058592739305,527399,1385568058592739305,/world,vicon/Archie/Archie,0.0387627525301,0.326466358718,0.114496671667,-0.00331760311082,-0.00751506405981,0.690626873791,0.72316459988
1385568058602416036,527400,1385568058602416036,/world,vicon/Archie/Archie,0.0387551929624,0.326447421219,0.114520611014,-0.00283805285039,-0.00765398793383,0.690606537463,0.723184604605
1385568058612590612,527401,1385568058612590612,/world,vicon/Archie/Archie,0.0387693610477,0.326462366987,0.114522380085,-0.00286543084835,-0.00767490282309,0.690601201995,0.723189370065
1385568058622661153,527402,1385568058622661153,/world,vicon/Archie/Archie,0.0388363758865,0.326429522436,0.114587978483,-0.0030964078194,-0.00740562677528,0.690643362862,0.723150962307
1385568058632547314,527403,1385568058632547314,/world,vicon/Archie/Archie,0.0386688991559,0.326496485036,0.11441311304,-0.00306113083472,-0.00764192756359,0.690605044721,0.723185247794
1385568058642520257,527404,1385568058642520257,/world,vicon/Archie/Archie,0.0387381612898,0.326457477068,0.114513784576,-0.00285058995346,-0.00762828412708,0.690603648361,0.723187585823
1385568058652861356,527405,1385568058652861356,/world,vicon/Archie/Archie,0.0387613463062,0.326465580097,0.114496296028,-0.00334602430275,-0.00751107033418,0.69064317158,0.72314894558
1385568058662528778,527406,1385568058662528778,/world,vicon/Archie/Archie,0.0387885852675,0.326449415168,0.114560800691,-0.0030795827004,-0.00725148482659,0.690653193207,0.723143207706
1385568058672579581,527407,1385568058672579581,/world,vicon/Archie/Archie,0.0387655675353,0.326462083121,0.114492276103,-0.00333152456592,-0.00752073796085,0.690630306285,0.723161198824
1385568058682411656,527408,1385568058682411656,/world,vicon/Archie/Archie,0.0388277065739,0.326435569445,0.114578849081,-0.00308522346542,-0.00738679339366,0.690637469445,0.723156831177
1385568058692585764,527409,1385568058692585764,/world,vicon/Archie/Archie,0.038803897339,0.326437851378,0.11457141189,-0.00308141062767,-0.00735062651325,0.69064889829,0.723146300889
1385568058702417000,527410,1385568058702417000,/world,vicon/Archie/Archie,0.0387843126785,0.326449221271,0.114532172034,-0.00286084799,-0.00772370832861,0.690594344363,0.723195417168
1385568058712551191,527411,1385568058712551191,/world,vicon/Archie/Archie,0.0386949125279,0.326486142955,0.114442255671,-0.00310394028807,-0.00779994561479,0.690583064978,0.723204367222
1385568058722491380,527412,1385568058722491380,/world,vicon/Archie/Archie,0.0387689211337,0.326457759126,0.114517099156,-0.00285705017333,-0.00765988432688,0.69061327937,0.723178029114
1385568058732377673,527413,1385568058732377673,/world,vicon/Archie/Archie,0.0387655664001,0.326458721065,0.114528379751,-0.0028746732992,-0.00767235997649,0.690598442391,0.723191995609
1385568058742556459,527414,1385568058742556459,/world,vicon/Archie/Archie,0.0386719575653,0.326495701404,0.114423873133,-0.00307138760972,-0.00775453092687,0.690592997211,0.72319551024
1385568058752979455,527415,1385568058752979455,/world,vicon/Archie/Archie,0.0387594218878,0.326458239862,0.114520322849,-0.00288669717184,-0.00771236004962,0.690600497844,0.723189559424
1385568058762491932,527416,1385568058762491932,/world,vicon/Archie/Archie,0.0387470919674,0.326466556451,0.114518185184,-0.00285065876484,-0.00769705005717,0.690604939281,0.72318562417
1385568058772616119,527417,1385568058772616119,/world,vicon/Archie/Archie,0.0387708982806,0.326463081793,0.114527343567,-0.00287856710961,-0.00772134123802,0.690596809506,0.723193018109
1385568058782551121,527418,1385568058782551121,/world,vicon/Archie/Archie,0.038709874574,0.326487887091,0.114444234801,-0.00309436491263,-0.00782329373146,0.690596885768,0.723190958426
1385568058792501002,527419,1385568058792501002,/world,vicon/Archie/Archie,0.0386913218109,0.326490457773,0.114445054448,-0.00309820930049,-0.00781858585608,0.690594461534,0.723193307846
1385568058802354393,527420,1385568058802354393,/world,vicon/Archie/Archie,0.0386985850724,0.326492293215,0.114441138509,-0.00311628132282,-0.00780508606446,0.690596486619,0.723191442214
1385568058812591792,527421,1385568058812591792,/world,vicon/Archie/Archie,0.0387592812526,0.326474802402,0.114527672883,-0.00288431447072,-0.00769426185758,0.69059666089,0.723193425739
1385568058822454413,527422,1385568058822454413,/world,vicon/Archie/Archie,0.0387647726991,0.326459346739,0.114536543758,-0.0028627802118,-0.00773894077774,0.690604397362,0.723185646725
1385568058832450581,527423,1385568058832450581,/world,vicon/Archie/Archie,0.0386925778034,0.326497743709,0.1144450628,-0.00307554906767,-0.00783374048409,0.690581596582,0.7232055254
1385568058842472472,527424,1385568058842472472,/world,vicon/Archie/Archie,0.0386903805187,0.326497831286,0.114446837487,-0.00308568224511,-0.00781957595822,0.69058764855,0.723199856517
1385568058852404618,527425,1385568058852404618,/world,vicon/Archie/Archie,0.0386894341261,0.326495213868,0.114446454945,-0.00307948517336,-0.0078395210871,0.690595013265,0.723192634319
1385568058862505095,527426,1385568058862505095,/world,vicon/Archie/Archie,0.0387668765544,0.326466972178,0.114531080767,-0.00287193819207,-0.00771993376458,0.690607712714,0.723182647562
1385568058872398858,527427,1385568058872398858,/world,vicon/Archie/Archie,0.0387608753421,0.326462678444,0.114537184199,-0.00287885260133,-0.00769486070442,0.690601015374,0.723189282892
1385568058882646377,527428,1385568058882646377,/world,vicon/Archie/Archie,0.0386953013964,0.326496790065,0.114444779693,-0.0030965043704,-0.00781959006442,0.690591178407,0.723196439412
1385568058892676805,527429,1385568058892676805,/world,vicon/Archie/Archie,0.0387594956592,0.326466917469,0.114531237941,-0.00286598303039,-0.00772702576588,0.690603650756,0.723186474415
1385568058902461920,527430,1385568058902461920,/world,vicon/Archie/Archie,0.0387010658875,0.326491634049,0.114442088135,-0.00308844223453,-0.00783177660745,0.690592580198,0.723195003422
1385568058912468229,527431,1385568058912468229,/world,vicon/Archie/Archie,0.0387404772597,0.326476099682,0.1144996774,-0.00284249136003,-0.00756638601302,0.690624694203,0.723168169793
1385568058922409039,527432,1385568058922409039,/world,vicon/Archie/Archie,0.03876507055,0.326465008945,0.114532153958,-0.00286707523946,-0.00771954873289,0.69059535762,0.723194469338
1385568058932390409,527433,1385568058932390409,/world,vicon/Archie/Archie,0.0386971165654,0.326491752945,0.114449052911,-0.00308102278699,-0.00782274705806,0.690589829375,0.723197759601
1385568058942488399,527434,1385568058942488399,/world,vicon/Archie/Archie,0.0387690094179,0.326460582942,0.114527111133,-0.00287130836324,-0.00772108753918,0.690599330191,0.723190642594
1385568058952414761,527435,1385568058952414761,/world,vicon/Archie/Archie,0.0387753420581,0.326460194814,0.114531582158,-0.0028543151925,-0.00772233095735,0.690595270403,0.723194573394
1385568058962460539,527436,1385568058962460539,/world,vicon/Archie/Archie,0.0387662756086,0.326462550271,0.114537911337,-0.00284672837792,-0.00774474699426,0.690595089186,0.723194536638
1385568058972467675,527437,1385568058972467675,/world,vicon/Archie/Archie,0.03877073641,0.32647524211,0.114532811469,-0.00286242687865,-0.00772282550184,0.690602282348,0.723187840118
1385568058982544597,527438,1385568058982544597,/world,vicon/Archie/Archie,0.0387718209513,0.326470296374,0.114524575636,-0.00286812431398,-0.00772816010748,0.690602604611,0.723187452814
1385568058992612790,527439,1385568058992612790,/world,vicon/Archie/Archie,0.0386966717739,0.326499153807,0.114441326516,-0.00309602910844,-0.00781574354887,0.690589374244,0.723198205846
1385568059002427283,527440,1385568059002427283,/world,vicon/Archie/Archie,0.0387719388075,0.326472007413,0.114530674763,-0.00284748702907,-0.00771782432072,0.690596999868,0.723192996909
1385568059012471642,527441,1385568059012471642,/world,vicon/Archie/Archie,0.0387591450787,0.326479673327,0.114522091093,-0.00284081999244,-0.00767974066635,0.69059755631,0.723192897188
1385568059022337723,527442,1385568059022337723,/world,vicon/Archie/Archie,0.038773314883,0.326479003892,0.11452143653,-0.00286933391931,-0.00769862240584,0.690597088968,0.723193030142
1385568059032475142,527443,1385568059032475142,/world,vicon/Archie/Archie,0.0387478255259,0.326481074257,0.114509252404,-0.00282857660906,-0.00769259001231,0.690608091949,0.723182747684
1385568059042558411,527444,1385568059042558411,/world,vicon/Archie/Archie,0.0386855931365,0.32651045656,0.114428855519,-0.00306999169781,-0.0077887151652,0.69059498869,0.723193247109
1385568059052519983,527445,1385568059052519983,/world,vicon/Archie/Archie,0.0387004836944,0.326506397351,0.114430275778,-0.00310087171791,-0.00779766053516,0.690593152845,0.723194772055
1385568059062449482,527446,1385568059062449482,/world,vicon/Archie/Archie,0.0387640160431,0.326469860638,0.114527467792,-0.00284524522003,-0.00773114328186,0.690598940845,0.723191009974
1385568059072428833,527447,1385568059072428833,/world,vicon/Archie/Archie,0.0387549539875,0.326478726205,0.114512721466,-0.00287085685481,-0.00767009112858,0.69060393184,0.723186792752
1385568059082394214,527448,1385568059082394214,/world,vicon/Archie/Archie,0.0387659537964,0.326464981617,0.11452240034,-0.0028566211331,-0.00773090809771,0.690599537363,0.723190398008
1385568059092530252,527449,1385568059092530252,/world,vicon/Archie/Archie,0.0387734626615,0.32647840854,0.114525876052,-0.00285867268495,-0.0077259817391,0.6905999499,0.723190048601
1385568059103967168,527450,1385568059103967168,/world,vicon/Archie/Archie,0.0386915869959,0.326509791454,0.114435907435,-0.00307535312873,-0.00783684568046,0.69060026946,0.723187661589
1385568059112387004,527451,1385568059112387004,/world,vicon/Archie/Archie,0.0386912051798,0.32651359553,0.1144260832,-0.0031003898173,-0.00776810309129,0.690596122199,0.723192256707
1385568059122454842,527452,1385568059122454842,/world,vicon/Archie/Archie,0.0387497793712,0.326481113067,0.11450469803,-0.00283639726404,-0.00766335264756,0.690608226167,0.723182899291
1385568059132451370,527453,1385568059132451370,/world,vicon/Archie/Archie,0.0387001588679,0.326505216467,0.114434337219,-0.00309036986158,-0.00783363556667,0.690601430852,0.723186523293
1385568059142545402,527454,1385568059142545402,/world,vicon/Archie/Archie,0.0386769723519,0.326503058987,0.114421873545,-0.0030434500823,-0.00779303660527,0.690599058754,0.723189426112
1385568059152769875,527455,1385568059152769875,/world,vicon/Archie/Archie,0.0387338553,0.326493117567,0.114484900533,-0.00285775142986,-0.0075497906563,0.690617430225,0.723175220114
1385568059162719217,527456,1385568059162719217,/world,vicon/Archie/Archie,0.0386990935498,0.326509519121,0.11444284602,-0.00306139734715,-0.00784119836728,0.690582178233,0.72320494921
1385568059172507796,527457,1385568059172507796,/world,vicon/Archie/Archie,0.0387664122544,0.326472153335,0.114511708797,-0.0028678446438,-0.00767329950225,0.690614984314,0.723176215996
1385568059182458231,527458,1385568059182458231,/world,vicon/Archie/Archie,0.0387759734595,0.326468412197,0.11452533767,-0.00285560379793,-0.00771831029505,0.690596808934,0.723193142046
1385568059192485679,527459,1385568059192485679,/world,vicon/Archie/Archie,0.0387732014618,0.326473101399,0.11452480635,-0.0028481399998,-0.00773292837589,0.690595177055,0.723194573642
1385568059202515898,527460,1385568059202515898,/world,vicon/Archie/Archie,0.0388365092761,0.326464613351,0.114580929619,-0.00307859289738,-0.0074236312117,0.69063982933,0.723154228438
1385568059212493694,527461,1385568059212493694,/world,vicon/Archie/Archie,0.0387754121631,0.3264743749,0.11451812594,-0.00285759550987,-0.00772628721104,0.690598161603,0.723191757299
1385568059222523208,527462,1385568059222523208,/world,vicon/Archie/Archie,0.0387073215525,0.326504434192,0.114433386845,-0.00307752727489,-0.00784291913855,0.690581953257,0.723205076919
1385568059232522008,527463,1385568059232522008,/world,vicon/Archie/Archie,0.0386658541238,0.326509426742,0.114415004475,-0.00308098415507,-0.0077751706551,0.690593354678,0.723194906462
1385568059242853677,527464,1385568059242853677,/world,vicon/Archie/Archie,0.0387079152809,0.326505791516,0.11442717944,-0.00310792426127,-0.00781663922858,0.690580769479,0.723206361825
1385568059252562217,527465,1385568059252562217,/world,vicon/Archie/Archie,0.0387759518627,0.326473164229,0.114518826096,-0.00286971386825,-0.00770994824969,0.690600813539,0.723189351263
1385568059262493209,527466,1385568059262493209,/world,vicon/Archie/Archie,0.0387734510888,0.326476351614,0.114516011421,-0.00286769683771,-0.00769658382913,0.690595646204,0.723194436066
1385568059272429316,527467,1385568059272429316,/world,vicon/Archie/Archie,0.0387807243951,0.32647695387,0.114522856401,-0.00284906186444,-0.00773775815331,0.690590968342,0.723198537326
1385568059282407448,527468,1385568059282407448,/world,vicon/Archie/Archie,0.0386939652758,0.326510906458,0.114428998204,-0.00308174673705,-0.00780493170052,0.69059279507,0.723195117016
1385568059292411359,527469,1385568059292411359,/world,vicon/Archie/Archie,0.0387714514714,0.326470093541,0.114515744303,-0.00287805312523,-0.00771667947069,0.690604431853,0.723185791048
1385568059302274911,527470,1385568059302274911,/world,vicon/Archie/Archie,0.0387683160829,0.326477856881,0.11451409951,-0.00284640843103,-0.00768616607559,0.690607551449,0.723183262176
1385568059312700912,527471,1385568059312700912,/world,vicon/Archie/Archie,0.0387087883602,0.326495975356,0.114422237363,-0.00307655473072,-0.0078171401119,0.690589703968,0.723197959002
1385568059322513343,527472,1385568059322513343,/world,vicon/Archie/Archie,0.0387094587517,0.326508429319,0.114431081677,-0.00307459484891,-0.00782949529818,0.690590164191,0.72319739421
1385568059332429060,527473,1385568059332429060,/world,vicon/Archie/Archie,0.0386965819387,0.326502004766,0.114427865118,-0.00308588639004,-0.00781544144607,0.690589443381,0.723198186441
1385568059342576895,527474,1385568059342576895,/world,vicon/Archie/Archie,0.0387770398804,0.326471739112,0.114513797097,-0.00287277280685,-0.0077060279384,0.690603019004,0.723187274813
1385568059352237907,527475,1385568059352237907,/world,vicon/Archie/Archie,0.0387945831789,0.326429494979,0.114516680864,-0.00289319613285,-0.00766848742418,0.690525561174,0.723261552332
1385568059362586087,527476,1385568059362586087,/world,vicon/Archie/Archie,0.0387577164899,0.326472953934,0.114502682982,-0.00285093725859,-0.00767829798228,0.690603165004,0.723187516751
1385568059372732977,527477,1385568059372732977,/world,vicon/Archie/Archie,0.0387712212994,0.326474193853,0.114510340192,-0.00285204183524,-0.00769802600765,0.690603825273,0.723186672147
1385568059382431333,527478,1385568059382431333,/world,vicon/Archie/Archie,0.0386761626415,0.326519377018,0.114405911688,-0.003046154647,-0.00768670055437,0.690605141456,0.72318474415
1385568059392599838,527479,1385568059392599838,/world,vicon/Archie/Archie,0.0387811292065,0.326480666169,0.114519242672,-0.00287362603084,-0.00773096070345,0.690600558741,0.723189354724
1385568059402464358,527480,1385568059402464358,/world,vicon/Archie/Archie,0.0387699468573,0.326478653237,0.114519093157,-0.00286609702111,-0.00770934582797,0.690598447779,0.723191631174
1385568059412726018,527481,1385568059412726018,/world,vicon/Archie/Archie,0.0387114494683,0.326505852704,0.114427025546,-0.00307621805783,-0.00782546495028,0.690583423583,0.723203867559
1385568059422606658,527482,1385568059422606658,/world,vicon/Archie/Archie,0.0387813927035,0.326472293096,0.114511901775,-0.00287478993537,-0.0077095031627,0.690592628415,0.723197152043
1385568059432460762,527483,1385568059432460762,/world,vicon/Archie/Archie,0.0387091243456,0.326504025153,0.11442587488,-0.00307517148229,-0.00782050283613,0.690588639391,0.723198945104
1385568059442804499,527484,1385568059442804499,/world,vicon/Archie/Archie,0.0387769579537,0.326474490544,0.114514018141,-0.0028640285422,-0.00771852544141,0.690592828779,0.723196907173
1385568059452470868,527485,1385568059452470868,/world,vicon/Archie/Archie,0.038702569541,0.326506727498,0.11441899426,-0.00309817488711,-0.00778957583176,0.690588433062,0.723199377725
1385568059462571440,527486,1385568059462571440,/world,vicon/Archie/Archie,0.0387879875296,0.326471178306,0.114509752601,-0.00286164716713,-0.00771932835516,0.690599513246,0.723190524862
1385568059472455430,527487,1385568059472455430,/world,vicon/Archie/Archie,0.0387074655001,0.32649955453,0.114417542573,-0.0030996569838,-0.00782555139653,0.690592237239,0.723195350329
1385568059482533371,527488,1385568059482533371,/world,vicon/Archie/Archie,0.0387878451078,0.326474154848,0.114513611118,-0.00287295901777,-0.007732460566,0.690596249504,0.723193456367
1385568059492451498,527489,1385568059492451498,/world,vicon/Archie/Archie,0.0387872196186,0.326478087324,0.114515205621,-0.00287093116264,-0.00771413616505,0.690590851617,0.723198814656
1385568059502497237,527490,1385568059502497237,/world,vicon/Archie/Archie,0.0387901529158,0.32646869461,0.114518858568,-0.00283471332077,-0.00775067842272,0.69059317942,0.723196343964
1385568059512353394,527491,1385568059512353394,/world,vicon/Archie/Archie,0.0387928428727,0.326431233543,0.11450640951,-0.00291578474926,-0.00767360197947,0.6905234303,0.723263441796
1385568059522502053,527492,1385568059522502053,/world,vicon/Archie/Archie,0.0387026697569,0.326504046057,0.114427618064,-0.00308474018988,-0.00783230613206,0.690597182881,0.723190618271
1385568059532584852,527493,1385568059532584852,/world,vicon/Archie/Archie,0.0386587228753,0.326519772921,0.114400533848,-0.00306027179269,-0.00765227998731,0.690616624972,0.723174083233
1385568059542655934,527494,1385568059542655934,/world,vicon/Archie/Archie,0.0387789665819,0.326466312117,0.114519361919,-0.0028520601519,-0.00771808087523,0.690601939173,0.723188259439
1385568059552574476,527495,1385568059552574476,/world,vicon/Archie/Archie,0.0387501997011,0.32647728457,0.1145111234,-0.00284566154351,-0.00767800696349,0.69060463662,0.723186135305
1385568059562624293,527496,1385568059562624293,/world,vicon/Archie/Archie,0.0387781117851,0.326468287062,0.114527040257,-0.00285169276694,-0.00773093235099,0.690591393786,0.723198193694
1385568059572485696,527497,1385568059572485696,/world,vicon/Archie/Archie,0.0387688655714,0.326473056723,0.114521639059,-0.0028608601116,-0.00772161651969,0.690605516459,0.723184770826
1385568059582462567,527498,1385568059582462567,/world,vicon/Archie/Archie,0.0387776373604,0.326476814294,0.114527801875,-0.0028500262706,-0.00774614888429,0.690588079163,0.723201202602
1385568059592545318,527499,1385568059592545318,/world,vicon/Archie/Archie,0.0387043652607,0.326493255091,0.114439794027,-0.0030641332132,-0.00784842414417,0.690582476781,0.723204574163
1385568059602408091,527500,1385568059602408091,/world,vicon/Archie/Archie,0.0386967592018,0.326502400695,0.114436833499,-0.00307352607834,-0.00782947653061,0.690580447401,0.723206677515
1385568059612678048,527501,1385568059612678048,/world,vicon/Archie/Archie,0.0387684307398,0.326465266282,0.114526329481,-0.00284975681998,-0.00773238975361,0.690591341193,0.723198235965
1385568059622494962,527502,1385568059622494962,/world,vicon/Archie/Archie,0.0387733551416,0.326473936723,0.114522923732,-0.00287032455769,-0.00771349413177,0.690584917791,0.723204490144
1385568059632259287,527503,1385568059632259287,/world,vicon/Archie/Archie,0.038741475277,0.326454945955,0.114550587434,-0.00290640420295,-0.00780511950202,0.69059246604,0.723196155115
1385568059642584438,527504,1385568059642584438,/world,vicon/Archie/Archie,0.0386952534056,0.326482898486,0.114444516456,-0.00309810052865,-0.00781806869231,0.690589949933,0.723197622111
1385568059652385818,527505,1385568059652385818,/world,vicon/Archie/Archie,0.0386733100563,0.326496405294,0.114436309407,-0.00308456242344,-0.00776569444714,0.690607213635,0.723181758578
1385568059662515785,527506,1385568059662515785,/world,vicon/Archie/Archie,0.0387641440361,0.326452390644,0.114537115659,-0.00285351495578,-0.00773126296714,0.690592524277,0.723197103449
1385568059672671835,527507,1385568059672671835,/world,vicon/Archie/Archie,0.038738320662,0.326474206243,0.114477567533,-0.00327042341992,-0.00746510638793,0.690881709971,0.722921876377
1385568059682394304,527508,1385568059682394304,/world,vicon/Archie/Archie,0.0387832361706,0.326450859509,0.114534475313,-0.00298522931098,-0.00730243553791,0.690845353362,0.722959515173
1385568059692593005,527509,1385568059692593005,/world,vicon/Archie/Archie,0.0387792341723,0.326455206861,0.114529473825,-0.002944653229,-0.00780705911701,0.690176616788,0.723592852704
1385568059703033412,527510,1385568059703033412,/world,vicon/Archie/Archie,0.038620104397,0.326441786627,0.114554343599,-0.00301670949352,-0.00743337178272,0.691048349317,0.722764016367
1385568059712839700,527511,1385568059712839700,/world,vicon/Archie/Archie,0.0386794859682,0.326440854349,0.114562589219,-0.00303323483189,-0.00730357274105,0.691140383643,0.722677263658
1385568059722541362,527512,1385568059722541362,/world,vicon/Archie/Archie,0.0387657652938,0.326485836798,0.114513964223,-0.00287710607907,-0.00771968439775,0.690432812223,0.723349611556
1385568059732661350,527513,1385568059732661350,/world,vicon/Archie/Archie,0.0386413838407,0.326440832479,0.114560717879,-0.00267573655927,-0.00734467164433,0.690707002896,0.723092478444
1385568059742585291,527514,1385568059742585291,/world,vicon/Archie/Archie,0.0386777225257,0.326498205579,0.114556704662,-0.00302420089503,-0.00730167454614,0.691020856296,0.722791613068
1385568059752290981,527515,1385568059752290981,/world,vicon/Archie/Archie,0.038710508688,0.326498648842,0.114648910899,-0.00276559066005,-0.00709282627707,0.690858843126,0.722949584824
1385568059762585919,527516,1385568059762585919,/world,vicon/Archie/Archie,0.0386856021091,0.326484399955,0.114610589842,-0.00259811865385,-0.00759909662189,0.690511274184,0.723277044938
1385568059772465997,527517,1385568059772465997,/world,vicon/Archie/Archie,0.0388128937436,0.326466816134,0.114552285034,-0.00286987678991,-0.00721085060385,0.690669356023,0.723129039724
1385568059782495251,527518,1385568059782495251,/world,vicon/Archie/Archie,0.0386724081863,0.326499257751,0.114418265701,-0.00283210616153,-0.0074980114269,0.690705698929,0.723091554692
1385568059792719643,527519,1385568059792719643,/world,vicon/Archie/Archie,0.0388073398787,0.326495846542,0.114579712379,-0.00281656965147,-0.0071458158383,0.690528301221,0.723264591601
1385568059802323418,527520,1385568059802323418,/world,vicon/Archie/Archie,0.0387438342137,0.326403932978,0.11455858025,-0.00292561275476,-0.00702164155973,0.690305406151,0.72347811548
1385568059812603418,527521,1385568059812603418,/world,vicon/Archie/Archie,0.0387139791923,0.326407160849,0.114515010725,-0.00301229369601,-0.00688046327588,0.690360920804,0.723426142974
1385568059822633098,527522,1385568059822633098,/world,vicon/Archie/Archie,0.0388039600263,0.326445687929,0.114531155304,-0.00295838052226,-0.00733359217554,0.690257389637,0.723520699402
1385568059832469801,527523,1385568059832469801,/world,vicon/Archie/Archie,0.0387922321245,0.326453228594,0.114537644351,-0.00287295648364,-0.00729176314174,0.690277506081,0.723502274295
1385568059842433046,527524,1385568059842433046,/world,vicon/Archie/Archie,0.0386182229207,0.326451621518,0.114548346278,-0.00273800061548,-0.00745209556875,0.690398516188,0.723385691364
1385568059852484438,527525,1385568059852484438,/world,vicon/Archie/Archie,0.0388137196756,0.326454994697,0.114607508045,-0.00288910761271,-0.00717947509561,0.690329139263,0.723454067429
1385568059862657575,527526,1385568059862657575,/world,vicon/Archie/Archie,0.0386025008347,0.326347523332,0.114657668687,-0.00231014646115,-0.00714545736138,0.690479849675,0.723312645303
1385568059872561186,527527,1385568059872561186,/world,vicon/Archie/Archie,0.0388048660187,0.326443489137,0.11454662268,-0.00288373941696,-0.00718711677699,0.690411724198,0.723375200355
1385568059882469720,527528,1385568059882469720,/world,vicon/Archie/Archie,0.0387970498758,0.326435813163,0.114570351385,-0.00294535913514,-0.00721700905018,0.690363441026,0.723420734383
1385568059892558731,527529,1385568059892558731,/world,vicon/Archie/Archie,0.0388242261623,0.326440024083,0.114583450274,-0.002993663559,-0.00729917982769,0.690288974565,0.723490768114
1385568059902291056,527530,1385568059902291056,/world,vicon/Archie/Archie,0.0387554632422,0.32639359697,0.11454167987,-0.00292274467383,-0.00704724290863,0.690293162913,0.723489559819
1385568059912487405,527531,1385568059912487405,/world,vicon/Archie/Archie,0.0388146129959,0.326439939364,0.114566882361,-0.00286667962128,-0.00719768701318,0.690402976093,0.723383512427
1385568059921929980,527532,1385568059921929980,/world,vicon/Archie/Archie,0.0388026774872,0.326442286256,0.114591675005,-0.00291221453847,-0.00724179609276,0.690267228473,0.723512424698
1385568059931696407,527533,1385568059931696407,/world,vicon/Archie/Archie,0.0386680049096,0.326456568475,0.114620001674,-0.00241596213427,-0.00733801917037,0.690320113696,0.723462823667
1385568059941779956,527534,1385568059941779956,/world,vicon/Archie/Archie,0.0387286674985,0.326459627749,0.114522164157,-0.00262625575075,-0.00744455349681,0.690395474521,0.723389086291
