%time,field.linear.x,field.linear.y,field.linear.z,field.angular.x,field.angular.y,field.angular.z
1385568709584451410,-0.0,0.0,0.0,1.0,0.0,0.0
1385568709624607450,-0.0,0.0,3.7950128625e-08,1.0,0.0,0.104693428311
1385568709674703029,-0.107795729935,0.0134630887208,-0.0100216838936,1.0,0.0,0.0040744388586
1385568709724714468,-0.0861208046107,0.010707118188,-0.0118443478804,1.0,0.0,0.0444221147972
1385568709774615218,-0.107936849877,0.0134215661795,-0.0120920657605,1.0,0.0,0.0224776271108
1385568709824631258,-0.10950265486,0.0135622336176,-0.0119270622663,1.0,0.0,0.0284590195403
1385568709874631760,-0.114915215072,0.0141907068179,-0.0115251723406,1.0,0.0,0.0222942234267
1385568709924659123,-0.115629510282,0.0142314636074,-0.0109362878832,1.0,0.0,0.0217780045824
1385568709974596245,-0.115225442039,0.014106183494,-0.0101939032681,1.0,0.0,0.019204885552
1385568710024617057,-0.112730595529,0.0137711049166,-0.00925693594666,1.0,0.0,0.0178016241202
1385568710074612739,-0.108997852704,0.0132415207818,-0.00819577961084,1.0,0.0,0.0161578987724
1385568710124594504,-0.104125201301,0.0125611497393,-0.00701866995563,1.0,0.0,0.0148506834495
1385568710174597651,-0.0984012750403,0.0118043018955,-0.00571088262419,1.0,0.0,0.0136068941454
1385568710224586441,-0.0920671540627,0.0109852859206,-0.00426874940505,1.0,0.0,0.0125169518914
1385568710274610329,-0.0853664180387,0.0101566974933,-0.00272537390276,1.0,0.0,0.0114795501312
1385568710324595996,-0.078552832541,0.00924897811544,-0.00115928444609,1.0,0.0,0.0105687764411
1385568710374680107,-0.0716828933253,0.00826693176523,0.000553167319161,1.0,0.0,0.00978146597556
1385568710424710097,-0.0649131196494,0.00741611034671,0.00237021797162,1.0,0.0,0.00905366602227
1385568710474641968,-0.0584128885226,0.00658480590738,0.00423949712266,1.0,0.0,0.00840100155977
1385568710524663776,-0.0522290248966,0.00579027551743,0.00619352184752,1.0,0.0,0.00781592912609
1385568710574597559,-0.0464893971481,0.00501275445577,0.0082249681322,1.0,0.0,0.00729805676052
1385568710624577931,-0.0411595624006,0.00430780073361,0.0103302948699,1.0,0.0,0.00684098130212
1385568710674616360,-0.0363815568533,0.00373686723826,0.0124705996221,1.0,0.0,0.00640551476583
1385568710724797771,-0.0320895757041,0.00318436761511,0.0146815249576,1.0,0.0,0.00602365037227
1385568710774649675,-0.028340900642,0.00264395255758,0.0169529556945,1.0,0.0,0.0057098470663
1385568710824585448,-0.0251256626252,0.00224199241717,0.0192548928391,1.0,0.0,0.00537946697175
1385568710874661083,-0.0224131559589,0.00183396894986,0.0215904391817,1.0,0.0,0.00514167904487
1385568710924620828,-0.0201490399495,0.00160590287459,0.0239859986217,1.0,0.0,0.00490382980755
1385568710974701347,-0.0183773488809,0.0013441629896,0.0264240670608,1.0,0.0,0.00465961701233
1385568711024585422,-0.0169861004178,0.00121082730632,0.0289018194953,1.0,0.0,0.00444696799998
1385568711074558615,-0.0160243811213,0.00102916733174,0.0314073806499,1.0,0.0,0.00427979723696
1385568711124617252,-0.0153916959565,0.000956959094192,0.0339387731104,1.0,0.0,0.00412401660996
1385568711174667857,-0.0150720736813,0.000937888870744,0.0365030541887,1.0,0.0,0.00398491013505
1385568711224608141,-0.014982756784,0.000889815886747,0.0390955717993,1.0,0.0,0.00386761608226
1385568711274774205,-0.0151736003142,0.000883687657862,0.0417224691162,1.0,0.0,0.00372785555124
1385568711324609851,-0.0154945771615,0.000915008648339,0.0443760496547,1.0,0.0,0.00363950698413
1385568711374606932,-0.0159638383009,0.000983693103021,0.0470457506688,1.0,0.0,0.00354728262989
1385568711424639303,-0.0165879899321,0.00102062422844,0.0497264475989,1.0,0.0,0.00348317569488
1385568711474636512,-0.0172388859342,0.00114637013795,0.0524618665562,1.0,0.0,0.00339530254328
1385568711524647449,-0.0180843351428,0.00126532616544,0.0551645779534,1.0,0.0,0.003299081257
1385568711574630988,-0.0187955855689,0.00127705904461,0.057907615078,1.0,0.0,0.00328414364809
1385568711624594876,-0.0196663689245,0.00130860830757,0.0606555679151,1.0,0.0,0.00323290031474
1385568711674618324,-0.0203856818712,0.00144332854482,0.0634292422252,1.0,0.0,0.00314986707892
1385568711724662111,-0.0211737126216,0.00177045643547,0.0661942000948,1.0,0.0,0.00300940506163
1385568711775006412,-0.021837079307,0.00201485550681,0.0689786209863,1.0,0.0,0.00277919109632
1385568711824667434,-0.0222354419784,0.00240128111411,0.0718585810076,1.0,0.0,0.00240636493363
1385568711874656402,-0.0229111211745,0.00274507543264,0.0746801767375,1.0,0.0,0.00209510911903
1385568711924690547,-0.0234270551562,0.00311299740581,0.0775055123628,1.0,0.0,0.00180826841585
1385568711974634933,-0.023733033011,0.00323636204027,0.0804077107887,1.0,0.0,0.00151790026349
1385568712024710235,-0.02418801547,0.00316295439072,0.0832680206505,1.0,0.0,0.00126208216582
1385568712074588491,-0.024538815041,0.00368809277036,0.0860625950098,1.0,0.0,0.000850536243348
1385568712124628042,-0.0243519091713,0.00349651892537,0.0890049462008,1.0,0.0,0.000499133391737
1385568712174614555,-0.0244545186205,0.0038976575835,0.0918876871249,1.0,0.0,8.42791308562e-05
1385568712224712673,-0.0240248329265,0.00372609315199,0.0948693484459,1.0,0.0,-0.000387453063361
1385568712274607891,-0.0247027368678,0.00327987399705,0.0975555411288,1.0,0.0,-0.00074451924021
1385568712324665961,-0.023820121228,0.00379910946507,0.10044458008,1.0,0.0,-0.0014245269977
1385568712374646550,-0.0240167500408,0.00361037369389,0.103221642807,1.0,0.0,-0.0019816107991
1385568712424670260,-0.0238720902025,0.00343489286802,0.105919520721,1.0,0.0,-0.00266382288662
1385568712474691345,-0.0244792962471,0.00338139598262,0.108379119081,1.0,0.0,-0.00323847417241
1385568712524637707,-0.0245933869303,0.00382529626547,0.110674839745,1.0,0.0,-0.00420852411136
1385568712574676260,-0.0245180401824,0.00376560112249,0.112772355792,1.0,0.0,-0.00515701906559
1385568712624632892,-0.0241410933364,0.00350551066658,0.114606302005,1.0,0.0,-0.00609421107538
1385568712674687956,-0.0241650977396,0.00289385077841,0.11599431175,1.0,0.0,-0.00682064187154
1385568712724597528,-0.0246846690382,0.00284830667221,0.116751588574,1.0,0.0,-0.00760887176638
1385568712774534718,-0.025847615744,0.00314127072975,0.11689072457,1.0,0.0,-0.00808793553298
1385568712824666323,-0.0272006403456,0.00250363835556,0.116589182755,1.0,0.0,-0.00863353633018
1385568712874669223,-0.0281173511211,0.00268816908697,0.116079749027,1.0,0.0,-0.00899402247743
1385568712924632843,-0.02862356565,0.00340463002002,0.115515962947,1.0,0.0,-0.00949174311781
1385568712974587373,-0.0295926564005,0.00358574661502,0.114744078393,1.0,0.0,-0.00978129958142
1385568713024696773,-0.0304806769871,0.00424794430731,0.113799856135,1.0,0.0,-0.0102322758123
1385568713074684479,-0.0320072664594,0.00505805241999,0.112571028681,1.0,0.0,-0.0106101398056
1385568713124647516,-0.0334946721451,0.00592396540914,0.111165007016,1.0,0.0,-0.0108858612208
1385568713174643594,-0.0349688958994,0.00712257533215,0.109623138114,1.0,0.0,-0.0111419759328
1385568713224715297,-0.0372998667024,0.00847542923222,0.107739199153,1.0,0.0,-0.0113029329249
1385568713274579292,-0.0399983851346,0.00961693142393,0.105410690816,1.0,0.0,-0.0113343150307
1385568713324695441,-0.043413921244,0.0104534008421,0.102991990119,1.0,0.0,-0.0113279599327
1385568713374659190,-0.0461432884008,0.0117196810086,0.100967269446,1.0,0.0,-0.0113301201264
1385568713424650164,-0.0489817671928,0.0126353991394,0.0993656315924,1.0,0.0,-0.0111521169702
1385568713474676223,-0.0515001409186,0.0139498647847,0.0983258691035,1.0,0.0,-0.0109880566728
1385568713524679749,-0.0541313694192,0.0154000317085,0.0977258784188,1.0,0.0,-0.0108128098095
1385568713574676116,-0.0564394220976,0.0168414961806,0.0976355159425,1.0,0.0,-0.0106209206341
1385568713624607032,-0.058592453796,0.0183529101751,0.0980112380632,1.0,0.0,-0.0103587209175
1385568713674610647,-0.0606696912838,0.0199716495838,0.0987538200335,1.0,0.0,-0.010126043392
1385568713724683862,-0.0627207644955,0.0213391917975,0.0997997336394,1.0,0.0,-0.00983081194114
1385568713774597061,-0.0648508242945,0.0225950961147,0.101081319513,1.0,0.0,-0.00946200470736
1385568713824593629,-0.0666754973684,0.024367495328,0.102628139491,1.0,0.0,-0.00919691609775
1385568713874720551,-0.0687650359138,0.0258252849812,0.104281668102,1.0,0.0,-0.00880563758366
1385568713924632326,-0.0706007774945,0.027208162068,0.106177701926,1.0,0.0,-0.00842218369619
1385568713974611757,-0.071866694797,0.0286369393783,0.108460320991,1.0,0.0,-0.00801568698817
1385568714024684452,-0.0732487803712,0.029725997184,0.110929521874,1.0,0.0,-0.00765528637628
1385568714074593801,-0.0741335199689,0.0310913104054,0.113626919215,1.0,0.0,-0.00719938970495
1385568714124614534,-0.0746417010813,0.0317760158045,0.116598840025,1.0,0.0,-0.00672439939326
1385568714174824311,-0.0752494331181,0.0319673594056,0.119675655884,1.0,0.0,-0.00627600680541
1385568714224648177,-0.0752074515956,0.0322533674727,0.122891246254,1.0,0.0,-0.00582480940867
1385568714274668188,-0.075638738743,0.0318036644832,0.126099349989,1.0,0.0,-0.00529069457075
1385568714324663134,-0.0757398805145,0.0317757755854,0.129269836897,1.0,0.0,-0.00482128015967
1385568714374753913,-0.0762607094595,0.0313539710032,0.132280108494,1.0,0.0,-0.00420572062763
1385568714424697538,-0.0761269995978,0.0322458322368,0.135213948079,1.0,0.0,-0.0037456212361
1385568714474670690,-0.0761261380711,0.0334627757895,0.138034913443,1.0,0.0,-0.00322793268417
1385568714525295612,-0.0759736659415,0.0332911896842,0.14090365216,1.0,0.0,-0.00268354207432
1385568714574567701,-0.0751577173065,0.0332258456834,0.143966859845,1.0,0.0,-0.0021648386645
1385568714624618601,-0.0750651969448,0.0323136844197,0.146913653382,1.0,0.0,-0.00163730208125
1385568714674604951,-0.0751843443827,0.031226353924,0.148929149928,1.0,0.0,-0.00111013220849
1385568714724649230,-0.0744848996943,0.0312499083803,0.150565627692,1.0,0.0,-0.000621014735225
1385568714774617640,-0.0741737030295,0.0303860575431,0.152000755674,1.0,0.0,-7.38386504215e-05
1385568714824595032,-0.0738576338757,0.0297474748913,0.153153191438,1.0,0.0,0.000391186482557
1385568714874638132,-0.0736707854841,0.0290659475957,0.154094161944,1.0,0.0,0.000851709518825
1385568714924675792,-0.0735585031005,0.0286273057491,0.154683547891,1.0,0.0,0.00135458083631
1385568714974589449,-0.0724840939234,0.0283989409212,0.1553086481,1.0,0.0,0.00183115560207
1385568715024663410,-0.0723151811913,0.0272311163402,0.155749629369,1.0,0.0,0.00228791076574
1385568715074586063,-0.071760015422,0.026339696897,0.156002784434,1.0,0.0,0.00281812418893
1385568715124626512,-0.0715322437687,0.0250658333542,0.156082692189,1.0,0.0,0.00325835415282
1385568715174566200,-0.0711979346944,0.0240199045985,0.155922022441,1.0,0.0,0.00370224126325
1385568715224609290,-0.0707023480142,0.0230132661933,0.155672721227,1.0,0.0,0.00413120258906
1385568715274625084,-0.0702349734148,0.0215551709845,0.155338807591,1.0,0.0,0.0046144393752
1385568715324636259,-0.0695275702945,0.0203733388296,0.1549448896,1.0,0.0,0.00506134907933
1385568715374604410,-0.0685512055143,0.0191977609329,0.154536228673,1.0,0.0,0.00549158433313
1385568715424663298,-0.0678962450537,0.0177469458742,0.153925521317,1.0,0.0,0.00590332649162
1385568715474716268,-0.0670015364374,0.016256377066,0.153246878282,1.0,0.0,0.0063537138808
1385568715524644776,-0.0662075180067,0.0153780257701,0.152401621292,1.0,0.0,0.00666817326156
1385568715574631972,-0.065538876342,0.0139993145947,0.151396115928,1.0,0.0,0.00706148052545
1385568715624575014,-0.06465693598,0.0130585742445,0.150327473077,1.0,0.0,0.00740607264136
1385568715674698396,-0.0639948475516,0.0118898528691,0.149121530796,1.0,0.0,0.00766600148314
1385568715724647182,-0.0635094676475,0.0105847812831,0.147772341021,1.0,0.0,0.00801890214707
1385568715774667457,-0.0628380782527,0.00953268026786,0.146379203238,1.0,0.0,0.0082946840837
1385568715824695181,-0.0629243134366,0.00781147673792,0.144665328217,1.0,0.0,0.00861086316246
1385568715874544421,-0.0612604361911,0.00693337925179,0.143479214476,1.0,0.0,0.0088878967864
1385568715924574351,-0.0609539034634,0.00532831802781,0.142141423213,1.0,0.0,0.0092055271746
1385568715974679460,-0.0603848949079,0.00404284504314,0.140556747653,1.0,0.0,0.00943556247079
1385568716024720915,-0.0597924655168,0.00264597901344,0.1390073085,1.0,0.0,0.00975611776338
1385568716074647777,-0.0591721001063,0.00135258698174,0.137488131846,1.0,0.0,0.0100138798479
1385568716124629082,-0.0590247237959,4.67184375513e-05,0.135683855625,1.0,0.0,0.0102408830934
1385568716174645044,-0.0576489241852,-0.000325637780742,0.134356078754,1.0,0.0,0.0104819046098
1385568716224627079,-0.0571643653633,-0.00114655334533,0.132805648673,1.0,0.0,0.0106464897884
1385568716274608696,-0.056507809084,-0.00222457039924,0.131220384441,1.0,0.0,0.0109388660746
1385568716324682498,-0.0558944659736,-0.00305286004936,0.129665837645,1.0,0.0,0.0111040919802
1385568716374575839,-0.0551010336395,-0.00369055087105,0.128198693841,1.0,0.0,0.0112610238055
1385568716424592180,-0.0547647461306,-0.00475594103237,0.126565292503,1.0,0.0,0.0115126975777
1385568716474693074,-0.0539404477456,-0.00518394868533,0.125006095162,1.0,0.0,0.0115696246152
1385568716524675783,-0.0536024405396,-0.00625534514266,0.123393394063,1.0,0.0,0.0118233279798
1385568716574655776,-0.0539054196165,-0.00732425508377,0.121232718397,1.0,0.0,0.0119840898763
1385568716624598893,-0.0526418065276,-0.00738298217891,0.119812140543,1.0,0.0,0.0121258822206
1385568716674621594,-0.0525106627021,-0.00854920577651,0.118201250797,1.0,0.0,0.0123812085608
1385568716724680582,-0.0519116337018,-0.00888951315405,0.116537365435,1.0,0.0,0.0124924564174
1385568716774695786,-0.0515834245946,-0.00945535398539,0.114796444836,1.0,0.0,0.0126811622229
1385568716824689799,-0.0511960344149,-0.00973236519319,0.113033372216,1.0,0.0,0.0128164052208
1385568716874615339,-0.0511556701206,-0.0101755399888,0.111058279031,1.0,0.0,0.0129781248834
1385568716924702988,-0.0508195070469,-0.0104359474245,0.109276135731,1.0,0.0,0.0130819289428
1385568716974643114,-0.0508823114906,-0.0110819422128,0.107312419914,1.0,0.0,0.0132771584502
1385568717024692103,-0.0506168872984,-0.0113798489599,0.105523553856,1.0,0.0,0.0133863575214
1385568717074618803,-0.0507406724643,-0.0117896801972,0.103573132573,1.0,0.0,0.0135602805408
1385568717124605588,-0.0505958850105,-0.011960537507,0.101753640955,1.0,0.0,0.0136660582646
1385568717174650893,-0.0511010459177,-0.0124809851545,0.0995184550011,1.0,0.0,0.013754802556
1385568717224625568,-0.0509603848119,-0.0129404824143,0.0976309923012,1.0,0.0,0.013987704614
1385568717274641186,-0.0510426176027,-0.0130251394601,0.0959079676601,1.0,0.0,0.0140258384184
1385568717324603221,-0.050701635136,-0.0131706244535,0.0944343952416,1.0,0.0,0.0142384400852
1385568717374607281,-0.0509217951029,-0.0131210652206,0.0926911105603,1.0,0.0,0.0142758701283
1385568717424647850,-0.0510639416001,-0.0132891902347,0.0908368156251,1.0,0.0,0.014455297703
1385568717474613106,-0.0512144095404,-0.0134909139224,0.0891058457874,1.0,0.0,0.0145844917329
1385568717524631933,-0.0513901568709,-0.0133876220081,0.087362356957,1.0,0.0,0.014693714002
1385568717574615042,-0.0514852996056,-0.0135457190099,0.0857583727019,1.0,0.0,0.0148469014783
1385568717624704462,-0.0516951748361,-0.0135873008626,0.0841255306929,1.0,0.0,0.0149379561544
1385568717674682627,-0.0518507627769,-0.01361313366,0.0825485696455,1.0,0.0,0.0150946221671
1385568717724643960,-0.0521222938422,-0.0134373732581,0.0808691172045,1.0,0.0,0.0151725307629
1385568717774590006,-0.0522561727621,-0.0133766106951,0.0793196499943,1.0,0.0,0.0152901399431
1385568717824745958,-0.052500185658,-0.0131306506656,0.0777375828799,1.0,0.0,0.0153850233143
1385568717874621226,-0.0526685313516,-0.0129281479199,0.0761725968744,1.0,0.0,0.0154829989977
1385568717924679685,-0.0528268658673,-0.0129704733503,0.0746810316431,1.0,0.0,0.015645980246
1385568717974606104,-0.0529436408301,-0.0126660103012,0.0731542283626,1.0,0.0,0.0157346736574
1385568718024653340,-0.0530705460316,-0.0123885951884,0.0717393920364,1.0,0.0,0.0158305718544
1385568718074585336,-0.0532681996114,-0.0121289029596,0.070117354883,1.0,0.0,0.0159313032427
1385568718124609356,-0.0536906160091,-0.0120325635934,0.0682386967792,1.0,0.0,0.0160077123573
1385568718174709220,-0.0536950978536,-0.0116960134143,0.0666700582712,1.0,0.0,0.0161147126563
1385568718224612192,-0.0534257432421,-0.0112439036856,0.0656320608925,1.0,0.0,0.0162169346228
1385568718274589000,-0.0535163703517,-0.0108518755027,0.0643425015143,1.0,0.0,0.0163036131699
1385568718324649430,-0.0534463411789,-0.0105471087968,0.0630356906928,1.0,0.0,0.0164234017195
1385568718374587766,-0.0533461692723,-0.010304720166,0.0617527746959,1.0,0.0,0.0165640460139
1385568718424616455,-0.05332222626,-0.00971237665427,0.0604340209872,1.0,0.0,0.0166182034787
1385568718474627160,-0.0532049597603,-0.00935738021382,0.0591980985093,1.0,0.0,0.0167453095583
1385568718524648032,-0.0529779322394,-0.00880264298452,0.0580693225778,1.0,0.0,0.0168137764283
1385568718574672785,-0.0527680619935,-0.00835918442197,0.056960963811,1.0,0.0,0.0168788530807
1385568718624642902,-0.0524994137394,-0.00779996281012,0.0558852721156,1.0,0.0,0.0169278935538
1385568718674630885,-0.0521865835351,-0.00741836448351,0.0548233831688,1.0,0.0,0.0170135878079
1385568718724573253,-0.0519029509574,-0.00698698619709,0.0536345392591,1.0,0.0,0.017097482597
1385568718774587274,-0.0514377856322,-0.00643103189871,0.0527260484697,1.0,0.0,0.0171273772681
1385568718824612748,-0.0511512224216,-0.00614449427956,0.0516243363852,1.0,0.0,0.0172243126937
1385568718874653341,-0.0506299249885,-0.00589110248248,0.0505899853354,1.0,0.0,0.0173411757438
1385568718924625033,-0.0501408014332,-0.00532352573423,0.0495361917626,1.0,0.0,0.0173706785927
1385568718974668839,-0.0496942750581,-0.00533813470358,0.0484254440854,1.0,0.0,0.0175807171671
1385568719024664909,-0.0490568018188,-0.00494622057115,0.0474687865126,1.0,0.0,0.0176880628487
1385568719074617944,-0.0484057239061,-0.00465505651418,0.0465303473959,1.0,0.0,0.017811518998
1385568719124603747,-0.0477470363023,-0.00424727265281,0.0456133451737,1.0,0.0,0.017927121982
1385568719174715560,-0.0473566603449,-0.00396205628573,0.0441688343045,1.0,0.0,0.0180218054379
1385568719224696174,-0.0463742513731,-0.00353291267762,0.0434339334335,1.0,0.0,0.0181798405076
1385568719274609243,-0.0457516990518,-0.00302465980429,0.0425164622432,1.0,0.0,0.0182504794735
1385568719324745129,-0.0449375263159,-0.00270597885595,0.0415649376377,1.0,0.0,0.0183934565068
1385568719374772127,-0.0441379178409,-0.00218474255039,0.0406944980045,1.0,0.0,0.0184675517072
1385568719424756072,-0.0433056570675,-0.00175705992645,0.0397877825894,1.0,0.0,0.0185773183401
1385568719474576370,-0.0425004851723,-0.00121607344794,0.0389388080891,1.0,0.0,0.0186405833991
1385568719524649770,-0.0417444324076,-0.000704155985873,0.0380050677565,1.0,0.0,0.0187204529595
1385568719574619243,-0.0409323255324,-0.000154008288512,0.0370941555301,1.0,0.0,0.0187899731546
1385568719624698078,-0.0401278949986,0.000462874312894,0.0364011757734,1.0,0.0,0.0188222388216
1385568719674625834,-0.0393114782669,0.00104541274459,0.0357157459124,1.0,0.0,0.0188722210785
1385568719724629035,-0.038528725868,0.00160959891735,0.0350151568341,1.0,0.0,0.0189161261961
1385568719774613735,-0.0378255180947,0.00191911556648,0.0342451144482,1.0,0.0,0.0190166336413
1385568719824628808,-0.0369595866755,0.00254617363401,0.0336599718645,1.0,0.0,0.0190433718288
1385568719874644427,-0.0362435832785,0.00283307385753,0.0330273791672,1.0,0.0,0.0191705618008
1385568719924681765,-0.0355746484409,0.0034053704592,0.0324089092352,1.0,0.0,0.0191896368854
1385568719974574095,-0.0348253281997,0.00377064041922,0.0318981317329,1.0,0.0,0.0192966666281
1385568720024640487,-0.0341506061794,0.00420911801089,0.0313562190486,1.0,0.0,0.0193596957873
1385568720074600723,-0.0334774123422,0.00462901437221,0.0308441499331,1.0,0.0,0.0194424310114
1385568720124678234,-0.0328544637869,0.00507400271967,0.0303201797726,1.0,0.0,0.019503574953
1385568720174629095,-0.032157853559,0.00551935013418,0.0299238975815,1.0,0.0,0.0195632858422
1385568720224668781,-0.0316178872592,0.00600664223984,0.0293902485281,1.0,0.0,0.0196007698518
1385568720274629108,-0.0308785370833,0.00633061779208,0.0289979587441,1.0,0.0,0.019697639693
1385568720324586570,-0.0302690943575,0.00681980476783,0.0286393714817,1.0,0.0,0.0197431779843
1385568720374626005,-0.0297556913951,0.00719058707275,0.0282684656276,1.0,0.0,0.0198255329629
1385568720424651724,-0.029233093168,0.00751723953418,0.0277695922972,1.0,0.0,0.019923348981
1385568720474622992,-0.0287012411388,0.0080337332119,0.0274361333148,1.0,0.0,0.0199507150571
1385568720524630338,-0.0281272823334,0.00849795086162,0.0271470925637,1.0,0.0,0.0199991031463
1385568720574630651,-0.0277585721695,0.00876380964934,0.0268394255354,1.0,0.0,0.020102005625
1385568720624639789,-0.0272835743556,0.00924015023353,0.0265599816012,1.0,0.0,0.0201271647639
1385568720674631641,-0.0268666928098,0.009346427001,0.0263138789195,1.0,0.0,0.0202674497341
1385568720724638586,-0.0264543715301,0.00980153819112,0.0260385820261,1.0,0.0,0.0203092909608
1385568720774631279,-0.0261074181677,0.0098283053606,0.0258074850156,1.0,0.0,0.0204650016861
1385568720824636511,-0.025691854852,0.0100602789205,0.0255258029461,1.0,0.0,0.0205761579461
1385568720874618463,-0.0253839110317,0.0101697078953,0.0251741888437,1.0,0.0,0.0207300631436
1385568720924627170,-0.0249261788618,0.0103507506438,0.0248927492067,1.0,0.0,0.0208746086503
1385568720974570564,-0.0246298014557,0.0103399012167,0.0245383393481,1.0,0.0,0.021073581449
1385568721024713735,-0.0242727577671,0.0101050611131,0.0241684685075,1.0,0.0,0.0213344150821
1385568721074632288,-0.0239388161469,0.0103240752813,0.0237798296804,1.0,0.0,0.0214624901272
1385568721124627702,-0.0235929534028,0.0100329759084,0.0233499452075,1.0,0.0,0.021798106297
1385568721174691148,-0.0231233707729,0.0102414206644,0.0230619923886,1.0,0.0,0.0218852898183
1385568721224705304,-0.0228577035338,0.00996485181088,0.0226783059183,1.0,0.0,0.022221006439
1385568721274578304,-0.0224313074433,0.00994864217233,0.022415934213,1.0,0.0,0.0223913836198
1385568721325274919,-0.0220662808631,0.0097620798667,0.0222044154496,1.0,0.0,0.0226591912991
1385568721374638717,-0.021671595488,0.00954657265714,0.0219520164103,1.0,0.0,0.0229328782715
1385568721424679282,-0.0213947849911,0.00930269700237,0.0216533475444,1.0,0.0,0.0232085447861
1385568721474665335,-0.0209665999267,0.00920965442721,0.0213795965706,1.0,0.0,0.0234468325376
1385568721524635938,-0.0206350878729,0.00891736148469,0.0211184377542,1.0,0.0,0.0237251584711
1385568721574762487,-0.0202476581364,0.00866862214399,0.0208128458105,1.0,0.0,0.0240091341873
1385568721624660766,-0.0198378833362,0.00859819116197,0.0204416999005,1.0,0.0,0.0241950985953
1385568721674697890,-0.0195036293821,0.00823605788538,0.0201858713657,1.0,0.0,0.0244574484224
1385568721724653713,-0.0190936670349,0.00803181685125,0.0199514009213,1.0,0.0,0.0246586664734
1385568721774638956,-0.0187322968343,0.00775686248317,0.0196513633468,1.0,0.0,0.0249078620905
1385568721824623029,-0.0184167278669,0.00734705495174,0.0193681119184,1.0,0.0,0.0251511219867
1385568721874625307,-0.0180774521557,0.00707019386646,0.0190587327523,1.0,0.0,0.025372577292
1385568721924601621,-0.017747628364,0.0067869269762,0.0187383815168,1.0,0.0,0.0255868095178
1385568721974625777,-0.0175114427446,0.00637413868983,0.0183471165153,1.0,0.0,0.0258360882734
1385568722024595755,-0.0172323591451,0.00610655383659,0.0180417879799,1.0,0.0,0.0260045278124
1385568722074691135,-0.0170194158637,0.00569542988788,0.017679501972,1.0,0.0,0.0262489013927
1385568722124586057,-0.0168306061504,0.00539077920366,0.0172974879335,1.0,0.0,0.0264243340262
1385568722174610841,-0.0166371959689,0.00505053672764,0.0169312627693,1.0,0.0,0.0266277480638
1385568722224718598,-0.0164964168916,0.0047225612652,0.0165906438363,1.0,0.0,0.0267906394382
1385568722274794492,-0.016336941648,0.00435857743998,0.0163212841208,1.0,0.0,0.027001822201
1385568722324733652,-0.0163581356711,0.00384751462514,0.0159958304444,1.0,0.0,0.0271774998384
1385568722374602291,-0.0163284754091,0.00346733328499,0.0156996337836,1.0,0.0,0.0273469039475
1385568722424605039,-0.0161797703893,0.00300783926037,0.0154681225666,1.0,0.0,0.0275443978152
1385568722474639609,-0.0162320896432,0.00247244315272,0.0152612980552,1.0,0.0,0.0277330533559
1385568722524607050,-0.0161706499456,0.00207263919796,0.0150107660597,1.0,0.0,0.0278951892686
1385568722574704574,-0.0161602653208,0.00148053139095,0.0147592960954,1.0,0.0,0.028105771198
1385568722624677451,-0.0161847713813,0.00096894948005,0.0144822875994,1.0,0.0,0.0282877332087
1385568722674748608,-0.0161213591759,0.000487772705633,0.0142398458409,1.0,0.0,0.0284564085818
1385568722724711603,-0.0161777866316,-9.97051588639e-05,0.0140075668944,1.0,0.0,0.0286369451024
1385568722774632650,-0.0161478568578,-0.000476300900142,0.0138033085455,1.0,0.0,0.0287309431049
1385568722824605229,-0.0161172868756,-0.00107858018736,0.0136185818229,1.0,0.0,0.0289461954785
1385568722874653800,-0.016010131014,-0.00146752281752,0.0134224322806,1.0,0.0,0.0290714071408
1385568722924659725,-0.0160665126096,-0.00208127028636,0.0131609436904,1.0,0.0,0.0292819169087
1385568722974742690,-0.0160313239358,-0.0025872073402,0.0129155161791,1.0,0.0,0.0294528824148
1385568723024694725,-0.0159610330295,-0.00309752820537,0.0126741099971,1.0,0.0,0.0296432084067
1385568723074609223,-0.0159864269366,-0.00369378617012,0.0123466949893,1.0,0.0,0.0298617657199
1385568723124569793,-0.0160106159364,-0.00420938927958,0.0121086723113,1.0,0.0,0.0300410597029
1385568723174704954,-0.0160531919263,-0.00480735672438,0.0118007804884,1.0,0.0,0.0302744130279
1385568723224564263,-0.0160459499614,-0.00525162021353,0.0115611928202,1.0,0.0,0.0304496998177
1385568723274736840,-0.0161450393097,-0.00595070663841,0.0113338072928,1.0,0.0,0.0306950735019
1385568723324637374,-0.0162566224354,-0.00650663125835,0.0110768492557,1.0,0.0,0.0308929348291
1385568723374648787,-0.0162946724181,-0.00701227608628,0.0108632658518,1.0,0.0,0.0311253081099
1385568723424605412,-0.0164682165442,-0.00762069944769,0.0105738063648,1.0,0.0,0.0313307590204
1385568723474662010,-0.0165568224338,-0.00807995597553,0.0103464218322,1.0,0.0,0.0315074045217
1385568723524671999,-0.0167496502146,-0.00865493984877,0.0100709339393,1.0,0.0,0.0317006664321
1385568723574643824,-0.0168503926903,-0.00911837460847,0.00985824280949,1.0,0.0,0.0318953869815
1385568723624620237,-0.0169455357712,-0.00961020874758,0.0097024401621,1.0,0.0,0.0320907056446
1385568723675034645,-0.0171190088013,-0.0101203623134,0.00947715747848,1.0,0.0,0.0322775287793
1385568723724742365,-0.0172302641889,-0.0104298648269,0.00925196093188,1.0,0.0,0.0324070165362
1385568723774580263,-0.0172658792164,-0.0108020939488,0.00907411725498,1.0,0.0,0.0325737109704
1385568723824533901,-0.0174356945797,-0.0110929984028,0.0088029559188,1.0,0.0,0.0327191724933
1385568723874566916,-0.0175841984528,-0.0113918117007,0.00845905604471,1.0,0.0,0.0328412773776
1385568723924673180,-0.0176954887584,-0.0115674794423,0.00825590507248,1.0,0.0,0.0329633725437
1385568723974606850,-0.0178455323309,-0.0116450875351,0.00804138501593,1.0,0.0,0.0330412627952
1385568724024783605,-0.0179553772551,-0.0116668956824,0.00784559135242,1.0,0.0,0.0330823642486
1385568724074549972,-0.0180875782309,-0.011743026739,0.00766127370142,1.0,0.0,0.0331714432649
1385568724124652626,-0.0182032678807,-0.0116991050382,0.00745839766895,1.0,0.0,0.0331963926597
1385568724174690304,-0.018272364383,-0.0116028989883,0.00734980825441,1.0,0.0,0.0332403545184
1385568724224535006,-0.0184186297895,-0.0115267916851,0.00715313470971,1.0,0.0,0.033241264079
1385568724274703407,-0.0184734777949,-0.0113868794163,0.00703447930064,1.0,0.0,0.0332829039685
1385568724324568094,-0.0185298761799,-0.0111074792001,0.00688549042918,1.0,0.0,0.0332500879961
1385568724374624135,-0.0186497105714,-0.0109330846738,0.0066382874641,1.0,0.0,0.0332421336213
1385568724424676240,-0.0186113386773,-0.0107613547291,0.00650226771246,1.0,0.0,0.0332652038749
1385568724474558446,-0.0186759503451,-0.010397977619,0.00636947833187,1.0,0.0,0.0332260787551
1385568724524773399,-0.0185786075391,-0.0101619053495,0.00624109968458,1.0,0.0,0.033278486626
1385568724574597165,-0.0185840187398,-0.00971966069689,0.00612756772376,1.0,0.0,0.0332071142212
1385568724625160915,-0.0184338766185,-0.00934931874949,0.00603080587487,1.0,0.0,0.0332163387818
1385568724674706012,-0.0182987303987,-0.00895720737143,0.00585624338733,1.0,0.0,0.0331732576604
1385568724724599724,-0.0180967412404,-0.00850109443772,0.00569601595432,1.0,0.0,0.0331532059141
1385568724774626518,-0.0178587592964,-0.00809981527664,0.00549939256699,1.0,0.0,0.0331410178523
1385568724824542364,-0.0174785530953,-0.00762951260098,0.0053624398174,1.0,0.0,0.0331757985221
1385568724874657761,-0.0171642896898,-0.00716450651377,0.00525876889855,1.0,0.0,0.0331594645487
1385568724924673402,-0.0167609101703,-0.0066964712662,0.00514865340744,1.0,0.0,0.0331936710259
1385568724974639117,-0.0163426801984,-0.00624755043887,0.00502149381486,1.0,0.0,0.0332083203775
1385568725024648673,-0.0159314877085,-0.00580701760195,0.00491271692144,1.0,0.0,0.0332005717012
1385568725074668084,-0.0154019673967,-0.00532886415101,0.00483205694981,1.0,0.0,0.0332322859321
1385568725124690558,-0.0149265911459,-0.00480048419839,0.00476115325626,1.0,0.0,0.033223547021
1385568725174737735,-0.0144065307599,-0.00442972502004,0.00470179745332,1.0,0.0,0.0332610001868
1385568725224623472,-0.0138648384454,-0.00396787099692,0.00463737711595,1.0,0.0,0.0332824511169
1385568725274653823,-0.0132845278594,-0.00360600986522,0.00464118268109,1.0,0.0,0.0333247815115
1385568725324598980,-0.0127183521908,-0.00311621967464,0.00462445046519,1.0,0.0,0.0333354516378
1385568725374607357,-0.0122136140504,-0.00283236021691,0.00454866243538,1.0,0.0,0.0333812445001
1385568725424601605,-0.0116278169378,-0.00242224646741,0.0045169683746,1.0,0.0,0.0333832072323
1385568725474561295,-0.0110223666034,-0.00208179266874,0.00450572861843,1.0,0.0,0.0334186538691
1385568725524628906,-0.0105362064504,-0.00180557598568,0.00444721330425,1.0,0.0,0.0334211563392
1385568725574616104,-0.010043713664,-0.00155670563321,0.00437672688595,1.0,0.0,0.0333968836145
1385568725624648185,-0.00957455877359,-0.00137852501599,0.00433263546199,1.0,0.0,0.0334008331328
1385568725674603126,-0.00902572614085,-0.00127365429252,0.00435990906675,1.0,0.0,0.033448563998
1385568725724687859,-0.00861030377038,-0.00117608598394,0.00435499166635,1.0,0.0,0.0334764831842
1385568725774626220,-0.00820630888718,-0.0011290772199,0.00436128422794,1.0,0.0,0.0334751620068
1385568725824633360,-0.00777367409309,-0.00112913242119,0.00442664581067,1.0,0.0,0.0335302182583
1385568725874681406,-0.00738790721329,-0.00112969352498,0.00445604597811,1.0,0.0,0.0335309849139
1385568725924567512,-0.00704695239641,-0.00122250732608,0.0045025081869,1.0,0.0,0.0335235703154
1385568725974637716,-0.0066977609264,-0.00130668344278,0.00457729477919,1.0,0.0,0.033478330578
1385568726024742121,-0.00641612370542,-0.00149460770096,0.004629316717,1.0,0.0,0.0334391479145
1385568726074655883,-0.0061577618334,-0.00176977559721,0.00468255641425,1.0,0.0,0.0333811426132
1385568726124595557,-0.00588324908708,-0.00204473189411,0.00474287306543,1.0,0.0,0.0333439071452
1385568726174633959,-0.00564161681927,-0.00235016515338,0.00482878051868,1.0,0.0,0.0332416770381
1385568726224637114,-0.00539970820729,-0.00273564839371,0.00490272360224,1.0,0.0,0.0331875249203
1385568726274636031,-0.00513411352801,-0.00310699176455,0.00500001492474,1.0,0.0,0.0331038448122
1385568726324642593,-0.00493719567465,-0.00353825659199,0.00508224929618,1.0,0.0,0.0330200679921
1385568726374646994,-0.00476212524667,-0.00405283214433,0.00513545069337,1.0,0.0,0.0329196630664
1385568726424761766,-0.00457760741056,-0.00450989752194,0.00523986553441,1.0,0.0,0.0327895682647
1385568726474654579,-0.0044248290381,-0.00504053984284,0.00531155751984,1.0,0.0,0.0326774939169
1385568726524628336,-0.00429933259165,-0.00555015167353,0.00540304186938,1.0,0.0,0.0325683076508
1385568726574654003,-0.00417925430006,-0.00625843213433,0.00548663756393,1.0,0.0,0.0325142259769
1385568726624628433,-0.00415233216877,-0.00687862712825,0.00550709497066,1.0,0.0,0.0323589454133
1385568726674635489,-0.00415069494789,-0.00755986237666,0.00553542263718,1.0,0.0,0.032251665443
1385568726724639945,-0.00411970012165,-0.00833260668132,0.00558760649568,1.0,0.0,0.0321589407596
1385568726774547794,-0.00416494885918,-0.00905221262517,0.00563388649709,1.0,0.0,0.0320636518748
1385568726824781072,-0.00419858347216,-0.0097608207669,0.00569819279508,1.0,0.0,0.0319400055373
1385568726874589095,-0.00436120559462,-0.0106033582546,0.0057277224605,1.0,0.0,0.0318568736741
1385568726924629891,-0.00453327214735,-0.0113117901586,0.00573347193319,1.0,0.0,0.0317165483201
1385568726974578285,-0.00471879501231,-0.01211167455,0.00573149417804,1.0,0.0,0.0316402398081
1385568727024632554,-0.00504420859677,-0.0128292916365,0.00569576923372,1.0,0.0,0.0314912591654
1385568727074668664,-0.00530938198848,-0.0136879477779,0.00564639425643,1.0,0.0,0.0314222507731
1385568727124669699,-0.00572216113943,-0.0143858215735,0.00559695593062,1.0,0.0,0.0312870822171
1385568727174679773,-0.00611730954985,-0.0152434006808,0.0055402616687,1.0,0.0,0.031247312476
1385568727224630862,-0.0066636830335,-0.0159647397568,0.0054234155762,1.0,0.0,0.0311143597882
1385568727274643787,-0.00713172332608,-0.0167864179088,0.00538970197104,1.0,0.0,0.031075315197
1385568727324630529,-0.00771839171218,-0.0175563178768,0.00533455987346,1.0,0.0,0.030991437682
1385568727374621538,-0.0082522988489,-0.0182507246003,0.00530537818692,1.0,0.0,0.030911861173
1385568727424630828,-0.00891117609427,-0.0190759285712,0.00518089666165,1.0,0.0,0.0308196225013
1385568727474668569,-0.00957109117778,-0.0197783626414,0.00503321768848,1.0,0.0,0.0307915614643
1385568727524646818,-0.0102797047424,-0.0204210266087,0.00489746782787,1.0,0.0,0.0307153740937
1385568727574658621,-0.011004881024,-0.0211310075474,0.0047402293196,1.0,0.0,0.0306752447088
1385568727624711532,-0.0116791034295,-0.021810135118,0.00460983021043,1.0,0.0,0.0306176628003
1385568727674741582,-0.0124076746745,-0.0223527637438,0.00447639738746,1.0,0.0,0.0305642908855
1385568727724597915,-0.0131187019554,-0.0229136370058,0.00433199653819,1.0,0.0,0.0304400105714
1385568727774637692,-0.0136803741323,-0.0234145630757,0.00425080632962,1.0,0.0,0.0304304300671
1385568727824597520,-0.0143094204573,-0.0238457198947,0.0041149459384,1.0,0.0,0.0303209334408
1385568727874597081,-0.0147866475598,-0.0242481915767,0.00395614661121,1.0,0.0,0.030296993888
1385568727924596819,-0.015378336401,-0.0246242030199,0.00375572567265,1.0,0.0,0.0301888396938
1385568727974653262,-0.0158268201761,-0.0248543566517,0.00357570023803,1.0,0.0,0.0300769578115
1385568728024649981,-0.0162711777766,-0.0250826028725,0.00339317365883,1.0,0.0,0.0299529259158
1385568728074628917,-0.0167035644228,-0.0251963925793,0.00317770782,1.0,0.0,0.0297625947422
1385568728124657269,-0.017025426423,-0.0252714790805,0.00303587022463,1.0,0.0,0.0296334134413
1385568728174564552,-0.0173306247132,-0.025368349338,0.00290420085461,1.0,0.0,0.0294864765621
1385568728224659370,-0.0176301874074,-0.0253675480587,0.00273303256992,1.0,0.0,0.0293074914621
1385568728274583704,-0.0178677972724,-0.025251453961,0.00263508202831,1.0,0.0,0.0291212646645
1385568728324631464,-0.0180853391583,-0.0252233944168,0.00247720158504,1.0,0.0,0.0289368697975
1385568728374619743,-0.0182960204391,-0.0250250636479,0.00235164710833,1.0,0.0,0.0287199988356
1385568728424605306,-0.0183268200828,-0.0249347149125,0.00228366008705,1.0,0.0,0.0286123850844
1385568728474588269,-0.0184637264126,-0.0247245851058,0.00215814837883,1.0,0.0,0.0284050504531
1385568728524588823,-0.0184933333928,-0.0245452462643,0.00208211058193,1.0,0.0,0.0282563888372
1385568728574636641,-0.0184964311644,-0.0242324598065,0.0020265288361,1.0,0.0,0.0281003365445
1385568728624642611,-0.0185060660393,-0.024042930429,0.00194964490787,1.0,0.0,0.0279522735245
1385568728674656991,-0.0184973926529,-0.0237009545044,0.00187311383243,1.0,0.0,0.0277807131259
1385568728724579621,-0.0185471445144,-0.0233494139691,0.00179965940539,1.0,0.0,0.0275967965029
1385568728774587036,-0.0185021649207,-0.0230034820718,0.00178048286936,1.0,0.0,0.027449073745
1385568728824654969,-0.0183995976245,-0.0226063044135,0.00181817744265,1.0,0.0,0.027319989594
1385568728874719411,-0.0184176490134,-0.0221364121013,0.00175809255482,1.0,0.0,0.0271172323132
1385568728924605607,-0.018372889349,-0.0216909396954,0.00170371802363,1.0,0.0,0.0269548907379
1385568728974617322,-0.0182929569803,-0.0211848798027,0.00169176049126,1.0,0.0,0.0267841632414
1385568729024649758,-0.018319687038,-0.0206187525612,0.00164763266863,1.0,0.0,0.0265785675495
1385568729074636776,-0.0182557404647,-0.019987815262,0.00163789464001,1.0,0.0,0.0263695436616
1385568729124630056,-0.0182808325014,-0.0194090504239,0.00158072700396,1.0,0.0,0.0261436679945
1385568729174617267,-0.0182877348314,-0.0188787391094,0.00142632293245,1.0,0.0,0.0259529090047
1385568729224646051,-0.0181963261054,-0.0183104606325,0.00135058925268,1.0,0.0,0.0257747392383
1385568729274644155,-0.0182342220726,-0.0176762954485,0.00122980636488,1.0,0.0,0.0255387566268
1385568729324693503,-0.0181530732586,-0.0171224567758,0.00106138250571,1.0,0.0,0.0253712678205
1385568729374623482,-0.0180967437684,-0.016610169675,0.000948833745778,1.0,0.0,0.0251814391919
1385568729424637529,-0.0180132064596,-0.0161641774332,0.000813496253429,1.0,0.0,0.0250198593647
1385568729474665744,-0.0178923775824,-0.0157670994281,0.000663882430143,1.0,0.0,0.024876513107
1385568729524598615,-0.0176720190073,-0.015273264966,0.000604201933846,1.0,0.0,0.0247254648962
1385568729574621462,-0.0175364513533,-0.0148907416352,0.000515272730002,1.0,0.0,0.0245690325366
1385568729624643437,-0.017327872988,-0.0145369981403,0.000407302052926,1.0,0.0,0.0243959478804
1385568729674618948,-0.0171333730504,-0.0142719294105,0.000302239928209,1.0,0.0,0.0242278847841
1385568729724615014,-0.016877854263,-0.0139342905057,0.000254801611286,1.0,0.0,0.0240202708381
1385568729774627222,-0.0166452146123,-0.0136553673954,0.000171958412422,1.0,0.0,0.0238031987425
1385568729824649837,-0.0163021649398,-0.0135033932238,0.000123632153342,1.0,0.0,0.0236504187744
1385568729874698399,-0.016009636755,-0.0132882327739,0.000122546430198,1.0,0.0,0.0234349093409
1385568729924568925,-0.015599454784,-0.0132267480075,7.57396172528e-05,1.0,0.0,0.0233278819308
1385568729974684121,-0.0152360835301,-0.0131365836846,5.5185198667e-05,1.0,0.0,0.0231615589222
1385568730024630760,-0.014870089026,-0.0130449212169,6.41295453173e-05,1.0,0.0,0.0229974542244
1385568730074633602,-0.0144959560412,-0.0129787030079,0.000148609984048,1.0,0.0,0.0228289986809
1385568730124652349,-0.0140980844571,-0.0130183422093,0.000169785742694,1.0,0.0,0.0226995233254
1385568730174650377,-0.0137463628901,-0.0129158138805,0.000198405907408,1.0,0.0,0.0224852244862
1385568730224631080,-0.0133765942938,-0.0129075467707,0.000311440132825,1.0,0.0,0.0223013998389
1385568730274606490,-0.0129569079384,-0.0129734580328,0.000371318918979,1.0,0.0,0.0221467637907
1385568730324617858,-0.0126346950558,-0.0130971010141,0.000394580616471,1.0,0.0,0.0219780530167
1385568730375261371,-0.0122361397241,-0.0132713869762,0.000447895419665,1.0,0.0,0.0218367273802
1385568730424594527,-0.011817766077,-0.0134931185805,0.00049378418486,1.0,0.0,0.0217541552292
1385568730474654133,-0.0114663752624,-0.0137423857514,0.000542939090644,1.0,0.0,0.0216007496696
1385568730524631902,-0.0111686135483,-0.0139282987703,0.000573300141918,1.0,0.0,0.0214343912715
1385568730574643281,-0.0108500947961,-0.0142834440269,0.000607043790415,1.0,0.0,0.0212582654466
1385568730624641382,-0.0105106200384,-0.0146259748326,0.000607502074955,1.0,0.0,0.0211138738026
1385568730674645567,-0.0102219921701,-0.0150330398442,0.000617122197964,1.0,0.0,0.0209290027693
1385568730724605192,-0.00989934414156,-0.0155025547727,0.000563486412245,1.0,0.0,0.020825425314
1385568730774640749,-0.00962054667451,-0.0159901983224,0.000504750238671,1.0,0.0,0.0206854242606
1385568730824641560,-0.00941288876454,-0.0165013481363,0.000513273043316,1.0,0.0,0.0205084211199
1385568730874643578,-0.00913500925719,-0.0171109880667,0.000529526421165,1.0,0.0,0.0204107502891
1385568730924629804,-0.00892202316604,-0.017766315739,0.000605068535405,1.0,0.0,0.0202976377254
1385568730974769584,-0.00873811212194,-0.0184714536124,0.00070824478425,1.0,0.0,0.0201749527081
1385568731024666646,-0.00859003954294,-0.0191644548462,0.000819209061256,1.0,0.0,0.02002532035
1385568731074604680,-0.00844280153027,-0.0198712108492,0.000846029466455,1.0,0.0,0.0198738014445
1385568731124701669,-0.00808825694817,-0.020641234401,0.00100591081443,1.0,0.0,0.019869487601
1385568731174598965,-0.00803738244553,-0.0213623781567,0.00099136629553,1.0,0.0,0.0196911241158
1385568731224595362,-0.00772094736704,-0.0221452286117,0.00110513534752,1.0,0.0,0.0196579515009
1385568731274710834,-0.00755462829049,-0.0228310384323,0.0011681409498,1.0,0.0,0.0195715434815
1385568731324624246,-0.00735001904065,-0.0234879476352,0.00124867515131,1.0,0.0,0.0194818693162
1385568731374591887,-0.00714553184075,-0.0241841079093,0.00133269235462,1.0,0.0,0.0194471278168
1385568731424608608,-0.00697299162032,-0.0246798114968,0.00146931910455,1.0,0.0,0.0193514471373
1385568731474717540,-0.00685452083899,-0.0252139898526,0.00160642815943,1.0,0.0,0.0192841720231
1385568731524630145,-0.00680302572273,-0.0256423251344,0.00176992623672,1.0,0.0,0.0191529892184
1385568731574621652,-0.00667294275153,-0.0260046061166,0.0019253596616,1.0,0.0,0.0190899375106
1385568731624686680,-0.00667388394733,-0.0263036566797,0.00203765599778,1.0,0.0,0.0189881551212
1385568731674625502,-0.00667959773537,-0.0264344853586,0.0021730627785,1.0,0.0,0.018873448957
1385568731724636971,-0.00655643037413,-0.0266280837779,0.00237163816,1.0,0.0,0.0188854999599
1385568731774647751,-0.00663103043719,-0.026711680084,0.00253305899011,1.0,0.0,0.0187882243421
1385568731824677183,-0.00654553788837,-0.0267438521826,0.00272254075542,1.0,0.0,0.018782603329
1385568731874635686,-0.00664678750929,-0.0266366141432,0.00293155454272,1.0,0.0,0.0187067600654
1385568731924621614,-0.00665875446131,-0.0264178986321,0.00313272007716,1.0,0.0,0.0186617517347
1385568731974630984,-0.00683053959606,-0.0262183175359,0.00324404728797,1.0,0.0,0.0185531660379
1385568732024637098,-0.00680250568221,-0.025845955311,0.00340215227546,1.0,0.0,0.0185403175831
1385568732074641412,-0.00696045797301,-0.0255509007874,0.00342831001897,1.0,0.0,0.0184949348975
1385568732124820395,-0.00700318668737,-0.0249613466378,0.00349721794566,1.0,0.0,0.0184071856972
1385568732174634659,-0.00716186083887,-0.02452666072,0.00349391031127,1.0,0.0,0.0184084977293
1385568732224633975,-0.0073696268876,-0.0238904285804,0.00341408665336,1.0,0.0,0.0183438687464
1385568732275088457,-0.00746985459732,-0.0232212586735,0.00341321409214,1.0,0.0,0.018322539761
1385568732324709350,-0.00769620997862,-0.0225154055742,0.00331861305303,1.0,0.0,0.0183093242412
1385568732374586747,-0.00791437722697,-0.0217708665966,0.0032382148586,1.0,0.0,0.0182574229971
1385568732424675086,-0.00814971661663,-0.0210371331443,0.00313328803502,1.0,0.0,0.0182681555809
1385568732474581853,-0.00842905797072,-0.020249495083,0.00300215969057,1.0,0.0,0.0182488336704
1385568732524646091,-0.00869624556539,-0.0194355213436,0.00283195502583,1.0,0.0,0.0182461791572
1385568732574617223,-0.00893196047899,-0.0186589646846,0.00270289915406,1.0,0.0,0.0182708817891
1385568732624568824,-0.00920601256819,-0.0177818822158,0.00254954159529,1.0,0.0,0.0182656048744
1385568732674629112,-0.00950592059044,-0.0169539465242,0.00242258086069,1.0,0.0,0.0183054498593
1385568732724602373,-0.00984933721852,-0.0161324138246,0.00221486012212,1.0,0.0,0.0183165331048
1385568732774627259,-0.0101181292587,-0.0152952345092,0.00203497411804,1.0,0.0,0.0183502772936
1385568732824678739,-0.0104360458172,-0.0144834250118,0.00186062857192,1.0,0.0,0.0183901275357
1385568732874690767,-0.010760733104,-0.0135361423024,0.00169219285485,1.0,0.0,0.0184072632556
1385568732924655646,-0.0110214495794,-0.0128296526785,0.00154089056012,1.0,0.0,0.0184682872109
1385568732974646557,-0.0113701070112,-0.0120469523154,0.00135866175875,1.0,0.0,0.0185131810837
1385568733024629463,-0.0115556634169,-0.0113384649255,0.00120806195417,1.0,0.0,0.0185961519636
1385568733074631220,-0.0118185730459,-0.0105838576896,0.00102617307461,1.0,0.0,0.0186336947602
1385568733124731186,-0.0120026163846,-0.00988275782441,0.000836093584263,1.0,0.0,0.0186993784553
1385568733174646672,-0.0121636753865,-0.00919582252644,0.000625995985141,1.0,0.0,0.0187430808393
1385568733224630737,-0.0122456073132,-0.0085602403759,0.000424586224624,1.0,0.0,0.0188471750519
1385568733274613726,-0.0123087486403,-0.00797057242688,0.000245538734468,1.0,0.0,0.0189199751165
1385568733324601995,-0.012314910356,-0.00736943812869,8.15979725713e-05,1.0,0.0,0.0190227225308
1385568733374626263,-0.0123293346072,-0.00679773417552,-8.56115295866e-05,1.0,0.0,0.0191012349274
1385568733424649820,-0.0123082749252,-0.00623323291229,-0.000224246196044,1.0,0.0,0.0191680632093
1385568733474979274,-0.0123060100126,-0.00574595094341,-0.000347293190216,1.0,0.0,0.0192354829553
1385568733524648823,-0.0122989660951,-0.00514632664538,-0.000471901637732,1.0,0.0,0.0192655688371
1385568733574664058,-0.0122342337271,-0.00471612409953,-0.000554256735175,1.0,0.0,0.0193384062294
1385568733624644533,-0.0121770946056,-0.00409559655159,-0.000643920937947,1.0,0.0,0.0193416776689
1385568733674628611,-0.0120088983033,-0.00360992047938,-0.000711271482618,1.0,0.0,0.0194391414482
1385568733724627707,-0.0119297816957,-0.00307385468013,-0.000798930876241,1.0,0.0,0.0195221818655
1385568733774630319,-0.0117969060883,-0.0025566466091,-0.000868713392669,1.0,0.0,0.019582898082
1385568733824623828,-0.0117475269454,-0.00203796105686,-0.000976926305637,1.0,0.0,0.0196423459328
1385568733874619336,-0.0115537524703,-0.001578847923,-0.00101216134775,1.0,0.0,0.0197467938059
1385568733924692042,-0.0114581218735,-0.000985413561645,-0.00105414322033,1.0,0.0,0.0197880149396
1385568733974569295,-0.0112840704515,-0.000581351160013,-0.00116305240876,1.0,0.0,0.0198826491082
1385568734024630427,-0.01102305424,-5.17430841208e-05,-0.00121941656706,1.0,0.0,0.0200092312281
1385568734074644237,-0.0108904331037,0.000315445996093,-0.00133732085736,1.0,0.0,0.0201159938348
1385568734124816321,-0.0106026753507,0.00073624808372,-0.00145917234528,1.0,0.0,0.020320448202
1385568734174655004,-0.0103458675349,0.00106114763618,-0.00155861794477,1.0,0.0,0.0204834377802
1385568734224640540,-0.0101003088113,0.00132867802955,-0.00166630337506,1.0,0.0,0.0207010742601
1385568734274641850,-0.00991427454363,0.0016622475065,-0.00173389610448,1.0,0.0,0.020851445506
1385568734324615841,-0.00964497446412,0.00182188344591,-0.00185985776049,1.0,0.0,0.0210607303113
1385568734374654164,-0.00944407387021,0.00209439132365,-0.00187972427032,1.0,0.0,0.0212000167207
1385568734424641822,-0.00928107420349,0.00229803490479,-0.0019503949419,1.0,0.0,0.021370581204
1385568734474701970,-0.00903572499791,0.00240302275041,-0.00197450797987,1.0,0.0,0.0215369788121
1385568734524637207,-0.00883309445257,0.00253475008665,-0.00203572849417,1.0,0.0,0.0217256275078
1385568734574667696,-0.00863014910036,0.00263389548563,-0.00208200210606,1.0,0.0,0.0219222471357
1385568734624718684,-0.0084583857616,0.00278342248765,-0.00213904138507,1.0,0.0,0.0221171493015
1385568734674606823,-0.00825681600537,0.00282944743684,-0.00215502429743,1.0,0.0,0.0223066453762
1385568734724627797,-0.00807685897119,0.00284719736253,-0.00220184899994,1.0,0.0,0.0225676732222
1385568734774588166,-0.00794761669241,0.00289959255095,-0.0022212716366,1.0,0.0,0.0227769514142
1385568734824895632,-0.0078212946917,0.00289682768978,-0.00225400773295,1.0,0.0,0.0230417305992
1385568734874633255,-0.00776257280324,0.00282885297955,-0.00229844387091,1.0,0.0,0.0232523562402
1385568734924637412,-0.00772547933101,0.00278287085704,-0.00233559129123,1.0,0.0,0.0234830329618
1385568734974710280,-0.00770979403032,0.00266592527494,-0.00234825002573,1.0,0.0,0.0237779471825
1385568735024626722,-0.00777843116481,0.0025161656041,-0.00238722243435,1.0,0.0,0.0239647233386
1385568735074638042,-0.00782082350808,0.00236380648264,-0.00236364420605,1.0,0.0,0.024243294592
1385568735124757062,-0.00794756674298,0.00217563612176,-0.00236569687062,1.0,0.0,0.0244546793758
1385568735174748912,-0.00809331378302,0.00195026780852,-0.00237406055271,1.0,0.0,0.024723209728
1385568735224622257,-0.008280945445,0.00168485424524,-0.002387990357,1.0,0.0,0.0249818215996
1385568735274640522,-0.00841958360946,0.00153549074925,-0.00234479380193,1.0,0.0,0.0252379638782
1385568735324658459,-0.00863674947727,0.00118334069259,-0.00231404775148,1.0,0.0,0.0255448346451
1385568735374608437,-0.00879656438331,0.000924718520966,-0.00226925411338,1.0,0.0,0.0258158434504
1385568735424619186,-0.00895430467266,0.00068774646194,-0.00222388953314,1.0,0.0,0.0260931061196
1385568735474638356,-0.00912000021237,0.000426108806637,-0.00219280265065,1.0,0.0,0.0263289478116
1385568735524630849,-0.00921992585535,0.000166595800667,-0.00215043014036,1.0,0.0,0.026604371915
1385568735574630236,-0.00927466865389,-4.72547840824e-05,-0.00207032419102,1.0,0.0,0.0268062499827
1385568735624647302,-0.00934534506748,-0.0002917053646,-0.0019935797555,1.0,0.0,0.0269718607275
1385568735674729781,-0.00922105243121,-0.000536658145794,-0.00183995769901,1.0,0.0,0.0271928198114
1385568735724728154,-0.00915003589196,-0.000762297428705,-0.00171505980484,1.0,0.0,0.0273936409144
1385568735774637982,-0.00899083778348,-0.00108946238363,-0.00159378956287,1.0,0.0,0.0276273137797
1385568735824678581,-0.00877613609385,-0.00134678444178,-0.00148513142961,1.0,0.0,0.027880255673
1385568735874590387,-0.00856843274115,-0.00167708835848,-0.00139059165419,1.0,0.0,0.0281018256088
1385568735924686559,-0.00826567341125,-0.00190889957432,-0.00126775233486,1.0,0.0,0.0283367341261
1385568735974648072,-0.00803052593115,-0.00221115872437,-0.0011418150721,1.0,0.0,0.0285170858135
1385568736024606827,-0.00774965141281,-0.00244817183636,-0.00106351765613,1.0,0.0,0.02872828589
1385568736074730155,-0.00746661359094,-0.00278688179564,-0.000906732865936,1.0,0.0,0.0289106132536
1385568736124566208,-0.00715452107857,-0.00303189221161,-0.000780879956476,1.0,0.0,0.029089976026
1385568736174639367,-0.00691290563471,-0.00325888850495,-0.000642528822717,1.0,0.0,0.0292252284667
1385568736224624503,-0.00663723161929,-0.00360900042795,-0.000585974556161,1.0,0.0,0.029414293672
1385568736274581792,-0.00636993941969,-0.0038971778345,-0.000492431263365,1.0,0.0,0.0295569055136
1385568736324688041,-0.00618218207419,-0.00415299765664,-0.000399220659217,1.0,0.0,0.0297090713154
1385568736374595114,-0.00594159204042,-0.00440701308055,-0.000264584824755,1.0,0.0,0.0298358206894
1385568736424597594,-0.00586810889336,-0.00472147441269,-0.000184062791846,1.0,0.0,0.0299472034422
1385568736474605790,-0.00571618580333,-0.00505234891206,-9.71920404051e-05,1.0,0.0,0.0301323893449
1385568736524603860,-0.00574433679601,-0.00527563472071,-4.69927731474e-05,1.0,0.0,0.0301739195867
1385568736574628413,-0.00563993341046,-0.00559467015688,3.70879836233e-05,1.0,0.0,0.0303399980701
1385568736624593573,-0.00566297193474,-0.00596185378501,0.000108877047077,1.0,0.0,0.0304599447734
1385568736674687982,-0.0056766199407,-0.00631259707492,0.000202153135274,1.0,0.0,0.0306277437414
1385568736724617828,-0.00568387407768,-0.00663241179657,0.000319645590118,1.0,0.0,0.0307154590639
1385568736774661631,-0.00574312637438,-0.00695021915298,0.000441574858109,1.0,0.0,0.0308638675123
1385568736824715783,-0.00580496820024,-0.0072559159394,0.000551314998198,1.0,0.0,0.030936737841
1385568736874679023,-0.00589863230623,-0.00756481382637,0.000649492031686,1.0,0.0,0.0310232414896
1385568736924596555,-0.00597732549542,-0.00790625236334,0.000722554594311,1.0,0.0,0.0311008244166
1385568736974569789,-0.00604957126492,-0.00814365031486,0.000830141414724,1.0,0.0,0.031119642769
1385568737024630255,-0.00615269240392,-0.0084182381209,0.000878326788959,1.0,0.0,0.0311670599977
1385568737074687832,-0.00626136867238,-0.00869996237034,0.000956843101342,1.0,0.0,0.0311759459521
1385568737124582245,-0.00635774540979,-0.00893223138397,0.000997524951675,1.0,0.0,0.0311479708261
1385568737174585837,-0.00641050064892,-0.00915792510583,0.00108053868214,1.0,0.0,0.031195102586
1385568737224624352,-0.00655280334797,-0.00939523519895,0.00113677663003,1.0,0.0,0.0311904041749
1385568737274670325,-0.00671785112263,-0.00957733284664,0.00117663605769,1.0,0.0,0.0311954170443
1385568737324684769,-0.00691683032644,-0.00980128601014,0.00128240998868,1.0,0.0,0.0311845295201
1385568737374640644,-0.00714488943967,-0.0100125218917,0.00140732312277,1.0,0.0,0.0311826206668
1385568737424676861,-0.00743355285835,-0.0101948662766,0.00150159879294,1.0,0.0,0.0311995883266
1385568737474588471,-0.00773293438278,-0.0104122266356,0.00164233016946,1.0,0.0,0.0311533587647
1385568737524594838,-0.00809614155347,-0.0105864307914,0.00175360136444,1.0,0.0,0.0311582305979
1385568737574601349,-0.00849099322904,-0.0107581409698,0.00185341753318,1.0,0.0,0.0310957969691
1385568737624618508,-0.00888095024189,-0.0109307607765,0.00197585806051,1.0,0.0,0.0310589870387
1385568737674705661,-0.00936012683711,-0.0110463483062,0.00205179252034,1.0,0.0,0.0310096919783
1385568737724597012,-0.00981842226448,-0.0111849909659,0.00214001628084,1.0,0.0,0.0309207144624
1385568737774687761,-0.0102719420583,-0.0112871621539,0.00224699408253,1.0,0.0,0.0308851224763
1385568737824637277,-0.0108139448419,-0.0114192175978,0.0022938415595,1.0,0.0,0.0308336789601
1385568737874735642,-0.0112821715882,-0.0115182836811,0.00235976004951,1.0,0.0,0.0307673417226
1385568737924719060,-0.0118462264493,-0.0115939644154,0.00240618900383,1.0,0.0,0.0307080453845
1385568737974819203,-0.0123272468261,-0.0116928452317,0.00249600855559,1.0,0.0,0.0306444576739
1385568738024669683,-0.0128245289234,-0.0116612252424,0.00261168152421,1.0,0.0,0.0305460369341
1385568738074715552,-0.0133553100337,-0.0117115806367,0.00269953782516,1.0,0.0,0.0304443831668
1385568738124653536,-0.0138063562103,-0.0116989520428,0.00279583244685,1.0,0.0,0.0303346200726
1385568738174669804,-0.0142887019242,-0.0116612735014,0.00288773055769,1.0,0.0,0.0301507182298
1385568738224634846,-0.0147069987904,-0.0115999628252,0.00294953934728,1.0,0.0,0.0300149044728
1385568738274564492,-0.0150582673422,-0.0115737278313,0.00300182868394,1.0,0.0,0.0298797335438
1385568738324615471,-0.0154450900583,-0.0114359128641,0.00297078995251,1.0,0.0,0.0297110378772
1385568738374649373,-0.0156884107665,-0.0113127458783,0.00305376222382,1.0,0.0,0.0295910608659
1385568738424544028,-0.0159634688439,-0.0111141707522,0.00309427674808,1.0,0.0,0.0294534395252
1385568738474709496,-0.0162093203308,-0.0108360600567,0.00310677098232,1.0,0.0,0.0292597255377
1385568738524625723,-0.0164637262159,-0.0106026946376,0.00304671437633,1.0,0.0,0.0290907639426
1385568738574647595,-0.0165849169169,-0.0101588695844,0.00304661439395,1.0,0.0,0.0288741951846
1385568738624640473,-0.0168203468755,-0.00968211206769,0.00297443890693,1.0,0.0,0.0286721321822
1385568738674609680,-0.0169222372743,-0.00915673238054,0.00287250781639,1.0,0.0,0.0284432146736
1385568738724595795,-0.0170404694271,-0.0085094474935,0.00275774246146,1.0,0.0,0.0282113916524
1385568738774720351,-0.0171175618208,-0.00780955258453,0.00260781011341,1.0,0.0,0.0279719341624
1385568738824627396,-0.0171549771443,-0.00715379895764,0.00241530294941,1.0,0.0,0.02775161642
1385568738874615481,-0.0172085243077,-0.00627993594599,0.00224884729202,1.0,0.0,0.0274944013346
1385568738924617704,-0.017218311196,-0.00547725854322,0.00207554327539,1.0,0.0,0.0272114191616
1385568738974637850,-0.0171962361445,-0.00457215627034,0.0018914679204,1.0,0.0,0.0269484518223
1385568739024572819,-0.0171367827845,-0.00370577917984,0.00166410601881,1.0,0.0,0.0267240561613
1385568739074659871,-0.0170545447257,-0.00267793801734,0.00148339284762,1.0,0.0,0.0264340423591
1385568739124621711,-0.0169331659595,-0.00169606510045,0.00128300411511,1.0,0.0,0.0261590830339
1385568739174771054,-0.0168553133497,-0.000782859211178,0.00104823148358,1.0,0.0,0.0258832334642
1385568739224622133,-0.0166916869179,0.000286124173815,0.000844511023215,1.0,0.0,0.0255449450511
1385568739274731958,-0.0165357454684,0.00123891199242,0.000603892704151,1.0,0.0,0.0252455603762
1385568739324593570,-0.0163113584862,0.00223279708576,0.000354427417174,1.0,0.0,0.0249296992509
1385568739374630763,-0.0161058968951,0.00315915410871,8.9602424443e-05,1.0,0.0,0.0246241324905
1385568739424556302,-0.0157978085805,0.00413902624263,-0.000154201265017,1.0,0.0,0.0243413138716
1385568739474752102,-0.0155235047732,0.00506444629144,-0.000353648317968,1.0,0.0,0.0240401829505
1385568739524603800,-0.0152288282243,0.00611576883773,-0.000705591651406,1.0,0.0,0.0236682689265
1385568739574708194,-0.0148570187299,0.00697923887115,-0.00100526026062,1.0,0.0,0.0234135499898
1385568739624612851,-0.0145264937367,0.00793320570358,-0.00129257571073,1.0,0.0,0.0230820038724
1385568739674663679,-0.0140777141344,0.00883997738916,-0.0015583159708,1.0,0.0,0.022753985139
1385568739724629666,-0.0136614476761,0.00973129391333,-0.00180116527225,1.0,0.0,0.0224341303268
1385568739774665117,-0.0132041517843,0.0105717990187,-0.00205532218442,1.0,0.0,0.0221328224363
1385568739824670289,-0.012716417586,0.0113612092907,-0.0022837115089,1.0,0.0,0.0218225461679
1385568739874703837,-0.0121541072172,0.0121976273931,-0.00244894818491,1.0,0.0,0.0215307001939
1385568739924687903,-0.0115364864081,0.0129251733744,-0.00262522000787,1.0,0.0,0.0212057852938
1385568739974668939,-0.010990492202,0.0136446461752,-0.00281902638336,1.0,0.0,0.020857388353
1385568740024558849,-0.0103472149095,0.0141749625945,-0.00303759756349,1.0,0.0,0.0206271245863
1385568740074755915,-0.00969586057611,0.0148705336732,-0.00321607186876,1.0,0.0,0.0202780769049
1385568740124590732,-0.0090082824118,0.0154057477117,-0.00331577115792,1.0,0.0,0.0199905708676
1385568740174648558,-0.00826496308604,0.0158883234263,-0.00344952145719,1.0,0.0,0.019722812596
1385568740224628370,-0.00755665397809,0.0163248902109,-0.00358205552582,1.0,0.0,0.0194349118351
1385568740274730326,-0.00680403739716,0.0167060131185,-0.00366937605721,1.0,0.0,0.0191430047326
1385568740324642045,-0.00602281082434,0.0170521003415,-0.00372861219583,1.0,0.0,0.0187999126116
1385568740374638274,-0.00525996765102,0.01729093947,-0.00374898789957,1.0,0.0,0.0184785973884
1385568740424674253,-0.00442376763642,0.0174939166226,-0.00373635742663,1.0,0.0,0.0181217116889
1385568740474641186,-0.00361659501758,0.0175783420824,-0.00366913525666,1.0,0.0,0.0178144530925
1385568740524663001,-0.00277915279389,0.0176550374785,-0.00357061648135,1.0,0.0,0.017493878592
1385568740574803362,-0.0019631901754,0.0175343146979,-0.00350108855787,1.0,0.0,0.0171939436979
1385568740624621618,-0.00107186828953,0.0175317585559,-0.00334647145756,1.0,0.0,0.0168374711332
1385568740674667496,-0.000326823694919,0.0172447741738,-0.00317383217254,1.0,0.0,0.0165298189162
1385568740724640931,0.000509793085476,0.0170505635371,-0.00300232040808,1.0,0.0,0.0161762332142
1385568740774641766,0.00122698376248,0.0165656787036,-0.00282733801009,1.0,0.0,0.0158996160813
1385568740824659879,0.00192347917037,0.0161691713374,-0.00257997361235,1.0,0.0,0.015618277973
1385568740874643908,0.00260903806968,0.015586642482,-0.00229503359318,1.0,0.0,0.015329381861
1385568740924661280,0.00326470421658,0.0149897444288,-0.00199291124284,1.0,0.0,0.0150657863439
1385568740974844481,0.00385920505553,0.0143032741506,-0.0016733389091,1.0,0.0,0.0147523597183
1385568741024635707,0.00435292450226,0.0135539453565,-0.00140226766727,1.0,0.0,0.0144834764515
1385568741074655231,0.00489760545388,0.012767123443,-0.00107576635629,1.0,0.0,0.0141633743505
