%time,field.linear.x,field.linear.y,field.linear.z,field.angular.x,field.angular.y,field.angular.z
1385568709584076354,0.0,0.0,0.0,0.0,0.0,0.0
1385568709584434458,0.045015845008,-0.341703244303,-0.115358967927,-0.0165138718223,0.00638064601518,-1.55936747017
1385568709594605100,0.045013074745,-0.341697363531,-0.115360433014,-0.0165078916019,0.00641981203859,-1.55936705662
1385568709604535858,0.0450383425023,-0.341694405273,-0.115337502567,-0.0164647587309,0.00626166885666,-1.55930812065
1385568709614560011,0.0450695480714,-0.341609094252,-0.115426532694,-0.0164451065519,0.00719609428054,-1.55941646879
1385568709624558485,0.0450158357293,-0.341694464432,-0.115360884572,-0.0164735064718,0.00639089698217,-1.55933870915
1385568709634449692,0.0450808117214,-0.341614573258,-0.115420180626,-0.0163528642719,0.00707775465544,-1.55942234689
1385568709644496276,0.0449624256345,-0.341738184655,-0.115308514863,-0.0165791702605,0.00626492935192,-1.55934781145
1385568709654623454,0.0450236355405,-0.341699118263,-0.115356163158,-0.0165182014903,0.00632624223879,-1.5593268258
1385568709664511191,0.045064508278,-0.341610615623,-0.115433008633,-0.0164453991361,0.00717252546339,-1.55943736503
1385568709674628341,0.0450242189287,-0.34170250053,-0.115349205628,-0.0164052964755,0.00628561137501,-1.55933515719
1385568709684569456,0.0450708722227,-0.341606859383,-0.115433309609,-0.0164383631679,0.00721057839049,-1.55941863168
1385568709694510319,0.0450217365668,-0.341699421169,-0.115366072474,-0.0164642912413,0.00639194322719,-1.55934703668
1385568709704462906,0.0450284985715,-0.341700045072,-0.11534937099,-0.0163760834603,0.00630823289186,-1.55932256934
1385568709714509119,0.0450278606453,-0.341701762447,-0.115346161363,-0.0164188463619,0.00632235874098,-1.55931434897
1385568709724612743,0.0450716639302,-0.341609743912,-0.11543124825,-0.0164460662956,0.00721216746983,-1.55945781318
1385568709734558799,0.0449792017721,-0.341728331055,-0.115291941792,-0.0164835058001,0.00622079274559,-1.55933343653
1385568709744590209,0.0450845210934,-0.34160552578,-0.115419654065,-0.0163616019695,0.00710309686302,-1.55940504665
1385568709754517466,0.0450741124757,-0.341608624801,-0.115426946722,-0.0164669418332,0.00720554515226,-1.55943364931
1385568709764521135,0.0450615968633,-0.341613630676,-0.1154315637,-0.0164170156383,0.00718656351144,-1.55942039823
1385568709774500328,0.0450954668881,-0.341604210808,-0.115417084474,-0.01633087531,0.00709225003859,-1.55940585553
1385568709784527002,0.0450712348398,-0.341604610911,-0.115426798005,-0.0164455616246,0.0072157900105,-1.5594314199
1385568709794495951,0.0450619915903,-0.341612834916,-0.115431429916,-0.016428331804,0.00719427314109,-1.55943265547
1385568709804518510,0.0450278199748,-0.341693038047,-0.115346609689,-0.0164324754561,0.00635853905261,-1.55933934742
1385568709814530400,0.0449542691927,-0.341724350128,-0.115300135395,-0.0165542746988,0.00632929103593,-1.55936269507
1385568709824610642,0.0450720276486,-0.341606300718,-0.115425534431,-0.0164305195291,0.00719601771772,-1.55942250683
1385568709834582368,0.0450196987644,-0.341697514336,-0.115361318476,-0.0164912865957,0.006410702579,-1.55935813259
1385568709844514483,0.0450274869499,-0.341701666953,-0.11534400333,-0.0164019992524,0.00627885960987,-1.55931249097
1385568709854539063,0.04506662506,-0.341605626567,-0.115427401828,-0.0164360481217,0.00715305143051,-1.55942865452
1385568709864492875,0.0450156157528,-0.341706992784,-0.115361635456,-0.0164789703142,0.00639256698816,-1.55934994178
1385568709874613274,0.0450827632812,-0.341605270896,-0.115410636776,-0.0163895704224,0.00710672473517,-1.55941798923
1385568709884490444,0.0450643702638,-0.341611280534,-0.115428362321,-0.0164521010103,0.00717999010915,-1.55942343041
1385568709894526574,0.0450662734281,-0.3415986524,-0.115427264475,-0.0164509630152,0.00717754208705,-1.5594266163
1385568709904552395,0.0449762153307,-0.341732222527,-0.115289924519,-0.0164796557965,0.00620456000022,-1.55933972785
1385568709914547909,0.0450767571262,-0.341604137284,-0.11542555096,-0.0164307810768,0.00712626137933,-1.55943559469
1385568709924587395,0.0450385454938,-0.341695775971,-0.115342223979,-0.0164194548891,0.00627813294978,-1.55934553972
1385568709934515202,0.0450727597663,-0.341603852284,-0.115431003305,-0.0164430554992,0.00718836690019,-1.55944905784
1385568709944525822,0.0450065880203,-0.341701432595,-0.115360577266,-0.0165134036923,0.00636335540836,-1.55934126711
1385568709954563995,0.0450771139741,-0.341600061564,-0.115424635096,-0.0164479312857,0.00720790355844,-1.55944440616
1385568709964520081,0.045012201083,-0.341697738823,-0.115361135287,-0.0165040154001,0.00636948573802,-1.55935673668
1385568709974580001,0.0450703685407,-0.34159894075,-0.115423602367,-0.0164476178453,0.00721656583705,-1.5594556307
1385568709984523687,0.0450652611682,-0.341610704944,-0.115432560659,-0.0164415983132,0.0071319376363,-1.55943716899
1385568709994515176,0.0450625620534,-0.341616584686,-0.115433270559,-0.0164355179967,0.00716942418481,-1.55946046234
1385568710004541813,0.0450744185598,-0.341611598084,-0.115427874515,-0.0164281730955,0.00719855721893,-1.55943387759
1385568710014592655,0.0450191778597,-0.341701449323,-0.115366854578,-0.0164798800046,0.00637123619608,-1.55936320571
1385568710024598171,0.0450857952118,-0.341606623053,-0.115407575519,-0.016367607123,0.00705515595373,-1.55939240356
1385568710034560179,0.0450279072,-0.341700607565,-0.115349562929,-0.0164265263686,0.00628862726742,-1.55931831173
1385568710044533456,0.0450780729085,-0.341611467062,-0.115417556366,-0.0163740918196,0.00709308326834,-1.55939213508
1385568710054580566,0.0450000284486,-0.341636985216,-0.11537029895,-0.0165492793027,0.00701334970081,-1.55944253668
1385568710064572693,0.0450708488378,-0.341607565836,-0.115422060833,-0.0164460706396,0.00716014661673,-1.55943059688
1385568710074593337,0.0450177226138,-0.341708542768,-0.115363126443,-0.0165162826741,0.0064121729261,-1.55936358845
1385568710084582770,0.0450145010943,-0.341703333036,-0.115359901754,-0.0165458786776,0.00641040008559,-1.55938986159
1385568710094525871,0.0450669509968,-0.341606548661,-0.115431052088,-0.0164530117915,0.00720473854537,-1.5594383232
1385568710104588787,0.045004135143,-0.341704851359,-0.115359678787,-0.0164929464808,0.0064082324892,-1.55936902797
1385568710114536893,0.0450267995807,-0.341696753854,-0.115350426972,-0.016416967081,0.00629575426969,-1.55932899063
1385568710124518554,0.0450318886711,-0.341697843133,-0.115352265048,-0.0164132800715,0.00628530916871,-1.55934348914
1385568710134574524,0.0450916404729,-0.341597595439,-0.115410795243,-0.0163802726727,0.00703849510398,-1.55942185242
1385568710144695741,0.0450063952885,-0.341614506189,-0.115525555846,-0.0159009237822,0.00742193812221,-1.55950000436
1385568710154622994,0.0450290688061,-0.341746804493,-0.115295738571,-0.0160605022,0.00603582994013,-1.55951976046
1385568710164489988,0.0450105581581,-0.341747650983,-0.115311320561,-0.0161119355514,0.00609378495525,-1.56029442638
1385568710174587762,0.04507148231,-0.341630250525,-0.115414559522,-0.0162199164599,0.00696866786694,-1.55941882007
1385568710184571009,0.0450847012513,-0.341623107724,-0.115427501057,-0.0162494662841,0.00708829713252,-1.55953136128
1385568710194547706,0.0448437621406,-0.341764330302,-0.115374059379,-0.0174018312498,0.00482810636149,-1.5597037191
1385568710204537133,0.0449102289673,-0.341759180776,-0.115462362455,-0.0172706388345,0.00507738725058,-1.55942458468
1385568710214506269,0.0449132339634,-0.341792126094,-0.115427640845,-0.017136446167,0.00490546833956,-1.55870730761
1385568710224527827,0.0449955895599,-0.34161249504,-0.115233091504,-0.0172013361886,0.00648904088291,-1.56018534849
1385568710234731450,0.0448637099483,-0.341768948204,-0.115345682295,-0.0162229774705,0.00621811856983,-1.56035340277
1385568710244539114,0.0449860861581,-0.341696238556,-0.115363002609,-0.0162286743518,0.0061541962939,-1.5608748164
1385568710254500102,0.0447252396613,-0.341784324618,-0.115368848273,-0.0173714030726,0.00498170697573,-1.56014907082
1385568710264619513,0.044763952375,-0.34177644019,-0.115526154639,-0.0166591391149,0.00529059317607,-1.56009391683
1385568710274605034,0.0448417438458,-0.34178309506,-0.115455863148,-0.0171488101922,0.00501268981951,-1.56061177155
1385568710284552355,0.0447957328102,-0.341800483364,-0.115444867242,-0.0171774952429,0.00503262808834,-1.56045580275
1385568710294529177,0.0447066586302,-0.341829802641,-0.115529810012,-0.0166272780734,0.00533051735661,-1.56013936925
1385568710304572367,0.0447267667229,-0.341815407926,-0.115554158677,-0.0165414224277,0.00533278500347,-1.56033710854
1385568710314511229,0.0447770776447,-0.341821433603,-0.115443009303,-0.0169847232479,0.0050050022727,-1.56047051714
1385568710324550408,0.0446923613932,-0.341854823051,-0.11536978661,-0.0174801553451,0.00488500856829,-1.56021634266
1385568710334543693,0.0447748325715,-0.34182038065,-0.115453049694,-0.0171156825057,0.00505252827654,-1.56024090288
1385568710344606095,0.044796073374,-0.341832748071,-0.115454770145,-0.0170332841103,0.00498496846632,-1.56043391653
1385568710354502649,0.0447969689023,-0.341820446865,-0.115453975475,-0.0170691925748,0.00500943476028,-1.56034374648
1385568710364567396,0.0447818775286,-0.341824680427,-0.115449521634,-0.016999544601,0.00502527916387,-1.56017651225
1385568710374661742,0.0447198171186,-0.341824219563,-0.115413992108,-0.0169967153082,0.00549195892276,-1.56017518881
1385568710384544081,0.0447293921944,-0.341839393649,-0.115539579006,-0.0164967835732,0.00519326830329,-1.56046878188
1385568710394547402,0.0447425715982,-0.341796828081,-0.115299315757,-0.0179397382855,0.00456951777907,-1.56038144284
1385568710404761524,0.0447876205591,-0.341828112448,-0.115449682214,-0.0169953885409,0.00501264293244,-1.56020570799
1385568710414641263,0.0447939180408,-0.341852455828,-0.115419338995,-0.0167635168405,0.00479890935401,-1.56054535162
1385568710424645551,0.0447811954804,-0.341821778996,-0.115462083799,-0.0170407380484,0.00504752356395,-1.56030189115
1385568710434693310,0.0447304730712,-0.341800902232,-0.115308311077,-0.0179491657469,0.00458981291019,-1.56032290698
1385568710444568447,0.0447285935805,-0.341834635035,-0.115532949756,-0.0164603670441,0.00514742342827,-1.56034266604
1385568710454481312,0.0447970639597,-0.34182280793,-0.115458156827,-0.0169223682605,0.00499869892208,-1.56041584228
1385568710464539716,0.0447417121311,-0.341797097733,-0.115294209258,-0.0178993016002,0.00453304543307,-1.56039659535
1385568710474564937,0.044829468492,-0.341776466566,-0.115373051508,-0.0174375156955,0.00468873446244,-1.5603522213
1385568710484563211,0.0447954343376,-0.341821015592,-0.115454671584,-0.0170374166666,0.00499831624579,-1.56039114939
1385568710494503036,0.0446581203101,-0.341855585782,-0.115441582324,-0.0170249195882,0.00494822190914,-1.56030120727
1385568710504588627,0.0447095801005,-0.341841523351,-0.115383875098,-0.0173802546097,0.00477405218687,-1.56031382774
1385568710514568843,0.0447354281802,-0.34184860167,-0.115411827425,-0.0170050190186,0.00494103784255,-1.5603863417
1385568710524646281,0.044740672678,-0.341853337372,-0.115399402396,-0.0170524336982,0.00495278550037,-1.56027035823
1385568710534591995,0.044581467749,-0.341852381293,-0.115406488028,-0.0170152305519,0.00544987500238,-1.56027544341
1385568710544580770,0.0447190073472,-0.341835595705,-0.115380689447,-0.0174452620444,0.00480650871446,-1.56027750104
1385568710554527079,0.0447869586307,-0.341820432813,-0.115463734815,-0.0169902831359,0.00507651561569,-1.56030462011
1385568710564605741,0.04471535265,-0.341844449844,-0.115382542817,-0.0174143950056,0.00485647055266,-1.56043562712
1385568710574501118,0.0446740598798,-0.34182643176,-0.115499853686,-0.016440228313,0.00568702822436,-1.5600799607
1385568710584563514,0.0448005246935,-0.341823205459,-0.115451917646,-0.0169587978512,0.00504334961633,-1.56033748617
1385568710594539447,0.0447834993477,-0.341822172262,-0.115444571514,-0.0169552827973,0.00506490780442,-1.56044407704
1385568710604566931,0.0447095289377,-0.34184233979,-0.115373317089,-0.0174153519243,0.00486968535164,-1.56016302862
1385568710614492445,0.0447042478871,-0.341852001415,-0.115373052387,-0.0174533193537,0.00475547360489,-1.56020855276
1385568710624517087,0.0447914646022,-0.341813281676,-0.115456948514,-0.0169722010792,0.00499387102602,-1.56033401449
1385568710634721476,0.0448013039429,-0.34182180626,-0.115431185042,-0.0170197239416,0.00514914824838,-1.56054286711
1385568710644587477,0.0447246970236,-0.341796424388,-0.115406386167,-0.0171512197638,0.00547954110817,-1.55994518082
1385568710654530160,0.0448195160375,-0.341752426321,-0.11546724894,-0.0170318949067,0.00473530526004,-1.55992399868
1385568710664567147,0.0447094117164,-0.341868850129,-0.115345885279,-0.0171658887538,0.0046234851179,-1.5607397621
1385568710674597968,0.0447463187562,-0.341838566488,-0.115519104206,-0.0164927427356,0.00536218699661,-1.56048238001
1385568710684544718,0.0447736976645,-0.341827944202,-0.115451897219,-0.0170063948242,0.00499773234845,-1.55999740008
1385568710694526748,0.044758262541,-0.341797828656,-0.115307011229,-0.0178661669485,0.0044818782866,-1.56041277499
1385568710704546982,0.0447384022838,-0.341826068935,-0.115435290803,-0.0168135682633,0.00556014818195,-1.56058422954
1385568710716060855,0.0447059319152,-0.341836603537,-0.115412096115,-0.0172124207326,0.00479100074496,-1.5602259852
1385568710724736972,0.0447348597641,-0.341824661751,-0.115464393928,-0.0167954159338,0.00539693023356,-1.56005698137
1385568710734812385,0.0447711576987,-0.341768200436,-0.115525504099,-0.0168022240191,0.00482376941909,-1.56044610928
1385568710744612196,0.0446999061994,-0.34182777156,-0.115445345171,-0.0173031597195,0.00467964298624,-1.56034335977
1385568710754566645,0.0446949713276,-0.341842723219,-0.115422724318,-0.0174461849393,0.00472843688196,-1.56022159477
1385568710764496645,0.0446457369007,-0.341878864594,-0.115429131119,-0.0173166489099,0.00497621517112,-1.55994802331
1385568710774630311,0.0447052027968,-0.341815355121,-0.115363464277,-0.0175202826503,0.00475360070865,-1.56042052172
1385568710784577972,0.0448266543745,-0.341796380922,-0.115421159036,-0.0170485454887,0.00475682517183,-1.5607056927
1385568710794579352,0.0447540187536,-0.341856004102,-0.115500856065,-0.0159217041623,0.00480090422207,-1.55987130263
1385568710804623141,0.0447711655018,-0.341863983839,-0.115493336218,-0.0168717877429,0.00491474505808,-1.5603412751
1385568710814586861,0.044810029892,-0.341793038782,-0.115428255743,-0.0168659361594,0.00468097264577,-1.56053852893
1385568710824564040,0.0446578818499,-0.341800647985,-0.115443529968,-0.0171793151512,0.0044780521831,-1.56002313908
1385568710834674976,0.0446857343392,-0.341816736059,-0.115467941153,-0.0174083111785,0.00483224864985,-1.56047781516
1385568710844554015,0.0447819543358,-0.341782063812,-0.115463475388,-0.0168731765298,0.00461097970906,-1.56028997578
1385568710854560037,0.0446875830845,-0.34175782862,-0.115420825635,-0.0165155150067,0.00445463864903,-1.5606319078
1385568710864592349,0.0446500986994,-0.341808619013,-0.115381738109,-0.0163224530655,0.00543915148211,-1.56035209445
1385568710874640234,0.0447627263142,-0.341784587798,-0.115567766425,-0.0162504989721,0.00505330764991,-1.55983450326
1385568710884684685,0.0446337709575,-0.341803289019,-0.115448306295,-0.0169806384678,0.00443366242007,-1.56037106781
1385568710894607620,0.044782895106,-0.341730167866,-0.115437055182,-0.0170676187276,0.00450482228489,-1.56041867327
1385568710904847506,0.0446647136464,-0.3417493765,-0.115397463636,-0.0172193048788,0.00466288804281,-1.56001672678
1385568710914573639,0.044784334864,-0.341751378934,-0.115461072901,-0.0168322720447,0.00508589207246,-1.5605955041
1385568710924602368,0.0446141268139,-0.341791675223,-0.115491781654,-0.0166739730177,0.00488117910171,-1.56038420636
1385568710934717875,0.0447448775622,-0.341721453306,-0.115547342773,-0.0165724915509,0.00481445009732,-1.56010771859
1385568710944595561,0.0446875265064,-0.341749229962,-0.115448734784,-0.016954297199,0.00473067305314,-1.5607466767
1385568710954510407,0.0447161571825,-0.34171110781,-0.115356005673,-0.0174239320616,0.00444473364956,-1.56048451906
1385568710964525165,0.0446586423169,-0.341745379288,-0.115450314271,-0.0170566077744,0.00469487342968,-1.56018182787
1385568710974593539,0.0446184551901,-0.341752198599,-0.115498544454,-0.016746126935,0.00505099278872,-1.56072781043
1385568710984514736,0.0447163976325,-0.341709139628,-0.115334586289,-0.0174499212448,0.00451128742627,-1.56029462457
1385568710994589701,0.0446539382462,-0.341698078474,-0.115294871422,-0.0175583733727,0.00427113930617,-1.56045892635
1385568711004652234,0.0446543280784,-0.341750034931,-0.115406878249,-0.0167694177967,0.004643955206,-1.56072484419
1385568711014585584,0.0446947645728,-0.341689220999,-0.115358820072,-0.0173951235771,0.00448800419442,-1.56029409264
1385568711024507893,0.0447213148702,-0.341675214181,-0.115366872274,-0.0175998062526,0.00450425011218,-1.56047541116
1385568711034747244,0.0446150254182,-0.341692737602,-0.115539986809,-0.017011403805,0.00485769051308,-1.56031804297
1385568711044812716,0.0447168820166,-0.341700979493,-0.115490653798,-0.0172479441492,0.0048994886655,-1.56012348913
1385568711054507793,0.0447144886009,-0.341705018725,-0.115462835011,-0.0170884892325,0.00511189662863,-1.56061159311
1385568711064471876,0.0446378403426,-0.341730422919,-0.115438319595,-0.0172216147365,0.00487283565812,-1.56044013432
1385568711074488300,0.0447037234799,-0.341665214513,-0.115381365625,-0.0171980078518,0.00439233726098,-1.56029795356
1385568711084700195,0.0446136829207,-0.341725808072,-0.115521408639,-0.016444636669,0.00501204511012,-1.56076028924
1385568711094662547,0.0446312978952,-0.34172564589,-0.115438912974,-0.0170841004376,0.00483562946571,-1.56030597442
1385568711104668695,0.0446484452608,-0.341687023116,-0.115389532706,-0.017491933903,0.00492477514692,-1.5601733668
1385568711114604156,0.0446995677286,-0.341710039772,-0.115395674546,-0.0171297295343,0.00505499552222,-1.56057926082
1385568711124538363,0.0447033428594,-0.341724318297,-0.11545055794,-0.016514194826,0.00461389538668,-1.56025220904
1385568711134585865,0.0446092614186,-0.3417281833,-0.115506412876,-0.0165204917176,0.00476753264236,-1.56031264783
1385568711144714167,0.044544041096,-0.341731040805,-0.115457609649,-0.0165273992508,0.00563252132081,-1.56044058438
1385568711154611789,0.0446559793119,-0.341683749258,-0.115410099352,-0.0167944248658,0.00491338614878,-1.56005655899
1385568711164516517,0.0447340931336,-0.341676605485,-0.115477375198,-0.0170233290635,0.00504810677813,-1.5603450367
1385568711174606286,0.0447547590543,-0.341628416671,-0.1154845834,-0.0170023122782,0.00458493134106,-1.56011797006
1385568711184543504,0.0445876123853,-0.341693056863,-0.115470752229,-0.0174871989534,0.00488641831265,-1.5601791055
1385568711194533705,0.0447582419176,-0.341624676577,-0.115419536496,-0.0174354001726,0.00498896731104,-1.56061472281
1385568711204593957,0.0446655458468,-0.341631498455,-0.115349744641,-0.0169816571446,0.00457331045074,-1.55997504112
1385568711214555020,0.044707744696,-0.341626963565,-0.115374951783,-0.0170811181623,0.00423506494961,-1.56018815748
1385568711224572477,0.0445955084293,-0.341728332135,-0.115437831624,-0.0173760893767,0.00466363851862,-1.56053197903
1385568711234532881,0.0446715840997,-0.341660519889,-0.115516502548,-0.0169599172657,0.00498187589259,-1.56029387553
1385568711244642403,0.0447003499725,-0.341639663747,-0.115367299972,-0.0175506670119,0.00513128676047,-1.56017701219
1385568711254661585,0.044658916292,-0.341682483179,-0.115489755743,-0.0167604536192,0.00548565048973,-1.5606521792
1385568711264837086,0.0446667696066,-0.341641569064,-0.115570747011,-0.0169602962927,0.0050391658278,-1.56017600907
1385568711274585326,0.0446206303349,-0.341722471462,-0.115459299616,-0.0173406442987,0.00496295784762,-1.56038290927
1385568711284555322,0.0446194549053,-0.341690832148,-0.115356335612,-0.0167460984854,0.00483826657901,-1.56047896005
1385568711294853791,0.0446365970902,-0.341618827912,-0.115528237574,-0.0163034795566,0.00522716755862,-1.5600886047
1385568711304704536,0.0446911045036,-0.341633039034,-0.115499479116,-0.0173434192548,0.00503637065649,-1.56027380486
1385568711314581811,0.0446637453881,-0.341625923775,-0.115455791173,-0.0178467118405,0.00431855754846,-1.56051707954
1385568711324592104,0.044623212462,-0.341607529628,-0.115463232775,-0.0169531150447,0.00504736224119,-1.56026712817
1385568711334616596,0.0447220798557,-0.341600578451,-0.115415123584,-0.0167672657939,0.00508360045497,-1.5602784096
1385568711344676592,0.0446297316163,-0.341612814557,-0.115518171821,-0.0164352330414,0.00500913176864,-1.56025835281
1385568711354632655,0.0445671279331,-0.341640918294,-0.115519299717,-0.0167943279964,0.00461857093601,-1.56030459843
1385568711364585170,0.0446343323155,-0.341639424342,-0.115493886663,-0.0168612760294,0.00511467225084,-1.56041579741
1385568711374591099,0.0446121455683,-0.341555028801,-0.115485986115,-0.0169394736818,0.00485445315003,-1.56002538287
1385568711384515833,0.0446598243768,-0.341659406948,-0.115456649911,-0.0171985254411,0.00534131160454,-1.56033736194
1385568711394695879,0.0444416761203,-0.341633444841,-0.115382603085,-0.0171412801818,0.00450313904032,-1.56026582541
1385568711404762338,0.0445404409433,-0.341579820267,-0.115498126152,-0.0166439222713,0.00444849976527,-1.56001249364
1385568711414616008,0.0445821157363,-0.341579414214,-0.115473406048,-0.016446425849,0.00502662080294,-1.56024538785
1385568711424621272,0.0445447328503,-0.341601515393,-0.115409773797,-0.0164987635111,0.0056023296411,-1.56025585006
1385568711434723767,0.0444715302962,-0.341553458895,-0.115463225458,-0.0168518287479,0.00457892736004,-1.56038321466
1385568711444633776,0.0444683907451,-0.341560181744,-0.115491316558,-0.017095145,0.00495997955789,-1.56014870702
1385568711454564355,0.0445139328496,-0.341518996235,-0.115547444992,-0.0165691695086,0.00487853217042,-1.56023990346
1385568711464548486,0.0445258591314,-0.341540024878,-0.115468254327,-0.0163974095226,0.00479231220485,-1.56028440782
1385568711474618870,0.0445243367733,-0.341651267152,-0.115468351412,-0.0166540777722,0.00483087440762,-1.56081805051
1385568711484495808,0.0444531181829,-0.34150995085,-0.115575263939,-0.0160505752093,0.00490060290287,-1.56065383494
1385568711494613461,0.0444746666392,-0.341512444268,-0.115582278583,-0.0167206947983,0.00484624108933,-1.56008068552
1385568711504552807,0.044346635686,-0.341481538895,-0.115481415658,-0.0170064164102,0.00453077566246,-1.56031928678
1385568711514510897,0.0443219793516,-0.341507880915,-0.115386473979,-0.0163912617652,0.00544530307875,-1.56002985598
1385568711524563868,0.0443913393756,-0.341474971503,-0.115461158947,-0.0162154880792,0.00503862406351,-1.56010058156
1385568711534508164,0.0444404101467,-0.341431847122,-0.115528627541,-0.0164693644404,0.00468150285219,-1.56044785954
1385568711544492989,0.0443932828999,-0.341436020449,-0.115591809234,-0.0163275966508,0.00477525638344,-1.55955665135
1385568711554557713,0.044340444749,-0.341442438993,-0.115435794064,-0.0166427066735,0.00527769567049,-1.55969321723
1385568711564533621,0.0443347023307,-0.341538588824,-0.115414612496,-0.0164957859656,0.00456825642339,-1.5592062259
1385568711574510822,0.0443672599027,-0.341466948795,-0.11546718234,-0.0168822395226,0.00470184670527,-1.55988799274
1385568711584506609,0.0443298338518,-0.341414707708,-0.115440616111,-0.0168448147248,0.00428462598121,-1.56029535335
1385568711594583669,0.0443370290825,-0.341358426075,-0.115482830458,-0.0170383140383,0.00451629314441,-1.55970072961
1385568711604677528,0.0444021506862,-0.341364690047,-0.115501915368,-0.0165657872126,0.00521122215262,-1.56049091234
1385568711614553032,0.044268361704,-0.34129165001,-0.115532266352,-0.0157465430734,0.00543086538654,-1.56006337946
1385568711624580769,0.0443272009087,-0.341327139912,-0.115498428124,-0.0171854395438,0.00489027894342,-1.56060799618
1385568711634519202,0.0443985901184,-0.341269403344,-0.11556629614,-0.0169063534428,0.00503935862473,-1.56108971376
1385568711644554088,0.0443225901521,-0.341165296412,-0.115514751685,-0.0167383176295,0.00446638126262,-1.5604552013
1385568711654593176,0.0443011855144,-0.341170611169,-0.115498045003,-0.0165728090061,0.00532325218713,-1.56151300705
1385568711664573252,0.0442800241691,-0.341174114488,-0.115529669868,-0.0163202995229,0.00503637753557,-1.56102543037
1385568711674599868,0.0443422823489,-0.341199585217,-0.115555053678,-0.0162583148877,0.00451538421823,-1.56215042296
1385568711684576594,0.0443497069649,-0.340990772389,-0.115500452672,-0.0160585216968,0.00518140324092,-1.56170022077
1385568711694607801,0.0443396596595,-0.341050175486,-0.115575470274,-0.0163187503982,0.00534016949172,-1.56259167292
1385568711704576155,0.0443845736485,-0.340895852009,-0.115443133971,-0.0168259921139,0.00471854991408,-1.5630510131
1385568711714609059,0.0444744731626,-0.340873850382,-0.115495954977,-0.0167944990405,0.00475833609332,-1.56324090421
1385568711724647815,0.0443762721963,-0.34087632695,-0.115494800871,-0.0171851153797,0.00397101398725,-1.5648025463
1385568711734682169,0.0444486030999,-0.340765368281,-0.115426647595,-0.0171508890456,0.00520771620967,-1.56502248299
1385568711744550937,0.0445198070601,-0.340788927529,-0.115430679666,-0.0162755928886,0.00548215880286,-1.56595012812
1385568711754605298,0.0444660559556,-0.340580138251,-0.115354801638,-0.0169913572252,0.00396914159096,-1.5668681359
1385568711764542282,0.0444216528509,-0.340671763481,-0.11540905894,-0.0178067002257,0.00471576533692,-1.56812937271
1385568711774766883,0.0443098089028,-0.340586707686,-0.11537958733,-0.0185179571549,0.00574018463145,-1.56910235606
1385568711784544008,0.0442318299012,-0.340665669285,-0.11541773482,-0.017733259572,0.00543997257943,-1.57002815411
1385568711794524564,0.044330456202,-0.34057273475,-0.115634357576,-0.0167969236496,0.00554909361979,-1.56961903828
1385568711804501350,0.0442844522651,-0.340542056894,-0.115678669092,-0.0165567523853,0.00594000933817,-1.57054577528
1385568711814572217,0.0443563756712,-0.340525264522,-0.115592494682,-0.0171298118718,0.00640782042195,-1.57086624155
1385568711824670223,0.0442376827389,-0.340332003642,-0.115262979182,-0.0181676945207,0.00491702037399,-1.57165760599
1385568711834593954,0.0442435151442,-0.340357863627,-0.11527983959,-0.0187004802206,0.00537128984909,-1.5722622275
1385568711844466377,0.0442767818363,-0.340258360855,-0.115338623496,-0.0187259370341,0.00552328722382,-1.57306843313
1385568711854530501,0.044471470762,-0.34027902844,-0.115448076403,-0.0184402549736,0.00554384260483,-1.57268420505
1385568711864668683,0.0444560634575,-0.340136678071,-0.11536108706,-0.0174582305513,0.00435918177353,-1.57303060618
1385568711874637237,0.0444781049587,-0.340325603267,-0.115358430314,-0.0172354150739,0.00501776931708,-1.57266719279
1385568711884581374,0.0443280722026,-0.340265222215,-0.115554197518,-0.0158791090039,0.00557076569411,-1.57230251822
1385568711894546629,0.0442149857303,-0.340295810317,-0.115651094924,-0.0163570633225,0.00585248769983,-1.57226428901
1385568711904540763,0.0443019488718,-0.340175929791,-0.11550917834,-0.017482923932,0.00529097620868,-1.57210901016
1385568711914572901,0.0442132946345,-0.340379802716,-0.11537667033,-0.0172818789295,0.00529254870139,-1.57324675965
1385568711924469120,0.0442129449901,-0.340265579745,-0.115307682087,-0.0169513892769,0.00678164375044,-1.5736141216
1385568711934555506,0.0441271510854,-0.340240320703,-0.115409329118,-0.0157195941059,0.00794204041009,-1.57307384315
1385568711944510991,0.0442175190707,-0.340109481324,-0.115572416194,-0.0152478161732,0.00721923606124,-1.57316273511
1385568711954573905,0.0442240160343,-0.340015981418,-0.115331985453,-0.0159998210703,0.00419747364231,-1.57238062989
1385568711964530139,0.0439456408012,-0.34009248712,-0.115358407338,-0.0173539893389,0.00408985595322,-1.57347177215
1385568711974497743,0.0439281037369,-0.340044632457,-0.115348050873,-0.0183606220931,0.00652108699406,-1.57414805878
1385568711984581862,0.0437373130376,-0.339954790329,-0.115526400432,-0.0178286664494,0.0062161201191,-1.57503640657
1385568711994541875,0.0437081514246,-0.339980345559,-0.115617051845,-0.0175960088435,0.00573880564023,-1.5752762212
1385568712004568749,0.0436682636739,-0.339976586382,-0.115623109105,-0.0170712531739,0.00469102008849,-1.57596758713
1385568712014624343,0.0434669385008,-0.339746875383,-0.115644881192,-0.016628142285,0.0056673611289,-1.57588057078
1385568712024691748,0.0435413853531,-0.339757054535,-0.115731184029,-0.0164230116192,0.00564511358634,-1.57706609016
1385568712034702256,0.0433886614283,-0.339553585196,-0.11562082054,-0.0159008038621,0.00553251443612,-1.57756280105
1385568712044575554,0.0433060158895,-0.339570118544,-0.115446563327,-0.0169151170942,0.00584167293156,-1.57821625416
1385568712054582372,0.0431902784461,-0.339245560036,-0.115859866389,-0.0179646066108,0.00624359502294,-1.57908058836
1385568712064540397,0.0430814098067,-0.339247465646,-0.115882760851,-0.0183917295302,0.00543519654545,-1.57947973842
1385568712074531875,0.0430439893359,-0.338883053389,-0.115507686435,-0.0178970922841,0.00759494977283,-1.57923999001
1385568712084548816,0.0430292670922,-0.339004700124,-0.115381383086,-0.0156854408126,0.00779603283841,-1.57943301461
1385568712094558836,0.0428616752923,-0.338729085409,-0.11556861054,-0.014544948804,0.00510038927156,-1.57979498212
1385568712104616240,0.0428657471805,-0.338655968897,-0.115658860344,-0.0166683805271,0.00643700161222,-1.58055972814
1385568712114596999,0.0427944526338,-0.338366696137,-0.115680120387,-0.0176420072254,0.00825262059581,-1.58128164262
1385568712124596252,0.0427132760589,-0.338263281406,-0.115751577214,-0.0166471121468,0.00813483689204,-1.58152022579
1385568712134625178,0.0425414667896,-0.338181852376,-0.115995787079,-0.0152685628906,0.00784040054221,-1.5818162415
1385568712144668244,0.0424609951828,-0.337836579062,-0.11596181136,-0.0153516464249,0.00910746903696,-1.58227142027
1385568712154538874,0.0422517129496,-0.33768994387,-0.115520507358,-0.01538239987,0.00909555109466,-1.58235599338
1385568712164567350,0.0420502036319,-0.33742243783,-0.115114914525,-0.0161586524105,0.00598181532244,-1.58326836101
1385568712174544036,0.041866827546,-0.337238432539,-0.115487517147,-0.0176286732227,0.0102073193768,-1.58462270021
1385568712184546911,0.0414034824836,-0.336921772934,-0.1157971429,-0.0193927020946,0.00574020081073,-1.58435414154
1385568712194591522,0.0414181929353,-0.336635789207,-0.115799965695,-0.0195145188256,0.00679345674339,-1.58577519131
1385568712204619238,0.0412166873373,-0.33629177388,-0.115563716662,-0.0186776186831,0.00895066860554,-1.58575244791
1385568712214560368,0.0408428515663,-0.336220263419,-0.115677577524,-0.0193434999173,0.00468841638543,-1.58524354963
1385568712224646398,0.0406010397367,-0.335877683201,-0.11575741861,-0.0192166692424,0.00364957871028,-1.5855840528
1385568712234681781,0.0405428071364,-0.335656820638,-0.115570326055,-0.0177256827322,0.0043191185906,-1.58598450851
1385568712244684112,0.0402287436952,-0.335248216263,-0.115434112372,-0.0162854752139,0.00753520337426,-1.58772237665
1385568712254634488,0.0400508497345,-0.334905986486,-0.115625483264,-0.0165759581774,0.00741377985021,-1.58864293945
1385568712264564066,0.0397050553798,-0.334604948491,-0.115927909157,-0.0163814642478,0.00523392238332,-1.58949679381
1385568712274548701,0.0394098862144,-0.334385720191,-0.115929454922,-0.0168224193565,0.0057646852894,-1.59092469743
1385568712284639215,0.0391504233584,-0.334158850945,-0.115592246633,-0.017777971748,0.0040264342429,-1.59111633709
1385568712294551124,0.0388599700162,-0.33386679186,-0.115770136665,-0.017215475512,0.00142283941886,-1.59189358237
1385568712304732957,0.0386497999154,-0.333558873021,-0.115932487271,-0.0167981349411,0.0017079759959,-1.5925150989
1385568712314592677,0.0383799840414,-0.333182917355,-0.115968213872,-0.0158913453152,0.00384747415424,-1.59306971285
1385568712324571544,0.0381120980218,-0.332760418567,-0.116111824447,-0.0162563947908,0.00283296290133,-1.59476548217
1385568712334577145,0.0376408840262,-0.332452576767,-0.116167245177,-0.0173429156548,0.00146777998391,-1.59547119311
1385568712344579548,0.0373937538169,-0.332008460022,-0.116070778303,-0.0184856303237,0.00345386946281,-1.59634851858
1385568712354558277,0.037152417095,-0.331591783204,-0.116282807193,-0.0174332010121,0.00113327457622,-1.59742424453
1385568712364549641,0.0368173713327,-0.331213434685,-0.116354748409,-0.0177084708793,2.13178768976e-05,-1.5977970883
1385568712374511406,0.0365775532791,-0.330800189082,-0.116515397558,-0.0169301363698,-0.00122409594915,-1.59874295418
1385568712384622126,0.0362130398986,-0.330492366621,-0.116773356099,-0.0166394559639,-0.00202276711129,-1.59881744011
1385568712394585087,0.035889409194,-0.330031230643,-0.116707769834,-0.0168849335548,-0.00410232260276,-1.59939291597
1385568712404604132,0.0355722797323,-0.329579947384,-0.116933394269,-0.0162492432538,-0.00521543458839,-1.5996785767
1385568712414583951,0.0353605134562,-0.329089317197,-0.117307719022,-0.0150250745193,-0.00676622824633,-1.60096010216
1385568712424649916,0.0349029735569,-0.328744836935,-0.117606034879,-0.0148060506036,-0.00954831407482,-1.60104545432
1385568712434549570,0.0346154712427,-0.328358625019,-0.117969455597,-0.0154029189824,-0.010615967371,-1.60249040958
1385568712444583063,0.0343457946784,-0.327888617849,-0.118350323383,-0.0153560189011,-0.0129598389807,-1.60380349359
1385568712454573761,0.0339319334204,-0.327468718195,-0.118558612088,-0.0137798684382,-0.0123922362583,-1.60486547208
1385568712464544138,0.0335451343916,-0.327145486248,-0.119314332348,-0.0132225402703,-0.0149340941998,-1.60703337722
1385568712474672406,0.0331640915547,-0.326609367815,-0.120243850318,-0.0124582985863,-0.0160460197641,-1.60855666528
1385568712484559817,0.0325994507051,-0.326257750984,-0.120789687335,-0.0118029538973,-0.0183194969517,-1.60981493183
1385568712494576786,0.0322008207831,-0.325791316404,-0.121587626013,-0.0115475527894,-0.0174269155673,-1.61128662429
1385568712504657256,0.0315580101044,-0.32524773007,-0.122642435184,-0.0113988474814,-0.0209449724735,-1.61269963124
1385568712514572993,0.0311301901247,-0.324736436469,-0.123747944682,-0.0111679265562,-0.0206611934386,-1.61452203277
1385568712524572536,0.030349948954,-0.324315758554,-0.125108720581,-0.0104708883308,-0.0198779812964,-1.61590095853
1385568712534575551,0.0299425428748,-0.323705533234,-0.12637346909,-0.0105133787652,-0.0214436628059,-1.61720682672
1385568712544473244,0.0293848237872,-0.323128007342,-0.127766407401,-0.0103421968405,-0.0224474337609,-1.61873831328
1385568712554472605,0.0287705670918,-0.322709055564,-0.129217032697,-0.0100604532199,-0.0239455766591,-1.61960947887
1385568712564591235,0.0283981615459,-0.322025887427,-0.130579669148,-0.00987963949291,-0.0208527107119,-1.62018259029
1385568712574679882,0.0277402847398,-0.321502919554,-0.132320690576,-0.00981946780834,-0.0223781149546,-1.62077648669
1385568712584620856,0.0272721719732,-0.32103591,-0.134050957122,-0.00961695113963,-0.0209612103744,-1.62107300547
1385568712594591532,0.0263906572402,-0.320448165459,-0.136028102214,-0.0096926237292,-0.025195747792,-1.62072440453
1385568712604592966,0.0260727263161,-0.319943511605,-0.138214801988,-0.00930641139167,-0.0250985138498,-1.62080985313
1385568712614511955,0.0255912457255,-0.319567683283,-0.140414750874,-0.00916557643659,-0.0256256538839,-1.6206881417
1385568712624528394,0.025145272769,-0.319303153839,-0.142612525239,-0.00899366520039,-0.0259514982234,-1.62164131501
1385568712634505438,0.0245051048532,-0.318765023419,-0.145151901249,-0.00861794602164,-0.0271862930514,-1.62152261762
1385568712644644420,0.0240419081822,-0.318406541895,-0.147732714024,-0.00851218965063,-0.0282737118077,-1.62201435242
1385568712654535211,0.0235972333408,-0.318062563194,-0.15032791555,-0.00746600899749,-0.0308859626276,-1.62266773167
1385568712664562258,0.0231025429139,-0.317736215351,-0.153125294532,-0.00659946427871,-0.0329943767487,-1.62278507607
1385568712674588809,0.022636898261,-0.317466715423,-0.15618278193,-0.00512211103579,-0.0336201648547,-1.62324817983
1385568712684552349,0.0223745087228,-0.3172544265,-0.159272478805,-0.0033593135842,-0.0357116130804,-1.62271947173
1385568712694582036,0.0219973528083,-0.317077567701,-0.162423987706,-0.00158371348521,-0.0370445549865,-1.62265636465
1385568712704571117,0.0218484527309,-0.316850224779,-0.16559666178,-0.000453326161935,-0.0406559131309,-1.62221173665
1385568712714504842,0.0216556980258,-0.316834813781,-0.168965239211,0.00283694615738,-0.0413296987242,-1.62226201676
1385568712724561147,0.0211858626717,-0.316851895621,-0.172503219971,0.00268083390512,-0.0439767459742,-1.62139034947
1385568712734548895,0.0210700279251,-0.316916727165,-0.176281587012,0.00376362923056,-0.0454919066338,-1.62172305359
1385568712744631947,0.0205959028827,-0.316972491257,-0.179902905706,0.00470341400575,-0.0485875039942,-1.62107813753
1385568712754528022,0.0201691441553,-0.317304546724,-0.183586291257,0.00418552008044,-0.0502331977378,-1.62074234655
1385568712764552669,0.020028163846,-0.317642197533,-0.187353806063,0.00390176672752,-0.0518418369636,-1.62055238308
1385568712774520340,0.0195710701158,-0.317907718726,-0.191154252701,0.00339818766754,-0.0529183037345,-1.62081979432
1385568712784598015,0.0196690231473,-0.318377206842,-0.195286843104,0.00391346857223,-0.0545482117799,-1.62086407035
1385568712794616931,0.0192755182073,-0.31870416189,-0.199271350841,0.00409560042939,-0.0553219649065,-1.62072294298
1385568712804622831,0.0192719208571,-0.31924544353,-0.203395255323,0.00565132981753,-0.0548945990018,-1.61980911287
1385568712814592696,0.0191272934668,-0.319960300714,-0.207534666357,0.00610885646845,-0.0546381696112,-1.61962475816
1385568712824656769,0.0188325268938,-0.320548631012,-0.211592636313,0.0066693971276,-0.0545960521302,-1.61942643986
1385568712834638603,0.0188381183175,-0.321264686356,-0.215857492454,0.0072377766248,-0.0537075579608,-1.61959813758
1385568712844655173,0.0186816186427,-0.321945185288,-0.220132575581,0.00937833434422,-0.0515937841632,-1.61959872064
1385568712854529344,0.0186800958399,-0.32295093653,-0.224403718258,0.0103140663945,-0.0509910052749,-1.62033474206
1385568712864598157,0.0185714397128,-0.32382394269,-0.228831393424,0.0126125731833,-0.0498529687977,-1.6203127024
1385568712874655900,0.0185304081122,-0.324799270115,-0.233148178621,0.0129963495504,-0.0480979660865,-1.62060786743
1385568712884508985,0.0184913603499,-0.32587162979,-0.237638743247,0.0136300434563,-0.0467512614619,-1.61995563583
1385568712894568013,0.0184233142323,-0.32694250683,-0.242111257112,0.0142801169132,-0.045870594643,-1.62007134418
1385568712904644975,0.0182996660573,-0.328118134258,-0.246707178583,0.0159904465278,-0.0439632132744,-1.61965160555
1385568712914509290,0.0184656406911,-0.329288271274,-0.25129528224,0.0168669183875,-0.0424095300553,-1.61916569252
1385568712924615261,0.0184174281804,-0.330524324642,-0.25573644565,0.0164443385696,-0.0407668932881,-1.61992523239
1385568712934614062,0.0185155998523,-0.33179809845,-0.260518978386,0.0167935028085,-0.0396295643391,-1.62010377452
1385568712944976184,0.0184814054262,-0.333140438572,-0.265144066112,0.0170483566001,-0.0379704770154,-1.62051790384
1385568712954576587,0.018596438509,-0.334640990245,-0.269847234725,0.0166604298017,-0.0356898284283,-1.62123106323
1385568712964554905,0.0187544540508,-0.335994708645,-0.274455373512,0.018162901293,-0.0336314930107,-1.62112804435
1385568712974514924,0.0187677934405,-0.33747053399,-0.279226205244,0.018764591872,-0.0311417167478,-1.62146500642
1385568712984557757,0.0190800521572,-0.339067060742,-0.284130081395,0.0192555845704,-0.0299708109926,-1.62189639715
1385568712994721610,0.0192579765222,-0.340513420018,-0.28882798491,0.0197020338797,-0.0290966121946,-1.62183225698
1385568713004711695,0.019517418522,-0.342024845911,-0.293583839204,0.020426705199,-0.027278134451,-1.62235257656
1385568713014565319,0.0198307632892,-0.343650126854,-0.298215295066,0.0211653446726,-0.02479934947,-1.62280652814
1385568713024599356,0.020214864922,-0.345270360219,-0.30325102533,0.0203676457285,-0.024134691622,-1.62298887659
1385568713034607947,0.0204509968749,-0.346950651339,-0.308033710189,0.020871391656,-0.0232589287265,-1.6234221094
1385568713044616096,0.0207760517451,-0.348603152308,-0.312932534574,0.0220539293948,-0.0214631955616,-1.6225776076
1385568713054518873,0.0212947577283,-0.350229608743,-0.317969797813,0.0228254256783,-0.0200948644161,-1.62273925362
1385568713064711239,0.0216626046348,-0.351958095215,-0.322856846926,0.0234986154457,-0.0172591488928,-1.62255077747
1385568713074536059,0.022181102885,-0.353717961584,-0.327771746994,0.0225900914427,-0.0158627485319,-1.62250010417
1385568713084602906,0.0226150696497,-0.35546880071,-0.332845805691,0.0225816938645,-0.0140664692603,-1.62290184226
1385568713094583081,0.023098996725,-0.357087352382,-0.337858687101,0.0233721364831,-0.012503259688,-1.6224339635
1385568713104718021,0.023645273121,-0.358899285736,-0.34270974257,0.0236237145591,-0.010919445687,-1.62214755938
1385568713114518821,0.0242710783834,-0.360564359171,-0.347720763491,0.0235917924703,-0.0102519485222,-1.62231923364
1385568713124629501,0.0250123498998,-0.36228236975,-0.352767661975,0.0251231834338,-0.00605016351452,-1.62199486892
1385568713134632979,0.0258090055761,-0.364005149166,-0.357734120689,0.0256842569687,-0.00421616827485,-1.62165232038
1385568713144512141,0.0262764976715,-0.36586946181,-0.362767570503,0.0272991426276,-0.00331186070389,-1.62155090711
1385568713154533741,0.0269373691903,-0.367732367562,-0.367727857407,0.0264622637333,-0.00302337459347,-1.62090656653
1385568713164531512,0.0279321442317,-0.369445638763,-0.372949822508,0.0277821152595,-0.00180314495985,-1.62136793276
1385568713174630015,0.0287144987554,-0.37130905881,-0.377856995219,0.0279440200931,-0.00210007803216,-1.62080681578
1385568713184514566,0.0295766146591,-0.37312821031,-0.38306528783,0.0281043710516,-0.00170245880948,-1.6205874054
1385568713194554248,0.0304532984344,-0.374813480289,-0.38837330506,0.0283149079583,-0.00186720221797,-1.6202182287
1385568713204677881,0.0312891460948,-0.376638631699,-0.393753076299,0.0284498157892,-0.00182413834749,-1.61953358431
1385568713214658199,0.0323441645933,-0.378475780696,-0.398882351412,0.0284954175762,-0.00265791163125,-1.61902467027
1385568713224674884,0.0331534714885,-0.380269424084,-0.403843696669,0.0284625025268,-0.00345122627466,-1.61815407728
1385568713234658643,0.0341343625206,-0.382147964188,-0.408617383285,0.0281493447695,-0.00480915714804,-1.61788796434
1385568713244596585,0.0351018809624,-0.384139063566,-0.413324184282,0.0271495533403,-0.00631811935222,-1.6173038943
1385568713254576466,0.0361931830811,-0.385837485051,-0.417703162062,0.0256069853807,-0.00623757337386,-1.61703764854
1385568713264520691,0.0371457666149,-0.387805150715,-0.422146323659,0.0229596845218,-0.00909383388978,-1.61658831647
1385568713274559690,0.0382775639501,-0.389701884556,-0.426544393834,0.0224549283066,-0.0106814039616,-1.6157753451
1385568713284609619,0.0392956001587,-0.391539645413,-0.430607471338,0.0210764609071,-0.0117189038192,-1.61558804272
1385568713294580323,0.0404689966631,-0.393374781443,-0.434739655038,0.0193841666393,-0.0118036040844,-1.61527326573
1385568713304609996,0.0416957900359,-0.395264213933,-0.438418555487,0.0191325239021,-0.0127734947504,-1.61496930465
1385568713314509811,0.0429267740011,-0.397129239681,-0.44222252028,0.0168544161924,-0.0119995817291,-1.61519019049
1385568713324658228,0.0439916647812,-0.399009262447,-0.445778492706,0.0163454987544,-0.0125021393731,-1.61467820009
1385568713334869961,0.0452621818935,-0.400901443234,-0.449344635664,0.0148193346015,-0.0127503610876,-1.61469652291
1385568713344574672,0.0464094053987,-0.402762718535,-0.452530033151,0.0141922155861,-0.0130054741582,-1.61392564262
1385568713354600596,0.0476164860003,-0.404564390369,-0.455804203262,0.0126563900377,-0.010957263406,-1.61331762784
1385568713364570665,0.0487291535681,-0.406613888587,-0.458787316278,0.0097600671278,-0.0125227825421,-1.61290652622
1385568713374597829,0.0498365813465,-0.40840596312,-0.461712011317,0.0102535752777,-0.0119870935382,-1.61158775407
1385568713384541254,0.0510855487916,-0.410279429706,-0.464409822979,0.0086473082223,-0.0105490514142,-1.61185524149
1385568713394538401,0.0524813079545,-0.412371516309,-0.466959723575,0.00767654713113,-0.0104113369544,-1.61103642504
1385568713404582613,0.0536216588643,-0.414298491022,-0.46938448455,0.00650775810033,-0.00954909029907,-1.61077678633
1385568713414532781,0.0547910983853,-0.416076675859,-0.471649559036,0.0055427622146,-0.00880290088807,-1.61010692351
1385568713424631803,0.0560860960174,-0.41809194633,-0.473764975578,0.00559618925826,-0.008281483781,-1.60903614337
1385568713434614307,0.0574679648133,-0.420060003859,-0.475727790574,0.00450580501724,-0.00808699903299,-1.60901330301
1385568713444481493,0.058598811211,-0.422033833373,-0.477597257021,0.00436494135954,-0.00722466319069,-1.60855928658
1385568713454513658,0.0600660170633,-0.423913829379,-0.479315725917,0.00295464123459,-0.00642771180781,-1.60832392755
1385568713464554299,0.0613143872061,-0.426050443793,-0.481026204805,0.00169847622142,-0.0055953499529,-1.60833088524
1385568713474615047,0.0625270532778,-0.427988513568,-0.482281643466,0.0022287470956,-0.00567870810629,-1.60752917329
1385568713484555752,0.0637719440952,-0.430008571351,-0.483707453659,0.00112095210009,-0.0037467877665,-1.60705765939
1385568713494547279,0.0651588057755,-0.431949337953,-0.484863620532,0.000906585863904,-0.00393728189054,-1.60621890979
1385568713504595602,0.0664454936425,-0.433945600811,-0.485960583715,0.000576758252361,-0.00311542687135,-1.60624209744
1385568713514873079,0.0677532748089,-0.435990279659,-0.487009641524,-0.000240883822261,-0.00208952874937,-1.60597515841
1385568713524649907,0.0690400549209,-0.437937902764,-0.487797612036,-0.00112109866979,-0.00164681435888,-1.60620565165
1385568713534608954,0.0703179793523,-0.439714428763,-0.488459465087,-0.0011592866072,-0.000925624815656,-1.60545946349
1385568713544538175,0.0717094390805,-0.441639968779,-0.48917897598,-0.000163366333145,0.00164841840236,-1.60507000552
1385568713554542473,0.0729174687447,-0.443788819989,-0.489767065693,-0.00206964188661,0.000891935380947,-1.60502902959
1385568713564526140,0.0743143303885,-0.445462670699,-0.490133204281,-0.00208610748396,0.00104677477185,-1.60358399233
1385568713574584899,0.0756118842487,-0.447674601636,-0.49049380953,-0.00237699735326,0.00249975232029,-1.60408138381
1385568713584538221,0.0768249234497,-0.449544197434,-0.490701732588,-0.00217944289691,0.00272553075144,-1.60323362013
1385568713594512804,0.0781883656288,-0.451475102542,-0.490803021378,-0.00176231080047,0.00365063964568,-1.60331860826
1385568713604539532,0.0794342692967,-0.45345609307,-0.4908617392,-0.00229251514141,0.00416964782244,-1.602652055
1385568713614601901,0.0807611944324,-0.455368138118,-0.490948134119,-0.00248648497065,0.00492737622649,-1.60262579133
1385568713624541088,0.0820491180845,-0.45730622448,-0.490781312319,-0.00235595681803,0.00496011005704,-1.602636616
1385568713634574151,0.0832911130991,-0.459241195141,-0.490604381673,-0.00224913978063,0.00497909897382,-1.60201284896
1385568713644516615,0.0845730630735,-0.461128079898,-0.490399000124,-0.00225527051444,0.0055728610274,-1.60211419156
1385568713654540389,0.0858184353071,-0.463108386572,-0.490094933093,-0.00263821703153,0.00562617111122,-1.60109858146
1385568713664522249,0.0871788453165,-0.465053336684,-0.489727604215,-0.00269372093792,0.00543513332349,-1.60112910842
1385568713674592929,0.0884174597105,-0.466847044496,-0.489295887917,-0.00322143778215,0.00557441115631,-1.60075837355
1385568713684497313,0.0897009476979,-0.46877222298,-0.488740073831,-0.0031721301364,0.00413022563606,-1.59945550113
1385568713694561658,0.0909841592209,-0.470746618327,-0.488214625636,-0.00283896522928,0.00417844593876,-1.59869494871
1385568713704559174,0.0922272081394,-0.47263748105,-0.487557404064,-0.00315834881476,0.00381369823897,-1.59824181098
1385568713714588701,0.093508561118,-0.47449777584,-0.487002347267,-0.00368712249921,0.00475821820734,-1.59874071667
1385568713724665911,0.0947462387972,-0.476343424256,-0.486268749888,-0.00350314462929,0.00396689457679,-1.59784213389
1385568713734596664,0.0959979108194,-0.478203533514,-0.485448913739,-0.00322433809914,0.00405253822527,-1.59799795837
1385568713744479856,0.0972979000673,-0.480094433705,-0.484631005812,-0.00181877711849,0.00667345749498,-1.59801504296
1385568713754513572,0.0986300366136,-0.481881607576,-0.483882390188,-0.0020099281031,0.00277844846308,-1.59729858381
1385568713764589008,0.0999181564807,-0.483764397513,-0.482821857272,-0.00164576058781,0.00285544497586,-1.59703743221
1385568713774578383,0.101162430107,-0.48567956943,-0.482099133149,-0.00125818825327,0.00257929940533,-1.59692013743
1385568713784532060,0.102596937301,-0.487483737048,-0.481141190742,-0.000375012727182,0.001914512477,-1.59604900913
1385568713794529515,0.103705375618,-0.489374506727,-0.480019630163,-0.000210751822338,0.000813445384595,-1.59613016414
1385568713804632612,0.105088159537,-0.491091521079,-0.479075376106,0.000613010822517,-0.000108935884962,-1.5956788421
1385568713814620167,0.10642835377,-0.492937098175,-0.478165102038,0.00102984897426,-0.000576245177552,-1.59570489698
1385568713824579722,0.107663521332,-0.494677089747,-0.476982992712,0.00153533684965,-0.00204335636,-1.59468460659
1385568713834535853,0.109042074323,-0.496677629764,-0.475949737566,0.00180411777921,-0.00237641111038,-1.59472552696
1385568713844612476,0.110207821897,-0.498378264004,-0.474748422815,0.00259373961453,-0.00270755439368,-1.59350521358
1385568713854506455,0.111715308656,-0.500344897484,-0.473818965169,0.00269063753547,-0.00329249330394,-1.59389142348
1385568713864526998,0.1129180439,-0.50197387197,-0.472521356285,0.00370176764492,-0.00423131419621,-1.59317952684
1385568713874625429,0.114224017111,-0.503841085264,-0.471340037156,0.00328915378232,-0.00551366780983,-1.59224516508
1385568713884512664,0.11563310557,-0.505759180894,-0.470148628277,0.00341713519048,-0.00459300754724,-1.59196353404
1385568713894595375,0.116822068806,-0.507530455643,-0.468919638441,0.00326582523166,-0.00585087805723,-1.59136201033
1385568713904709712,0.118391118748,-0.509267322988,-0.467808283733,0.00363672943417,-0.00580202203786,-1.59051374264
1385568713914592676,0.119543288666,-0.511168766189,-0.466547738458,0.00377417256536,-0.00578725221366,-1.59090806594
1385568713924613022,0.121055476528,-0.512788968073,-0.465256491718,0.0049607404524,-0.0051306984314,-1.59007692854
1385568713934667546,0.122337053274,-0.514676813612,-0.463997676322,0.0031638901533,-0.00641413098511,-1.58978725138
1385568713944536457,0.123626615599,-0.516442023381,-0.462767888847,0.00343803616442,-0.00630547443309,-1.58896030221
1385568713954554702,0.125109441883,-0.518441436504,-0.461442003332,0.00329053775121,-0.0070297629443,-1.58962300087
1385568713964543643,0.126536251682,-0.520067869374,-0.460378477805,0.00376735521384,-0.00599060545217,-1.58880994534
1385568713974593320,0.127808789437,-0.521905122745,-0.459216583604,0.00386033458966,-0.00568300566039,-1.58882580196
1385568713984534702,0.129172325298,-0.523767700962,-0.458248587912,0.00010740739491,-0.0104030000023,-1.58788711884
1385568713994507175,0.130610413555,-0.525674979522,-0.457068361819,-0.000108987216861,-0.0107086480967,-1.58803969754
1385568714004649010,0.13209138699,-0.527372709845,-0.455857858742,0.00118599830268,-0.010219870907,-1.58717176869
1385568714014548096,0.133548508169,-0.529161766369,-0.454298403357,0.00473285205032,-0.00452847267431,-1.58686726209
1385568714024524811,0.134881307139,-0.530871835593,-0.453101754304,0.00577759845054,-0.00417819794566,-1.58635286014
1385568714034512410,0.136356210905,-0.53266254732,-0.451826893597,0.00583582093399,-0.00289145026937,-1.58613244059
1385568714044505970,0.13784322068,-0.534360361863,-0.450798354949,0.00546104004417,-0.00332343826996,-1.5851057819
1385568714054485398,0.139102799524,-0.536183264539,-0.449563257495,0.00555556041641,-0.0024287326669,-1.58445832381
1385568714064486586,0.140698728007,-0.538088882283,-0.448534435508,0.00416202849897,-0.000446600803886,-1.5842862882
1385568714074578801,0.141981163159,-0.539751530467,-0.447544609188,0.00461668939397,-0.00036222374981,-1.58344987166
1385568714084800924,0.143355997087,-0.541597434577,-0.446481104265,0.00427228366805,0.000105664387742,-1.58345045635
1385568714094560054,0.144863561178,-0.543398571192,-0.445394113425,0.00247466667389,0.0011974538495,-1.58303802818
1385568714104628800,0.14612858893,-0.545106988538,-0.444316188914,0.00185472161632,0.0011063664382,-1.58254917157
1385568714114693030,0.147411112247,-0.546945035861,-0.443289337769,-0.000398177014809,0.00195614428499,-1.5820357687
1385568714124600571,0.148938500605,-0.548680839471,-0.442488095369,-0.000990030086826,0.00163399231368,-1.58146572171
1385568714134592091,0.150414732148,-0.550355039971,-0.44154604885,-0.0014485422784,0.00199282763466,-1.58112971917
1385568714144605006,0.151651018643,-0.552106594645,-0.440531252701,-0.00338731774532,0.00254665161678,-1.57973482989
1385568714154576483,0.153012683093,-0.553850393887,-0.439565886298,-0.00305907718836,0.00401301104817,-1.5801568726
1385568714164542136,0.154593431185,-0.555467414485,-0.438814191543,-0.00487280204095,0.0050464100061,-1.58013673393
1385568714174693671,0.156131779612,-0.557069454503,-0.438193197248,-0.00583576524051,0.00523578023038,-1.57976408333
1385568714184612699,0.157213867461,-0.559099661782,-0.437429603029,-0.00807583727106,0.00437070924683,-1.578888203
1385568714194596117,0.158575346686,-0.560788017284,-0.436632765188,-0.00874605085632,0.00552489550053,-1.57870297482
1385568714204770364,0.160066947929,-0.562335100721,-0.436053302758,-0.00903859294806,0.00606024648506,-1.57817601038
1385568714214663223,0.161296525661,-0.564096589933,-0.435342346416,-0.0100354166684,0.00735286885735,-1.57727909281
1385568714224628052,0.162648354299,-0.565954821124,-0.434526029544,-0.0108296836437,0.00723159524443,-1.57679656042
1385568714234746759,0.164001489607,-0.567615903302,-0.43372416341,-0.0117475450646,0.0070688982197,-1.57614708983
1385568714244534422,0.165341552938,-0.569156921681,-0.432992472262,-0.0118983139261,0.00794923788384,-1.57560226367
1385568714254538582,0.166717133915,-0.570955188061,-0.432458880856,-0.0124155714662,0.00850032021324,-1.57530835369
1385568714264568493,0.167882490976,-0.572611925641,-0.431785469015,-0.013419892336,0.00868152687231,-1.57507488117
1385568714274609726,0.169237389746,-0.574310382946,-0.431339013741,-0.0143129719948,0.00819613487911,-1.57484441691
1385568714284557378,0.170547900795,-0.575838618051,-0.430756213469,-0.0139482376641,0.00940310848927,-1.57425386343
1385568714294565546,0.171701038664,-0.577740063658,-0.430329867004,-0.015425729957,0.00930694028754,-1.57384459101
1385568714304565681,0.17312815752,-0.579213562219,-0.429928305074,-0.0162640719862,0.00778248717779,-1.57336401524
1385568714314623804,0.174184163694,-0.581039437514,-0.429430795413,-0.016220932693,0.00890306463197,-1.5726319163
1385568714324603318,0.175496845424,-0.582473228026,-0.428915133202,-0.0157925073813,0.00709489416001,-1.57118511308
1385568714334695950,0.17674874029,-0.584181954485,-0.428517906362,-0.0159261429083,0.0068979410742,-1.57101715285
1385568714344635029,0.178042536181,-0.585633427533,-0.428326702121,-0.0163424273557,0.00709909276718,-1.57128842114
1385568714354520238,0.179398877874,-0.58700058074,-0.428043133217,-0.0150688413664,0.00666447744215,-1.57033977194
1385568714364555829,0.180543129038,-0.588871471812,-0.427655687189,-0.0128175563987,0.00631040428598,-1.56976152196
1385568714374734805,0.181760842588,-0.590397466929,-0.427625730326,-0.0119835205317,0.00796311764725,-1.5697442978
1385568714384532567,0.183105186318,-0.591873006218,-0.4273817955,-0.0103297449699,0.00598231104393,-1.56876811509
1385568714394618191,0.18430620776,-0.593288270484,-0.427254809693,-0.0084726087818,0.00601150936305,-1.5680033114
1385568714404590964,0.185485505914,-0.59494981591,-0.427165421241,-0.00667810460341,0.00711053481099,-1.56855087705
1385568714414525059,0.186778331184,-0.596442755549,-0.426849055922,-0.00648574846321,0.00678458100021,-1.56821907644
1385568714424587699,0.188187444297,-0.597962964625,-0.426698210389,-0.00459070704358,0.00844919116365,-1.56819765388
1385568714434644086,0.189253862789,-0.599424555229,-0.426744561527,-0.00420359933787,0.00667486595756,-1.5675091759
1385568714444652443,0.190355702207,-0.601209677767,-0.426600706372,-0.00403745803872,0.00781808651192,-1.56748824879
1385568714454519422,0.191537270817,-0.602671278758,-0.426645829241,-0.00337323332186,0.00820898565852,-1.56677517435
1385568714464515886,0.19276575375,-0.604111257546,-0.426454489863,-0.00361876341482,0.00819478561388,-1.56600808393
1385568714474472133,0.193868618676,-0.605385726629,-0.426531553197,-0.00358843445773,0.00934148056641,-1.56566261365
1385568714484590523,0.195074348057,-0.606809009302,-0.426579671126,-0.0037562202359,0.00995164012565,-1.5651576286
1385568714494538381,0.196197219153,-0.60840750403,-0.426583218238,-0.00435995845689,0.0116474871708,-1.56453980613
1385568714504535674,0.197509846097,-0.609747678829,-0.42667160664,-0.00361222089646,0.0127279500443,-1.56434949937
1385568714514511636,0.198572554001,-0.611294483211,-0.426800644275,-0.00476615849351,0.0130509423023,-1.56366669244
1385568714525276134,0.199700243892,-0.612495790577,-0.427000666024,-0.00522366703934,0.0133827559528,-1.56361728542
1385568714534728833,0.200866977643,-0.613883546957,-0.427105035425,-0.00595495286032,0.013807902157,-1.56332320477
1385568714544588338,0.201850120863,-0.615354864362,-0.427074913714,-0.00675441487474,0.0129024942374,-1.56246328265
1385568714554480525,0.20315712351,-0.616570797721,-0.427437152439,-0.00799531464106,0.013763369676,-1.56255649204
1385568714564537869,0.204197188669,-0.618065867896,-0.427588048519,-0.0091747224948,0.0134942169893,-1.56196418734
1385568714574499794,0.205412797675,-0.619399612439,-0.427792747674,-0.0104425114689,0.013631802908,-1.56163344676
1385568714584693912,0.206405716226,-0.620785879783,-0.428042422188,-0.0112343407664,0.0129849559959,-1.56098489186
1385568714594655145,0.207668012671,-0.622129636392,-0.428287883511,-0.01352370964,0.0127606651669,-1.56045181348
1385568714604553702,0.208523236575,-0.623645690629,-0.42882348742,-0.0179873218449,0.00712682088987,-1.55983789937
1385568714614595366,0.209750769217,-0.624865663278,-0.428509223572,-0.0155078986416,0.0114665309802,-1.55961840166
1385568714624560704,0.210800037276,-0.626335310098,-0.428878034483,-0.0166456197556,0.0116867441901,-1.55958642673
1385568714634613053,0.211947252098,-0.627346836827,-0.429262330736,-0.0156522464536,0.0123063002689,-1.55901940383
1385568714644674733,0.212930394384,-0.628741145631,-0.429484785497,-0.0168267912065,0.0125054042658,-1.55883244053
1385568714654595006,0.214038590985,-0.629819483562,-0.429832021847,-0.0157787644719,0.0128112462897,-1.55846865908
1385568714664491024,0.215208581168,-0.630947246761,-0.430102996924,-0.0157063321968,0.0131680033066,-1.5574941442
1385568714674539362,0.216180082216,-0.632522153001,-0.430364688733,-0.0166701437834,0.0130494609256,-1.5581360906
1385568714684559269,0.217207799138,-0.63361359069,-0.430669638334,-0.0160220651339,0.0129165536236,-1.55703586402
1385568714694528707,0.218134779525,-0.634683495967,-0.430952263956,-0.0164787506615,0.0141660421397,-1.55698623701
1385568714704526747,0.219248726752,-0.63594696424,-0.431370936393,-0.0176854759512,0.0142638377231,-1.55706112799
1385568714714531392,0.220261641685,-0.637034935368,-0.431602259924,-0.0171587035191,0.0134624083614,-1.55594760114
