%time,field.header.seq,field.header.stamp,field.header.frame_id,field.child_frame_id,field.transform.translation.x,field.transform.translation.y,field.transform.translation.z,field.transform.rotation.x,field.transform.rotation.y,field.transform.rotation.z,field.transform.rotation.w
1385568706516459677,591069,1385568706516459677,/world,vicon/Archie/Archie,0.0450673445384,0.341598624061,0.115425376995,-0.00332950287742,-0.00832520302344,0.70301654955,0.711116963983
1385568706526479185,591070,1385568706526479185,/world,vicon/Archie/Archie,0.0450175947988,0.341702440212,0.115365334645,-0.00364081695231,-0.00804655255386,0.7029965006,0.711138465834
1385568706536413304,591071,1385568706536413304,/world,vicon/Archie/Archie,0.0450295434666,0.341626565979,0.115357172846,-0.0034033493835,-0.00825020174363,0.703025986899,0.711108158531
1385568706546425052,591072,1385568706546425052,/world,vicon/Archie/Archie,0.0450783896274,0.341608460498,0.115418196411,-0.00333697036492,-0.00825779960508,0.703024575421,0.711109780363
1385568706556473438,591073,1385568706556473438,/world,vicon/Archie/Archie,0.0450754511241,0.341603291037,0.115423188779,-0.00330810901178,-0.00832883161854,0.703022631065,0.711111009048
1385568706566414043,591074,1385568706566414043,/world,vicon/Archie/Archie,0.0450105914775,0.341628792483,0.115369456035,-0.00337281485624,-0.00833302780124,0.7030320485,0.711101345484
1385568706576517842,591075,1385568706576517842,/world,vicon/Archie/Archie,0.0450270727472,0.341689598082,0.115363632162,-0.00363265534475,-0.00806498978024,0.702997673677,0.711137139067
1385568706586820914,591076,1385568706586820914,/world,vicon/Archie/Archie,0.0449657245552,0.341720342413,0.115301354477,-0.00368321737192,-0.00806255671655,0.703003033647,0.711131607913
1385568706596583027,591077,1385568706596583027,/world,vicon/Archie/Archie,0.0450149497416,0.341704090966,0.115363614612,-0.00363579369345,-0.00805422921849,0.702992463513,0.711142395473
1385568706606390372,591078,1385568706606390372,/world,vicon/Archie/Archie,0.0450683299815,0.341602331218,0.115427682632,-0.00330273884336,-0.00834448831362,0.703025147985,0.711108362159
1385568706616585046,591079,1385568706616585046,/world,vicon/Archie/Archie,0.0450295066929,0.341684456342,0.115360572485,-0.00361483847829,-0.00809329420333,0.702988775048,0.711145704964
1385568706626183502,591080,1385568706626183502,/world,vicon/Archie/Archie,0.0450086211474,0.341602656623,0.115521511631,-0.00304004179923,-0.00824234081672,0.70305358986,0.711082605432
1385568706636545405,591081,1385568706636545405,/world,vicon/Archie/Archie,0.0450591662222,0.341607129931,0.11543298312,-0.00331632508997,-0.00831783256601,0.703036557962,0.711097330763
1385568706646291053,591082,1385568706646291053,/world,vicon/Archie/Archie,0.0450686350373,0.341603314185,0.115432082889,-0.00332816266298,-0.00833154636151,0.703044223781,0.711089535907
1385568706656590030,591083,1385568706656590030,/world,vicon/Archie/Archie,0.0450393889443,0.341690426928,0.115346445163,-0.00360932062932,-0.00801725212497,0.702993017474,0.711142400547
1385568706666998495,591084,1385568706666998495,/world,vicon/Archie/Archie,0.0450284296903,0.341688543024,0.115363886793,-0.00360020663489,-0.00808382892244,0.70300434868,0.711130491513
1385568706676578380,591085,1385568706676578380,/world,vicon/Archie/Archie,0.0449662913151,0.341725691222,0.11529461659,-0.00369243539602,-0.00807225047699,0.703000468225,0.711133986228
1385568706686454200,591086,1385568706686454200,/world,vicon/Archie/Archie,0.0450699572675,0.341599508408,0.115434824986,-0.00332804641495,-0.00833712710845,0.70302635774,0.711107134504
1385568706696243430,591087,1385568706696243430,/world,vicon/Archie/Archie,0.045010166796,0.341609586938,0.115526154146,-0.00303585381088,-0.00822497635696,0.703053705979,0.711082709581
1385568706706384498,591088,1385568706706384498,/world,vicon/Archie/Archie,0.045062117041,0.341606427743,0.115426780151,-0.00332473944472,-0.00834021867501,0.703028675047,0.711104822739
1385568706716485001,591089,1385568706716485001,/world,vicon/Archie/Archie,0.0450962975213,0.34159507558,0.11542044333,-0.00331953356205,-0.00827930366529,0.703020830509,0.711113314246
1385568706726405403,591090,1385568706726405403,/world,vicon/Archie/Archie,0.0450239262748,0.341697521491,0.115351407008,-0.00363700325217,-0.0080554736211,0.702998870708,0.71113604137
1385568706736508812,591091,1385568706736508812,/world,vicon/Archie/Archie,0.0450690545325,0.34160228889,0.115425457007,-0.00332348606717,-0.0083326425236,0.703027029199,0.711106544566
1385568706746317286,591092,1385568706746317286,/world,vicon/Archie/Archie,0.0450773209361,0.341608453312,0.115430232838,-0.00333952023666,-0.00830287586748,0.703027370142,0.711106480555
1385568706756479289,591093,1385568706756479289,/world,vicon/Archie/Archie,0.044965494396,0.341729115314,0.115300433943,-0.00367644403524,-0.00806057916931,0.702986368597,0.711148139553
1385568706766481655,591094,1385568706766481655,/world,vicon/Archie/Archie,0.0450082354165,0.341696932529,0.115364518424,-0.00360149870035,-0.00807893684228,0.703007280847,0.711127641892
1385568706776705476,591095,1385568706776705476,/world,vicon/Archie/Archie,0.0449568202942,0.341725833031,0.11530214368,-0.00367393486011,-0.00807462248591,0.703007025822,0.711127572464
1385568706786459870,591096,1385568706786459870,/world,vicon/Archie/Archie,0.0450843318758,0.34160378558,0.115419748951,-0.003326727114,-0.00829611498159,0.703023690607,0.711110257139
1385568706796417460,591097,1385568706796417460,/world,vicon/Archie/Archie,0.0450144262739,0.341699487319,0.115365071929,-0.00363301810828,-0.00806802639428,0.703005973139,0.711128898204
1385568706806520133,591098,1385568706806520133,/world,vicon/Archie/Archie,0.0450208935736,0.341703768901,0.115360806241,-0.00360561349587,-0.00806197398724,0.703000924323,0.71113409743
1385568706816463001,591099,1385568706816463001,/world,vicon/Archie/Archie,0.0450809446654,0.341606159265,0.115432274264,-0.00330131864814,-0.00834139944927,0.703025203506,0.711108350102
1385568706826313396,591100,1385568706826313396,/world,vicon/Archie/Archie,0.0450258258078,0.341639667207,0.11535936288,-0.00338376910153,-0.00825416126365,0.703019935849,0.711114188248
1385568706836357887,591101,1385568706836357887,/world,vicon/Archie/Archie,0.0450279766,0.341630819397,0.115360597289,-0.00338727708252,-0.00825503658916,0.703020374424,0.711113727803
1385568706846462449,591102,1385568706846462449,/world,vicon/Archie/Archie,0.0450321468023,0.341698752769,0.115355380381,-0.00361640688889,-0.00808768992087,0.702989955174,0.711144594156
1385568706856487153,591103,1385568706856487153,/world,vicon/Archie/Archie,0.0450104838129,0.341710446473,0.115362433684,-0.00364081852084,-0.00806059003406,0.702994118833,0.711140661342
1385568706866519263,591104,1385568706866519263,/world,vicon/Archie/Archie,0.0450307103051,0.341697926078,0.115355728847,-0.00364804719359,-0.00802031416599,0.702993977439,0.711141219448
1385568706876269773,591105,1385568706876269773,/world,vicon/Archie/Archie,0.0450663084844,0.341614909545,0.11543345292,-0.00332697217456,-0.00831682660138,0.703036063915,0.711097781242
1385568706887391309,591106,1385568706887391309,/world,vicon/Archie/Archie,0.0450699235847,0.341611029984,0.115428846069,-0.00331174168485,-0.00833860680494,0.703025978337,0.711107568366
1385568706896534869,591107,1385568706896534869,/world,vicon/Archie/Archie,0.0450125369977,0.341708388106,0.11535877853,-0.00361643216729,-0.00807175254037,0.702992145477,0.711142609909
1385568706906413225,591108,1385568706906413225,/world,vicon/Archie/Archie,0.0450226884576,0.341695132918,0.115359490377,-0.00363759600148,-0.00806754700195,0.703004759182,0.711130080329
1385568706916476171,591109,1385568706916476171,/world,vicon/Archie/Archie,0.0450266198787,0.341697589032,0.115362415819,-0.0036082781392,-0.00807747609828,0.703000816744,0.71113401435
1385568706926311406,591110,1385568706926311406,/world,vicon/Archie/Archie,0.0450927362488,0.341604916541,0.115419479379,-0.00330024605613,-0.0082729760849,0.703031589317,0.711102841131
1385568706936601435,591111,1385568706936601435,/world,vicon/Archie/Archie,0.0450689747781,0.341618408524,0.115431653967,-0.00332622159032,-0.00833062862295,0.703030487167,0.711103136676
1385568706946390730,591112,1385568706946390730,/world,vicon/Archie/Archie,0.0450164161445,0.341640901324,0.11536390348,-0.00341708634565,-0.00829915521386,0.703020600058,0.711112848596
1385568706956503618,591113,1385568706956503618,/world,vicon/Archie/Archie,0.0450641341747,0.341612643442,0.115424489165,-0.00332583098975,-0.00832382144434,0.703031775878,0.711101944134
1385568706965995957,591114,1385568706965995957,/world,vicon/Archie/Archie,0.0449593206096,0.341741678293,0.115302369117,-0.00366005143664,-0.00806304989327,0.703006434585,0.711128359849
1385568706975717352,591115,1385568706975717352,/world,vicon/Archie/Archie,0.0450723316451,0.341620851224,0.115424932613,-0.00331081155064,-0.00833114814587,0.703026557004,0.711107088029
1385568706986052870,591116,1385568706986052870,/world,vicon/Archie/Archie,0.0450813986507,0.341606282275,0.115415297741,-0.00332567084866,-0.00828800644469,0.703026937426,0.71110714672
1385568706995821496,591117,1385568706995821496,/world,vicon/Archie/Archie,0.0450697097282,0.341619075316,0.115427971885,-0.00332967799529,-0.00832131162785,0.703030284873,0.711103429585
1385568707005848213,591118,1385568707005848213,/world,vicon/Archie/Archie,0.0450834960494,0.341617188447,0.115425397639,-0.00333104739837,-0.00826842687091,0.703027136741,0.711107152437
1385568707015857698,591119,1385568707015857698,/world,vicon/Archie/Archie,0.0450678523808,0.341606393124,0.1154262256,-0.00332414073795,-0.00833325675632,0.703026601575,0.711106957073
1385568707025745941,591120,1385568707025745941,/world,vicon/Archie/Archie,0.0450093566166,0.341642475244,0.115369906502,-0.00337909833327,-0.00831105173298,0.703037005037,0.711096672515
1385568707035829619,591121,1385568707035829619,/world,vicon/Archie/Archie,0.0450235022186,0.341708795423,0.115361027473,-0.00362521560624,-0.00806372587672,0.702993631345,0.711141187406
1385568707045663880,591122,1385568707045663880,/world,vicon/Archie/Archie,0.0450645141735,0.341613529982,0.115425792145,-0.00335873104268,-0.0083139500301,0.703033900203,0.711099804757
1385568707055855295,591123,1385568707055855295,/world,vicon/Archie/Archie,0.0450727031742,0.341606466015,0.115430121585,-0.00329894239009,-0.00833993730435,0.703029908343,0.711103726892
1385568707065891996,591124,1385568707065891996,/world,vicon/Archie/Archie,0.045073069328,0.341604688043,0.115428186361,-0.00331472820305,-0.00833819751382,0.703035819456,0.711097829839
1385568707075771723,591125,1385568707075771723,/world,vicon/Archie/Archie,0.0450817534614,0.341608913864,0.11541845215,-0.00330666851185,-0.0082877912234,0.703024526139,0.711109621723
1385568707085820990,591126,1385568707085820990,/world,vicon/Archie/Archie,0.0450701832219,0.341613973231,0.115430576561,-0.00330349066046,-0.00833636652478,0.703032991849,0.711100699138
1385568707095774972,591127,1385568707095774972,/world,vicon/Archie/Archie,0.0450717969353,0.341611377893,0.115429616786,-0.00331895113796,-0.00834011729949,0.703037091946,0.711096529562
1385568707105782434,591128,1385568707105782434,/world,vicon/Archie/Archie,0.0450714325421,0.341613574743,0.115433150119,-0.00329735146958,-0.00832583296119,0.703023784249,0.711109954057
1385568707115833712,591129,1385568707115833712,/world,vicon/Archie/Archie,0.045034987168,0.341704107041,0.115348769763,-0.00365002634765,-0.00797565380044,0.702990961553,0.711144692892
1385568707125830862,591130,1385568707125830862,/world,vicon/Archie/Archie,0.0450603389422,0.341613024667,0.115428516885,-0.00331548782854,-0.00832832038914,0.703028300304,0.71110537587
1385568707135806346,591131,1385568707135806346,/world,vicon/Archie/Archie,0.0450749633299,0.341613456181,0.115427213034,-0.00333776225166,-0.00831555096506,0.703028008612,0.711105709485
1385568707145861158,591132,1385568707145861158,/world,vicon/Archie/Archie,0.0450190606179,0.341712375448,0.115360629334,-0.00361319561585,-0.00806204244146,0.703019608418,0.711115587277
1385568707155893699,591133,1385568707155893699,/world,vicon/Archie/Archie,0.0449759313422,0.341739871665,0.115291485573,-0.00368529197563,-0.00799863354387,0.703003287396,0.71113206818
1385568707165846569,591134,1385568707165846569,/world,vicon/Archie/Archie,0.0450747816967,0.341607717957,0.115434817119,-0.00330119541113,-0.00832597917218,0.703025024426,0.711108708434
1385568707175810074,591135,1385568707175810074,/world,vicon/Archie/Archie,0.0450768371671,0.341619599556,0.115420024587,-0.00334980185439,-0.00830315169457,0.703014949359,0.711118708429
1385568707185807590,591136,1385568707185807590,/world,vicon/Archie/Archie,0.0450157602412,0.341611724333,0.115525493703,-0.00303982674036,-0.00822856270194,0.703056958649,0.711079435158
1385568707195911824,591137,1385568707195911824,/world,vicon/Archie/Archie,0.0450225283199,0.341642075945,0.115372595251,-0.00338887003722,-0.00830452774164,0.703027709048,0.71110589274
1385568707206717276,591138,1385568707206717276,/world,vicon/Archie/Archie,0.0449731192321,0.341733821016,0.115301490295,-0.00368135462531,-0.00805971331746,0.703006519264,0.711128203998
1385568707216450930,591139,1385568707216450930,/world,vicon/Archie/Archie,0.0450839749429,0.341612020686,0.115421413382,-0.00331469514896,-0.00829340859883,0.703025951604,0.711108109601
1385568707226275088,591140,1385568707226275088,/world,vicon/Archie/Archie,0.0450684020064,0.34160982911,0.115431507708,-0.00331068507618,-0.00834873799749,0.703026234828,0.711107200836
1385568707236587191,591141,1385568707236587191,/world,vicon/Archie/Archie,0.0450344407231,0.341698118828,0.11534511124,-0.00361322276221,-0.00800658813358,0.703002290967,0.711133333534
1385568707246749905,591142,1385568707246749905,/world,vicon/Archie/Archie,0.0449552362699,0.341740740463,0.115301168101,-0.00370137116981,-0.00805671091115,0.702997733892,0.711136819046
1385568707256605010,591143,1385568707256605010,/world,vicon/Archie/Archie,0.0450664532057,0.341616766495,0.11543334552,-0.00332444826407,-0.0083251544238,0.703034798327,0.711098946835
1385568707266642518,591144,1385568707266642518,/world,vicon/Archie/Archie,0.0450193219339,0.341705198678,0.115362121253,-0.00362416413225,-0.00807456188555,0.703006169953,0.711128674638
1385568707276514492,591145,1385568707276514492,/world,vicon/Archie/Archie,0.0450344224927,0.341710835107,0.115345534635,-0.00361679281543,-0.00800880753261,0.702991949957,0.711143513017
1385568707286660012,591146,1385568707286660012,/world,vicon/Archie/Archie,0.0450211714496,0.341708183873,0.115367149507,-0.00362400876123,-0.00805771035677,0.70299780885,0.711137132076
1385568707296322800,591147,1385568707296322800,/world,vicon/Archie/Archie,0.0450703158575,0.341610504464,0.115429785726,-0.00332607254224,-0.00834895251132,0.703033375571,0.711100066845
1385568707306331895,591148,1385568707306331895,/world,vicon/Archie/Archie,0.0450305424958,0.341702930598,0.115366445718,-0.00363523162847,-0.00805856266294,0.702997022825,0.711137842164
1385568707316237484,591149,1385568707316237484,/world,vicon/Archie/Archie,0.0450802278823,0.341609711583,0.115429677367,-0.0033316234426,-0.00833552934657,0.70302822523,0.711105290211
1385568707326406144,591150,1385568707326406144,/world,vicon/Archie/Archie,0.0449570575186,0.341737295752,0.115302623862,-0.00368824139749,-0.00806324788661,0.703005059754,0.711129571084
1385568707336418263,591151,1385568707336418263,/world,vicon/Archie/Archie,0.0450315795207,0.341708418958,0.115355998337,-0.00365663896773,-0.00804698547718,0.703002057918,0.71113288602
1385568707346225280,591152,1385568707346225280,/world,vicon/Archie/Archie,0.0450213105622,0.34171512558,0.11536456033,-0.00363281840095,-0.00808257936778,0.703003728755,0.711130952707
1385568707356351373,591153,1385568707356351373,/world,vicon/Archie/Archie,0.0450590188071,0.341613044945,0.115434813371,-0.00333257898111,-0.0083296811416,0.70303407845,0.711099567478
1385568707366295254,591154,1385568707366295254,/world,vicon/Archie/Archie,0.0450874940657,0.341607673252,0.115417249674,-0.0033265984511,-0.00827859433229,0.703015296332,0.711118760645
1385568707376205405,591155,1385568707376205405,/world,vicon/Archie/Archie,0.0450705649273,0.341610987252,0.115427993049,-0.00332423108385,-0.00834348068,0.703025119417,0.71110830208
1385568707386336383,591156,1385568707386336383,/world,vicon/Archie/Archie,0.0450602453084,0.341614104559,0.115426431723,-0.00332403671307,-0.00832576667565,0.703043387275,0.711090449942
1385568707396295261,591157,1385568707396295261,/world,vicon/Archie/Archie,0.045073103014,0.341617436797,0.115440836148,-0.00332343557117,-0.00833642158209,0.703029872359,0.711103689642
1385568707406467685,591158,1385568707406467685,/world,vicon/Archie/Archie,0.0450112830921,0.341706347594,0.115361601351,-0.00362542217714,-0.00808015030516,0.702998647207,0.711136041493
1385568707416188936,591159,1385568707416188936,/world,vicon/Archie/Archie,0.0450918761319,0.341616811368,0.115419682458,-0.00331566193454,-0.00827738809496,0.703024616317,0.711109611864
1385568707426395209,591160,1385568707426395209,/world,vicon/Archie/Archie,0.0450713203639,0.341610361257,0.115427300844,-0.00333552951206,-0.00831877067443,0.703032721178,0.711101023238
1385568707436311151,591161,1385568707436311151,/world,vicon/Archie/Archie,0.0450904150483,0.341612773201,0.115419081192,-0.00332712852803,-0.00826262116851,0.703007804105,0.71112635071
1385568707446218645,591162,1385568707446218645,/world,vicon/Archie/Archie,0.0450756618,0.341617392986,0.115428839486,-0.00332428123224,-0.00831594686693,0.703024114744,0.711109617619
1385568707456359037,591163,1385568707456359037,/world,vicon/Archie/Archie,0.045015245772,0.341708697906,0.115365352198,-0.00362979802595,-0.00807045381872,0.703000937366,0.71113386532
1385568707466326659,591164,1385568707466326659,/world,vicon/Archie/Archie,0.0450657574477,0.341617262139,0.115438859991,-0.00331668587837,-0.00834425956074,0.703036580493,0.711096997192
1385568707476174868,591165,1385568707476174868,/world,vicon/Archie/Archie,0.0450753214575,0.341610988552,0.11542432063,-0.00332585954403,-0.00833669932131,0.703041568463,0.711092111555
1385568707486305123,591166,1385568707486305123,/world,vicon/Archie/Archie,0.0450829869901,0.341609886576,0.115417902507,-0.00332956006156,-0.00825714952638,0.703015467636,0.711118826762
1385568707496369485,591167,1385568707496369485,/world,vicon/Archie/Archie,0.0450710713895,0.341615642811,0.115429470615,-0.00332323690432,-0.00833357109689,0.703030203626,0.711103396476
1385568707506368179,591168,1385568707506368179,/world,vicon/Archie/Archie,0.0450744581333,0.341607769939,0.115430612456,-0.00334550190783,-0.00831666928744,0.703021110641,0.711112479585
1385568707516432206,591169,1385568707516432206,/world,vicon/Archie/Archie,0.0450932900948,0.341616864137,0.115419626621,-0.00331438983425,-0.00826985960933,0.703027594979,0.711106760578
1385568707526314705,591170,1385568707526314705,/world,vicon/Archie/Archie,0.0450400466823,0.341702546854,0.115353614815,-0.00362012073578,-0.00800402367956,0.702996408208,0.711139142769
1385568707536761507,591171,1385568707536761507,/world,vicon/Archie/Archie,0.0450209271092,0.341707231231,0.11535847253,-0.00362427167706,-0.00807178681099,0.702998779902,0.71113601116
1385568707546237771,591172,1385568707546237771,/world,vicon/Archie/Archie,0.0450701132083,0.341617893909,0.115434156425,-0.00333534130116,-0.00829563794354,0.703023919084,0.711109996474
1385568707556236209,591173,1385568707556236209,/world,vicon/Archie/Archie,0.0450167096056,0.341620730014,0.115530226509,-0.00302880708846,-0.00822033750899,0.703052952901,0.711083537846
1385568707566355681,591174,1385568707566355681,/world,vicon/Archie/Archie,0.0450816668735,0.341610511327,0.115416058867,-0.0033258702322,-0.00827373244226,0.70303051801,0.711103772093
1385568707576238548,591175,1385568707576238548,/world,vicon/Archie/Archie,0.045069506527,0.341614669296,0.115427620953,-0.0033256849094,-0.00832325943309,0.703022379543,0.71111124097
1385568707586257562,591176,1385568707586257562,/world,vicon/Archie/Archie,0.0450118335608,0.341643571789,0.115381722301,-0.00339035394649,-0.00830810630437,0.703026357754,0.711107179807
1385568707596326500,591177,1385568707596326500,/world,vicon/Archie/Archie,0.0450178817692,0.341714652374,0.115364192459,-0.00361963525002,-0.00805018238273,0.702996705706,0.711138330124
1385568707606277499,591178,1385568707606277499,/world,vicon/Archie/Archie,0.0450612887606,0.341613208821,0.115437963335,-0.00333739532876,-0.0083156863918,0.703023477946,0.711110188795
1385568707616397558,591179,1385568707616397558,/world,vicon/Archie/Archie,0.0450699501376,0.341606363114,0.115432918207,-0.00332744552096,-0.00831856449283,0.703027088988,0.711106631765
1385568707626478372,591180,1385568707626478372,/world,vicon/Archie/Archie,0.0450202471587,0.341714280643,0.115362056084,-0.0036089087003,-0.00807090084837,0.70299137538,0.711143419065
1385568707636361723,591181,1385568707636361723,/world,vicon/Archie/Archie,0.0450289889467,0.341708225084,0.115351524979,-0.0036393363003,-0.00799623534788,0.702998870717,0.711136697986
1385568707646329076,591182,1385568707646329076,/world,vicon/Archie/Archie,0.0450694235516,0.341614204196,0.115428123655,-0.00334612567058,-0.00830829659774,0.7030203305,0.711113345785
1385568707656912482,591183,1385568707656912482,/world,vicon/Archie/Archie,0.0450481107096,0.341702147555,0.115351721025,-0.00362471746009,-0.00800624952124,0.702986189552,0.711149195802
1385568707666364152,591184,1385568707666364152,/world,vicon/Archie/Archie,0.0450236448453,0.341707166795,0.11537159782,-0.0036189541091,-0.008064229624,0.702997464811,0.71113742402
1385568707676200583,591185,1385568707676200583,/world,vicon/Archie/Archie,0.0450217103695,0.341706373289,0.115357925668,-0.00362881555309,-0.00805646966599,0.703011834286,0.711123256439
1385568707686624182,591186,1385568707686624182,/world,vicon/Archie/Archie,0.0450687389786,0.341612824666,0.115432450542,-0.00331786610061,-0.00831745041759,0.70302242919,0.711111296379
1385568707696537683,591187,1385568707696537683,/world,vicon/Archie/Archie,0.0450637701569,0.34162319373,0.115430877706,-0.00331391205884,-0.00831727297733,0.703018367277,0.711115332579
1385568707706552057,591188,1385568707706552057,/world,vicon/Archie/Archie,0.0449643654858,0.341726946604,0.115443697328,-0.00338299750342,-0.00794228297521,0.70302013472,0.711117546997
1385568707716498381,591189,1385568707716498381,/world,vicon/Archie/Archie,0.0450205627412,0.341642923247,0.115370745886,-0.00338921884113,-0.00830710128809,0.703032646928,0.711100979199
1385568707726436521,591190,1385568707726436521,/world,vicon/Archie/Archie,0.0450700643519,0.341615327749,0.115434951038,-0.00332347572184,-0.00831744762989,0.703020228188,0.711113446176
1385568707736715160,591191,1385568707736715160,/world,vicon/Archie/Archie,0.0450128193526,0.341715574415,0.115365406925,-0.00360344444861,-0.0080595606478,0.703008734986,0.711126414362
1385568707745821109,591192,1385568707745821109,/world,vicon/Archie/Archie,0.0450724821595,0.341615495232,0.115431369391,-0.0033268234801,-0.0083354311901,0.703026044806,0.711107469484
1385568707755775175,591193,1385568707755775175,/world,vicon/Archie/Archie,0.0450753232595,0.341614059591,0.115425523802,-0.0033110265223,-0.0083393992363,0.703027989959,0.711105573637
1385568707765848862,591194,1385568707765848862,/world,vicon/Archie/Archie,0.0450718869122,0.341614091959,0.11542696319,-0.00332858243823,-0.00832779234347,0.703026177551,0.711107419517
1385568707775825879,591195,1385568707775825879,/world,vicon/Archie/Archie,0.0450794119132,0.341609439364,0.115435447026,-0.0033130335909,-0.00832328169394,0.703034112944,0.71109969964
1385568707785970628,591196,1385568707785970628,/world,vicon/Archie/Archie,0.0450195919645,0.341713583586,0.115359327777,-0.0036072804168,-0.00807586214812,0.703006983325,0.711127941636
1385568707795707857,591197,1385568707795707857,/world,vicon/Archie/Archie,0.0450862703327,0.34161564811,0.115440234099,-0.00331217137289,-0.0083071049745,0.703027647577,0.711106284792
1385568707805935506,591198,1385568707805935506,/world,vicon/Archie/Archie,0.044961130481,0.341746107877,0.115301491938,-0.00366494073523,-0.00807954438928,0.702997840724,0.711136643064
1385568707815979843,591199,1385568707815979843,/world,vicon/Archie/Archie,0.0450845054571,0.341617568761,0.115427670286,-0.00331407406583,-0.0083087139302,0.703031290535,0.711102655539
1385568707825827550,591200,1385568707825827550,/world,vicon/Archie/Archie,0.0450329168051,0.341635066361,0.115360917089,-0.0033944984113,-0.00824554144628,0.703030936332,0.711103361676
1385568707835919434,591201,1385568707835919434,/world,vicon/Archie/Archie,0.0450245351196,0.341710532219,0.115363025083,-0.0036072211748,-0.0080531533608,0.702990121685,0.711144868146
1385568707845829698,591202,1385568707845829698,/world,vicon/Archie/Archie,0.0450776613003,0.341614891032,0.115418094396,-0.00332653873322,-0.00828829800728,0.703038240717,0.711095964231
1385568707855765724,591203,1385568707855765724,/world,vicon/Archie/Archie,0.0450260816196,0.341704244616,0.115347985452,-0.0036281970431,-0.00801679831463,0.70299865,0.711136741583
1385568707866398601,591204,1385568707866398601,/world,vicon/Archie/Archie,0.0450121327519,0.341638468332,0.115371142942,-0.00337823438117,-0.00830322371217,0.703044411137,0.711089445835
1385568707876453530,591205,1385568707876453530,/world,vicon/Archie/Archie,0.0450143375362,0.341710830094,0.115362261579,-0.00362901556112,-0.00805591604084,0.70300384163,0.711131163089
1385568707886418192,591206,1385568707886418192,/world,vicon/Archie/Archie,0.0449703505338,0.341739605913,0.115306071854,-0.00368579018504,-0.00803873672117,0.703000473846,0.711134394777
1385568707895782554,591207,1385568707895782554,/world,vicon/Archie/Archie,0.0450816363933,0.341613495533,0.115420091427,-0.00331248359014,-0.00828206707273,0.703018116616,0.711115997941
1385568707905858827,591208,1385568707905858827,/world,vicon/Archie/Archie,0.0450237557301,0.34170378295,0.115364343032,-0.00362378846167,-0.00804441498503,0.703006342806,0.71112884734
1385568707915849982,591209,1385568707915849982,/world,vicon/Archie/Archie,0.0450931502156,0.341616823677,0.115417849627,-0.00331761560259,-0.0083076605129,0.703034296021,0.711099679948
1385568707925818763,591210,1385568707925818763,/world,vicon/Archie/Archie,0.0450298519497,0.341700831563,0.115348672599,-0.00362936727695,-0.00800477522508,0.703002613138,0.711132953243
1385568707935841753,591211,1385568707935841753,/world,vicon/Archie/Archie,0.0450283690301,0.341638521926,0.115360086481,-0.00338541064105,-0.00824919893859,0.703026067094,0.711108176509
1385568707945985025,591212,1385568707945985025,/world,vicon/Archie/Archie,0.0450710491555,0.341615286584,0.115437819275,-0.00330541097557,-0.00832669396095,0.703031669567,0.71110211082
1385568707955789177,591213,1385568707955789177,/world,vicon/Archie/Archie,0.0450680092609,0.341618226027,0.115432114258,-0.00332194512071,-0.00832163147281,0.703030449978,0.711103298778
1385568707965810587,591214,1385568707965810587,/world,vicon/Archie/Archie,0.0450660234778,0.341611095254,0.115433440749,-0.00330958414014,-0.00832760819475,0.703025764311,0.711107918891
1385568707975768481,591215,1385568707975768481,/world,vicon/Archie/Archie,0.0450306578633,0.341639539688,0.115355651263,-0.00338113154377,-0.00825222831589,0.70303176158,0.711102531909
1385568707985924815,591216,1385568707985924815,/world,vicon/Archie/Archie,0.0450175590101,0.341699664584,0.115363922901,-0.00359927446319,-0.00805668862901,0.703000453282,0.711134655095
1385568707995690759,591217,1385568707995690759,/world,vicon/Archie/Archie,0.0450709650294,0.341608142536,0.115426940794,-0.00330806624064,-0.00832421004314,0.703040160188,0.711093733194
1385568708006032678,591218,1385568708006032678,/world,vicon/Archie/Archie,0.0450788654018,0.341609539253,0.115424522438,-0.00331053373191,-0.00833188978264,0.703027980232,0.711105673575
1385568708015856131,591219,1385568708015856131,/world,vicon/Archie/Archie,0.045022052562,0.341642854239,0.115369434391,-0.00337739556255,-0.00829472888735,0.703033036031,0.71110079519
1385568708025710551,591220,1385568708025710551,/world,vicon/Archie/Archie,0.0450971915131,0.341610735948,0.115423449828,-0.00330929017928,-0.00827718471218,0.703018292379,0.711115895893
1385568708036026904,591221,1385568708036026904,/world,vicon/Archie/Archie,0.0450214748283,0.341714451806,0.115360396886,-0.00362722970275,-0.00805718000152,0.702986871137,0.711147934022
1385568708045770749,591222,1385568708045770749,/world,vicon/Archie/Archie,0.045072786635,0.341614369513,0.115433690478,-0.00332681290471,-0.00831867091807,0.703019422414,0.711114212865
1385568708055800384,591223,1385568708055800384,/world,vicon/Archie/Archie,0.0450275119101,0.341633295123,0.115359929752,-0.00337853044843,-0.00826338401045,0.703027168943,0.711106955207
1385568708065936257,591224,1385568708065936257,/world,vicon/Archie/Archie,0.0450368004087,0.341697285814,0.115347853161,-0.00361333414969,-0.00800669159098,0.703004976986,0.711130676486
1385568708075882811,591225,1385568708075882811,/world,vicon/Archie/Archie,0.0449662955873,0.34172766022,0.115293780859,-0.00366209345212,-0.00808752330239,0.70300574995,0.711128748242
1385568708085896023,591226,1385568708085896023,/world,vicon/Archie/Archie,0.0450205988766,0.341695043336,0.115359463143,-0.0036076803783,-0.00806254810258,0.703004090434,0.711130950524
1385568708095970349,591227,1385568708095970349,/world,vicon/Archie/Archie,0.0450839843022,0.341602408529,0.115429740705,-0.00330629024628,-0.00831656681028,0.703031296277,0.711102594297
1385568708105828538,591228,1385568708105828538,/world,vicon/Archie/Archie,0.0450907160789,0.34160681133,0.115420627425,-0.00330919755775,-0.00826452985793,0.703029643039,0.711104821926
1385568708115931717,591229,1385568708115931717,/world,vicon/Archie/Archie,0.044969991663,0.341729681254,0.115302723547,-0.00367428282037,-0.00805851570436,0.703010050601,0.711124763122
1385568708125860873,591230,1385568708125860873,/world,vicon/Archie/Archie,0.0450202704313,0.341701139937,0.115359258981,-0.00361349288188,-0.00805547009737,0.70300285794,0.711132219632
1385568708135981122,591231,1385568708135981122,/world,vicon/Archie/Archie,0.0450835495643,0.341609179204,0.11542349748,-0.0033268733183,-0.00828589729274,0.703035749447,0.711098453676
1385568708145994153,591232,1385568708145994153,/world,vicon/Archie/Archie,0.0450441833826,0.341703194106,0.115352720863,-0.0036182495429,-0.00802800969982,0.703000579684,0.711134758182
1385568708155785560,591233,1385568708155785560,/world,vicon/Archie/Archie,0.0450842577482,0.341606402123,0.115416366424,-0.00329816512097,-0.00827887414709,0.703023625566,0.711110655416
1385568708165940088,591234,1385568708165940088,/world,vicon/Archie/Archie,0.0450692313428,0.341607154581,0.115430969455,-0.00330795137538,-0.00832779078177,0.703028285077,0.711105432225
1385568708175764065,591235,1385568708175764065,/world,vicon/Archie/Archie,0.0450804761946,0.341608401234,0.11542205534,-0.00330079509607,-0.00833147322185,0.703033908234,0.711099863015
1385568708185895400,591236,1385568708185895400,/world,vicon/Archie/Archie,0.0450765422892,0.341608083684,0.115433224916,-0.00330372946067,-0.00832249479181,0.703029228901,0.71110458075
1385568708196165170,591237,1385568708196165170,/world,vicon/Archie/Archie,0.0450189379764,0.341695594564,0.115356545451,-0.00361993665945,-0.00806561806124,0.703014279184,0.71112078097
1385568708205777898,591238,1385568708205777898,/world,vicon/Archie/Archie,0.0450890762783,0.341617435048,0.115412046065,-0.00332653389576,-0.00829093895604,0.703011284015,0.711122583702
1385568708215852563,591239,1385568708215852563,/world,vicon/Archie/Archie,0.0450177892991,0.341707975,0.115355947586,-0.00361419157635,-0.00806151610311,0.703000397428,0.711134579945
1385568708225793470,591240,1385568708225793470,/world,vicon/Archie/Archie,0.0450681056266,0.341612174428,0.115420253227,-0.00333471673561,-0.00832250153212,0.703023909233,0.711109695251
1385568708235876204,591241,1385568708235876204,/world,vicon/Archie/Archie,0.0450714581051,0.3416064249,0.115418652117,-0.00332912057811,-0.00830043270492,0.703025044421,0.711108857131
1385568708246201303,591242,1385568708246201303,/world,vicon/Archie/Archie,0.0450173185572,0.341704406301,0.115365454564,-0.00363620629368,-0.00806264351248,0.70299218456,0.711142573772
1385568708255884359,591243,1385568708255884359,/world,vicon/Archie/Archie,0.0450796680858,0.341601890534,0.115420992568,-0.00333193957795,-0.00830808949122,0.70303876293,0.71109519169
1385568708265793814,591244,1385568708265793814,/world,vicon/Archie/Archie,0.0450764384984,0.341615661292,0.115427506114,-0.00330835885934,-0.00831970571196,0.703023973233,0.711109787809
1385568708276080507,591245,1385568708276080507,/world,vicon/Archie/Archie,0.0450774368674,0.341606571724,0.115425550833,-0.00331994927338,-0.00832911922136,0.703031711007,0.71110197372
1385568708285872793,591246,1385568708285872793,/world,vicon/Archie/Archie,0.0450672009137,0.341608291821,0.115426335525,-0.00331065748972,-0.00833060894786,0.703031418093,0.711102289179
1385568708295792374,591247,1385568708295792374,/world,vicon/Archie/Archie,0.0450151466835,0.341634965524,0.115367454422,-0.00337851660144,-0.00830464154175,0.703026003512,0.711107626833
1385568708305900168,591248,1385568708305900168,/world,vicon/Archie/Archie,0.0450953701301,0.34160296345,0.115407733738,-0.00331154638112,-0.00827204742293,0.703021535598,0.711112738866
1385568708315993562,591249,1385568708315993562,/world,vicon/Archie/Archie,0.0450659106361,0.341608463709,0.115426387056,-0.00330619102423,-0.00835565352908,0.703035591381,0.711097890172
1385568708325971173,591250,1385568708325971173,/world,vicon/Archie/Archie,0.0449658513637,0.341732453072,0.115301577041,-0.00367490064285,-0.00806497576932,0.702998650736,0.711135956294
1385568708336038379,591251,1385568708336038379,/world,vicon/Archie/Archie,0.0450848749975,0.34160723032,0.115413917975,-0.00332365577588,-0.00827240880861,0.703015370343,0.711118773221
1385568708345972476,591252,1385568708345972476,/world,vicon/Archie/Archie,0.045090617017,0.341611137114,0.115406032658,-0.00333914011764,-0.00826830938956,0.703027715151,0.71110654401
1385568708355855431,591253,1385568708355855431,/world,vicon/Archie/Archie,0.0450724460713,0.34160603926,0.115416142894,-0.00333925633913,-0.00831010700597,0.703030090913,0.711103707457
1385568708365974065,591254,1385568708365974065,/world,vicon/Archie/Archie,0.0450291733775,0.341703567487,0.115359177116,-0.00363009455258,-0.00804410968455,0.702997853995,0.711137210383
1385568708375842205,591255,1385568708375842205,/world,vicon/Archie/Archie,0.0450133764556,0.341631812724,0.115366949082,-0.00336276920415,-0.00831750219678,0.703033214284,0.711100422271
1385568708385939085,591256,1385568708385939085,/world,vicon/Archie/Archie,0.0450249359984,0.341693126327,0.115354666888,-0.00361574139215,-0.00806742661749,0.703006400439,0.711128570643
1385568708395968140,591257,1385568708395968140,/world,vicon/Archie/Archie,0.0450742114496,0.341598347379,0.115420673318,-0.00331008006689,-0.00833567476719,0.703034097881,0.71109958312
1385568708405971918,591258,1385568708405971918,/world,vicon/Archie/Archie,0.0450360102558,0.341697223429,0.115341338753,-0.00361433800297,-0.00801345168328,0.703005522133,0.711130056321
1385568708415817973,591259,1385568708415817973,/world,vicon/Archie/Archie,0.045085004126,0.341615512625,0.115414426479,-0.00332328605639,-0.0082796199571,0.703019332187,0.711114774305
1385568708426025699,591260,1385568708426025699,/world,vicon/Archie/Archie,0.0450119045074,0.341629299437,0.115367246674,-0.0033746142293,-0.00831978154684,0.703041043753,0.711092598761
1385568708435938718,591261,1385568708435938718,/world,vicon/Archie/Archie,0.0450340445789,0.341704062618,0.115344930166,-0.00362118052122,-0.00798695500819,0.703001930923,0.71113386976
1385568708445862876,591262,1385568708445862876,/world,vicon/Archie/Archie,0.0449609412649,0.341724774133,0.115307712896,-0.00366100303421,-0.00806627055791,0.702993044021,0.711141555806
1385568708455964548,591263,1385568708455964548,/world,vicon/Archie/Archie,0.0450859725174,0.34160251153,0.115416418079,-0.00332967137794,-0.00828131265362,0.70302670674,0.711107434049
1385568708465944075,591264,1385568708465944075,/world,vicon/Archie/Archie,0.0450303250107,0.341695616146,0.115350982077,-0.00362793544081,-0.00804660153214,0.703001344125,0.711133743009
1385568708475798217,591265,1385568708475798217,/world,vicon/Archie/Archie,0.0450855427672,0.34160251548,0.1154147719,-0.00330068187547,-0.00829281950999,0.703026294681,0.711107842476
1385568708486051803,591266,1385568708486051803,/world,vicon/Archie/Archie,0.0450601987437,0.341608510156,0.115425816665,-0.00331343871589,-0.00833045543216,0.703034104528,0.711099622069
1385568708496020917,591267,1385568708496020917,/world,vicon/Archie/Archie,0.0450231935957,0.341701824785,0.115358333455,-0.00360957378229,-0.00805871557261,0.703001974098,0.711133076501
1385568708505955866,591268,1385568708505955866,/world,vicon/Archie/Archie,0.0449994396401,0.341626156377,0.115366702784,-0.00339169657046,-0.00832093008753,0.703038481225,0.711095037554
1385568708515880436,591269,1385568708515880436,/world,vicon/Archie/Archie,0.0450778537066,0.341606427829,0.115425284695,-0.00330613509539,-0.00832145227704,0.703026287914,0.711107489346
1385568708525955560,591270,1385568708525955560,/world,vicon/Archie/Archie,0.0450250046483,0.341704524338,0.115356398431,-0.00361030237342,-0.00806874102541,0.703013135208,0.711121925453
1385568708535983486,591271,1385568708535983486,/world,vicon/Archie/Archie,0.0450464392216,0.341703319331,0.115342253718,-0.00363443000566,-0.00799601894592,0.702988046763,0.711147425438
1385568708545995370,591272,1385568708545995370,/world,vicon/Archie/Archie,0.045016244394,0.341697434457,0.11535098225,-0.00363805870734,-0.00805339702867,0.702998808788,0.711136120703
1385568708555957672,591273,1385568708555957672,/world,vicon/Archie/Archie,0.0450351177442,0.341695065845,0.115344293161,-0.00362052732067,-0.00801403645546,0.703003529102,0.711131988502
1385568708565884172,591274,1385568708565884172,/world,vicon/Archie/Archie,0.0450748229035,0.341604466512,0.115427401771,-0.00329810048487,-0.008316445357,0.703031083787,0.711102843828
1385568708575782356,591275,1385568708575782356,/world,vicon/Archie/Archie,0.0450228727259,0.341698569896,0.11535757035,-0.00361031443908,-0.00808240690011,0.703014078877,0.71112083729
1385568708585944529,591276,1385568708585944529,/world,vicon/Archie/Archie,0.0450746223392,0.341606001925,0.115419830159,-0.00333789022304,-0.00831801673074,0.703027194088,0.711106485316
1385568708595941822,591277,1385568708595941822,/world,vicon/Archie/Archie,0.0450730823303,0.341611027318,0.115418083088,-0.00331237870982,-0.00834836309247,0.703026574863,0.71110686118
1385568708605801451,591278,1385568708605801451,/world,vicon/Archie/Archie,0.0450768450711,0.34160563269,0.115425024115,-0.00334409769811,-0.00833168452059,0.70302113984,0.711112281558
1385568708615809346,591279,1385568708615809346,/world,vicon/Archie/Archie,0.0450715195362,0.341606520785,0.115428945262,-0.0032973532541,-0.00833752973284,0.703035620007,0.711098115636
1385568708625828364,591280,1385568708625828364,/world,vicon/Archie/Archie,0.0450761947117,0.341612945336,0.115424348619,-0.00330818093506,-0.0083235622857,0.703041471243,0.711092444034
1385568708635906747,591281,1385568708635906747,/world,vicon/Archie/Archie,0.0450869153393,0.341599489679,0.115415877755,-0.00330913251781,-0.00827912664076,0.70302955975,0.711104734776
1385568708645903615,591282,1385568708645903615,/world,vicon/Archie/Archie,0.0450285991608,0.341701293378,0.115345784116,-0.00361056384723,-0.00801745425978,0.703006641737,0.711128923564
1385568708655989333,591283,1385568708655989333,/world,vicon/Archie/Archie,0.0450238396551,0.341702710989,0.11536106871,-0.00361219496938,-0.00807732627401,0.703005356881,0.711129507927
1385568708665928639,591284,1385568708665928639,/world,vicon/Archie/Archie,0.0450179344918,0.341635920198,0.115370764311,-0.0033789991773,-0.00831662116388,0.703035779773,0.711097819246
1385568708675836388,591285,1385568708675836388,/world,vicon/Archie/Archie,0.0449555280999,0.341733081824,0.115302312611,-0.00366382618762,-0.00807296338483,0.702997432451,0.711137127147
1385568708685941686,591286,1385568708685941686,/world,vicon/Archie/Archie,0.0450660307476,0.341616299434,0.115430933498,-0.00330255024775,-0.00833992652948,0.703033063561,0.711100590864
1385568708695883984,591287,1385568708695883984,/world,vicon/Archie/Archie,0.0450758061563,0.34160639152,0.115424615727,-0.00330740222522,-0.00833794003713,0.703028282421,0.711105318474
1385568708705887380,591288,1385568708705887380,/world,vicon/Archie/Archie,0.0450635768181,0.34161181571,0.115430326027,-0.00330314402474,-0.00833499441993,0.703024008048,0.711109598597
1385568708715985029,591289,1385568708715985029,/world,vicon/Archie/Archie,0.0450871632958,0.341608745541,0.11541969452,-0.00332705059627,-0.00827288786513,0.703021082878,0.711113104288
1385568708725895922,591290,1385568708725895922,/world,vicon/Archie/Archie,0.0450258507688,0.34170497488,0.115356015568,-0.00363443271579,-0.00806094376178,0.703009363864,0.711125619285
1385568708735939953,591291,1385568708735939953,/world,vicon/Archie/Archie,0.0450847690887,0.341606049661,0.115430194462,-0.00330006816555,-0.00834609348264,0.703024463783,0.711109032144
1385568708746056255,591292,1385568708746056255,/world,vicon/Archie/Archie,0.0450191240027,0.341702522548,0.115365101855,-0.00360866455692,-0.00806441040541,0.703002848701,0.711132151954
1385568708756017640,591293,1385568708756017640,/world,vicon/Archie/Archie,0.045033727096,0.34170762412,0.115347261265,-0.00361339233572,-0.00801315222406,0.702989940378,0.7111454679
1385568708765951182,591294,1385568708765951182,/world,vicon/Archie/Archie,0.045076939222,0.341610523429,0.115423318428,-0.00333069434039,-0.00830257240375,0.703032872151,0.711101085952
1385568708775940233,591295,1385568708775940233,/world,vicon/Archie/Archie,0.0450677568758,0.341613395872,0.115427358918,-0.00332018308876,-0.00832607973703,0.703040501408,0.711093317477
1385568708785983609,591296,1385568708785983609,/world,vicon/Archie/Archie,0.0450797686864,0.341609751949,0.115428079893,-0.00330939496235,-0.00833918506806,0.703032206229,0.711101415343
1385568708795937647,591297,1385568708795937647,/world,vicon/Archie/Archie,0.0450168503979,0.341706695734,0.115360187899,-0.00361675957603,-0.00807897756155,0.703002291302,0.711132496512
1385568708805859896,591298,1385568708805859896,/world,vicon/Archie/Archie,0.0450802907752,0.34160249377,0.115411036061,-0.0033293130305,-0.00827987335453,0.703024349229,0.7111097832
1385568708816576228,591299,1385568708816576228,/world,vicon/Archie/Archie,0.0450748172387,0.34160446575,0.11542674405,-0.00331194769986,-0.0083446722704,0.703030629031,0.711102898385
1385568708825988427,591300,1385568708825988427,/world,vicon/Archie/Archie,0.0450204939337,0.341701562976,0.115353441622,-0.00363691058006,-0.00805571380592,0.70299374647,0.711141104691
1385568708835985705,591301,1385568708835985705,/world,vicon/Archie/Archie,0.0450169317432,0.341712436917,0.115357737829,-0.0036156970103,-0.00806651554166,0.703004940033,0.711130024926
1385568708846032077,591302,1385568708846032077,/world,vicon/Archie/Archie,0.0450124487403,0.341700805824,0.115358938719,-0.00361642148778,-0.00807888155131,0.703017369717,0.711117592979
1385568708855983163,591303,1385568708855983163,/world,vicon/Archie/Archie,0.0450646898909,0.341615746906,0.115426664585,-0.00332473172532,-0.00833174339647,0.703033237474,0.711100411487
1385568708865969950,591304,1385568708865969950,/world,vicon/Archie/Archie,0.0450220963522,0.341708067397,0.11536046364,-0.0036235081047,-0.00806377558386,0.703005640526,0.711129323753
1385568708875905668,591305,1385568708875905668,/world,vicon/Archie/Archie,0.0450669646212,0.341607906664,0.115429010614,-0.00331885548491,-0.00832950227,0.703036837954,0.711096905541
1385568708885906289,591306,1385568708885906289,/world,vicon/Archie/Archie,0.0450774678235,0.341611806385,0.115432212778,-0.00331709496739,-0.00833161526679,0.703042447624,0.711091342871
1385568708895962871,591307,1385568708895962871,/world,vicon/Archie/Archie,0.0450146401772,0.34170875832,0.115360073508,-0.00362479022088,-0.00807348121402,0.703016783249,0.711118191489
1385568708905812960,591308,1385568708905812960,/world,vicon/Archie/Archie,0.0450140485733,0.341707462033,0.11536267533,-0.00361818105606,-0.00806939655774,0.703000658428,0.711134212266
1385568708915921409,591309,1385568708915921409,/world,vicon/Archie/Archie,0.0450701333379,0.341611623211,0.115424464387,-0.00331744445775,-0.00833926777845,0.703036370667,0.711097259659
1385568708925816136,591310,1385568708925816136,/world,vicon/Archie/Archie,0.0450699074132,0.341611043082,0.115431889163,-0.00331265571336,-0.00833666043064,0.703029725476,0.711103882356
1385568708936030927,591311,1385568708936030927,/world,vicon/Archie/Archie,0.045077676315,0.341611148976,0.11542707281,-0.00331126925339,-0.00835851152334,0.703032867641,0.711100525803
1385568708946078481,591312,1385568708946078481,/world,vicon/Archie/Archie,0.0450276670691,0.34170225647,0.11534592463,-0.00362633297786,-0.00800755951681,0.702996911717,0.711138573568
1385568708955846405,591313,1385568708955846405,/world,vicon/Archie/Archie,0.0450075789746,0.34171148502,0.11536559937,-0.00363583580918,-0.0080688139141,0.702996484267,0.711138255228
1385568708965825787,591314,1385568708965825787,/world,vicon/Archie/Archie,0.0450201123129,0.341712282749,0.115354461064,-0.00363380773352,-0.00806159897334,0.70299188968,0.711142889374
1385568708976555347,591315,1385568708976555347,/world,vicon/Archie/Archie,0.0450209103927,0.341707355439,0.115356318733,-0.00361796128491,-0.00807941104075,0.703009577422,0.711125282581
1385568708986644104,591316,1385568708986644104,/world,vicon/Archie/Archie,0.0449626389732,0.341739568352,0.115303005676,-0.00367563582433,-0.00807433963523,0.70301357573,0.711121091713
1385568708996555395,591317,1385568708996555395,/world,vicon/Archie/Archie,0.0450680702184,0.341615777995,0.115429715922,-0.00331277514263,-0.008336279928,0.703038268609,0.711095440029
1385568709006623684,591318,1385568709006623684,/world,vicon/Archie/Archie,0.0450878404118,0.341616709776,0.115411377618,-0.00333380537708,-0.00826407261075,0.703030487883,0.711103877048
1385568709016763185,591319,1385568709016763185,/world,vicon/Archie/Archie,0.0450239516161,0.341706926954,0.115357558968,-0.00364722074949,-0.00804977972804,0.703001956036,0.711133003478
1385568709026372678,591320,1385568709026372678,/world,vicon/Archie/Archie,0.0450640690243,0.341611499464,0.115427073193,-0.00334377098022,-0.00831209349148,0.703030177043,0.711103577873
1385568709036692221,591321,1385568709036692221,/world,vicon/Archie/Archie,0.0450112708138,0.341706548717,0.115359865397,-0.00361636583345,-0.00807772362245,0.702998560662,0.711136200728
1385568709046560949,591322,1385568709046560949,/world,vicon/Archie/Archie,0.0450687011483,0.341616088493,0.115423727426,-0.00332577634591,-0.0083480355081,0.703030827426,0.711102598226
1385568709056553526,591323,1385568709056553526,/world,vicon/Archie/Archie,0.0450678205817,0.341614251824,0.115421721453,-0.0033358183226,-0.00833224394576,0.70302433247,0.711109157572
1385568709066733335,591324,1385568709066733335,/world,vicon/Archie/Archie,0.0450173678799,0.341705522379,0.115364569283,-0.0036193417396,-0.00808469732105,0.703008940685,0.711125844947
1385568709076516312,591325,1385568709076516312,/world,vicon/Archie/Archie,0.0450746653037,0.34161778984,0.115436220253,-0.0033144330292,-0.00832656207528,0.703025610891,0.711108060233
1385568709086583673,591326,1385568709086583673,/world,vicon/Archie/Archie,0.045069956682,0.341615621024,0.115436332872,-0.00331232211481,-0.00832995993007,0.703027520384,0.71110614248
1385568709096671942,591327,1385568709096671942,/world,vicon/Archie/Archie,0.0450763524735,0.341610265736,0.115427656242,-0.00331920067943,-0.00833738337232,0.703029422829,0.711104142571
1385568709106681379,591328,1385568709106681379,/world,vicon/Archie/Archie,0.0450145995791,0.341706366653,0.115353196012,-0.00363432916574,-0.00807791585634,0.703011954324,0.71112286632
1385568709116625086,591329,1385568709116625086,/world,vicon/Archie/Archie,0.0450268975491,0.341709877798,0.115355400278,-0.00363422529301,-0.00808487034376,0.702999332323,0.711135265636
1385568709126548561,591330,1385568709126548561,/world,vicon/Archie/Archie,0.0450205464064,0.341709089853,0.115363494306,-0.00361729987014,-0.00807706610948,0.703007443404,0.711127422242
1385568709136441802,591331,1385568709136441802,/world,vicon/Archie/Archie,0.0450773758546,0.341612952623,0.11541503265,-0.00333075906852,-0.00827440092821,0.703027678971,0.711106548229
1385568709146697685,591332,1385568709146697685,/world,vicon/Archie/Archie,0.0450640327338,0.341607945159,0.115427568569,-0.00331131962938,-0.00835423699857,0.703041755127,0.711091789036
1385568709156493638,591333,1385568709156493638,/world,vicon/Archie/Archie,0.0450860563126,0.3416116965,0.115413665274,-0.00331406580973,-0.00829000471159,0.703020665447,0.711113378263
1385568709166727080,591334,1385568709166727080,/world,vicon/Archie/Archie,0.045019018179,0.341710230607,0.115361648928,-0.00363105606051,-0.00807306870018,0.703003784879,0.711131014258
1385568709176645635,591335,1385568709176645635,/world,vicon/Archie/Archie,0.0449577282277,0.341736353443,0.115308470187,-0.003669568317,-0.00805223421639,0.703002699014,0.71113212624
1385568709186582024,591336,1385568709186582024,/world,vicon/Archie/Archie,0.0450662550161,0.341614920681,0.115433971715,-0.00328744981821,-0.00835256104103,0.703038705187,0.711094934876
1385568709196675378,591337,1385568709196675378,/world,vicon/Archie/Archie,0.0450944779849,0.341606613958,0.115407926264,-0.00335447188818,-0.00825054053287,0.703028774492,0.711105630927
1385568709206763116,591338,1385568709206763116,/world,vicon/Archie/Archie,0.0449580493166,0.341748718769,0.115305611633,-0.00367435961821,-0.00806352534694,0.703005951281,0.711128758457
1385568709216615554,591339,1385568709216615554,/world,vicon/Archie/Archie,0.0450180663421,0.34170948729,0.115362636593,-0.00362577466702,-0.00807949619327,0.702999571629,0.711135133282
1385568709226481258,591340,1385568709226481258,/world,vicon/Archie/Archie,0.0450626665109,0.341611407732,0.115432956287,-0.00332297452617,-0.00832337168238,0.703033670717,0.711100089413
1385568709236528191,591341,1385568709236528191,/world,vicon/Archie/Archie,0.0450782014223,0.341614222568,0.11541750464,-0.00332029408871,-0.00827386119171,0.70301492306,0.711119214213
1385568709246015807,591342,1385568709246015807,/world,vicon/Archie/Archie,0.0450782234374,0.341610637679,0.1154250842,-0.00331963889153,-0.00833239643364,0.703027223291,0.711106373532
1385568709255993018,591343,1385568709255993018,/world,vicon/Archie/Archie,0.0450265598,0.341708671828,0.115346984169,-0.00363898936132,-0.00799674914758,0.702979924334,0.711155423057
1385568709266035646,591344,1385568709266035646,/world,vicon/Archie/Archie,0.0450692195776,0.341618518734,0.115432938829,-0.00330974492199,-0.00833349572202,0.703034944199,0.711098773499
1385568709275953730,591345,1385568709275953730,/world,vicon/Archie/Archie,0.0450322442976,0.341704067136,0.115343986253,-0.00361401824807,-0.00803031090214,0.7029980427,0.711137261672
1385568709285900015,591346,1385568709285900015,/world,vicon/Archie/Archie,0.0450712752567,0.341615299407,0.115421419317,-0.00333291974781,-0.00827364785383,0.703015818619,0.711118272279
1385568709295909701,591347,1385568709295909701,/world,vicon/Archie/Archie,0.045072808202,0.341611935207,0.115423093637,-0.00333940744409,-0.00831070017071,0.703016967386,0.711116674103
1385568709305970627,591348,1385568709305970627,/world,vicon/Archie/Archie,0.0450796556261,0.341614644811,0.115426050522,-0.00331021945236,-0.00833587015268,0.703027076177,0.711106522174
1385568709316066066,591349,1385568709316066066,/world,vicon/Archie/Archie,0.0450149365171,0.341714019434,0.115361395657,-0.00360960478833,-0.00807043721354,0.702995224988,0.711139615294
1385568709325795960,591350,1385568709325795960,/world,vicon/Archie/Archie,0.0450667170617,0.341616283882,0.115429711822,-0.00330111786703,-0.00833395033809,0.703018438568,0.711115126352
1385568709335938738,591351,1385568709335938738,/world,vicon/Archie/Archie,0.0450134054386,0.341648001882,0.115366923391,-0.00337902069334,-0.00831774257865,0.703023361489,0.711110083305
1385568709345942728,591352,1385568709345942728,/world,vicon/Archie/Archie,0.0450875160986,0.341609086869,0.11542038731,-0.00331824945346,-0.00828234598983,0.703023118321,0.711111023028
1385568709355794666,591353,1385568709355794666,/world,vicon/Archie/Archie,0.0450795863602,0.34161472326,0.115417059913,-0.00334730130732,-0.00826328830245,0.703012622384,0.711121484986
1385568709365970511,591354,1385568709365970511,/world,vicon/Archie/Archie,0.0450178618997,0.341636111944,0.115359913706,-0.00338340086649,-0.00833954104744,0.703036944627,0.711096378238
1385568709375840991,591355,1385568709375840991,/world,vicon/Archie/Archie,0.0450275476248,0.341704809072,0.115353359051,-0.00365495870496,-0.0080411214763,0.703000320662,0.711134678378
1385568709385965320,591356,1385568709385965320,/world,vicon/Archie/Archie,0.0450299569757,0.341708034667,0.115349646651,-0.00362206397275,-0.00800818616931,0.703007547724,0.711128073873
1385568709395815943,591357,1385568709395815943,/world,vicon/Archie/Archie,0.0450910604345,0.34160892925,0.115417390457,-0.0033247214942,-0.00828248330921,0.703013218198,0.711120778585
1385568709405799056,591358,1385568709405799056,/world,vicon/Archie/Archie,0.0450763028761,0.341615449838,0.115417426192,-0.00332630222639,-0.00828270894699,0.703024229578,0.711109882559
1385568709415946487,591359,1385568709415946487,/world,vicon/Archie/Archie,0.0450215746919,0.341701092805,0.115361345835,-0.00360940784037,-0.00807436641209,0.703005799415,0.711129118214
1385568709425877251,591360,1385568709425877251,/world,vicon/Archie/Archie,0.0450770522193,0.34161373079,0.11543308836,-0.00331183404382,-0.00831315712472,0.703024718451,0.711109111474
1385568709435933441,591361,1385568709435933441,/world,vicon/Archie/Archie,0.0450903397328,0.341605010435,0.115408978502,-0.00333485241806,-0.0082529733192,0.703016084055,0.711118241047
1385568709445968946,591362,1385568709445968946,/world,vicon/Archie/Archie,0.0450741502411,0.34161778726,0.115425905803,-0.0033069021786,-0.0083325912783,0.703022993072,0.711110612727
1385568709455968544,591363,1385568709455968544,/world,vicon/Archie/Archie,0.0450190739572,0.341703808808,0.115355614972,-0.00361258609419,-0.00806583106836,0.703011516506,0.711123547107
1385568709465890802,591364,1385568709465890802,/world,vicon/Archie/Archie,0.0450742059875,0.341612591485,0.115425992156,-0.00333075923839,-0.00832636975688,0.703030914221,0.711102743111
1385568709475975383,591365,1385568709475975383,/world,vicon/Archie/Archie,0.04501409865,0.341707046094,0.115361713029,-0.0036426365277,-0.00806512688809,0.703007195808,0.711127673185
1385568709485916117,591366,1385568709485916117,/world,vicon/Archie/Archie,0.0450341052364,0.34170429407,0.115347000486,-0.00361299400309,-0.00801578623288,0.702991678375,0.711143722169
1385568709495799822,591367,1385568709495799822,/world,vicon/Archie/Archie,0.0450699851958,0.341614712978,0.115427139523,-0.00331953585399,-0.00833492383141,0.703015835186,0.711117602935
1385568709505914374,591368,1385568709505914374,/world,vicon/Archie/Archie,0.0450174545724,0.341699408927,0.115363470459,-0.00359806180296,-0.00807913806602,0.703011920265,0.711123070533
1385568709515996110,591369,1385568709515996110,/world,vicon/Archie/Archie,0.0449800436742,0.341735631579,0.115283845028,-0.00367008833237,-0.00800627503653,0.702990661467,0.7111445422
1385568709525776565,591370,1385568709525776565,/world,vicon/Archie/Archie,0.0450345864242,0.341707158758,0.115350905067,-0.00362736235878,-0.00800198820768,0.702988919704,0.711146531455
1385568709535958910,591371,1385568709535958910,/world,vicon/Archie/Archie,0.0450139584753,0.341706931187,0.1153593351,-0.00361576376473,-0.00805919529306,0.703001687593,0.711133322848
1385568709545938678,591372,1385568709545938678,/world,vicon/Archie/Archie,0.0450703384221,0.341607992128,0.115425396993,-0.00330963213522,-0.00834302730842,0.703027009147,0.711106507241
1385568709555838045,591373,1385568709555838045,/world,vicon/Archie/Archie,0.0450640800413,0.341619304338,0.11543184549,-0.00331904402411,-0.00832842640702,0.703021960234,0.71111162604
1385568709565881266,591374,1385568709565881266,/world,vicon/Archie/Archie,0.0450719408604,0.341612805758,0.11543344209,-0.00331343936339,-0.0083188387384,0.703017060844,0.711116608021
1385568709575785579,591375,1385568709575785579,/world,vicon/Archie/Archie,0.045015845008,0.341703244303,0.115358967927,-0.0036288163224,-0.00807365294959,0.703008270605,0.711126584569
1385568709585934074,591376,1385568709585934074,/world,vicon/Archie/Archie,0.045013074745,0.341697363531,0.115360433014,-0.00361292389364,-0.00808547540409,0.703007988697,0.711126809857
1385568709595894595,591377,1385568709595894595,/world,vicon/Archie/Archie,0.0450383425023,0.341694405273,0.115337502567,-0.00365341451411,-0.00801397934896,0.702987846281,0.711147324174
1385568709605938151,591378,1385568709605938151,/world,vicon/Archie/Archie,0.0450695480714,0.341609094252,0.115426532694,-0.00331751254952,-0.00833949075162,0.703022612738,0.711110858435
1385568709616219378,591379,1385568709616219378,/world,vicon/Archie/Archie,0.0450158357293,0.341694464432,0.115360884572,-0.00361097638625,-0.00806305711194,0.702998165447,0.711136785251
1385568709626022550,591380,1385568709626022550,/world,vicon/Archie/Archie,0.0450808117214,0.341614573258,0.115420180626,-0.00332629122015,-0.00826500244254,0.70302557908,0.711108754467
1385568709635954102,591381,1385568709635954102,/world,vicon/Archie/Archie,0.0449624256345,0.341738184655,0.115308514863,-0.0036927902685,-0.00805542686609,0.703001486346,0.711133168677
1385568709646260073,591382,1385568709646260073,/world,vicon/Archie/Archie,0.0450236355405,0.341699118263,0.115356163158,-0.00364964367471,-0.00805575769792,0.702994021851,0.711140766734
1385568709655884099,591383,1385568709655884099,/world,vicon/Archie/Archie,0.045064508278,0.341610615623,0.115433008633,-0.00332581473503,-0.00833124881602,0.703030139918,0.71110347462
1385568709665919540,591384,1385568709665919540,/world,vicon/Archie/Archie,0.0450242189287,0.34170250053,0.115349205628,-0.00362374704246,-0.00800164060887,0.702997601424,0.711137971562
1385568709675850386,591385,1385568709675850386,/world,vicon/Archie/Archie,0.0450708722227,0.341606859383,0.115433309609,-0.00331001424773,-0.00834227355813,0.703023349213,0.711110132637
1385568709685945597,591386,1385568709685945597,/world,vicon/Archie/Archie,0.0450217365668,0.341699421169,0.115366072474,-0.00360729840699,-0.0080602049791,0.703001159353,0.711133876596
1385568709695949698,591387,1385568709695949698,/world,vicon/Archie/Archie,0.0450284985715,0.341700045072,0.11534937099,-0.00360545829601,-0.00799939267654,0.702993151464,0.711142488803
1385568709705852570,591388,1385568709705852570,/world,vicon/Archie/Archie,0.0450278606453,0.341701762447,0.115346161363,-0.00361573106809,-0.00801943131478,0.70299000042,0.711145325879
1385568709715934278,591389,1385568709715934278,/world,vicon/Archie/Archie,0.0450716639302,0.341609743912,0.11543124825,-0.00331203102421,-0.00834561115622,0.703037241463,0.711096349549
1385568709725884698,591390,1385568709725884698,/world,vicon/Archie/Archie,0.0449792017721,0.341728331055,0.115291941792,-0.00367434759022,-0.00800608161184,0.702996937358,0.711138318397
