%time,field.linear.x,field.linear.y,field.linear.z,field.angular.x,field.angular.y,field.angular.z
1385572669781234459,-0.0,0.0,0.0,1.0,0.0,0.0
1385572669820007351,-0.0,0.0,4.19387137326e-08,1.0,0.0,0.10447948271
1385572669869962390,-0.0921890807413,-0.0761705850851,-0.00948106157613,1.0,0.0,0.0355947120935
1385572669920040982,-0.0733479182154,-0.0605685014004,-0.0112106369581,1.0,0.0,0.0768273053418
1385572669970977071,-0.0917719064297,-0.0757322312583,-0.0114715024949,1.0,0.0,0.0680589024065
1385572670020991103,-0.0928126912117,-0.0765541474953,-0.0113081917137,1.0,0.0,0.0804453227882
1385572670070226180,-0.0971336827931,-0.0800671706658,-0.0109135618818,1.0,0.0,0.0824752582996
1385572670120192611,-0.0974324745766,-0.0802655042778,-0.010328720901,1.0,0.0,0.0882071426251
1385572670171003167,-0.0967583805404,-0.0796470373708,-0.00957190839947,1.0,0.0,0.0914622530997
1385572670220988594,-0.094298917505,-0.0775371228673,-0.00865315621189,1.0,0.0,0.0950189589755
1385572670271000611,-0.0906468718465,-0.0744883024228,-0.0075855763942,1.0,0.0,0.0977713162096
1385572670319968954,-0.0858590373935,-0.0704796508314,-0.00637769635389,1.0,0.0,0.100210140815
1385572670370973212,-0.0801923224918,-0.0657300611724,-0.00503741249725,1.0,0.0,0.102167817089
1385572670420985139,-0.0736852650738,-0.060445889145,-0.00357120089313,1.0,0.0,0.103849594325
1385572670470011695,-0.0666936616533,-0.0545510550907,-0.00200036270313,1.0,0.0,0.105063819007
1385572670520282092,-0.0593337006765,-0.0482176786155,-0.000300476991612,1.0,0.0,0.105927935611
1385572670569977228,-0.0514536064519,-0.0418522386622,0.00146694477916,1.0,0.0,0.106642645175
1385572670620471849,-0.043546971916,-0.0351470069024,0.00332227054966,1.0,0.0,0.106965983616
1385572670671029632,-0.0354258231291,-0.0284301458382,0.00525735057174,1.0,0.0,0.107323173529
1385572670719929635,-0.027409843641,-0.0218276535741,0.00727347425918,1.0,0.0,0.107511096407
1385572670769921613,-0.019602597564,-0.0152533253732,0.00934917863811,1.0,0.0,0.107554074273
1385572670820215067,-0.0121411882202,-0.00915559572102,0.0114807267502,1.0,0.0,0.107605408698
1385572670869994172,-0.00515642896717,-0.00332197616962,0.0136573213956,1.0,0.0,0.107534717288
1385572670919908866,0.00124465559343,0.00196576239784,0.0158811348969,1.0,0.0,0.107463927498
1385572670970100701,0.00695722601188,0.00675369502411,0.0181398294423,1.0,0.0,0.107297032447
1385572671021057868,0.0119975172779,0.0107738179294,0.0204220362229,1.0,0.0,0.107199712535
1385572671071076420,0.0161980150212,0.0142720511688,0.0227372049356,1.0,0.0,0.107013373343
1385572671121021644,0.0196566325463,0.0170907344704,0.0250951385008,1.0,0.0,0.106847428002
1385572671170943201,0.022182826162,0.0192469129746,0.0274759988866,1.0,0.0,0.106644991612
1385572671220157643,0.0240830366637,0.0206712649268,0.0299022870265,1.0,0.0,0.106548439178
1385572671270268576,0.0250618557611,0.0214500947542,0.0323604229987,1.0,0.0,0.106397680491
1385572671319982310,0.0253409037784,0.0214663310231,0.03482269694,1.0,0.0,0.106271760127
1385572671369997025,0.024768986994,0.0213158641698,0.0373127678683,1.0,0.0,0.106101165284
1385572671419982566,0.023634761088,0.0202491484422,0.0398130531896,1.0,0.0,0.10598978765
1385572671470022150,0.0219434654154,0.0188247365627,0.0423304640421,1.0,0.0,0.105903672275
1385572671520153820,0.0194969753845,0.0170769199591,0.0448315515517,1.0,0.0,0.105696407157
1385572671570100412,0.0167224137069,0.015115357177,0.0473899544707,1.0,0.0,0.105500239724
1385572671620060958,0.0136364165849,0.0125506899031,0.049979521246,1.0,0.0,0.105264858574
1385572671670062888,0.0101713120567,0.00997143867743,0.0525427900281,1.0,0.0,0.105160600734
1385572671721013808,0.00636746221235,0.00682178808083,0.055052515153,1.0,0.0,0.105025168701
1385572671771031997,0.00268470330986,0.00406885240875,0.0576700256582,1.0,0.0,0.10481593917
1385572671820040393,-0.00101697973812,0.00102782946755,0.060278522581,1.0,0.0,0.104644553526
1385572671870310439,-0.00470327120995,-0.00202742210702,0.0629127421736,1.0,0.0,0.10456012327
1385572671921093123,-0.00834291417171,-0.00509905682666,0.0655010821879,1.0,0.0,0.10443824323
1385572671969977338,-0.0121581449363,-0.00795697341442,0.0680795105501,1.0,0.0,0.104310497625
1385572672019975132,-0.0152279083387,-0.0105373300585,0.0707214223483,1.0,0.0,0.104176043007
1385572672070259119,-0.0184346556804,-0.0131301236761,0.0733339652648,1.0,0.0,0.104077137075
1385572672120919210,-0.0211070054848,-0.0152880272638,0.0759636860865,1.0,0.0,0.103998835866
1385572672170122489,-0.0235667417562,-0.0172395356205,0.078599571629,1.0,0.0,0.10373435532
1385572672220949906,-0.02616300261,-0.0189229854133,0.0811887898031,1.0,0.0,0.103332529078
1385572672270994290,-0.0279781854652,-0.0200117153846,0.0838492244688,1.0,0.0,0.102891081386
1385572672320049682,-0.0292234104315,-0.0213121457082,0.0865024036502,1.0,0.0,0.102327518466
1385572672371062180,-0.0309433109922,-0.0217976128974,0.0891028132285,1.0,0.0,0.101404680775
1385572672420921935,-0.0319673444445,-0.022133906993,0.0916754379093,1.0,0.0,0.100365275937
1385572672470562671,-0.0324029001215,-0.0218110604959,0.0943040554675,1.0,0.0,0.0990563328065
1385572672520288210,-0.0329806159891,-0.0214368911942,0.0967518367023,1.0,0.0,0.0974691387005
1385572672570984083,-0.0345811224241,-0.0199725448534,0.0989990189154,1.0,0.0,0.0955238722348
1385572672620140047,-0.0361272640742,-0.01831206089,0.101011805996,1.0,0.0,0.093433800144
1385572672671079573,-0.0369882076425,-0.0167571145852,0.102856154502,1.0,0.0,0.0912132010026
1385572672720063195,-0.0367707893577,-0.0144229274243,0.104578915204,1.0,0.0,0.0889742377286
1385572672770905345,-0.0361454792465,-0.012635331709,0.106034035514,1.0,0.0,0.0866720481254
1385572672820976913,-0.035247353382,-0.0102909475711,0.107121735989,1.0,0.0,0.0844993873112
1385572672869964714,-0.0351640627418,-0.00705425632315,0.107752376092,1.0,0.0,0.0822453196229
1385572672919963578,-0.0341999828006,-0.0044381983059,0.108029270864,1.0,0.0,0.0801859272642
1385572672971987167,-0.0334075928443,-0.00209512273108,0.107964466334,1.0,0.0,0.078115957239
1385572673021049316,-0.0319302191786,0.000699443098477,0.107788489589,1.0,0.0,0.0760525267932
1385572673070309637,-0.0303375856446,0.00471223611153,0.107563096427,1.0,0.0,0.0737566428521
1385572673121128460,-0.0299100206165,0.00727928492734,0.106899082124,1.0,0.0,0.0716237467097
1385572673170068571,-0.0293740581723,0.0110052067313,0.10601023531,1.0,0.0,0.0694920689431
1385572673219913869,-0.0296433878433,0.0151394454441,0.10483311782,1.0,0.0,0.0672926199655
1385572673270615468,-0.0298612298271,0.0188769643104,0.103384579805,1.0,0.0,0.0652054359912
1385572673320054129,-0.0300562636007,0.0222435899028,0.101711435734,1.0,0.0,0.0631218865324
1385572673371126334,-0.03009370808,0.0257436688623,0.0998851858999,1.0,0.0,0.0611712263414
1385572673421228625,-0.0303116816629,0.028740891269,0.0977548641648,1.0,0.0,0.0593452043647
1385572673472021014,-0.0310537643861,0.0335805173751,0.0955896065744,1.0,0.0,0.0573783980554
1385572673521077066,-0.0318828000459,0.035916512925,0.0934552880439,1.0,0.0,0.0556391928192
1385572673569928433,-0.032759938622,0.0397603975881,0.091524592921,1.0,0.0,0.0537734856783
1385572673620011397,-0.0336430305854,0.0427248458216,0.0898878121789,1.0,0.0,0.0520790428316
1385572673670973275,-0.0342666502615,0.0464202750204,0.0886918283134,1.0,0.0,0.0502941720412
1385572673720047645,-0.0351647435771,0.0498788907459,0.0878651884375,1.0,0.0,0.0485933970621
1385572673771058627,-0.035582381369,0.0531284113094,0.0875142777192,1.0,0.0,0.0468956574736
1385572673819918436,-0.0358988242941,0.0561341958703,0.0876353970114,1.0,0.0,0.0452677122133
1385572673870954632,-0.0360498999378,0.0589773839185,0.0882033657378,1.0,0.0,0.043647498348
1385572673920029494,-0.0359947713874,0.0613634451534,0.0892224804091,1.0,0.0,0.0420508711245
1385572673971076851,-0.0359889893091,0.0634298726271,0.0906124587752,1.0,0.0,0.0405009267612
1385572674019992344,-0.0356262153952,0.0656554837492,0.0923257413759,1.0,0.0,0.0389783202804
1385572674070995171,-0.0357574477731,0.0673007711505,0.0942532734916,1.0,0.0,0.0374919095452
1385572674121243007,-0.035339074095,0.0691289576997,0.0964759812287,1.0,0.0,0.0360011632479
1385572674170246578,-0.0356359795196,0.0706332871928,0.0988201041907,1.0,0.0,0.0345611452121
1385572674220837154,-0.0351875288251,0.071654511013,0.101395129069,1.0,0.0,0.0331448388907
1385572674271727978,-0.0348649839293,0.0721280503908,0.104219502768,1.0,0.0,0.0317360734131
1385572674320798831,-0.0342155705029,0.0723229109802,0.107241996084,1.0,0.0,0.0303685005814
1385572674370802359,-0.0339946152696,0.0721099556493,0.11031540264,1.0,0.0,0.0290249100065
1385572674420913334,-0.0337392661104,0.0712072489289,0.113445559048,1.0,0.0,0.0277808985822
1385572674470859893,-0.0332832277107,0.0709279087411,0.116543659749,1.0,0.0,0.02651444429
1385572674520840809,-0.0320376656866,0.0702016558445,0.119799398313,1.0,0.0,0.0252735947404
1385572674570344891,-0.0315841413431,0.0686864205002,0.123012601049,1.0,0.0,0.0240798643469
1385572674620214270,-0.0317458550418,0.0660329053908,0.126172442025,1.0,0.0,0.0229732515466
1385572674670188693,-0.0315335789133,0.063850717728,0.129283265321,1.0,0.0,0.0219002853977
1385572674720279628,-0.0300002114146,0.0631911086887,0.132354633717,1.0,0.0,0.0208446755699
1385572674770976658,-0.0293997224505,0.0611309278914,0.135361115995,1.0,0.0,0.0198052773247
1385572674820744491,-0.0284490946912,0.0594824863205,0.138277592464,1.0,0.0,0.0188188239787
1385572674870403393,-0.0297028532438,0.0563627449972,0.1401776693,1.0,0.0,0.0177941184392
1385572674920167001,-0.0291787973726,0.0533515135181,0.141845727273,1.0,0.0,0.0168915211579
1385572674970356345,-0.0298765232436,0.0496922872819,0.14327561919,1.0,0.0,0.0159983166688
1385572675020300152,-0.0305163157196,0.0462821941958,0.14447619652,1.0,0.0,0.0151850496798
1385572675070262885,-0.030305102095,0.0442055698508,0.14545455108,1.0,0.0,0.0143523664172
1385572675121223876,-0.0298875880416,0.0418613010054,0.146307260105,1.0,0.0,0.0135279326855
1385572675170918549,-0.0299501141213,0.0404236262924,0.146829617594,1.0,0.0,0.0127079747967
1385572675220897312,-0.0306899324389,0.0385999686708,0.147064984839,1.0,0.0,0.0120024740843
1385572675270983303,-0.0313423781333,0.0369090797602,0.147139630404,1.0,0.0,0.0112668406357
1385572675321021257,-0.0315659638318,0.0337787396745,0.147457767629,1.0,0.0,0.0105604424586
1385572675371008511,-0.032677063474,0.0314377198503,0.147575263471,1.0,0.0,0.0099352130716
1385572675420895892,-0.0334711877685,0.0293831583853,0.147486796758,1.0,0.0,0.00929342411997
1385572675470851085,-0.0341072853284,0.0281554703448,0.147216140274,1.0,0.0,0.00859470250547
1385572675520926459,-0.0356110354846,0.0257301384774,0.146897202243,1.0,0.0,0.00795478884453
1385572675570930282,-0.0373289928681,0.0237171568676,0.146423626918,1.0,0.0,0.00738041999218
1385572675620919011,-0.0377831435815,0.0229313809719,0.145915266418,1.0,0.0,0.00672861315034
1385572675669861255,-0.0388452143404,0.0218279016683,0.145281443331,1.0,0.0,0.00618946770866
1385572675720905736,-0.0407833538935,0.0211800632076,0.144236249983,1.0,0.0,0.0056827426005
1385572675770911419,-0.0414466314771,0.0212333519836,0.143150123039,1.0,0.0,0.00510599636311
1385572675821004071,-0.0424616079841,0.0211582571276,0.142021127797,1.0,0.0,0.00461022244267
1385572675870042959,-0.0430270327611,0.0207046169284,0.141007138841,1.0,0.0,0.00400315562999
1385572675919873430,-0.043748558586,0.0209423096379,0.139835367959,1.0,0.0,0.00344958159067
1385572675969954616,-0.0444423887222,0.0211777720257,0.138481938937,1.0,0.0,0.00289722842737
1385572676020080636,-0.0450676064045,0.0217564146156,0.136980611216,1.0,0.0,0.00231765545341
1385572676070947265,-0.0458758697867,0.0220555632985,0.135405671727,1.0,0.0,0.00180051580711
1385572676120962876,-0.0466810845723,0.0223224456897,0.133782604811,1.0,0.0,0.00133825846455
1385572676169960625,-0.0471770594725,0.0231615214827,0.132078538567,1.0,0.0,0.000849040598781
1385572676219961496,-0.047712928935,0.0241359847718,0.130242436538,1.0,0.0,0.000390967739366
1385572676269916833,-0.0477944957624,0.0251428347905,0.128446929347,1.0,0.0,-0.000131846829274
1385572676320173413,-0.0483663376024,0.0262749811834,0.126523547784,1.0,0.0,-0.000502915611383
1385572676369907880,-0.0483762140637,0.027486032435,0.12463325517,1.0,0.0,-0.000975825799242
1385572676421056693,-0.0478864440948,0.0291562097579,0.12281946509,1.0,0.0,-0.0015568194659
1385572676469905029,-0.0478428152956,0.0303111390129,0.120951466744,1.0,0.0,-0.00197597690936
1385572676519954168,-0.0471221337958,0.0319421542705,0.119158675305,1.0,0.0,-0.00252344962002
1385572676569985364,-0.0467704680764,0.0331310991632,0.117349342512,1.0,0.0,-0.00299822567713
1385572676620109798,-0.0462514137652,0.0340702484735,0.115651195252,1.0,0.0,-0.00344990532718
1385572676670933635,-0.0456526431049,0.0354010904995,0.113860746546,1.0,0.0,-0.00391062587084
1385572676720197008,-0.0452835386185,0.0360198009266,0.112110338103,1.0,0.0,-0.00430232508326
1385572676769924408,-0.0443539928188,0.0375108707192,0.110301653958,1.0,0.0,-0.00476020056037
1385572676820917489,-0.0433789351184,0.0388353162741,0.10842961646,1.0,0.0,-0.00527739830187
1385572676870915624,-0.0429767107974,0.0393593446753,0.106585066652,1.0,0.0,-0.00558007372024
1385572676920874621,-0.0416121805524,0.0407615344943,0.104726514526,1.0,0.0,-0.00613918997304
1385572676970897362,-0.0411928316625,0.0409822286589,0.102807273274,1.0,0.0,-0.00635743417792
1385572677019995663,-0.0399808385347,0.0420987732632,0.100902514744,1.0,0.0,-0.00685976509716
1385572677071076661,-0.0388510397615,0.0429360353442,0.0989944358209,1.0,0.0,-0.00727113833073
1385572677120915520,-0.0381074845277,0.0429494130928,0.0971890022918,1.0,0.0,-0.0076281018698
1385572677169907815,-0.0370576120565,0.0434174822884,0.0953667422505,1.0,0.0,-0.00798573520595
1385572677219935721,-0.0360587181682,0.0435460399823,0.0935448491407,1.0,0.0,-0.00838938875104
1385572677270296454,-0.0352556922872,0.0434140656499,0.0917881617583,1.0,0.0,-0.00870385127157
1385572677320199994,-0.0342221575559,0.0434918255159,0.0899987039295,1.0,0.0,-0.00911757194365
1385572677370937243,-0.0335711320389,0.0430060492223,0.0882271905967,1.0,0.0,-0.00939031593897
1385572677419916994,-0.0326974057005,0.042886491243,0.0864288322425,1.0,0.0,-0.00980150953293
1385572677470008533,-0.0319619084158,0.0425401860662,0.0847076060959,1.0,0.0,-0.0101091134643
1385572677520962173,-0.0316699476025,0.0419761529318,0.0828575831806,1.0,0.0,-0.0104418717792
1385572677570203204,-0.0311645399367,0.0410613893468,0.0811924078799,1.0,0.0,-0.0107044202965
1385572677619871485,-0.0308170965402,0.0401084320536,0.0796456749688,1.0,0.0,-0.0109787991729
1385572677670047462,-0.0303059701223,0.0391663674752,0.0781805159312,1.0,0.0,-0.0112673421261
1385572677720040111,-0.0298923426627,0.0382414517155,0.0767014382588,1.0,0.0,-0.0115381922512
1385572677769983827,-0.02951144331,0.0371858988614,0.0752160676157,1.0,0.0,-0.0118509953531
1385572677820017628,-0.0296164878174,0.0355582316571,0.0737588221022,1.0,0.0,-0.0120371689734
1385572677870058991,-0.0291734452799,0.0345386579718,0.0723679105799,1.0,0.0,-0.012334217703
1385572677919981318,-0.0292848584975,0.0330253747154,0.0709226463672,1.0,0.0,-0.0125488082247
1385572677969996857,-0.0291505883302,0.0316698575315,0.0694655916583,1.0,0.0,-0.0128073430622
1385572678021914075,-0.0291852099943,0.0302215094301,0.0680458309718,1.0,0.0,-0.0130240651117
1385572678070975036,-0.0292996707888,0.0289372579308,0.0665305123706,1.0,0.0,-0.013272925856
1385572678120029461,-0.0292775077083,0.0274823467972,0.0651203451365,1.0,0.0,-0.0134947036893
1385572678170917707,-0.0296423667823,0.0258681333095,0.0637706164048,1.0,0.0,-0.0136785514904
1385572678220932682,-0.0298890779266,0.0246341292316,0.0623206599681,1.0,0.0,-0.0138952396363
1385572678270898296,-0.0301085171219,0.0229967784735,0.0610436285829,1.0,0.0,-0.0140831903859
1385572678320956195,-0.0304691130455,0.0214819212575,0.0598467468529,1.0,0.0,-0.0142617704109
1385572678370021148,-0.0308045966799,0.0202472570304,0.0585724131336,1.0,0.0,-0.0144433734943
1385572678420946960,-0.0311615849387,0.0186851542772,0.0574728761312,1.0,0.0,-0.0145910693635
1385572678470941733,-0.0315430738749,0.0172484731031,0.0565270326967,1.0,0.0,-0.0147272844652
1385572678519896381,-0.0320136871201,0.0159164276753,0.0555146347796,1.0,0.0,-0.0148374507187
1385572678570034265,-0.031979362818,0.0150786008771,0.0545348676128,1.0,0.0,-0.0150441588846
1385572678619925882,-0.0329755968799,0.0136025118592,0.0534101172379,1.0,0.0,-0.0150837261514
1385572678669967442,-0.0331511353307,0.012524641371,0.0525723711524,1.0,0.0,-0.0151927619065
1385572678719907657,-0.0337423902702,0.0115736153223,0.0515085490274,1.0,0.0,-0.0152941998124
1385572678770114889,-0.0340517444138,0.0107270602611,0.0505037353167,1.0,0.0,-0.0153961609171
1385572678819950071,-0.0345713265662,0.00981674180257,0.0494860731546,1.0,0.0,-0.015433081817
1385572678871107492,-0.0350948470595,0.00884871009165,0.0485791109473,1.0,0.0,-0.0154465969528
1385572678919939385,-0.0352715689149,0.00857144752759,0.0475965075205,1.0,0.0,-0.015561193009
1385572678970086601,-0.0357267121068,0.00774983578105,0.0467379015306,1.0,0.0,-0.0155362442706
1385572679019952672,-0.0358371876315,0.0074700187324,0.0459256090658,1.0,0.0,-0.0155822253836
1385572679070949066,-0.0359867769744,0.00718150714145,0.0452015435205,1.0,0.0,-0.0156067364133
1385572679120090203,-0.0362498134483,0.00692093135411,0.0443381145135,1.0,0.0,-0.0155839376311
1385572679170268000,-0.0361573271604,0.00687606317771,0.043643216321,1.0,0.0,-0.0156008327113
1385572679220110121,-0.0362452588113,0.00656584495178,0.0430503595576,1.0,0.0,-0.0155045360052
1385572679271062200,-0.0359028784859,0.00696403560682,0.0423865444721,1.0,0.0,-0.0155372507796
1385572679319937483,-0.0356481659342,0.00717240340401,0.0416916151814,1.0,0.0,-0.0155030238757
1385572679370174413,-0.0355093980489,0.00716180921446,0.04107069197,1.0,0.0,-0.0154074824214
1385572679419999264,-0.034975613984,0.00761444164186,0.0404839258508,1.0,0.0,-0.0154022717648
1385572679470932466,-0.0346209432962,0.00782242422176,0.0398453270819,1.0,0.0,-0.015311324921
1385572679520043818,-0.0339216210264,0.00840525503367,0.0392100891699,1.0,0.0,-0.0152990149853
1385572679569943037,-0.0336266925925,0.00848369352342,0.0385429457573,1.0,0.0,-0.0151570788067
1385572679620948271,-0.0327193050993,0.00916973746145,0.0380833587132,1.0,0.0,-0.0151324014732
1385572679670911384,-0.0320345586975,0.00956840759688,0.0375476162319,1.0,0.0,-0.0150472869048
1385572679719929303,-0.0312839974468,0.010098037089,0.0371049684728,1.0,0.0,-0.014974150658
1385572679772108559,-0.0305582102585,0.0105729415883,0.0366134909729,1.0,0.0,-0.0148711578711
1385572679819991732,-0.029853795221,0.0109777161736,0.0361313739854,1.0,0.0,-0.0147622250393
1385572679871062349,-0.0290909808112,0.0113131273758,0.0357154265246,1.0,0.0,-0.014584460266
1385572679920057473,-0.0282554580976,0.0120192609965,0.0352846769921,1.0,0.0,-0.0145185129048
1385572679969897710,-0.0273679742087,0.0124488324842,0.0349392625033,1.0,0.0,-0.0143995790883
1385572680020198526,-0.0265614590185,0.0129296015763,0.0345217947439,1.0,0.0,-0.0142921336811
1385572680070183553,-0.0258706951857,0.0131725783077,0.0341617241281,1.0,0.0,-0.0141397772868
1385572680120106150,-0.0251949748955,0.0133704553449,0.0337799405804,1.0,0.0,-0.0139213407941
1385572680170188493,-0.0243531101609,0.0139491908899,0.0333696526296,1.0,0.0,-0.0138592565742
1385572680220151641,-0.0236921809938,0.0142793348005,0.0328965093248,1.0,0.0,-0.0136693777871
1385572680270162241,-0.0230167273038,0.0145162128711,0.0324292923244,1.0,0.0,-0.0135360691869
1385572680320275176,-0.0224096706341,0.0146845763383,0.0320270706699,1.0,0.0,-0.0133670625962
1385572680370595970,-0.0217196858902,0.0149854170881,0.0316688076913,1.0,0.0,-0.0132535724221
1385572680420355981,-0.0212103719205,0.0149974205077,0.0313306559219,1.0,0.0,-0.0130784359895
1385572680470271282,-0.0208073699125,0.0149122628005,0.0309361993012,1.0,0.0,-0.0128920821651
1385572680520598995,-0.0205147675802,0.0146368414234,0.0305381238918,1.0,0.0,-0.0126541864438
1385572680570894504,-0.0203044971617,0.0144285264599,0.0301692773146,1.0,0.0,-0.012428803928
1385572680620889297,-0.0199849017838,0.0142342034712,0.029830157965,1.0,0.0,-0.0122631406959
1385572680670618631,-0.0196923525382,0.0140507089796,0.0293947278471,1.0,0.0,-0.0120846256504
1385572680720958423,-0.0196294049067,0.0135877938952,0.0290132308242,1.0,0.0,-0.0118720689489
1385572680770892456,-0.0196284922397,0.0130779725384,0.0286351148356,1.0,0.0,-0.0116159489387
1385572680820865806,-0.0195970761679,0.0125156447123,0.0283515001108,1.0,0.0,-0.011419464647
1385572680870901950,-0.019552789472,0.012091957646,0.0280945282303,1.0,0.0,-0.0112356802003
1385572680920950898,-0.0199335879002,0.0111767904681,0.0276208356239,1.0,0.0,-0.0110204008866
1385572680970816068,-0.0201045205348,0.010361085784,0.0273079858432,1.0,0.0,-0.0107300270709
1385572681020927717,-0.0202368424925,0.00959441096539,0.0271450715361,1.0,0.0,-0.0104351501309
1385572681072113058,-0.0202506815022,0.00915066105513,0.0269214931235,1.0,0.0,-0.0102947472841
1385572681121363610,-0.0206724534783,0.00808212574138,0.0267171431602,1.0,0.0,-0.00996400767661
1385572681171102060,-0.0208792814548,0.00726459812586,0.0265811580069,1.0,0.0,-0.00971540821773
1385572681220103532,-0.0211017747931,0.00649154617532,0.0264194868721,1.0,0.0,-0.0094589230635
1385572681271230746,-0.0215044801764,0.00550810363308,0.0263195509367,1.0,0.0,-0.00913315124858
1385572681321113999,-0.0217630485532,0.00477709073446,0.0261949479171,1.0,0.0,-0.00888189854418
1385572681371151822,-0.0220378924191,0.00393816728313,0.026000254942,1.0,0.0,-0.00855903609851
1385572681421557843,-0.0223157671207,0.0031227632732,0.0257188470248,1.0,0.0,-0.00823144389302
1385572681470829236,-0.0226245066899,0.00232079268089,0.0254642941844,1.0,0.0,-0.00788992035311
1385572681521597743,-0.0228881632417,0.00186886374731,0.0251336249899,1.0,0.0,-0.00762283836118
1385572681571798775,-0.0229946249451,0.00112673622613,0.0248903979505,1.0,0.0,-0.00731901402394
1385572681620491163,-0.0233058731778,0.00056664890388,0.0246153699182,1.0,0.0,-0.00698120015751
1385572681670394984,-0.0235189177345,5.65494158432e-05,0.0242199353759,1.0,0.0,-0.00664383510439
1385572681720568427,-0.0236435156091,-0.000483493615002,0.0240096914952,1.0,0.0,-0.00631377863909
1385572681770547481,-0.023836973108,-0.000998248274087,0.0237610789669,1.0,0.0,-0.00594016122176
1385572681821428065,-0.0239962158519,-0.00152071161967,0.0235149360913,1.0,0.0,-0.00552806716211
1385572681871619634,-0.0239190021772,-0.00171520681175,0.0232535784229,1.0,0.0,-0.00516852384344
1385572681921608143,-0.024072009905,-0.00214838698651,0.0229292265519,1.0,0.0,-0.00473536483672
1385572681971502861,-0.0238743794018,-0.0021025266821,0.0226322682473,1.0,0.0,-0.00441463954941
1385572682021503986,-0.0239187111569,-0.00248324802992,0.0224144658819,1.0,0.0,-0.00397945189347
1385572682072446759,-0.0236775448536,-0.0024221010338,0.0222116756444,1.0,0.0,-0.00360431074685
1385572682120566891,-0.0235743852152,-0.00268613328541,0.0219553677157,1.0,0.0,-0.00316674101698
1385572682170565671,-0.0231522084018,-0.00243730025164,0.0216413806778,1.0,0.0,-0.00283855437282
1385572682220744997,-0.0228949175399,-0.00234925708461,0.0214335152809,1.0,0.0,-0.00246186437392
1385572682271486556,-0.0224670363048,-0.0023366185478,0.0211954617862,1.0,0.0,-0.00207471143903
1385572682321517662,-0.0221360790989,-0.00230067349687,0.0209253758413,1.0,0.0,-0.0016759730628
1385572682371466094,-0.0217280482274,-0.00215775587244,0.0206742649452,1.0,0.0,-0.00127828845711
1385572682420400397,-0.0214596669459,-0.00226435891787,0.020175180543,1.0,0.0,-0.00087023671044
1385572682470497658,-0.0205478000347,-0.00182958723507,0.0202750663909,1.0,0.0,-0.000482544753357
1385572682520387337,-0.0203794767187,-0.00205598406021,0.0199037052638,1.0,0.0,-5.39867019863e-05
1385572682571672442,-0.019737997555,-0.00191232669783,0.0197031733122,1.0,0.0,0.000361065904154
1385572682620677005,-0.0192351653176,-0.00176516118159,0.0194068399736,1.0,0.0,0.000748578209089
1385572682670486220,-0.018632488663,-0.00156200541364,0.0191371793193,1.0,0.0,0.00111848201711
1385572682720636695,-0.0180450526036,-0.00132930600743,0.0187635422317,1.0,0.0,0.00145759285824
1385572682770450248,-0.0174012508382,-0.00117219643288,0.0186048811044,1.0,0.0,0.00180974865137
1385572682820511496,-0.0169324073377,-0.00103230333846,0.0182679194054,1.0,0.0,0.00215546959654
1385572682870489025,-0.0164375028992,-0.00089788229432,0.0181293170237,1.0,0.0,0.00247766902521
1385572682920463401,-0.0158735655803,-0.000666075595555,0.0179155595336,1.0,0.0,0.00280074598566
1385572682970837442,-0.0154926501036,-0.000640294434568,0.017656332365,1.0,0.0,0.00314896877389
1385572683020441691,-0.0152559683231,-0.000686436199862,0.0173768252975,1.0,0.0,0.00350523695577
1385572683070673472,-0.0149801804739,-0.000645157008399,0.017114050759,1.0,0.0,0.00388246339391
1385572683121421948,-0.0147506828023,-0.000572657737222,0.0168323978498,1.0,0.0,0.00421277516734
1385572683171429354,-0.0144681490977,-0.000375969504302,0.0165814550779,1.0,0.0,0.00451512688921
1385572683221467202,-0.0144140181096,-0.000450060329633,0.016371848168,1.0,0.0,0.00488897374237
1385572683271489835,-0.0144726791118,-0.00050853428823,0.0160202974935,1.0,0.0,0.00523399543334
1385572683321471275,-0.0145571095426,-0.000497684898179,0.0157748750413,1.0,0.0,0.00557642787557
1385572683370484980,-0.0146595013451,-0.000550143023269,0.0155847780014,1.0,0.0,0.00592746851086
1385572683420484190,-0.014874097336,-0.0005893739944,0.0153964683693,1.0,0.0,0.00626942076189
1385572683471406047,-0.015140970137,-0.000793433679156,0.0153147176806,1.0,0.0,0.00664632597025
1385572683521486551,-0.015476673871,-0.000988134383132,0.0151823581712,1.0,0.0,0.00701012116264
1385572683570583996,-0.0158255940322,-0.00124173900756,0.015140933868,1.0,0.0,0.00739626576123
1385572683620469621,-0.0162841125543,-0.00160607458203,0.0150857737725,1.0,0.0,0.00778458600041
1385572683670482194,-0.0166245167967,-0.00177571248052,0.0150365664796,1.0,0.0,0.00813403617796
1385572683720599078,-0.017048046727,-0.00204570900766,0.0149612945604,1.0,0.0,0.00847847992621
1385572683770500804,-0.0175010399113,-0.0023791809393,0.0148735318424,1.0,0.0,0.00883528217863
1385572683820714984,-0.0179168027454,-0.0026625561668,0.0147392097059,1.0,0.0,0.00917079587141
1385572683870490758,-0.0184382351331,-0.00304922384547,0.0146235129942,1.0,0.0,0.00952972237651
1385572683920465519,-0.0188791493234,-0.00342958504712,0.0144899715233,1.0,0.0,0.00988291976698
1385572683970431307,-0.0194166944546,-0.0039394519006,0.0141871999463,1.0,0.0,0.0102504655708
1385572684020522620,-0.0198473873584,-0.00440694261325,0.0140905935577,1.0,0.0,0.0106424106125
1385572684070502668,-0.0201408562385,-0.00469599818273,0.0142160180746,1.0,0.0,0.0110208567838
1385572684120492192,-0.0205110121352,-0.00488531936796,0.0142561695559,1.0,0.0,0.0113204593967
1385572684170600062,-0.0209799470202,-0.0054502110782,0.0140308856191,1.0,0.0,0.0117298908413
1385572684221505807,-0.0210736577493,-0.00533111751388,0.0141385323213,1.0,0.0,0.0120292105225
1385572684271481114,-0.0214198520418,-0.00560861709749,0.0140739100072,1.0,0.0,0.0123813714022
1385572684320551752,-0.0216220765508,-0.00578359336746,0.014045658188,1.0,0.0,0.0127384095918
1385572684370619942,-0.0218326757339,-0.00580209491533,0.0140120526677,1.0,0.0,0.0130405311379
1385572684420552259,-0.0219559499089,-0.00583066439506,0.0139392642468,1.0,0.0,0.0133737251252
1385572684470476374,-0.0220448621201,-0.00586330159575,0.0138822852847,1.0,0.0,0.0137106905427
1385572684520609017,-0.0220829460684,-0.00596154604743,0.0138910451049,1.0,0.0,0.0140647020492
1385572684570614938,-0.0220530913045,-0.00569708800459,0.0138650709463,1.0,0.0,0.0143546899764
1385572684621588060,-0.0219616936084,-0.0054984929272,0.0138052138145,1.0,0.0,0.0146756740007
1385572684670487313,-0.0218028569256,-0.00517355724181,0.013791539405,1.0,0.0,0.0149698063026
1385572684720449226,-0.0215731465199,-0.00471334479176,0.0136876703951,1.0,0.0,0.01519721573
1385572684770419178,-0.0213223741051,-0.0043973674312,0.0137158356405,1.0,0.0,0.0154640593143
1385572684821465354,-0.0209472427185,-0.00395687022195,0.0137194783954,1.0,0.0,0.0156850675425
1385572684871541304,-0.0205505240691,-0.00338767992355,0.0136602694796,1.0,0.0,0.0158774085554
1385572684920437411,-0.0201468468796,-0.0030510223354,0.0135916070108,1.0,0.0,0.0161158785069
1385572684971525874,-0.0196609811182,-0.0026421658039,0.0135239688534,1.0,0.0,0.0163555073836
1385572685020530752,-0.0190971490769,-0.00204226610577,0.0134514224504,1.0,0.0,0.0165428541352
1385572685070417471,-0.0185584765587,-0.00159260530787,0.0133480771185,1.0,0.0,0.016707804988
1385572685120512924,-0.0178579610256,-0.00100991379382,0.0132977131243,1.0,0.0,0.0168781944323
1385572685170544457,-0.0173038822016,-0.000617761069481,0.0131372907064,1.0,0.0,0.0170396586343
1385572685221469930,-0.0166155748934,-9.00903328573e-05,0.0130848884329,1.0,0.0,0.0171226295993
1385572685270513415,-0.0159581467155,0.000281560805503,0.0130081383844,1.0,0.0,0.0172750390627
1385572685320491054,-0.0152685731814,0.000716300949401,0.0129423089068,1.0,0.0,0.0173465111783
1385572685371491255,-0.0144764532213,0.00107782080081,0.012965512324,1.0,0.0,0.0174478567648
1385572685420818885,-0.0139676484697,0.00125713813801,0.0127332071763,1.0,0.0,0.0175154065793
1385572685470659178,-0.0132637004189,0.0015569634285,0.012595135032,1.0,0.0,0.0175511866571
1385572685520408819,-0.0126870241304,0.00178963729168,0.0125004348522,1.0,0.0,0.0175525188827
1385572685570435699,-0.0121093871549,0.00194271337033,0.0123558834589,1.0,0.0,0.0175490651704
1385572685620626600,-0.0116156332357,0.00186141412091,0.0122164481029,1.0,0.0,0.0176236226375
1385572685670619131,-0.0111614407677,0.00180685473878,0.0120858707022,1.0,0.0,0.0176725316784
1385572685720599434,-0.0107524816381,0.00193754505442,0.0119849812952,1.0,0.0,0.0177155391438
1385572685770548766,-0.01042007063,0.00190997556663,0.0118333951987,1.0,0.0,0.0177051008455
1385572685820551975,-0.0102099762089,0.00178811696607,0.0116848895801,1.0,0.0,0.0177381605637
1385572685870743360,-0.0100142287417,0.00189471282993,0.0115309912055,1.0,0.0,0.0176863251736
1385572685921476591,-0.00992807166355,0.00168486398586,0.0114103390464,1.0,0.0,0.0177683487121
1385572685970485999,-0.00998372613206,0.00177470437685,0.0113246149436,1.0,0.0,0.0177034422778
1385572686020628132,-0.0100815068472,0.00161048798159,0.0112620559122,1.0,0.0,0.0177831335416
1385572686071596756,-0.0101970827923,0.00159903756615,0.0112040934274,1.0,0.0,0.0177503652677
1385572686120677984,-0.0104397872664,0.00156676436434,0.0112113207666,1.0,0.0,0.0178185045573
1385572686171757082,-0.0106998740963,0.00156952103218,0.011183448538,1.0,0.0,0.01775484972
1385572686220488078,-0.011085908414,0.00141498130705,0.0111054011249,1.0,0.0,0.0178183757508
1385572686270602838,-0.0115010015336,0.00149730203112,0.0110540739706,1.0,0.0,0.017733637373
1385572686320627577,-0.0119113614782,0.00149432335942,0.0110016293907,1.0,0.0,0.0177236824538
1385572686371551402,-0.0124340225827,0.00132073686233,0.0109353699053,1.0,0.0,0.0177502826225
1385572686420647945,-0.0129632176,0.00143884074976,0.010859193087,1.0,0.0,0.0176914137921
1385572686470434624,-0.0134798322181,0.00149307996676,0.010787256679,1.0,0.0,0.0176582867093
1385572686520620902,-0.0139545285212,0.00146051444647,0.0107384350753,1.0,0.0,0.0176641030261
1385572686570580370,-0.0145375138143,0.00154096572052,0.010676532857,1.0,0.0,0.0176403940777
1385572686620474968,-0.0151706316347,0.00158833543218,0.0105409427836,1.0,0.0,0.0176204110004
1385572686670485925,-0.0157091981638,0.00160269116365,0.010480627147,1.0,0.0,0.0176443748816
1385572686721491662,-0.0162896064246,0.00183782073733,0.0104599711836,1.0,0.0,0.0176060908646
1385572686770566555,-0.0168687629861,0.0019013262698,0.0103895983153,1.0,0.0,0.0175913738573
1385572686820789019,-0.0173267264624,0.00200229364574,0.0103218868892,1.0,0.0,0.0175648393173
1385572686870511253,-0.0177986735074,0.00217915616257,0.01025715637,1.0,0.0,0.0174991873397
1385572686920847873,-0.0182600682913,0.00223246039756,0.0101422596201,1.0,0.0,0.0174819251411
1385572686970628055,-0.0187365848808,0.00231167938645,0.0100332567321,1.0,0.0,0.0174347339983
1385572687020793896,-0.0190369248286,0.00241192795626,0.00994178687031,1.0,0.0,0.0174083938882
1385572687071536522,-0.0193553829873,0.00243280687739,0.00986285628837,1.0,0.0,0.0173596068364
1385572687121779053,-0.0195625144394,0.00246248428672,0.00977586716102,1.0,0.0,0.0173112646584
1385572687170510430,-0.0197712078114,0.00254080655926,0.00970268374081,1.0,0.0,0.0172451506054
1385572687220589577,-0.0198888776456,0.00248377218472,0.00954438982692,1.0,0.0,0.017218319712
1385572687270742695,-0.0199631150153,0.00254008823223,0.00944489056907,1.0,0.0,0.0171360001654
1385572687321565578,-0.0200563240977,0.00245162567794,0.00928432746855,1.0,0.0,0.0171115714382
1385572687370616793,-0.0200153902631,0.00227807391307,0.00919634089891,1.0,0.0,0.0171337423663
1385572687420660145,-0.0198897180065,0.00236278952706,0.0091472124281,1.0,0.0,0.0170819821712
1385572687471028669,-0.0197964181168,0.00221966847534,0.00906421613555,1.0,0.0,0.0170512620847
1385572687520696367,-0.0195650949989,0.00230281917459,0.00894608458138,1.0,0.0,0.0169755792507
1385572687570726308,-0.019368149826,0.00233977797424,0.00884679827889,1.0,0.0,0.0169192623565
1385572687620711221,-0.019116375724,0.00215893096945,0.00873412785827,1.0,0.0,0.0168939961031
1385572687671082156,-0.0187507190558,0.00216549675513,0.00867999194452,1.0,0.0,0.0168467874012
1385572687720987993,-0.018431923356,0.00200973604464,0.00853588703081,1.0,0.0,0.0168076711938
1385572687771289611,-0.0179707818368,0.0020241059104,0.00844684878463,1.0,0.0,0.0167465934046
1385572687820953175,-0.0176616268689,0.00167986394669,0.0083216171456,1.0,0.0,0.0167586344573
1385572687870910381,-0.0171695019475,0.00162942586998,0.00818701041907,1.0,0.0,0.0166530351664
1385572687920889947,-0.0166094004447,0.00155514860923,0.00810540806141,1.0,0.0,0.0166040852297
1385572687971922741,-0.0161680888677,0.00132314478556,0.00794905329793,1.0,0.0,0.0165221397427
1385572688020911768,-0.0156308424951,0.00108083817946,0.00790010663291,1.0,0.0,0.0164753352409
1385572688071088994,-0.0151616260021,0.00076667061952,0.00776975169505,1.0,0.0,0.0164599220584
1385572688120997809,-0.0145339415525,0.000552644208222,0.00769065600633,1.0,0.0,0.016438670629
1385572688171117858,-0.014015289356,0.000489580343485,0.00762707100665,1.0,0.0,0.0163620416238
1385572688220108220,-0.0134800381145,0.000293953715778,0.00752531997306,1.0,0.0,0.016311733725
1385572688270926411,-0.0129711281182,-4.08094124553e-05,0.00738657939086,1.0,0.0,0.0163497259111
1385572688321095223,-0.0124949305611,-0.000280039201184,0.00728340212045,1.0,0.0,0.0163102522532
1385572688370903390,-0.012071778752,-0.000588558703499,0.00709839014535,1.0,0.0,0.0163486335382
1385572688420929603,-0.0116467876648,-0.000893371525879,0.00698151919256,1.0,0.0,0.0163922211651
1385572688470038457,-0.0111303466651,-0.000952235277771,0.00690844055531,1.0,0.0,0.0163956793914
1385572688520013157,-0.0108787267955,-0.00129708964389,0.00677549233855,1.0,0.0,0.0164484072507
1385572688569877406,-0.0105716626368,-0.00157641020942,0.00662925283491,1.0,0.0,0.0165127220865
1385572688620951520,-0.0102836885584,-0.00180386998207,0.00652643564616,1.0,0.0,0.01660478916
1385572688669918545,-0.010019254646,-0.00198949134668,0.00644195911177,1.0,0.0,0.0167173313091
1385572688721059355,-0.00976310923297,-0.0021613870191,0.00634465840062,1.0,0.0,0.0168073142492
1385572688770239622,-0.0097038592216,-0.00245531940263,0.00624216914384,1.0,0.0,0.0169961166744
1385572688820082439,-0.0095524338128,-0.00242475749619,0.00614686733811,1.0,0.0,0.0170740750773
1385572688870938561,-0.00951796586905,-0.00258719558592,0.0059454381129,1.0,0.0,0.0172412568658
1385572688920138910,-0.00933494391094,-0.00234656111288,0.00585225697809,1.0,0.0,0.0172975039008
1385572688970195939,-0.00937687858275,-0.00239675089668,0.00574305992267,1.0,0.0,0.0174766268004
1385572689020931814,-0.00930568480106,-0.00231189503653,0.0056292689653,1.0,0.0,0.0176098449889
1385572689069913951,-0.00934948181119,-0.00217955746709,0.00543739591363,1.0,0.0,0.0177675228401
1385572689121902664,-0.00932379536839,-0.00187236984234,0.00525019058768,1.0,0.0,0.0179111684638
1385572689170067658,-0.00942839628761,-0.00170655845918,0.00507990981607,1.0,0.0,0.0181098696658
1385572689219930271,-0.0094831666936,-0.00122329366378,0.0049330477649,1.0,0.0,0.0182272097351
1385572689272247011,-0.00957142905294,-0.000913791534782,0.00476943563408,1.0,0.0,0.0184302762628
1385572689320108067,-0.00968423563889,-0.000270170032515,0.00460104307691,1.0,0.0,0.018499706271
1385572689370074609,-0.00974655785042,0.00015017168335,0.00443255176169,1.0,0.0,0.0186806854049
1385572689420214890,-0.00995124090115,0.000695957079045,0.00430921170171,1.0,0.0,0.0188197662894
1385572689471185535,-0.0101120261211,0.00130406212255,0.0041320150209,1.0,0.0,0.0189678236761
1385572689520194966,-0.010196959051,0.00193481876544,0.00401494694376,1.0,0.0,0.0191080523412
1385572689569987625,-0.0104073707788,0.00242522904016,0.00384096273035,1.0,0.0,0.0193239861742
1385572689620953588,-0.0105625994759,0.00313216266949,0.00370908043773,1.0,0.0,0.0194628255699
1385572689671167284,-0.0108594865739,0.00374954756579,0.00352833227468,1.0,0.0,0.0195794409621
1385572689722235105,-0.0109134844852,0.00446548554008,0.00345171241693,1.0,0.0,0.0197166417494
1385572689770909893,-0.0111699680017,0.00496654051556,0.00331222426407,1.0,0.0,0.019858089851
1385572689821037826,-0.0112562632629,0.00544317331594,0.00325079770741,1.0,0.0,0.0200109206606
1385572689869927263,-0.011419204401,0.00586794622377,0.00320220543201,1.0,0.0,0.0201673230676
1385572689920346573,-0.0114733512739,0.00636039015678,0.00315473767998,1.0,0.0,0.0203131902245
1385572689971120435,-0.0115008840349,0.00682755602547,0.00313464043217,1.0,0.0,0.0204576422831
1385572690021010368,-0.0114593415418,0.00726948454684,0.00310500043837,1.0,0.0,0.0205619246545
1385572690070952660,-0.0114586800854,0.00760143187436,0.00307612912522,1.0,0.0,0.020689071547
1385572690120079654,-0.011299900358,0.00803343272626,0.00305028705815,1.0,0.0,0.0207446271609
1385572690170054136,-0.011205228859,0.00824619121747,0.00303900535942,1.0,0.0,0.0208609253193
1385572690219948323,-0.0109655328377,0.00854653686384,0.00302019474247,1.0,0.0,0.0209328763295
1385572690270988110,-0.0107973158802,0.00860574234056,0.00296044833797,1.0,0.0,0.0210438380807
1385572690320937086,-0.0104440550372,0.00877647315857,0.00299216556531,1.0,0.0,0.0211610557133
1385572690370873570,-0.0101313537134,0.00891085373469,0.00301686447052,1.0,0.0,0.0212196414039
1385572690420970013,-0.00965918688029,0.00890559405375,0.003045011197,1.0,0.0,0.0213289848385
1385572690470888655,-0.00932108614862,0.00885622069191,0.00304432123742,1.0,0.0,0.0214086490785
1385572690520177781,-0.00894186350939,0.00871629847972,0.00300916015496,1.0,0.0,0.0214782127393
1385572690569940046,-0.00847852117202,0.00850160835156,0.0030275378104,1.0,0.0,0.0216119157116
1385572690620056050,-0.0080255865732,0.00804521043158,0.00301486739011,1.0,0.0,0.021722342488
1385572690670940802,-0.00752050113522,0.00775849812639,0.00305799544082,1.0,0.0,0.0218132098415
1385572690720098904,-0.00708029419254,0.00721117342876,0.00304514308668,1.0,0.0,0.021906914922
1385572690769942885,-0.00655330260643,0.00669928861733,0.00308292626661,1.0,0.0,0.0220057405505
1385572690820001014,-0.00607264072056,0.00607269437144,0.0031175958633,1.0,0.0,0.0220828482174
1385572690870020862,-0.00559310951296,0.00543297701538,0.00312537770574,1.0,0.0,0.0221658339161
1385572690920026794,-0.00516169751877,0.00469056278635,0.00316578588745,1.0,0.0,0.0222345196371
1385572690969951879,-0.00471096703391,0.00391852911183,0.00322390558741,1.0,0.0,0.022375235976
1385572691020928120,-0.0043168307845,0.0031288416454,0.00325664425997,1.0,0.0,0.0224201825177
1385572691070124679,-0.00399200575775,0.00222253256725,0.00327023758174,1.0,0.0,0.0225589832639
1385572691120252300,-0.0037451639939,0.00141598289709,0.00325471365075,1.0,0.0,0.0226514488148
1385572691170068333,-0.00344424331621,0.000585434791398,0.00319009473553,1.0,0.0,0.0227322743627
1385572691220048796,-0.00331828851586,-0.000295130327678,0.00313989157541,1.0,0.0,0.0227824215924
1385572691270064363,-0.00322551744298,-0.00109848594082,0.00311989516017,1.0,0.0,0.0228659163282
1385572691320232466,-0.00321806856684,-0.00193942397926,0.00312206889325,1.0,0.0,0.0229298210907
1385572691370084642,-0.00313114210266,-0.00263467850364,0.0031201283498,1.0,0.0,0.023006903617
1385572691420217683,-0.00331878604707,-0.00353071182916,0.00304221084983,1.0,0.0,0.0230859345293
1385572691470056019,-0.00340781575046,-0.00425562924954,0.00299197046191,1.0,0.0,0.0231935389283
1385572691520271618,-0.00353079177039,-0.00489894955025,0.00298173617505,1.0,0.0,0.0232767348361
1385572691570116620,-0.00379918937831,-0.0056732983171,0.00290555629226,1.0,0.0,0.0233824280818
1385572691620049427,-0.00398504428561,-0.00623206596038,0.0028530123342,1.0,0.0,0.0234751359493
1385572691670040672,-0.00427474847607,-0.00679032453931,0.00279299016006,1.0,0.0,0.0235597287725
1385572691720075887,-0.00457420590798,-0.00718840390717,0.00273965871959,1.0,0.0,0.0236199140837
1385572691770128267,-0.00498522057362,-0.00770439674099,0.00268041906001,1.0,0.0,0.0237168184821
1385572691820208108,-0.00531999199017,-0.00797801412216,0.00267679493597,1.0,0.0,0.0237761709486
1385572691869996356,-0.00572294570951,-0.00825122456648,0.00266529302756,1.0,0.0,0.0238551186496
1385572691920031887,-0.00607406495543,-0.00841899234406,0.00266773218269,1.0,0.0,0.0238969557199
1385572691970249577,-0.00655716359148,-0.00867989549623,0.00263937565272,1.0,0.0,0.0240115995091
1385572692020005006,-0.00695456689997,-0.00868854952963,0.00264603535934,1.0,0.0,0.0240760308272
1385572692071039392,-0.00735782844594,-0.00868298253976,0.00266986878793,1.0,0.0,0.0241560585527
1385572692120014769,-0.00774911644634,-0.00862166316292,0.00267017223674,1.0,0.0,0.0242118767119
1385572692170089457,-0.0081921499699,-0.00845419097655,0.00268944345814,1.0,0.0,0.0242623031636
1385572692221080363,-0.00845862936135,-0.00829792507471,0.00277012759315,1.0,0.0,0.0243046375848
1385572692270248212,-0.00882324437651,-0.00807304493598,0.00282108893211,1.0,0.0,0.0243617043154
1385572692320238888,-0.00906518319498,-0.00779479822132,0.00286963414604,1.0,0.0,0.0243989265794
1385572692371063132,-0.00935350663184,-0.00750773658766,0.00286748177424,1.0,0.0,0.0243989641247
1385572692421046346,-0.00953562933678,-0.00721838408739,0.0028929107654,1.0,0.0,0.0244705933072
1385572692471116626,-0.00973591651439,-0.00685544598918,0.00290619293556,1.0,0.0,0.024489135246
1385572692521155668,-0.0098344939676,-0.00645220496722,0.00293270719432,1.0,0.0,0.0245220425668
1385572692570055780,-0.009859988688,-0.00600127450949,0.00302365843548,1.0,0.0,0.0245482547939
1385572692620211537,-0.00996785593801,-0.00561193077679,0.00311917391047,1.0,0.0,0.0245756096815
1385572692671215539,-0.0100313067946,-0.00519487668975,0.00310331090557,1.0,0.0,0.0245442257827
1385572692720238034,-0.0100370012322,-0.00486059166725,0.00311008148389,1.0,0.0,0.0246374777615
1385572692770119399,-0.00998091334917,-0.00450981702929,0.00314066409883,1.0,0.0,0.0246285250517
1385572692820225387,-0.0099672736512,-0.00425649679718,0.00316093135245,1.0,0.0,0.0247043949816
1385572692871414924,-0.00986577689429,-0.00398009292512,0.00319292964826,1.0,0.0,0.0247270624552
1385572692920245878,-0.00975980035716,-0.00384407725725,0.00319942396501,1.0,0.0,0.0248419014245
1385572692970988183,-0.00962044829631,-0.00368707769147,0.0031728662201,1.0,0.0,0.0248850405755
1385572693020621860,-0.00952917458093,-0.00355505504827,0.00312841863526,1.0,0.0,0.0249477991949
1385572693071593527,-0.00937772665891,-0.00347455654092,0.0030931004535,1.0,0.0,0.0249838201349
1385572693121316151,-0.0092481308024,-0.00337860394448,0.00304589067792,1.0,0.0,0.0250418130166
1385572693170365193,-0.00910203109736,-0.00334124517817,0.00300112810228,1.0,0.0,0.0250600989986
1385572693220172158,-0.00893190458332,-0.00327359372062,0.00297277870608,1.0,0.0,0.0250782191415
1385572693271401933,-0.00878360303172,-0.00332919348373,0.00291815958084,1.0,0.0,0.0251460495732
1385572693320341324,-0.00859185549503,-0.00333519012157,0.00286483488354,1.0,0.0,0.0252056076664
1385572693373176120,-0.00840747117251,-0.00339326425232,0.00281196578013,1.0,0.0,0.0252461673667
1385572693420941093,-0.00821062396232,-0.00342562716419,0.00279228601338,1.0,0.0,0.0253010355785
1385572693470737389,-0.00804430689371,-0.00353613854686,0.00277574933327,1.0,0.0,0.0253491449548
1385572693520913731,-0.00783835345857,-0.00365022414697,0.00275004425377,1.0,0.0,0.025401117582
1385572693570830663,-0.00769807921832,-0.00373388252942,0.0026914830662,1.0,0.0,0.0254036902176
1385572693622968440,-0.00750099561944,-0.00393098509762,0.00263873116297,1.0,0.0,0.025517675838
1385572693670556176,-0.00741694419727,-0.00405215467222,0.00257330617447,1.0,0.0,0.0255303921554
1385572693720645058,-0.0072821017135,-0.0043680812776,0.00254292467149,1.0,0.0,0.0256477948427
1385572693771552789,-0.00717640238769,-0.00449456056301,0.00251034038763,1.0,0.0,0.0257252534008
1385572693820727590,-0.00710036511668,-0.00473576570091,0.00246681339641,1.0,0.0,0.0257884777085
1385572693870626549,-0.0069697419946,-0.00485433888241,0.00247840014546,1.0,0.0,0.0258617124063
1385572693920684838,-0.00694295614552,-0.00508959176558,0.00246471231361,1.0,0.0,0.025864734164
1385572693971694438,-0.00686216894928,-0.00537821576338,0.00240860321176,1.0,0.0,0.0259203741703
1385572694020562324,-0.00674800670336,-0.00563858610478,0.00233157977073,1.0,0.0,0.0259978257088
1385572694070081717,-0.00663147132015,-0.00595414162932,0.00229055675776,1.0,0.0,0.0260831039292
1385572694120866227,-0.00655605445139,-0.00623934118898,0.00225791173078,1.0,0.0,0.0261740884443
1385572694170714931,-0.00647945647178,-0.00658043198084,0.00222318655595,1.0,0.0,0.0263061105548
1385572694219911245,-0.00635591115419,-0.00689865620182,0.00220204588,1.0,0.0,0.0264174437236
1385572694270895461,-0.00633588371344,-0.00710085102254,0.0021643579414,1.0,0.0,0.0265358547251
1385572694320756565,-0.00625824431536,-0.00735048580937,0.00212501754637,1.0,0.0,0.0266710615539
1385572694370713959,-0.00622185634487,-0.00757919553606,0.00206006974449,1.0,0.0,0.0267945472697
1385572694420905451,-0.00616849451017,-0.00771216456836,0.00201053544315,1.0,0.0,0.0269526620517
1385572694470783214,-0.00617786640095,-0.0078345225691,0.00195583132018,1.0,0.0,0.0270528373616
1385572694521009045,-0.00613621960845,-0.00788619782382,0.00190564477502,1.0,0.0,0.0271987000226
1385572694570981699,-0.00614348708054,-0.00791693736558,0.00185135254715,1.0,0.0,0.0273454271981
1385572694620726580,-0.00616590167274,-0.00782597258196,0.0018060153104,1.0,0.0,0.0274344663593
1385572694670869126,-0.00619646335238,-0.00761852474756,0.0017516866978,1.0,0.0,0.0275464148587
1385572694720922023,-0.00628675596315,-0.00738518834351,0.00166203977267,1.0,0.0,0.0276074608348
1385572694770116176,-0.00630812964804,-0.00708732177636,0.00165164415797,1.0,0.0,0.0276888610792
1385572694819895155,-0.00634243559841,-0.00673144308775,0.0016150654769,1.0,0.0,0.0278010575545
1385572694870795012,-0.00637717263244,-0.00621891598238,0.0015733107019,1.0,0.0,0.0278408295498
1385572694920677535,-0.00641677692078,-0.00569683056268,0.00148803541464,1.0,0.0,0.0279207291957
1385572694970798395,-0.0064978921285,-0.00507064785411,0.00142653291563,1.0,0.0,0.0279434938777
1385572695021927903,-0.00651588600666,-0.00440428909556,0.00135210706868,1.0,0.0,0.0279484889214
1385572695070850732,-0.00653571351463,-0.00370115237218,0.00124286977691,1.0,0.0,0.0279539900313
1385572695121745487,-0.00654858532488,-0.00300376008533,0.00111161150125,1.0,0.0,0.0279293523948
1385572695170908529,-0.00647844557234,-0.00228780375933,0.00100339202301,1.0,0.0,0.0279351207047
1385572695220959922,-0.00651390870349,-0.00159791757463,0.000889398725437,1.0,0.0,0.0279272125905
1385572695269979010,-0.00644833393726,-0.000809457477957,0.000811356633072,1.0,0.0,0.0278724921464
1385572695320743452,-0.00644583990232,-0.000167547853124,0.00073579333173,1.0,0.0,0.0278653147988
1385572695371857522,-0.00639646517629,0.00044826015951,0.000683028250658,1.0,0.0,0.0278223243768
1385572695419749629,-0.00637281333441,0.00101508262526,0.000634195308733,1.0,0.0,0.02781973045
1385572695471760559,-0.00629816231316,0.0016315531686,0.000601050679542,1.0,0.0,0.0277574417135
1385572695519998386,-0.0062689930344,0.00210443939812,0.000554133859392,1.0,0.0,0.0277397281109
1385572695571882665,-0.0061463277364,0.00256647207602,0.000547028909731,1.0,0.0,0.0276944733278
1385572695620752844,-0.00612180781706,0.002941511385,0.000499416560887,1.0,0.0,0.0276227485553
1385572695671886726,-0.00590638011415,0.00341941983262,0.000482851009026,1.0,0.0,0.0275492143496
1385572695721934143,-0.00579975735122,0.00371360748076,0.000467942446472,1.0,0.0,0.0274559093563
1385572695770779369,-0.00560150237831,0.00395859734956,0.000440647211091,1.0,0.0,0.0273983439662
1385572695820129527,-0.00539184628584,0.00416931767647,0.000425207453403,1.0,0.0,0.0272953752798
1385572695869941478,-0.00511005463453,0.00428259343765,0.00040358515393,1.0,0.0,0.0272191572226
1385572695919930217,-0.00482646565373,0.004354891596,0.000392230981497,1.0,0.0,0.0271178827286
1385572695970869640,-0.00450604409891,0.00445919390763,0.000398987035912,1.0,0.0,0.0269250555208
1385572696020866800,-0.00419249951831,0.00433951052959,0.000417944886769,1.0,0.0,0.026853448588
1385572696070109569,-0.00381871442935,0.00426137126606,0.000429909140154,1.0,0.0,0.0267415047955
1385572696120818335,-0.00348230928222,0.00411972736889,0.000440826752707,1.0,0.0,0.0266506688362
1385572696170261060,-0.00311716022814,0.00400971178338,0.000470162774045,1.0,0.0,0.026523218914
1385572696220711209,-0.00279246260196,0.00384191217293,0.000468647490703,1.0,0.0,0.0264041456746
1385572696270784649,-0.00240955887548,0.00366212886815,0.000540163472545,1.0,0.0,0.0262799540505
1385572696320847903,-0.00205428601041,0.00339560824516,0.0005822688063,1.0,0.0,0.0261707288019
1385572696370880905,-0.00167056370904,0.00311707722523,0.000630372703361,1.0,0.0,0.0260450895871
1385572696420957262,-0.00132954333734,0.00275256147026,0.000646133444603,1.0,0.0,0.0259560830615
1385572696470782513,-0.000916150572391,0.00246009112529,0.000685783178471,1.0,0.0,0.0258377251377
1385572696521682228,-0.000564172539267,0.00205978809542,0.000700551929676,1.0,0.0,0.0257257763435
1385572696570851462,-0.000106125642073,0.00167937854644,0.000734395369491,1.0,0.0,0.0255840478004
1385572696620766291,0.000219805849957,0.00112672375538,0.000742263468895,1.0,0.0,0.0254862556032
1385572696670932107,0.000656893809942,0.000643022447756,0.000786879047429,1.0,0.0,0.0253959036417
1385572696721853055,0.00113561282632,0.000147658653705,0.000864034852397,1.0,0.0,0.0253552202956
1385572696771774487,0.00150631362468,-0.000425035773787,0.000901312863137,1.0,0.0,0.0252566072814
1385572696820017773,0.00189601603839,-0.00106192354516,0.000930900062601,1.0,0.0,0.0252043853696
1385572696872075082,0.00229563012143,-0.0015314840535,0.000992298524835,1.0,0.0,0.0250892736259
1385572696920737587,0.0027609561783,-0.00209186766048,0.00110178186168,1.0,0.0,0.0250546991962
1385572696969988538,0.0030269597582,-0.00267119641471,0.00115825758918,1.0,0.0,0.024967306458
1385572697020833197,0.00340822555939,-0.00314071307048,0.00124276290062,1.0,0.0,0.0248938704444
1385572697069954646,0.00369383569579,-0.00372018270561,0.00128125990082,1.0,0.0,0.0248499830352
1385572697121861936,0.00394667305198,-0.0042085848902,0.00131648858974,1.0,0.0,0.0247953457171
1385572697170829251,0.00413595380375,-0.00466552826815,0.00134277814317,1.0,0.0,0.0247054959338
1385572697220780683,0.00424787305092,-0.00522048673081,0.00134780754265,1.0,0.0,0.0246518816965
1385572697270732470,0.00435104414609,-0.00570293927302,0.00133914770486,1.0,0.0,0.0245604354508
1385572697320017022,0.0043416209263,-0.00617213025229,0.00135514192193,1.0,0.0,0.0244644632892
1385572697370984420,0.00430181711807,-0.00669650910453,0.00136690213215,1.0,0.0,0.0244573472216
1385572697421800850,0.00421855919588,-0.00712568719341,0.00137711647363,1.0,0.0,0.0244150546502
1385572697470936776,0.00401243665062,-0.00756020976956,0.00138198474462,1.0,0.0,0.0243671375738
1385572697520715526,0.00380108735317,-0.0079249197274,0.00139981394236,1.0,0.0,0.0242826400963
1385572697569812248,0.00353009185451,-0.00825675414836,0.00143181125947,1.0,0.0,0.0242393535659
1385572697620138730,0.00319043381966,-0.00853281874323,0.00147739993129,1.0,0.0,0.0241441252336
1385572697669948404,0.00283776152134,-0.00868913564809,0.00153362677057,1.0,0.0,0.0241342786223
1385572697719898781,0.00241141887274,-0.00886730058875,0.00159306351002,1.0,0.0,0.0241053812583
1385572697771801374,0.0019914169711,-0.00903394367818,0.00167424518285,1.0,0.0,0.0240494814393
1385572697820753934,0.00148887115519,-0.00905221028226,0.00172980724481,1.0,0.0,0.0239942956437
1385572697869733896,0.000994658959704,-0.00905756667586,0.00180891820725,1.0,0.0,0.0239420174764
1385572697919980780,0.000499858593781,-0.00895338604952,0.00188992534034,1.0,0.0,0.0238442097435
1385572697971701561,-0.000108423812358,-0.00889145966198,0.00194615958267,1.0,0.0,0.0237534419037
1385572698021756587,-0.000674754817219,-0.00875463860297,0.00200716980524,1.0,0.0,0.0236378062121
1385572698070745855,-0.00127698529264,-0.00856286445664,0.00204329221548,1.0,0.0,0.0235195817458
1385572698119918596,-0.001882717844,-0.00835112642033,0.00206849177938,1.0,0.0,0.0234329852428
1385572698170760759,-0.00244656211921,-0.00801122196324,0.00208552967032,1.0,0.0,0.0233158052779
1385572698220790621,-0.0030916902046,-0.00769323149697,0.00207881083936,1.0,0.0,0.0231735387772
1385572698269929223,-0.00366122211816,-0.00739198937598,0.00205179968662,1.0,0.0,0.0230713410092
1385572698320902132,-0.00424035039299,-0.00689280639987,0.00204805006801,1.0,0.0,0.0229343522819
1385572698370104638,-0.00478435689949,-0.00643359432094,0.00204245702723,1.0,0.0,0.022795123996
1385572698420865931,-0.00524972743542,-0.00586720088444,0.00203582961498,1.0,0.0,0.0226819813175
1385572698470337021,-0.0057558150311,-0.00534073755771,0.00203434881685,1.0,0.0,0.0225247795741
1385572698520824766,-0.00615597325065,-0.00478639000972,0.00202386955665,1.0,0.0,0.0223745675573
1385572698570225209,-0.00655535849091,-0.00420901404166,0.00199161335652,1.0,0.0,0.0221954475977
1385572698620895917,-0.00686476404377,-0.00361912564673,0.00193815939924,1.0,0.0,0.0220665350142
1385572698669871353,-0.00706975413566,-0.00310664926325,0.00190345226924,1.0,0.0,0.021959095734
1385572698720883904,-0.00727040786105,-0.00251273588221,0.00188374742452,1.0,0.0,0.0217517681829
1385572698770319946,-0.00743556149477,-0.0020388641122,0.00186407796581,1.0,0.0,0.0216221000145
1385572698820697868,-0.00751028826014,-0.00155520138057,0.00185751171982,1.0,0.0,0.0214885271694
1385572698870759656,-0.00751774383481,-0.00104819665587,0.00185659492567,1.0,0.0,0.0213443946665
1385572698921767269,-0.00749608354793,-0.000643016525112,0.00186526396196,1.0,0.0,0.0212421185855
1385572698970765639,-0.00735105748419,-0.000194802249715,0.00187643546434,1.0,0.0,0.0211247077238
1385572699020912558,-0.00720261493663,0.000168539645691,0.00187915044622,1.0,0.0,0.0209783792597
1385572699070767059,-0.00698951370287,0.000478320744259,0.00188386809001,1.0,0.0,0.0208692541969
1385572699120195564,-0.0067376726546,0.000824446273234,0.00184970908968,1.0,0.0,0.0207518725801
1385572699170734528,-0.00637984629612,0.00113587305452,0.00184532524189,1.0,0.0,0.0206109288554
1385572699222283556,-0.00590501942714,0.00135420429606,0.00185078992371,1.0,0.0,0.0205757525935
1385572699270526113,-0.00544706951073,0.00153630199439,0.00184187646093,1.0,0.0,0.0204936599326
1385572699320997733,-0.00490763155708,0.00174344685811,0.00182931083901,1.0,0.0,0.0203341490866
1385572699371092163,-0.00429044102547,0.00183861362873,0.00183434027941,1.0,0.0,0.0202365039153
1385572699420327314,-0.00360956954499,0.00194797402428,0.00185848643724,1.0,0.0,0.0201560857973
1385572699470534647,-0.0028770979046,0.00193842571923,0.00188855426657,1.0,0.0,0.0200621772249
1385572699521126760,-0.00224750127391,0.00188708753655,0.00186686286865,1.0,0.0,0.0199544154834
1385572699570798604,-0.00152701650409,0.00190900336509,0.00188951893158,1.0,0.0,0.0198173564844
1385572699620089979,-0.000785667588658,0.00177110892549,0.001906581237,1.0,0.0,0.0197564015451
1385572699670849393,-0.000110281062551,0.0016339583009,0.00191172314129,1.0,0.0,0.0196454031936
1385572699721340567,0.000556868132046,0.00142543770902,0.00188642805614,1.0,0.0,0.0195760890072
1385572699770851162,0.00124157662356,0.00119553648223,0.00187737934863,1.0,0.0,0.0194821812915
1385572699821061761,0.00182850203929,0.000907532269314,0.00188988840037,1.0,0.0,0.0194004294672
1385572699870282457,0.00235101457963,0.000620114108635,0.00190394532993,1.0,0.0,0.0192983733488
1385572699921278077,0.00294395909983,0.000237192971997,0.0018995783327,1.0,0.0,0.0192745338722
1385572699971316350,0.00336275031661,-0.0001491829891,0.00189085467963,1.0,0.0,0.0191871900932
1385572700021890426,0.00382357787055,-0.000467526967954,0.00192440541225,1.0,0.0,0.0191133766331
1385572700070857889,0.0040920652229,-0.000942364757511,0.0019230365228,1.0,0.0,0.019099667586
1385572700120883551,0.0043793555916,-0.00128532207154,0.00194110486887,1.0,0.0,0.0190367851565
1385572700170303995,0.00450289822923,-0.00175459078534,0.00192639441584,1.0,0.0,0.0189830537673
1385572700220826365,0.00456354922647,-0.00216508031334,0.00191573666279,1.0,0.0,0.0189215924779
1385572700270663095,0.00454072223789,-0.00255738644252,0.00189640557263,1.0,0.0,0.0188837205306
1385572700320809864,0.00443608223869,-0.00292598089357,0.00190109534378,1.0,0.0,0.018869406295
1385572700370777086,0.00425910312721,-0.00336374199371,0.00190168362787,1.0,0.0,0.0188642227342
1385572700420762231,0.00391509337485,-0.00371481411047,0.00185372090228,1.0,0.0,0.0187942191305
1385572700470637886,0.00359006493673,-0.00402064964449,0.00182894549475,1.0,0.0,0.0188129159776
1385572700520736002,0.00315813328122,-0.00431988646678,0.00179646855355,1.0,0.0,0.0187828727964
1385572700571803664,0.00268500561526,-0.00457230523042,0.00176741410798,1.0,0.0,0.0188340253231
1385572700620707765,0.00221133979468,-0.00484952801993,0.00176563017549,1.0,0.0,0.0188472862146
1385572700670693588,0.00158885394207,-0.0050912869947,0.00171869891555,1.0,0.0,0.0188747698045
1385572700720704764,0.00103163633064,-0.00520554479592,0.00170324009061,1.0,0.0,0.0189214109866
1385572700770920734,0.000361550510437,-0.00526614974196,0.00168519657659,1.0,0.0,0.0189491486445
1385572700820642071,-0.000342085740571,-0.00534661952434,0.00165323444441,1.0,0.0,0.0189925508127
1385572700870753354,-0.00106280171696,-0.00538594602095,0.00162149419441,1.0,0.0,0.0190755578231
1385572700920224428,-0.00180076141601,-0.00539881159033,0.00159417671965,1.0,0.0,0.0192062573475
1385572700971779998,-0.00253000095194,-0.00539747890767,0.00158084211018,1.0,0.0,0.0192738070133
1385572701021612461,-0.00327834317919,-0.00529483300919,0.00156318611183,1.0,0.0,0.0193456080623
1385572701070856784,-0.00404932423823,-0.00522529695057,0.00155261407477,1.0,0.0,0.0194196774771
1385572701121701048,-0.00477667287418,-0.00508692449513,0.00155765274428,1.0,0.0,0.019534221361
1385572701171041075,-0.00551218979473,-0.00490539910073,0.0015601545856,1.0,0.0,0.0196548927119
1385572701220716480,-0.00627818427932,-0.00466543666107,0.00155355090135,1.0,0.0,0.0197765987322
1385572701271860734,-0.00692292827355,-0.00435269776415,0.00161025060354,1.0,0.0,0.0198889990005
1385572701320726885,-0.00764607376195,-0.00407727286749,0.00164399234318,1.0,0.0,0.020026756052
