%time,field.header.seq,field.header.stamp,field.header.frame_id,field.child_frame_id,field.transform.translation.x,field.transform.translation.y,field.transform.translation.z,field.transform.rotation.x,field.transform.rotation.y,field.transform.rotation.z,field.transform.rotation.w
1385572665131409512,979700,1385572665131409512,/world,vicon/Archie/Archie,-0.0635255278412,0.307868467689,0.114722353407,0.0101587672057,0.00201688304244,0.517204569566,0.855799138146
1385572665141343292,979701,1385572665141343292,/world,vicon/Archie/Archie,-0.0635399589833,0.307875591092,0.114713708031,0.0102207862801,0.00203683476365,0.517190941896,0.855806588227
1385572665151486565,979702,1385572665151486565,/world,vicon/Archie/Archie,-0.0635269396013,0.307862307934,0.11473378911,0.0101607047196,0.00203627988886,0.517195379308,0.855804623303
1385572665161365685,979703,1385572665161365685,/world,vicon/Archie/Archie,-0.0635422344265,0.307867487873,0.114713122302,0.0102058649997,0.00205404969182,0.517200859213,0.85580073173
1385572665171441884,979704,1385572665171441884,/world,vicon/Archie/Archie,-0.0635257152103,0.307860099453,0.114732671898,0.0101697753886,0.00197008239899,0.51719660744,0.855803928302
1385572665181433690,979705,1385572665181433690,/world,vicon/Archie/Archie,-0.0635282197874,0.307864534932,0.114735101162,0.0101700600001,0.0019949385278,0.517195399528,0.855804597327
1385572665191260638,979706,1385572665191260638,/world,vicon/Archie/Archie,-0.0635258707239,0.307864719776,0.114737993243,0.0101757011664,0.00200247933262,0.517198637039,0.8558025561
1385572665202008445,979707,1385572665202008445,/world,vicon/Archie/Archie,-0.063532477339,0.307865729424,0.11473115411,0.0101647107515,0.00200834459267,0.5171880573,0.855809066669
1385572665211410566,979708,1385572665211410566,/world,vicon/Archie/Archie,-0.0635955823645,0.307817125,0.114786463808,0.0104649328359,0.00214969865268,0.517376373063,0.855691271764
1385572665221347992,979709,1385572665221347992,/world,vicon/Archie/Archie,-0.0635275958914,0.30786717863,0.114725922083,0.0101659655268,0.00199683328491,0.517196329749,0.855804079387
1385572665231487928,979710,1385572665231487928,/world,vicon/Archie/Archie,-0.0635986776168,0.307812852194,0.114818767693,0.0104385481694,0.0020319648055,0.517376630054,0.855691726327
1385572665241393009,979711,1385572665241393009,/world,vicon/Archie/Archie,-0.0635248052796,0.307863775972,0.114728400503,0.0101775885221,0.00199975923991,0.517204431034,0.855799038427
1385572665251382490,979712,1385572665251382490,/world,vicon/Archie/Archie,-0.0635189334808,0.307874010213,0.114700613461,0.0101892482674,0.00209773298612,0.517216276126,0.855791506412
1385572665261472613,979713,1385572665261472613,/world,vicon/Archie/Archie,-0.0635329731329,0.307875382727,0.114720472426,0.0101827237061,0.00205380319712,0.517206333582,0.855797699537
1385572665271336415,979714,1385572665271336415,/world,vicon/Archie/Archie,-0.0635434507417,0.307870916796,0.114718863148,0.0102034394223,0.00206281914118,0.517206217965,0.855797500989
1385572665281492064,979715,1385572665281492064,/world,vicon/Archie/Archie,-0.0635264365786,0.307868683541,0.114727012246,0.0101613450011,0.00200626737821,0.517191677215,0.85580692389
1385572665291330448,979716,1385572665291330448,/world,vicon/Archie/Archie,-0.0635889247198,0.307819461462,0.114806008253,0.0104353574415,0.00208896621682,0.517369899479,0.855695697458
1385572665301488045,979717,1385572665301488045,/world,vicon/Archie/Archie,-0.0635356764252,0.307865283023,0.114731913951,0.0101814340697,0.00200416933812,0.517192635621,0.855806110848
1385572665311517563,979718,1385572665311517563,/world,vicon/Archie/Archie,-0.0635303914326,0.307871199538,0.114735964572,0.0101600350605,0.00201237719755,0.51720780442,0.855797178701
1385572665321655244,979719,1385572665321655244,/world,vicon/Archie/Archie,-0.0635231141608,0.307868195853,0.114725033721,0.0101506590695,0.00199864608222,0.51719345487,0.855805994238
1385572665332126494,979720,1385572665332126494,/world,vicon/Archie/Archie,-0.0635259225062,0.307870900868,0.114727386711,0.0101744016923,0.00200654027631,0.517203886984,0.855799389247
1385572665341836487,979721,1385572665341836487,/world,vicon/Archie/Archie,-0.063596698494,0.307814938196,0.114809120489,0.0104187812946,0.00205741038946,0.517370110875,0.855695848086
1385572665351558034,979722,1385572665351558034,/world,vicon/Archie/Archie,-0.0635325714958,0.307867702613,0.114731569587,0.0101724623569,0.00200278726862,0.517194956487,0.85580481819
1385572665362196770,979723,1385572665362196770,/world,vicon/Archie/Archie,-0.0635987301467,0.307819410353,0.114788901781,0.010465715287,0.00216947389246,0.51735914591,0.855701628098
1385572665374358120,979724,1385572665374358120,/world,vicon/Archie/Archie,-0.0636053153149,0.30781831222,0.114806792445,0.0104100694252,0.00203711216223,0.51736305917,0.855700266235
1385572665381510699,979725,1385572665381510699,/world,vicon/Archie/Archie,-0.0635182224145,0.307863228351,0.114734522436,0.0101681862552,0.00199573422226,0.517198993695,0.855802445635
1385572665391262132,979726,1385572665391262132,/world,vicon/Archie/Archie,-0.0635314065889,0.307864449904,0.114710273315,0.0102090089249,0.00204353851809,0.517190788916,0.855806805271
1385572665405471020,979727,1385572665405471020,/world,vicon/Archie/Archie,-0.0635248046212,0.307866557968,0.114731677529,0.0101735507947,0.00198558741616,0.517192819418,0.855806136838
1385572665412412477,979728,1385572665412412477,/world,vicon/Archie/Archie,-0.0635439932829,0.307873925757,0.114711966965,0.0102005816466,0.0020284480983,0.517199910642,0.85580142905
1385572665423299199,979729,1385572665423299199,/world,vicon/Archie/Archie,-0.0635322675455,0.30787036181,0.114724896898,0.0101657190021,0.00199315104631,0.517196325498,0.855804093468
1385572665434372611,979730,1385572665434372611,/world,vicon/Archie/Archie,-0.0635331540975,0.307864006883,0.114731149398,0.0101679877107,0.00196631395678,0.517191624784,0.855806969409
1385572665441432010,979731,1385572665441432010,/world,vicon/Archie/Archie,-0.0635364605215,0.307867299177,0.114714395547,0.010196854966,0.00202061476337,0.517202473428,0.855799943179
1385572665451579344,979732,1385572665451579344,/world,vicon/Archie/Archie,-0.0635344139237,0.307870816318,0.114730808864,0.0101702280947,0.00197576359177,0.51719692965,0.8558037151
1385572665461607710,979733,1385572665461607710,/world,vicon/Archie/Archie,-0.0635478229415,0.307875289883,0.114711192583,0.010189832545,0.00203436092805,0.51720394953,0.855799102172
1385572665471380594,979734,1385572665471380594,/world,vicon/Archie/Archie,-0.0635327539395,0.307866869822,0.114709630574,0.0102018817826,0.00203497906691,0.51718918436,0.855807880338
1385572665481899804,979735,1385572665481899804,/world,vicon/Archie/Archie,-0.0635303045037,0.307866824226,0.114730731784,0.010170903733,0.00196438822164,0.517190177903,0.855807813575
1385572665492089890,979736,1385572665492089890,/world,vicon/Archie/Archie,-0.0635411514689,0.307874499192,0.114713921795,0.0102022097708,0.00205449210984,0.517201238055,0.855800545298
1385572665501496435,979737,1385572665501496435,/world,vicon/Archie/Archie,-0.0635106005697,0.307858223536,0.114713919756,0.0101629125943,0.0020134618933,0.51719404527,0.855805457283
1385572665511481390,979738,1385572665511481390,/world,vicon/Archie/Archie,-0.0634958018516,0.30787663728,0.114724657041,0.0101429381735,0.00205278737091,0.517184409142,0.855811424211
1385572665521456628,979739,1385572665521456628,/world,vicon/Archie/Archie,-0.0635285790156,0.307867079437,0.114731805325,0.010160446872,0.00200809391129,0.517190835373,0.855807439022
1385572665531499268,979740,1385572665531499268,/world,vicon/Archie/Archie,-0.0635241212709,0.307865072397,0.114732656478,0.0101631333688,0.00201042125927,0.517188303817,0.855808931551
1385572665541347552,979741,1385572665541347552,/world,vicon/Archie/Archie,-0.0635244508685,0.307863975561,0.114729579121,0.0101631350399,0.00201103529073,0.51719542917,0.855804624005
1385572665551421437,979742,1385572665551421437,/world,vicon/Archie/Archie,-0.0634882788187,0.307872726086,0.114722342815,0.0101599893477,0.00203208931277,0.517165251539,0.855822848392
1385572665561537400,979743,1385572665561537400,/world,vicon/Archie/Archie,-0.0635405909506,0.307878419459,0.114711606228,0.0101929262656,0.0020470735885,0.517210992831,0.855794778343
1385572665571406217,979744,1385572665571406217,/world,vicon/Archie/Archie,-0.0636105264187,0.307821431785,0.114805502457,0.010459328088,0.00210298335789,0.517362125538,0.855700070688
1385572665581578233,979745,1385572665581578233,/world,vicon/Archie/Archie,-0.0635236008515,0.307866479535,0.114730479672,0.0101892997243,0.00198838775019,0.517186838112,0.855809557652
1385572665591596151,979746,1385572665591596151,/world,vicon/Archie/Archie,-0.0635330843677,0.307865138224,0.114724389561,0.0101634775425,0.00201530727804,0.517189758978,0.855808036576
1385572665601491225,979747,1385572665601491225,/world,vicon/Archie/Archie,-0.0635266188973,0.307868982716,0.114728811359,0.0101793334664,0.00199987452911,0.517193954196,0.855805349022
1385572665611419674,979748,1385572665611419674,/world,vicon/Archie/Archie,-0.0635316725522,0.307861449008,0.114734171209,0.0101635060493,0.00197840391007,0.517188783483,0.855808711864
1385572665621403828,979749,1385572665621403828,/world,vicon/Archie/Archie,-0.0635960613823,0.307813343076,0.114818883471,0.0104164587145,0.0020684969588,0.517351050721,0.855707373479
1385572665631507064,979750,1385572665631507064,/world,vicon/Archie/Archie,-0.0635192535306,0.307865873541,0.114727597342,0.0101858245884,0.00197106009947,0.517192771058,0.855806053651
1385572665641258568,979751,1385572665641258568,/world,vicon/Archie/Archie,-0.0635262730434,0.307867753828,0.11472805926,0.0101756889427,0.00199826559553,0.5171878918,0.855809059817
1385572665651526269,979752,1385572665651526269,/world,vicon/Archie/Archie,-0.0635990464684,0.307813535893,0.114818277377,0.0104226918344,0.00207215217352,0.517369970301,0.855695849885
1385572665661619981,979753,1385572665661619981,/world,vicon/Archie/Archie,-0.0635482109834,0.307872006841,0.11471486976,0.0101919791579,0.00205381420595,0.51720398794,0.855799006933
1385572665671354839,979754,1385572665671354839,/world,vicon/Archie/Archie,-0.0635327114826,0.307868651459,0.114731333203,0.0101782903536,0.00199535875997,0.517194151519,0.85580525272
1385572665681390559,979755,1385572665681390559,/world,vicon/Archie/Archie,-0.0635279921562,0.307865386783,0.114737470396,0.0101676860851,0.00198394399399,0.517192679852,0.855806294691
1385572665691301293,979756,1385572665691301293,/world,vicon/Archie/Archie,-0.0635999661285,0.307815736507,0.114816171046,0.0104140809633,0.00208088913055,0.517359727072,0.85570212669
1385572665701509838,979757,1385572665701509838,/world,vicon/Archie/Archie,-0.0635232156372,0.307865233183,0.114732828119,0.0101699842027,0.00199133527393,0.517189273943,0.855808308515
1385572665711543044,979758,1385572665711543044,/world,vicon/Archie/Archie,-0.0635165470923,0.307867524032,0.114731982955,0.0101721710356,0.00199205240294,0.517190751372,0.855807388002
1385572665721330965,979759,1385572665721330965,/world,vicon/Archie/Archie,-0.0635229117057,0.307865056332,0.114728408552,0.0101700344914,0.00200912013368,0.517190455247,0.855807552453
1385572665731503278,979760,1385572665731503278,/world,vicon/Archie/Archie,-0.0635267247347,0.307865982336,0.114729181908,0.0101751402741,0.00199354473058,0.517188753144,0.855808556817
1385572665741311715,979761,1385572665741311715,/world,vicon/Archie/Archie,-0.0635275243468,0.307867125186,0.114726391658,0.0101666195979,0.00199291367893,0.51719372116,0.855805657223
1385572665751399853,979762,1385572665751399853,/world,vicon/Archie/Archie,-0.0635198111613,0.307861936459,0.114731607306,0.0101619283579,0.00199979478393,0.517199261771,0.855802348475
1385572665761500379,979763,1385572665761500379,/world,vicon/Archie/Archie,-0.0635283917353,0.307860782198,0.114729155191,0.0101623397685,0.00200281725114,0.517210774376,0.855795378839
1385572665771354527,979764,1385572665771354527,/world,vicon/Archie/Archie,-0.0635243310022,0.307861778129,0.114728613051,0.010188573209,0.00197147920092,0.517194938571,0.855804710061
1385572665781416397,979765,1385572665781416397,/world,vicon/Archie/Archie,-0.0635268919612,0.307866423738,0.114730691457,0.0101885320798,0.002003827262,0.517188778502,0.855808358151
1385572665791357089,979766,1385572665791357089,/world,vicon/Archie/Archie,-0.0635319367392,0.307863867693,0.114736875267,0.0101559826243,0.00199504841269,0.517181348756,0.855813255505
1385572665801394035,979767,1385572665801394035,/world,vicon/Archie/Archie,-0.0635315957739,0.307867103723,0.114726845683,0.0101590954825,0.00200101376162,0.517214041368,0.855793447121
1385572665811455006,979768,1385572665811455006,/world,vicon/Archie/Archie,-0.063523728992,0.30786843109,0.114725321635,0.0101743582748,0.00198805448091,0.517203258291,0.855799812857
1385572665821414209,979769,1385572665821414209,/world,vicon/Archie/Archie,-0.0635441046096,0.30787228102,0.114712805271,0.0102073350537,0.00201703401561,0.517206537604,0.855797370494
1385572665831442342,979770,1385572665831442342,/world,vicon/Archie/Archie,-0.0635251442871,0.30786574486,0.114732210781,0.010166757812,0.00197074294509,0.517193474454,0.855805856015
1385572665841323341,979771,1385572665841323341,/world,vicon/Archie/Archie,-0.0635374111626,0.307867669479,0.114722869165,0.0101669358109,0.00199768011431,0.51720308392,0.855799984035
1385572665851455174,979772,1385572665851455174,/world,vicon/Archie/Archie,-0.0635425334278,0.307876141806,0.114717286941,0.0102069169725,0.00206335231079,0.517192104986,0.855805987338
1385572665861465211,979773,1385572665861465211,/world,vicon/Archie/Archie,-0.063538137192,0.30786440006,0.114711672864,0.0101905920674,0.00205815191103,0.517190717808,0.855807032723
1385572665871475261,979774,1385572665871475261,/world,vicon/Archie/Archie,-0.0635277108549,0.307871235894,0.114733385867,0.0101630382936,0.00200583560584,0.517187587685,0.855809376217
1385572665881488648,979775,1385572665881488648,/world,vicon/Archie/Archie,-0.063530114361,0.307870818224,0.114724085282,0.010171762703,0.00200615246461,0.517195228528,0.855804654219
1385572665891456295,979776,1385572665891456295,/world,vicon/Archie/Archie,-0.0635372116405,0.307867226212,0.114715026614,0.0102016916059,0.00202569175832,0.517208766397,0.855796070348
1385572665901526003,979777,1385572665901526003,/world,vicon/Archie/Archie,-0.0635336367075,0.30786961012,0.114730213743,0.0101664400135,0.00198522732195,0.517191219489,0.855807189064
1385572665911535218,979778,1385572665911535218,/world,vicon/Archie/Archie,-0.0635160043978,0.307859543347,0.114719663574,0.0101872659568,0.00202127056389,0.517200164105,0.855801451464
1385572665921447414,979779,1385572665921447414,/world,vicon/Archie/Archie,-0.0635865844503,0.307812104655,0.114812449475,0.0104343394613,0.00211590201348,0.517360520757,0.855701314175
1385572665931567297,979780,1385572665931567297,/world,vicon/Archie/Archie,-0.0635408725055,0.307865068212,0.114714361304,0.0102015356153,0.00205593195764,0.517195889704,0.855803782119
1385572665942238935,979781,1385572665942238935,/world,vicon/Archie/Archie,-0.063522888642,0.307868576857,0.114732337201,0.0101569445238,0.00200043350991,0.517189004971,0.855808604701
1385572665951440470,979782,1385572665951440470,/world,vicon/Archie/Archie,-0.0635417395064,0.3078719101,0.114724877906,0.0101986036515,0.00205936103444,0.51719467038,0.855804545703
1385572665961597337,979783,1385572665961597337,/world,vicon/Archie/Archie,-0.0635322198918,0.307867363179,0.114735793047,0.010174585987,0.00199878449996,0.517193879127,0.855805453391
1385572665971501935,979784,1385572665971501935,/world,vicon/Archie/Archie,-0.0635365717267,0.307867415822,0.114733855892,0.0101667610998,0.00198941409145,0.517187605932,0.855809359303
1385572665981458711,979785,1385572665981458711,/world,vicon/Archie/Archie,-0.0635328094991,0.30786766022,0.11473230415,0.0101758187202,0.00198185496843,0.51718928805,0.855808252642
1385572665991390931,979786,1385572665991390931,/world,vicon/Archie/Archie,-0.0635223899905,0.307863334325,0.114725941859,0.0101900333639,0.0020355784684,0.517206467226,0.855797575306
1385572666001427164,979787,1385572666001427164,/world,vicon/Archie/Archie,-0.0635450312523,0.307871275829,0.114714215298,0.0101945416908,0.00204187065435,0.517190803283,0.855806973028
1385572666011640439,979788,1385572666011640439,/world,vicon/Archie/Archie,-0.0635137169648,0.307864293405,0.114722863387,0.0101602293807,0.00204035721261,0.51719583788,0.855804342102
1385572666021474100,979789,1385572666021474100,/world,vicon/Archie/Archie,-0.0636172840872,0.307820259455,0.114798942253,0.0104436297377,0.00211426753268,0.517370939213,0.855694905751
1385572666031510909,979790,1385572666031510909,/world,vicon/Archie/Archie,-0.063597423952,0.307813503908,0.114816990386,0.0104163607675,0.0020387142225,0.517352338186,0.855706667758
1385572666042233312,979791,1385572666042233312,/world,vicon/Archie/Archie,-0.0636014344712,0.30782431103,0.114782942243,0.010454177434,0.00215829767006,0.517365297173,0.8556980783
1385572666051508267,979792,1385572666051508267,/world,vicon/Archie/Archie,-0.0636166461084,0.307817608177,0.114806315751,0.0104407866266,0.00210457965324,0.517366389105,0.855697715402
1385572666061469236,979793,1385572666061469236,/world,vicon/Archie/Archie,-0.0635243745587,0.307863331903,0.114727842183,0.0101699268226,0.00199306315216,0.517180558942,0.855813571837
1385572666071673639,979794,1385572666071673639,/world,vicon/Archie/Archie,-0.0635433059959,0.307868279611,0.114713338386,0.0102029093636,0.00206112034359,0.517192509315,0.855805796155
1385572666081527169,979795,1385572666081527169,/world,vicon/Archie/Archie,-0.0635419336899,0.307869792501,0.114725396652,0.0102215388702,0.00206027842302,0.517201111327,0.85580037733
1385572666091961898,979796,1385572666091961898,/world,vicon/Archie/Archie,-0.0635935197627,0.307812634973,0.114819859893,0.0104339574036,0.00204895498207,0.517360475078,0.855701509373
1385572666101531291,979797,1385572666101531291,/world,vicon/Archie/Archie,-0.0635514954444,0.307879319433,0.11471391026,0.0101904332327,0.0020635164398,0.517196952889,0.855803253612
1385572666111508592,979798,1385572666111508592,/world,vicon/Archie/Archie,-0.0635410996008,0.307868872415,0.114724231279,0.0101654407259,0.00199564525518,0.517190234316,0.855807772074
1385572666121455314,979799,1385572666121455314,/world,vicon/Archie/Archie,-0.0636021649681,0.307818070069,0.114809084253,0.0104054343748,0.0020766433669,0.517353809809,0.855705819756
1385572666131525064,979800,1385572666131525064,/world,vicon/Archie/Archie,-0.0636035050652,0.307815699239,0.114817685075,0.0104213286754,0.00208007413791,0.517365266761,0.855698691099
1385572666141468553,979801,1385572666141468553,/world,vicon/Archie/Archie,-0.0635309394941,0.307860922233,0.114723664966,0.0101661312609,0.00199309741498,0.51719122041,0.855807173883
1385572666151532319,979802,1385572666151532319,/world,vicon/Archie/Archie,-0.0636018779486,0.307818063132,0.114812213996,0.0104105318756,0.00208538283661,0.51734489472,0.855711126439
1385572666161521786,979803,1385572666161521786,/world,vicon/Archie/Archie,-0.0635305302901,0.307867746541,0.114725844912,0.0101732577194,0.00199481742783,0.517184323655,0.855811253079
1385572666171444783,979804,1385572666171444783,/world,vicon/Archie/Archie,-0.0635429528808,0.307873480816,0.114711397353,0.0102005855628,0.00205118029686,0.517194387982,0.855804712392
1385572666181483004,979805,1385572666181483004,/world,vicon/Archie/Archie,-0.0636099578846,0.30781774379,0.11480602143,0.0104624540213,0.00211161642404,0.517358414558,0.855702254886
1385572666191390148,979806,1385572666191390148,/world,vicon/Archie/Archie,-0.0635517891915,0.307873212657,0.114716017053,0.0101896055202,0.00204993739229,0.51718699637,0.855809313154
1385572666201463311,979807,1385572666201463311,/world,vicon/Archie/Archie,-0.0635196725776,0.307858960902,0.114721537501,0.0102026409115,0.00202442591968,0.517187457748,0.855808939756
1385572666211540765,979808,1385572666211540765,/world,vicon/Archie/Archie,-0.0635416775099,0.307871984919,0.114710945061,0.0102078465116,0.00204551071654,0.517185317523,0.855810120935
1385572666221443064,979809,1385572666221443064,/world,vicon/Archie/Archie,-0.0635258800301,0.307867077855,0.114729029632,0.0101870764586,0.00198379827938,0.51720215121,0.855800340501
1385572666231448288,979810,1385572666231448288,/world,vicon/Archie/Archie,-0.063529485537,0.307870138466,0.114731437011,0.0101788369559,0.00199274864672,0.517197816932,0.855803037148
1385572666241352712,979811,1385572666241352712,/world,vicon/Archie/Archie,-0.0636039216767,0.307818447182,0.114814368337,0.0104141107668,0.00206559122238,0.517356421264,0.855704162083
1385572666251485221,979812,1385572666251485221,/world,vicon/Archie/Archie,-0.0635320914917,0.307870475627,0.114724876465,0.0101734194095,0.00198119473244,0.517197034928,0.85580360099
1385572666261441320,979813,1385572666261441320,/world,vicon/Archie/Archie,-0.0635350159117,0.307867426817,0.114723635651,0.0101927540011,0.002010237796,0.517198541398,0.855802392778
1385572666271426046,979814,1385572666271426046,/world,vicon/Archie/Archie,-0.0635990837691,0.307813520352,0.114814212036,0.0104305361086,0.00207009021924,0.517351839114,0.855706721493
1385572666281485619,979815,1385572666281485619,/world,vicon/Archie/Archie,-0.0635346128585,0.307862313612,0.114727063794,0.0101834415777,0.00197858559025,0.51719378606,0.855805451243
1385572666291337114,979816,1385572666291337114,/world,vicon/Archie/Archie,-0.0635397047367,0.307866390315,0.114735682033,0.0101655863032,0.00197812622924,0.517191956806,0.855806770064
1385572666301407505,979817,1385572666301407505,/world,vicon/Archie/Archie,-0.0635364306115,0.307866535768,0.114730799301,0.0101670348689,0.00199724308536,0.51720229447,0.855800460982
1385572666311510273,979818,1385572666311510273,/world,vicon/Archie/Archie,-0.0635277818513,0.307863759752,0.114731834464,0.0101930876604,0.0019988122899,0.517186590059,0.855809638165
1385572666321457042,979819,1385572666321457042,/world,vicon/Archie/Archie,-0.0636001826763,0.307819415641,0.114812302705,0.0104171931435,0.00207315113758,0.51736278619,0.855700258033
1385572666331451983,979820,1385572666331451983,/world,vicon/Archie/Archie,-0.0636055078501,0.307815730944,0.114798586197,0.0104697347362,0.00210112628751,0.517358691273,0.855702024356
1385572666341379281,979821,1385572666341379281,/world,vicon/Archie/Archie,-0.0635977668779,0.307814433048,0.114819080456,0.0104192995718,0.00207653369223,0.517358204693,0.855702994175
1385572666351469413,979822,1385572666351469413,/world,vicon/Archie/Archie,-0.0635373107701,0.307868190722,0.114709294121,0.010207749433,0.00203805547686,0.517203658103,0.855799055986
1385572666361487864,979823,1385572666361487864,/world,vicon/Archie/Archie,-0.0636022772637,0.307814155856,0.114812108759,0.0104150183228,0.00207293105208,0.517360392174,0.855701732474
1385572666371614762,979824,1385572666371614762,/world,vicon/Archie/Archie,-0.0635327838129,0.307864738358,0.114727269524,0.0101774382479,0.00201894636386,0.517181003997,0.85581315292
1385572666381585767,979825,1385572666381585767,/world,vicon/Archie/Archie,-0.0636100856428,0.307821995435,0.114798195014,0.0104415782865,0.00210981761611,0.517359911828,0.855701609059
1385572666391336763,979826,1385572666391336763,/world,vicon/Archie/Archie,-0.0635212170334,0.307866191822,0.114714634477,0.0101724234224,0.00202406751434,0.517191462701,0.855806880004
1385572666401466003,979827,1385572666401466003,/world,vicon/Archie/Archie,-0.0635458535978,0.307874918952,0.114715802087,0.0102099055123,0.00203795594208,0.517193716594,0.855805038593
1385572666411417506,979828,1385572666411417506,/world,vicon/Archie/Archie,-0.0635413232573,0.307873124934,0.11471574628,0.0101994112056,0.00204123729369,0.517199820115,0.855801467301
1385572666421385476,979829,1385572666421385476,/world,vicon/Archie/Archie,-0.0635242680884,0.307864329154,0.114719776186,0.0101737237168,0.00199345630731,0.517191721547,0.855806779969
1385572666431436900,979830,1385572666431436900,/world,vicon/Archie/Archie,-0.0635268846329,0.307868067326,0.114727060967,0.0101735362038,0.00200315690796,0.517195032951,0.85580475835
1385572666441287715,979831,1385572666441287715,/world,vicon/Archie/Archie,-0.0635303878712,0.307870892719,0.114729439383,0.0101932537731,0.00200136945653,0.517194701581,0.855804728168
1385572666451417029,979832,1385572666451417029,/world,vicon/Archie/Archie,-0.0635201494959,0.30786183675,0.114724288185,0.0102047949229,0.00202503757427,0.517199032353,0.855801917687
1385572666461644594,979833,1385572666461644594,/world,vicon/Archie/Archie,-0.0635272350875,0.307861346167,0.11473511726,0.0101749727727,0.00200525917443,0.517187097506,0.855809531986
1385572666471489589,979834,1385572666471489589,/world,vicon/Archie/Archie,-0.0635270547671,0.3078611226,0.114717891278,0.0101787226473,0.00203472926484,0.517194777752,0.855804776423
1385572666481470122,979835,1385572666481470122,/world,vicon/Archie/Archie,-0.063592641564,0.307808951865,0.114815715046,0.0104199109148,0.00205898240146,0.51736549311,0.855698622523
1385572666491393829,979836,1385572666491393829,/world,vicon/Archie/Archie,-0.0635244784579,0.307865979615,0.114732149575,0.0101555128897,0.00201400583245,0.517201809154,0.855800851803
1385572666501517579,979837,1385572666501517579,/world,vicon/Archie/Archie,-0.0635450148138,0.307822977457,0.114795279485,0.0104091163073,0.00214807752381,0.517346144089,0.855710233231
1385572666511556869,979838,1385572666511556869,/world,vicon/Archie/Archie,-0.063525960631,0.307862692098,0.114723172552,0.0101818743999,0.00198003552705,0.517183710497,0.855811555478
1385572666521340588,979839,1385572666521340588,/world,vicon/Archie/Archie,-0.0635397160697,0.307872400626,0.11471206872,0.0102167256055,0.00204245772275,0.517188476124,0.855808113451
1385572666531462078,979840,1385572666531462078,/world,vicon/Archie/Archie,-0.0635429800456,0.307861775229,0.114733507063,0.0101927144365,0.00201338785648,0.517205340572,0.855798276772
1385572666541378490,979841,1385572666541378490,/world,vicon/Archie/Archie,-0.0636135508331,0.307819073584,0.114802499978,0.0104608268873,0.00210648615602,0.517359656239,0.855701536702
1385572666551469440,979842,1385572666551469440,/world,vicon/Archie/Archie,-0.0635352349075,0.307865049634,0.114727739674,0.0101703577452,0.00198585039097,0.517193383948,0.855805833014
1385572666561451869,979843,1385572666561451869,/world,vicon/Archie/Archie,-0.0635287733859,0.307863936497,0.114718588143,0.0101593676527,0.00199676337506,0.517185594842,0.855810645337
1385572666571431160,979844,1385572666571431160,/world,vicon/Archie/Archie,-0.0635905855272,0.307805885952,0.114808932865,0.0104130513222,0.0020880489573,0.517363263755,0.855699983481
1385572666581483801,979845,1385572666581483801,/world,vicon/Archie/Archie,-0.0636009805909,0.307813229354,0.114814315542,0.0104325181371,0.00207830036013,0.517359402758,0.85570210448
1385572666591347988,979846,1385572666591347988,/world,vicon/Archie/Archie,-0.0635459958967,0.307873504557,0.114713241129,0.0102163978553,0.00207339905026,0.517197580966,0.855802540586
1385572666601521654,979847,1385572666601521654,/world,vicon/Archie/Archie,-0.0635272744171,0.307867959959,0.114699551674,0.0102050551346,0.00208065667642,0.517192684792,0.855805617249
1385572666611569557,979848,1385572666611569557,/world,vicon/Archie/Archie,-0.0635422841567,0.30787217567,0.114710477149,0.0101963476246,0.00206277456061,0.517199792057,0.855801469122
1385572666621424662,979849,1385572666621424662,/world,vicon/Archie/Archie,-0.0636078173338,0.307815705519,0.114817582445,0.0104201922848,0.00207250244724,0.517355785043,0.855704455995
1385572666631520305,979850,1385572666631520305,/world,vicon/Archie/Archie,-0.0635322840814,0.307866693097,0.114723637666,0.0101715631848,0.0020170185081,0.517191764481,0.855806724495
1385572666641325537,979851,1385572666641325537,/world,vicon/Archie/Archie,-0.0636002817393,0.307813728785,0.114822406668,0.0104351919608,0.00205338331652,0.51736061925,0.855701396537
1385572666651429463,979852,1385572666651429463,/world,vicon/Archie/Archie,-0.0635428747332,0.307872052498,0.114708449223,0.0102041577424,0.00205764383509,0.517197750508,0.855802622183
1385572666661550430,979853,1385572666661550430,/world,vicon/Archie/Archie,-0.0635946522289,0.307810447728,0.114808542908,0.0104120118998,0.00205101617452,0.517346855527,0.855710006028
1385572666671356554,979854,1385572666671356554,/world,vicon/Archie/Archie,-0.0636129576576,0.307823479621,0.11479317598,0.0104464148989,0.00215667690362,0.517364027997,0.855698944545
1385572666681397873,979855,1385572666681397873,/world,vicon/Archie/Archie,-0.0635270987864,0.307871234668,0.114723691877,0.0101788590502,0.00200336699732,0.517205264737,0.855798511028
1385572666691288996,979856,1385572666691288996,/world,vicon/Archie/Archie,-0.0635297433417,0.307870402174,0.114725814424,0.010174002458,0.00202031784008,0.517195866548,0.855804208692
1385572666701450131,979857,1385572666701450131,/world,vicon/Archie/Archie,-0.063591380802,0.307813972307,0.1148137111,0.0104229397325,0.00206771695274,0.51734998161,0.855707942818
1385572666711499326,979858,1385572666711499326,/world,vicon/Archie/Archie,-0.0635407306332,0.30787436267,0.11471021573,0.0101998832937,0.00202716333198,0.517196037822,0.855803780928
1385572666721390538,979859,1385572666721390538,/world,vicon/Archie/Archie,-0.0636022930358,0.307816981829,0.114812710267,0.0104169641368,0.00206879510806,0.51735575721,0.855704521098
1385572666731454227,979860,1385572666731454227,/world,vicon/Archie/Archie,-0.0635266087832,0.307862262747,0.114728263604,0.0101830584682,0.0020060436172,0.517202321226,0.855800233716
1385572666741325554,979861,1385572666741325554,/world,vicon/Archie/Archie,-0.0635381042434,0.307870181245,0.114725529037,0.0101629795466,0.00199501945684,0.517195427538,0.855804664323
1385572666751413496,979862,1385572666751413496,/world,vicon/Archie/Archie,-0.0635286689055,0.307865239492,0.114724352397,0.0101796094795,0.00197334355748,0.517186535597,0.855809890609
1385572666761465947,979863,1385572666761465947,/world,vicon/Archie/Archie,-0.0635319599816,0.307870430922,0.114720775912,0.0101612892583,0.00202190289992,0.517191440119,0.85580703104
1385572666771377356,979864,1385572666771377356,/world,vicon/Archie/Archie,-0.0635241716053,0.307868930941,0.11473250361,0.0101855946137,0.00197919523886,0.517194579846,0.855804944497
1385572666781417045,979865,1385572666781417045,/world,vicon/Archie/Archie,-0.0635349239658,0.30787075081,0.114733175327,0.0101582257137,0.00200174344772,0.517191095897,0.855807322824
1385572666791319966,979866,1385572666791319966,/world,vicon/Archie/Archie,-0.0635306054195,0.307866970848,0.114731652276,0.0101785163533,0.00199573396216,0.517188909018,0.855808417369
1385572666801467362,979867,1385572666801467362,/world,vicon/Archie/Archie,-0.0635469646996,0.307872587749,0.114713081111,0.0101950866237,0.00205323831036,0.517208394556,0.855796308137
1385572666811488997,979868,1385572666811488997,/world,vicon/Archie/Archie,-0.0635250480137,0.307869808608,0.114726338119,0.0101751213199,0.00205012822311,0.517195367201,0.855804426271
1385572666821419780,979869,1385572666821419780,/world,vicon/Archie/Archie,-0.0635262367493,0.307865405794,0.114727473141,0.0101653480776,0.00201442110189,0.517180670904,0.855813508569
1385572666831430776,979870,1385572666831430776,/world,vicon/Archie/Archie,-0.0636073362442,0.307814272453,0.114816148219,0.0104282175607,0.00206226699983,0.517364687471,0.85569900052
1385572666841473507,979871,1385572666841473507,/world,vicon/Archie/Archie,-0.0635200768204,0.307864467357,0.114736081787,0.0101762156992,0.00201634419853,0.517189604466,0.855807976139
1385572666851464596,979872,1385572666851464596,/world,vicon/Archie/Archie,-0.0635291582704,0.307863439716,0.114729848233,0.010174748236,0.00200182965917,0.517198120752,0.855802880964
1385572666861458999,979873,1385572666861458999,/world,vicon/Archie/Archie,-0.063590926777,0.3078200452,0.114807423653,0.0104221154951,0.00205823846123,0.517365990435,0.855698296775
1385572666871509825,979874,1385572666871509825,/world,vicon/Archie/Archie,-0.0636014065363,0.307817419069,0.114811145515,0.0103974697902,0.00207885381011,0.517350671514,0.855707808585
1385572666881472845,979875,1385572666881472845,/world,vicon/Archie/Archie,-0.0635934789399,0.307823566003,0.114786950209,0.0104718605486,0.00215450064092,0.517360164774,0.855700974739
1385572666891338304,979876,1385572666891338304,/world,vicon/Archie/Archie,-0.0635271608568,0.307870477688,0.114728428373,0.0101806736932,0.00202866756773,0.517188428235,0.855808604824
1385572666901407654,979877,1385572666901407654,/world,vicon/Archie/Archie,-0.0635318453322,0.307866046683,0.114738869139,0.0101842604566,0.00202171669091,0.517194409827,0.85580496373
1385572666911546309,979878,1385572666911546309,/world,vicon/Archie/Archie,-0.0635291195998,0.307870390709,0.114730011513,0.0101580776055,0.00202625935418,0.517196559497,0.855803965039
1385572666921361934,979879,1385572666921361934,/world,vicon/Archie/Archie,-0.0635196691476,0.307866314261,0.114713400563,0.0101975653751,0.00202916837741,0.517191427265,0.855806590124
1385572666931472853,979880,1385572666931472853,/world,vicon/Archie/Archie,-0.063533286157,0.307869598206,0.114730172317,0.01019065574,0.00200956991512,0.517195668702,0.855804155424
1385572666941341456,979881,1385572666941341456,/world,vicon/Archie/Archie,-0.0635343961106,0.307867142222,0.114732713976,0.0101572685616,0.00202100064256,0.517186842885,0.855809859138
1385572666951425060,979882,1385572666951425060,/world,vicon/Archie/Archie,-0.0635984844761,0.307817780213,0.114817447819,0.0104232055489,0.00205291922729,0.517359591389,0.855702165187
1385572666961462122,979883,1385572666961462122,/world,vicon/Archie/Archie,-0.0635958509421,0.307812699213,0.114822190198,0.0104233933599,0.00208173155294,0.517364915428,0.855698874341
1385572666971414061,979884,1385572666971414061,/world,vicon/Archie/Archie,-0.0635858462814,0.30780639394,0.114820202263,0.0104215874067,0.00207363647012,0.517356675318,0.855703898
1385572666981756868,979885,1385572666981756868,/world,vicon/Archie/Archie,-0.0635291727699,0.307863110658,0.114736903188,0.0101927124825,0.00198621197716,0.517196641418,0.855803597609
1385572666991361876,979886,1385572666991361876,/world,vicon/Archie/Archie,-0.063520398136,0.307866326373,0.114719652634,0.0101913060897,0.00202718520722,0.517184884775,0.855810623187
1385572667001489048,979887,1385572667001489048,/world,vicon/Archie/Archie,-0.0635898822397,0.307815047021,0.114812092551,0.0104190522358,0.00205325885768,0.517353783997,0.85570572609
1385572667011680332,979888,1385572667011680332,/world,vicon/Archie/Archie,-0.0635445548334,0.307876130986,0.11471791177,0.0102036137425,0.00206214161262,0.517199158918,0.85580176668
1385572667021436050,979889,1385572667021436050,/world,vicon/Archie/Archie,-0.063547193891,0.307876953257,0.114714152031,0.0101926395816,0.00208117582992,0.517192274424,0.855806011946
1385572667031517653,979890,1385572667031517653,/world,vicon/Archie/Archie,-0.0635221415364,0.307867285518,0.114717207667,0.010166313416,0.00203446370787,0.517183677744,0.855811632607
1385572667041456453,979891,1385572667041456453,/world,vicon/Archie/Archie,-0.0636002655039,0.307813259157,0.114818044231,0.0104160496879,0.00208131303929,0.517358837874,0.855702639308
1385572667051494378,979892,1385572667051494378,/world,vicon/Archie/Archie,-0.0635282686042,0.30786588467,0.114730440166,0.0101898959532,0.0019883970504,0.517198460912,0.855802526479
1385572667061519102,979893,1385572667061519102,/world,vicon/Archie/Archie,-0.06360261923,0.307817191231,0.114808614693,0.010414696732,0.00207361607861,0.517354131087,0.855705520173
1385572667071426168,979894,1385572667071426168,/world,vicon/Archie/Archie,-0.0636028589997,0.307816405963,0.114818068193,0.0104070822032,0.00209928400032,0.517359789068,0.855702129425
1385572667081463790,979895,1385572667081463790,/world,vicon/Archie/Archie,-0.0635934670951,0.307815193108,0.114810519556,0.0104425449726,0.00207694754018,0.51735698647,0.855703446349
1385572667091377463,979896,1385572667091377463,/world,vicon/Archie/Archie,-0.0635281835062,0.307868312783,0.114724453034,0.010177916678,0.00199492151952,0.517187459251,0.855809302528
1385572667101605606,979897,1385572667101605606,/world,vicon/Archie/Archie,-0.0635247615058,0.307862607557,0.114730813624,0.0101745560327,0.00197846795964,0.517178525087,0.855814779764
1385572667111512775,979898,1385572667111512775,/world,vicon/Archie/Archie,-0.0635256288694,0.307862779893,0.11471878672,0.0101912508351,0.00205051034281,0.517200447425,0.855801163237
1385572667121422130,979899,1385572667121422130,/world,vicon/Archie/Archie,-0.0635284152719,0.3078674927,0.114729711391,0.010188552888,0.00200479370964,0.517190376706,0.855807389799
1385572667131502062,979900,1385572667131502062,/world,vicon/Archie/Archie,-0.0635292510926,0.307865260055,0.114723713634,0.0101791430374,0.00199794823207,0.517186751599,0.855809708534
1385572667141426625,979901,1385572667141426625,/world,vicon/Archie/Archie,-0.0635230325785,0.307870921838,0.114728870341,0.010176384676,0.00198703690222,0.517198415894,0.855802717614
1385572667151460344,979902,1385572667151460344,/world,vicon/Archie/Archie,-0.0635270456955,0.307862447335,0.114732942718,0.0101850564915,0.00200479151785,0.517195640178,0.855804250525
1385572667161607419,979903,1385572667161607419,/world,vicon/Archie/Archie,-0.0635246337622,0.307871772548,0.114729839683,0.0101711272357,0.00199238455594,0.51719385842,0.855805521943
1385572667171457479,979904,1385572667171457479,/world,vicon/Archie/Archie,-0.0635912711945,0.307816663339,0.114813940556,0.0104274896822,0.00206950907396,0.517371643243,0.855694786334
1385572667181486540,979905,1385572667181486540,/world,vicon/Archie/Archie,-0.0635440603513,0.307881803293,0.114714061706,0.0101801076224,0.00204574155851,0.517201184182,0.855800862018
1385572667191359492,979906,1385572667191359492,/world,vicon/Archie/Archie,-0.0636105088353,0.307827018924,0.11480006216,0.0104543741363,0.00210653775893,0.517369414051,0.855695715757
1385572667201533325,979907,1385572667201533325,/world,vicon/Archie/Archie,-0.0635486120755,0.307875087701,0.114710306394,0.0102231263963,0.00207215555085,0.517208803407,0.855795680952
1385572667211510878,979908,1385572667211510878,/world,vicon/Archie/Archie,-0.0635360702711,0.307869717307,0.114733672194,0.0101704154097,0.00202341234351,0.517198204983,0.855802830806
1385572667221447850,979909,1385572667221447850,/world,vicon/Archie/Archie,-0.0635970024285,0.307814465679,0.114783499174,0.0104485715876,0.00214872395193,0.51735961012,0.855701609297
1385572667231624778,979910,1385572667231624778,/world,vicon/Archie/Archie,-0.06358307192,0.30781120119,0.114806207934,0.0104193708873,0.00209469947623,0.517358982739,0.855702478624
1385572667241399676,979911,1385572667241399676,/world,vicon/Archie/Archie,-0.0635530971989,0.307878894231,0.11470951602,0.0101899106133,0.00205622480865,0.517207000968,0.855797204839
1385572667251453231,979912,1385572667251453231,/world,vicon/Archie/Archie,-0.0635290721301,0.30787098272,0.114727392005,0.0101757322002,0.00199464186501,0.517187219113,0.855809474278
1385572667261553124,979913,1385572667261553124,/world,vicon/Archie/Archie,-0.0635241080262,0.307869048615,0.114728716594,0.0101755832396,0.00198584026726,0.517192380942,0.855806377073
1385572667271625628,979914,1385572667271625628,/world,vicon/Archie/Archie,-0.0635344977675,0.307871109005,0.114725171553,0.0101607294499,0.00201291763311,0.517193665702,0.855805713873
1385572667281461502,979915,1385572667281461502,/world,vicon/Archie/Archie,-0.0635223448393,0.307871040055,0.11472446796,0.0101862473334,0.00201582039514,0.517203371474,0.855799538075
1385572667291341753,979916,1385572667291341753,/world,vicon/Archie/Archie,-0.0635341754702,0.30787033132,0.114733522612,0.0101716776682,0.00200735324003,0.517197810564,0.855803091987
1385572667301490676,979917,1385572667301490676,/world,vicon/Archie/Archie,-0.0635134867413,0.307861876323,0.114714651333,0.0101769277223,0.00202448393215,0.517201831242,0.85580055934
1385572667311533757,979918,1385572667311533757,/world,vicon/Archie/Archie,-0.0635176547632,0.307861303281,0.114728277497,0.0101868361855,0.00198483325136,0.517201877684,0.855800506266
1385572667321352094,979919,1385572667321352094,/world,vicon/Archie/Archie,-0.0636044870533,0.307818663005,0.114814657967,0.0104004169977,0.00206160565997,0.517370567852,0.855695785095
1385572667331506265,979920,1385572667331506265,/world,vicon/Archie/Archie,-0.0635216852994,0.307867867709,0.114728417932,0.0101664807776,0.0019961142274,0.517198549023,0.855802733745
1385572667341317209,979921,1385572667341317209,/world,vicon/Archie/Archie,-0.0635203795648,0.307858460043,0.114731711177,0.0101775348353,0.00197917888373,0.517200639121,0.85580137855
1385572667351459730,979922,1385572667351459730,/world,vicon/Archie/Archie,-0.06353296238,0.307871779621,0.114727619585,0.0101703871835,0.00200134681848,0.517187215655,0.855809524251
1385572667361496917,979923,1385572667361496917,/world,vicon/Archie/Archie,-0.0635823331054,0.307813380701,0.114801594545,0.0104290407675,0.00209688818333,0.51734690988,0.855709654618
1385572667371449757,979924,1385572667371449757,/world,vicon/Archie/Archie,-0.0635271059711,0.307867304342,0.114724089961,0.0101642739543,0.00199558706312,0.517188642627,0.855808747971
1385572667381505178,979925,1385572667381505178,/world,vicon/Archie/Archie,-0.0635303662527,0.30786146517,0.114729884359,0.0101798226501,0.00199268986788,0.517188813782,0.855808466479
1385572667391272955,979926,1385572667391272955,/world,vicon/Archie/Archie,-0.0635274341504,0.307871719046,0.114713407391,0.0102099374587,0.00205706273529,0.517208050576,0.855796329794
1385572667401484090,979927,1385572667401484090,/world,vicon/Archie/Archie,-0.0635243733584,0.307867006831,0.114730725166,0.0101889596362,0.00201446924404,0.517185487451,0.855810316943
1385572667411681769,979928,1385572667411681769,/world,vicon/Archie/Archie,-0.0635396140709,0.307869577468,0.114715106545,0.0102005343316,0.00204603195048,0.517198301737,0.855802360088
1385572667421442470,979929,1385572667421442470,/world,vicon/Archie/Archie,-0.0635256248551,0.307863111554,0.1147232636,0.0101734306521,0.00201257663215,0.517201445916,0.855800861875
1385572667431475556,979930,1385572667431475556,/world,vicon/Archie/Archie,-0.0635111647383,0.307865074135,0.114712478788,0.01016554369,0.00205316156946,0.517188973598,0.855808396685
1385572667441426673,979931,1385572667441426673,/world,vicon/Archie/Archie,-0.0635257427851,0.307869365765,0.114725683138,0.0101629628933,0.0020170095745,0.517195289203,0.855804696577
1385572667451418830,979932,1385572667451418830,/world,vicon/Archie/Archie,-0.0635253384031,0.3078646995,0.114722292783,0.0101632948351,0.00200968369417,0.517187472443,0.855809433786
1385572667461556636,979933,1385572667461556636,/world,vicon/Archie/Archie,-0.0635182129786,0.307864955838,0.11471607839,0.0101953227344,0.00206262934405,0.51718745465,0.855808937618
1385572667471446372,979934,1385572667471446372,/world,vicon/Archie/Archie,-0.0635309166088,0.307866566559,0.114721338814,0.0101698235805,0.00202462964648,0.517191061492,0.855807152036
1385572667481532376,979935,1385572667481532376,/world,vicon/Archie/Archie,-0.0635304824187,0.307863456012,0.114726137371,0.0101799727196,0.00200755305133,0.517194816133,0.85580480254
1385572667491390230,979936,1385572667491390230,/world,vicon/Archie/Archie,-0.0635397526026,0.307867092827,0.114731457768,0.0101812019779,0.00200088190973,0.517195028184,0.85580467539
1385572667501419731,979937,1385572667501419731,/world,vicon/Archie/Archie,-0.0635969218072,0.307814539133,0.114807880218,0.0104146396318,0.00205517907901,0.517354538652,0.855705318936
1385572667511512434,979938,1385572667511512434,/world,vicon/Archie/Archie,-0.0635907843871,0.307813724334,0.114811314232,0.0104113733158,0.00207410956847,0.51735968036,0.85570220434
1385572667521484075,979939,1385572667521484075,/world,vicon/Archie/Archie,-0.0635292665065,0.307868429982,0.114723376418,0.0101784063778,0.0019971559628,0.517190631101,0.855807374655
1385572667531440690,979940,1385572667531440690,/world,vicon/Archie/Archie,-0.0635263611182,0.307865095373,0.114726459746,0.0101662442996,0.00200413195713,0.517201360628,0.855801018635
1385572667541349919,979941,1385572667541349919,/world,vicon/Archie/Archie,-0.0635343176802,0.307866373033,0.114722806953,0.0101652898677,0.00202445249213,0.517185992805,0.855810269464
1385572667551505696,979942,1385572667551505696,/world,vicon/Archie/Archie,-0.063601634499,0.307816394119,0.114818547827,0.0104211814083,0.00208154112687,0.517347983425,0.855709138791
1385572667561480685,979943,1385572667561480685,/world,vicon/Archie/Archie,-0.0635258998064,0.307863965599,0.114722105311,0.0101610028733,0.00201061883968,0.517192708529,0.855806294483
1385572667571393177,979944,1385572667571393177,/world,vicon/Archie/Archie,-0.0635164282963,0.307861551863,0.114713937851,0.0101964372012,0.00200166848001,0.517205410359,0.85579821774
1385572667581574125,979945,1385572667581574125,/world,vicon/Archie/Archie,-0.0635206412408,0.307859439534,0.114718214926,0.0101931632574,0.00203766675815,0.517196338424,0.855803654384
1385572667591384609,979946,1385572667591384609,/world,vicon/Archie/Archie,-0.0635299128254,0.307865006349,0.114733686483,0.0101796869806,0.00198854535185,0.51718418272,0.855811276395
1385572667601478697,979947,1385572667601478697,/world,vicon/Archie/Archie,-0.0635297506031,0.307866400168,0.114724414218,0.0101662491741,0.00202928076106,0.517214481641,0.855793029522
1385572667611455888,979948,1385572667611455888,/world,vicon/Archie/Archie,-0.0635194747441,0.307865516734,0.114726235439,0.010162162439,0.00202328637783,0.517182233265,0.855812581329
1385572667621529869,979949,1385572667621529869,/world,vicon/Archie/Archie,-0.0635277989597,0.307860210942,0.114728720958,0.0101940657007,0.00200198537228,0.517196597,0.855803571581
1385572667631463561,979950,1385572667631463561,/world,vicon/Archie/Archie,-0.0635305788609,0.307864403107,0.114720347133,0.0101639191728,0.00199798605689,0.517193296214,0.855805934281
1385572667641313085,979951,1385572667641313085,/world,vicon/Archie/Archie,-0.0635326247699,0.307862664891,0.114726603584,0.0101735334456,0.00201279028499,0.517200205878,0.855801609564
1385572667651445867,979952,1385572667651445867,/world,vicon/Archie/Archie,-0.0635282620786,0.307863235751,0.114726323786,0.0101656757413,0.00201424934754,0.517189183224,0.855808360903
1385572667661590678,979953,1385572667661590678,/world,vicon/Archie/Archie,-0.0635852875737,0.307811349031,0.114804075222,0.0104303228373,0.00212306627247,0.517361483593,0.855700763263
1385572667671398349,979954,1385572667671398349,/world,vicon/Archie/Archie,-0.0635132746329,0.307862739108,0.11471726521,0.010170127971,0.00204767027189,0.517199986163,0.855801700078
1385572667681525634,979955,1385572667681525634,/world,vicon/Archie/Archie,-0.0635981584946,0.307808403428,0.114818809976,0.0104361143881,0.00207575488527,0.517355685384,0.855704314327
1385572667691389639,979956,1385572667691389639,/world,vicon/Archie/Archie,-0.0635946222028,0.307813600397,0.114803352731,0.0104074422632,0.00205142746277,0.517364766057,0.855699231993
1385572667701450418,979957,1385572667701450418,/world,vicon/Archie/Archie,-0.063524952545,0.307861710382,0.114727671449,0.01016694805,0.00200226341073,0.517185309103,0.855810715145
1385572667711439175,979958,1385572667711439175,/world,vicon/Archie/Archie,-0.063527287562,0.307862009797,0.114728976206,0.0101619440416,0.00200660695143,0.517185868419,0.855810426397
1385572667721477862,979959,1385572667721477862,/world,vicon/Archie/Archie,-0.0635962378934,0.307812677134,0.11481408822,0.0104307501644,0.00206755051589,0.517348947031,0.855708473542
1385572667731492375,979960,1385572667731492375,/world,vicon/Archie/Archie,-0.0635201471044,0.307862442127,0.114727891485,0.0101594184926,0.00201152129777,0.517198182649,0.855803002953
1385572667741370596,979961,1385572667741370596,/world,vicon/Archie/Archie,-0.0636007968161,0.307812930113,0.114815749172,0.0104339806477,0.00208836446532,0.517360291387,0.855701524878
1385572667751554386,979962,1385572667751554386,/world,vicon/Archie/Archie,-0.0635361446638,0.307865844626,0.114720723062,0.010179742356,0.00199377558546,0.517195686344,0.855804311587
1385572667761467436,979963,1385572667761467436,/world,vicon/Archie/Archie,-0.0635287860907,0.307866422363,0.114729523716,0.0101831651443,0.00199333931288,0.517188722259,0.855808480511
1385572667771362585,979964,1385572667771362585,/world,vicon/Archie/Archie,-0.0635274045612,0.30786390067,0.114723454721,0.0101658082012,0.00202092684307,0.517196144269,0.855804136793
1385572667781474689,979965,1385572667781474689,/world,vicon/Archie/Archie,-0.0635390743718,0.307869959094,0.11470668074,0.010202000245,0.00204534864067,0.517196960277,0.855803154948
1385572667791335494,979966,1385572667791335494,/world,vicon/Archie/Archie,-0.0635994837481,0.307815354267,0.114806357012,0.0104208413676,0.00206290161704,0.517355957373,0.8557043671
1385572667801924918,979967,1385572667801924918,/world,vicon/Archie/Archie,-0.0635327988727,0.307865866868,0.114727916069,0.0101772920824,0.00200129685734,0.51719987786,0.855801790065
1385572667811527221,979968,1385572667811527221,/world,vicon/Archie/Archie,-0.0635935294026,0.307817644737,0.114813908921,0.010411862536,0.00208100518532,0.517362064829,0.855700739985
1385572667821397577,979969,1385572667821397577,/world,vicon/Archie/Archie,-0.0635231608644,0.307865029624,0.114729885395,0.0101954307959,0.00198481368957,0.517195010962,0.855804553821
1385572667831430561,979970,1385572667831430561,/world,vicon/Archie/Archie,-0.0635303557558,0.307868830586,0.114728638226,0.0101626983645,0.00200302654971,0.517193991334,0.855805516911
1385572667841324445,979971,1385572667841324445,/world,vicon/Archie/Archie,-0.0635284810632,0.30786757648,0.114721957521,0.0101626974106,0.00200865192098,0.517205142363,0.855798764671
1385572667851612143,979972,1385572667851612143,/world,vicon/Archie/Archie,-0.0635260113168,0.307860399201,0.114729834412,0.0101695108097,0.00199489719252,0.517193114679,0.855805984768
1385572667861468850,979973,1385572667861468850,/world,vicon/Archie/Archie,-0.0635228696007,0.307866098439,0.114715054555,0.0101609590935,0.00204090500943,0.517204125098,0.85579932379
1385572667871425573,979974,1385572667871425573,/world,vicon/Archie/Archie,-0.0635323533018,0.307859865057,0.114727689643,0.0101578788915,0.0019943895038,0.517194257063,0.85580543371
1385572667881532987,979975,1385572667881532987,/world,vicon/Archie/Archie,-0.063538773682,0.307868223978,0.11473303594,0.0101696563941,0.00200037392085,0.517194018656,0.855805423948
1385572667891367555,979976,1385572667891367555,/world,vicon/Archie/Archie,-0.0635361498537,0.307869892845,0.114728926248,0.0101650398308,0.00202240662814,0.517201824465,0.855800709632
1385572667901495634,979977,1385572667901495634,/world,vicon/Archie/Archie,-0.0635383687176,0.307869887161,0.114721983152,0.0101769055194,0.00201482432836,0.517197101347,0.855803440888
1385572667911530864,979978,1385572667911530864,/world,vicon/Archie/Archie,-0.0635321894438,0.307863959126,0.1147322287,0.0101750088898,0.00200379091981,0.517187701202,0.855809170167
1385572667921409568,979979,1385572667921409568,/world,vicon/Archie/Archie,-0.063601090532,0.30781498251,0.114822983809,0.0104295170168,0.0020473059752,0.517353386829,0.855705852995
1385572667931515219,979980,1385572667931515219,/world,vicon/Archie/Archie,-0.0635304155452,0.307868439052,0.114727916319,0.0101768994242,0.00202800928299,0.517190400401,0.855807459438
1385572667941401720,979981,1385572667941401720,/world,vicon/Archie/Archie,-0.0635348575166,0.307865285213,0.114729570185,0.0101764119885,0.00201740133023,0.517197398394,0.855803261168
1385572667951503071,979982,1385572667951503071,/world,vicon/Archie/Archie,-0.0635349893979,0.307868429419,0.114731650853,0.0101695893787,0.00198021949664,0.517187529308,0.855809393329
1385572667961615499,979983,1385572667961615499,/world,vicon/Archie/Archie,-0.063535217486,0.307865444325,0.114731887314,0.0101623938039,0.0019982739651,0.517190085996,0.855807891761
1385572667971448527,979984,1385572667971448527,/world,vicon/Archie/Archie,-0.0635279215231,0.30786439096,0.114724016491,0.0101658830136,0.00201757710913,0.517196044267,0.855804204243
1385572667981451078,979985,1385572667981451078,/world,vicon/Archie/Archie,-0.0635309054246,0.307869688499,0.114728909258,0.0101763570173,0.00199273638096,0.517189789421,0.855807917981
1385572667991371834,979986,1385572667991371834,/world,vicon/Archie/Archie,-0.0636023207955,0.307814003883,0.114817652105,0.0104340723335,0.00207875982914,0.517365906763,0.855698152044
1385572668001477908,979987,1385572668001477908,/world,vicon/Archie/Archie,-0.0635361324671,0.307863156478,0.11473146121,0.0101734223266,0.00199364380949,0.517199758662,0.855801925975
1385572668011587143,979988,1385572668011587143,/world,vicon/Archie/Archie,-0.0635294495808,0.307866125171,0.114722854021,0.010163701247,0.00200012346642,0.517187337795,0.855809532728
1385572668021451438,979989,1385572668021451438,/world,vicon/Archie/Archie,-0.0635300480577,0.307870755053,0.114734136523,0.0101670422174,0.00199019376306,0.517191090154,0.855807248536
1385572668031495438,979990,1385572668031495438,/world,vicon/Archie/Archie,-0.0635952636402,0.307810288112,0.114810550859,0.0104152043304,0.00204520872133,0.517358588194,0.855702887609
1385572668041476925,979991,1385572668041476925,/world,vicon/Archie/Archie,-0.0635315687002,0.307867844776,0.114724047026,0.0101771770118,0.00200137341934,0.517195605851,0.855804373009
1385572668051530412,979992,1385572668051530412,/world,vicon/Archie/Archie,-0.0636109212253,0.307817645152,0.114796198975,0.0104679671391,0.00213005571144,0.517355323114,0.855704010843
1385572668061572763,979993,1385572668061572763,/world,vicon/Archie/Archie,-0.0635365934908,0.307862872344,0.114731072907,0.0101780327662,0.00199227773288,0.517177855808,0.855815110839
1385572668071395867,979994,1385572668071395867,/world,vicon/Archie/Archie,-0.0635335378031,0.307865933602,0.114732954808,0.0101747064614,0.00200593514948,0.51720019491,0.855801618343
1385572668081490251,979995,1385572668081490251,/world,vicon/Archie/Archie,-0.0635302355863,0.307867568176,0.114724633605,0.0101614805253,0.00201354975642,0.517198991817,0.855802484686
1385572668091437644,979996,1385572668091437644,/world,vicon/Archie/Archie,-0.0635170414171,0.307863018558,0.114721824082,0.0101879299262,0.00204321216457,0.517187823537,0.855808849307
1385572668101863413,979997,1385572668101863413,/world,vicon/Archie/Archie,-0.0635303905716,0.307863460594,0.114723250382,0.0101739235597,0.00203218865361,0.517191866118,0.855806599127
1385572668111538656,979998,1385572668111538656,/world,vicon/Archie/Archie,-0.06362102417,0.307820756457,0.114795541875,0.0104468576143,0.00211465182328,0.517360342856,0.855701272088
1385572668121384113,979999,1385572668121384113,/world,vicon/Archie/Archie,-0.0635388300505,0.307873948752,0.114711468993,0.0102006192654,0.00206373848551,0.517204849461,0.855798359454
1385572668131623495,980000,1385572668131623495,/world,vicon/Archie/Archie,-0.0635923146344,0.307813020162,0.114813276108,0.0104100990136,0.00206021606627,0.517355796095,0.855704601831
1385572668141410061,980001,1385572668141410061,/world,vicon/Archie/Archie,-0.0636126485697,0.307818313416,0.114796557642,0.0104475093388,0.00210270519637,0.517363062198,0.855699649441
1385572668151465119,980002,1385572668151465119,/world,vicon/Archie/Archie,-0.0635271707864,0.307864559588,0.11472832449,0.0101881883324,0.00202895048509,0.517202019787,0.855800300833
1385572668162025622,980003,1385572668162025622,/world,vicon/Archie/Archie,-0.0635326643244,0.30786559142,0.114728161452,0.0101706627887,0.00204449858374,0.517195940766,0.85580414611
1385572668171468800,980004,1385572668171468800,/world,vicon/Archie/Archie,-0.0635408918821,0.307863499588,0.114727516841,0.0101905359247,0.0019886841005,0.517190827037,0.855807131626
1385572668181505291,980005,1385572668181505291,/world,vicon/Archie/Archie,-0.0636023210107,0.307813233385,0.114818470741,0.0104165506832,0.00211390261942,0.517367211649,0.855697490471
1385572668191980341,980006,1385572668191980341,/world,vicon/Archie/Archie,-0.0635339822886,0.30786664361,0.114728822367,0.0101769267907,0.00200458146914,0.517197869458,0.855803000487
1385572668201518514,980007,1385572668201518514,/world,vicon/Archie/Archie,-0.0636056805727,0.307811034831,0.114816520096,0.0104164781932,0.00207293593847,0.517367907435,0.855697170893
1385572668211560378,980008,1385572668211560378,/world,vicon/Archie/Archie,-0.0635363905914,0.30786604972,0.114733040873,0.0101723585821,0.00201690147746,0.517184320461,0.855811213936
1385572668221361050,980009,1385572668221361050,/world,vicon/Archie/Archie,-0.0636071170878,0.307812945664,0.114812944186,0.0104101644706,0.00205457339479,0.517369407204,0.855696385229
1385572668231534574,980010,1385572668231534574,/world,vicon/Archie/Archie,-0.0635488752493,0.307876123012,0.114709334527,0.0102056029736,0.00206915450168,0.517204820394,0.855798304526
1385572668241995810,980011,1385572668241995810,/world,vicon/Archie/Archie,-0.0635372425777,0.307871388327,0.114735947659,0.0101644415683,0.0020038230796,0.517194910709,0.855804938732
1385572668251455922,980012,1385572668251455922,/world,vicon/Archie/Archie,-0.0635364934337,0.307864543184,0.114732778718,0.0101878102506,0.00200163255817,0.517194120474,0.855805143556
1385572668261540336,980013,1385572668261540336,/world,vicon/Archie/Archie,-0.0635173058152,0.307863381583,0.114734349784,0.0101812202421,0.00198868365108,0.517189377406,0.855808118558
1385572668271476830,980014,1385572668271476830,/world,vicon/Archie/Archie,-0.0635917013078,0.30781082965,0.114823471511,0.0104401014141,0.00202933432142,0.517354171299,0.855705292448
1385572668281535123,980015,1385572668281535123,/world,vicon/Archie/Archie,-0.063608504162,0.307818679668,0.114798537985,0.0104605731382,0.00210601177827,0.517365025335,0.855698294777
1385572668291397321,980016,1385572668291397321,/world,vicon/Archie/Archie,-0.0635279796838,0.307868293577,0.114728042545,0.0101662219964,0.00200756058959,0.517199628149,0.855802057881
1385572668301440433,980017,1385572668301440433,/world,vicon/Archie/Archie,-0.0635352180352,0.307868560293,0.114725725437,0.0101638280837,0.00201551200999,0.517190584443,0.855807533078
1385572668312563759,980018,1385572668312563759,/world,vicon/Archie/Archie,-0.0635252574031,0.307868071974,0.114726950329,0.0101848830754,0.00199669524635,0.517205570509,0.855798270154
1385572668321434907,980019,1385572668321434907,/world,vicon/Archie/Archie,-0.0635343180644,0.307871421979,0.114729889619,0.0101660361302,0.00199566317521,0.51720611335,0.855798168584
1385572668331550067,980020,1385572668331550067,/world,vicon/Archie/Archie,-0.063524277832,0.307868757528,0.114722715429,0.0101565642657,0.00200813659629,0.517189266301,0.855808433245
1385572668341403520,980021,1385572668341403520,/world,vicon/Archie/Archie,-0.0635227104206,0.307864301017,0.114729453704,0.0101618179016,0.00200820073296,0.517196301355,0.855804119207
1385572668352172148,980022,1385572668352172148,/world,vicon/Archie/Archie,-0.0635259935616,0.307861261997,0.114729417297,0.0101857467613,0.00198701261826,0.517200754035,0.855801193251
1385572668362318883,980023,1385572668362318883,/world,vicon/Archie/Archie,-0.0635349950592,0.307869319369,0.114730594871,0.0101700036865,0.00199407079342,0.517193444871,0.85580578129
1385572668371415687,980024,1385572668371415687,/world,vicon/Archie/Archie,-0.0635265264414,0.307864173,0.114727563472,0.0101757902944,0.00199519829166,0.517186125205,0.855810133365
