%time,field.linear.x,field.linear.y,field.linear.z,field.angular.x,field.angular.y,field.angular.z
1385572669280684137,0.0,0.0,0.0,0.0,0.0,0.0
1385572669280697222,-0.0635963193088,-0.307822267224,-0.114804203908,0.0200915284135,0.00719777045691,-1.08753674512
1385572669289591369,-0.0635392529272,-0.307876616193,-0.114711674511,0.0195529569522,0.00708222413569,-1.08715802416
1385572669299676267,-0.0635337949125,-0.30787400919,-0.114717612238,0.0195876347059,0.00702055430751,-1.08713259429
1385572669309667548,-0.0635383159872,-0.307875082675,-0.114705361873,0.0195913868702,0.00705201894093,-1.08715593815
1385572669319531949,-0.0635255373631,-0.307870716971,-0.114727740707,0.0194810445663,0.00709943840834,-1.08713861923
1385572669329538389,-0.0635868599018,-0.307805859167,-0.114805682783,0.0200087147682,0.00716208048009,-1.08752722524
1385572669339559008,-0.0635412385055,-0.307875716265,-0.114711807341,0.0195777245161,0.00706379973272,-1.08714635741
1385572669349557240,-0.0635442116409,-0.307872296983,-0.114705486931,0.019564764891,0.0070416584732,-1.08715912474
1385572669359750386,-0.0636048934394,-0.307818205337,-0.114798076735,0.0200633159882,0.00719911718146,-1.08753623976
1385572669369600809,-0.0635400126947,-0.307872836362,-0.11471249828,0.0196238577678,0.00705095291226,-1.08711476715
1385572669379586327,-0.0635348311843,-0.307868945074,-0.114731074625,0.019485100309,0.00707309533903,-1.08711454346
1385572669389680135,-0.0635271303492,-0.307871003092,-0.114717700128,0.0195651965417,0.00708118239026,-1.08717642177
1385572669399507447,-0.0636046828746,-0.307813057568,-0.114801740798,0.0201231530127,0.00721546145953,-1.08752537808
1385572669409571196,-0.063540562166,-0.3078740702,-0.114713304172,0.0195990473785,0.00702640894054,-1.08712900831
1385572669419691570,-0.0635328412934,-0.307869763486,-0.114727575539,0.0194835913461,0.00703891384238,-1.08715912162
1385572669429643639,-0.0635399351273,-0.307874064045,-0.114709174569,0.0195939442914,0.00701623661765,-1.08716265322
1385572669439527051,-0.0635289229605,-0.307873809701,-0.114709912845,0.0195931141331,0.0070716366834,-1.08712152099
1385572669449576606,-0.0636038066647,-0.307821447657,-0.114801109004,0.0201229281013,0.00718814838127,-1.08752278298
1385572669459520352,-0.0635167354155,-0.307870271917,-0.114722893805,0.0194998591159,0.00705328917523,-1.0871226664
1385572669469670630,-0.0635391802856,-0.307879555682,-0.114719170202,0.0196027864591,0.00703289813246,-1.08714779366
1385572669479543651,-0.0635260037952,-0.307867667327,-0.114725933527,0.0194854155958,0.00707406193803,-1.08712401504
1385572669489616324,-0.063534869024,-0.307878658081,-0.114715317475,0.0195814268098,0.00707664191292,-1.08715530031
1385572669499578077,-0.0635224798874,-0.307863739297,-0.114727572262,0.0195203333372,0.00707367020669,-1.08713671592
1385572669509529112,-0.0635231769435,-0.307871249059,-0.114727859101,0.0194682040312,0.00714357618001,-1.0871569101
1385572669519544108,-0.063529316344,-0.307874034042,-0.114700925347,0.0196345818231,0.00697114239791,-1.08713691956
1385572669529520114,-0.0635258898829,-0.307868438053,-0.114724004806,0.0195011141041,0.00710444917075,-1.08711950959
1385572669539564991,-0.0635180559067,-0.307869766253,-0.114722023252,0.0195114172273,0.0070805616603,-1.08713409426
1385572669549569975,-0.063508128715,-0.307868453617,-0.114716242464,0.0195355110289,0.00700808779641,-1.08718765959
1385572669559589324,-0.0635264398305,-0.307866283158,-0.114732051779,0.0194894213767,0.00711098722927,-1.08712055038
1385572669569605055,-0.0635352188136,-0.307874427091,-0.114712464838,0.0195760252371,0.00709253325515,-1.08710396357
1385572669579596910,-0.0635857647365,-0.307816867139,-0.114818367853,0.0200084490308,0.00724899482042,-1.08753464286
1385572669589529266,-0.0635377462747,-0.307874069422,-0.114712264788,0.0195955340956,0.00708559737504,-1.08714038759
1385572669599596102,-0.0635210448861,-0.30786839268,-0.114729908067,0.0194861162693,0.007088775173,-1.08714282529
1385572669609564462,-0.0635142729358,-0.307874252431,-0.114731367435,0.0194893266087,0.00712362092695,-1.08712869082
1385572669619676755,-0.063530424777,-0.307871907804,-0.114718408574,0.0196046730247,0.00705806533993,-1.08713064825
1385572669629551915,-0.0635361743924,-0.307869279057,-0.114720122267,0.0196192954939,0.00700769037125,-1.08714302506
1385572669639525404,-0.0635380623277,-0.307872921073,-0.114726794303,0.0196192249496,0.0070585599147,-1.08714456589
1385572669649533153,-0.0635294024077,-0.307869743632,-0.114728732567,0.0194727917802,0.00712861458537,-1.08713197444
1385572669659519979,-0.0635344512331,-0.307877202453,-0.114717067813,0.0196104115606,0.00712093255308,-1.0871525434
1385572669669685168,-0.06359247572,-0.30781574352,-0.114817128567,0.0199733378074,0.00717353782422,-1.08754491344
1385572669679634566,-0.0635221399806,-0.307865729304,-0.114729643958,0.0194808294701,0.00712007494188,-1.08712850101
1385572669689620828,-0.0635218969303,-0.307869820947,-0.114728260218,0.0194506602537,0.00706867072849,-1.08713846765
1385572669700085538,-0.0635212332025,-0.307865852525,-0.114732930624,0.0194730037112,0.00710396918078,-1.08712484041
1385572669709616738,-0.0635199725898,-0.307864136862,-0.114729687907,0.0194811427233,0.00712192362114,-1.08712067382
1385572669719579174,-0.063518855319,-0.307869974637,-0.114715476144,0.0195373990415,0.00705948868541,-1.087136531
1385572669729619111,-0.0635209419119,-0.307864991145,-0.114731340147,0.0194808124245,0.00710158335835,-1.0871351501
1385572669739567286,-0.0635239265041,-0.307871688396,-0.114731150037,0.0194730060414,0.00706198032272,-1.08714566949
1385572669749532676,-0.0636081612142,-0.307817686571,-0.114819068616,0.0199885323099,0.00721848176284,-1.08752676364
1385572669759555206,-0.0635391071834,-0.307875796818,-0.114718416474,0.0195485332716,0.0071149587104,-1.08713072448
1385572669769685551,-0.0635258679663,-0.307866516719,-0.11472625925,0.0195051445357,0.00711162814819,-1.08711058489
1385572669779612778,-0.0635211648687,-0.307870480056,-0.11472584748,0.0194595391907,0.00704960845571,-1.08711187242
1385572669789610074,-0.0635207712613,-0.307864970329,-0.114726633101,0.0194653525144,0.00713098016554,-1.0871087585
1385572669799598859,-0.0635282706836,-0.307869311818,-0.114709182955,0.0196368144193,0.00699389962388,-1.08713576158
1385572669809722275,-0.0635250088311,-0.307871630481,-0.114705994777,0.0196038348919,0.00696191878401,-1.08716713384
1385572669819665434,-0.0635417853,-0.307877382148,-0.114712637565,0.0195921017813,0.00706321881042,-1.08728648712
1385572669829647874,-0.063536094429,-0.307872607407,-0.114739177147,0.0195277037494,0.00707533493101,-1.08695439974
1385572669839777872,-0.0634493743789,-0.307888515313,-0.114729250618,0.0195928485274,0.00699482761877,-1.08652172975
1385572669849650405,-0.0635275628998,-0.307874321637,-0.114768611896,0.0195209153911,0.007115026667,-1.08745801978
1385572669859560971,-0.0635190153688,-0.307866405249,-0.114760973756,0.0197272945284,0.00714081122483,-1.08743956461
1385572669869576437,-0.0635015826472,-0.307863105977,-0.114729074654,0.0198642746962,0.00718825811948,-1.08629809441
1385572669879594347,-0.0635002831534,-0.307895235904,-0.114740554823,0.0199172391251,0.00710539216459,-1.08636925018
1385572669889594119,-0.0635088080538,-0.307874402998,-0.114762261963,0.0199950536264,0.00690947820846,-1.08747589738
1385572669900039777,-0.0634660898222,-0.307837417867,-0.114718193101,0.0197587693257,0.00741720105689,-1.08796094359
1385572669909620263,-0.0634844450109,-0.30786076376,-0.114743371605,0.0197118976517,0.00727350767367,-1.0865848446
1385572669919531215,-0.0635863460166,-0.307800210775,-0.114850518546,0.0202823571479,0.00723231703531,-1.08687694322
1385572669929800504,-0.0634833710851,-0.30788065433,-0.114690646166,0.0199600560267,0.00699206156179,-1.08769291937
1385572669939560732,-0.0634926341033,-0.307850890602,-0.114672057839,0.0201318468899,0.00728400607993,-1.08773392939
1385572669949609354,-0.0635449716891,-0.307802536354,-0.114828183575,0.0205536948385,0.00730109484363,-1.08719960697
1385572669959516478,-0.0635481929046,-0.307789678941,-0.114803713514,0.0205610534755,0.00691131343981,-1.0879064916
1385572669969629833,-0.0635523718043,-0.307813522284,-0.114637378611,0.0200883869665,0.00759990123981,-1.08839089187
1385572669979560040,-0.0634839786857,-0.307818271818,-0.11472955108,0.0200598715025,0.00712280287183,-1.0877332142
1385572669989522789,-0.0635282293737,-0.307834822971,-0.114706006462,0.0201331761621,0.00704359842017,-1.08739037463
1385572669999648381,-0.0635171348818,-0.307833297361,-0.114707605095,0.0200752261802,0.00663765623874,-1.08785431271
1385572670009572156,-0.0634905876489,-0.307827509394,-0.114689839178,0.0200779400933,0.00715914072081,-1.08817227307
1385572670019624237,-0.0634408165242,-0.30780927835,-0.114733780035,0.019960546398,0.00759851416607,-1.08717354737
1385572670029560109,-0.0635157415158,-0.307857268293,-0.114718681185,0.0201381240813,0.00687761771784,-1.08743166937
1385572670039548358,-0.0634681155989,-0.307824787291,-0.114731192521,0.0198335933363,0.00728286294993,-1.08801817277
1385572670049592867,-0.0635257042123,-0.307841830245,-0.114657325506,0.0197589368979,0.00812589367147,-1.08754798264
1385572670059566192,-0.0635616184172,-0.307768017668,-0.114799858555,0.0208800971754,0.00720174296615,-1.08754908016
1385572670069691357,-0.0634831618115,-0.307816095611,-0.114699536954,0.0199957140803,0.00718280655423,-1.08772228271
1385572670079608374,-0.0634925512869,-0.307828734951,-0.114703357666,0.0199682040181,0.00725373311716,-1.08799253231
1385572670089783795,-0.0634856319006,-0.307818444043,-0.114689255236,0.0200082267829,0.00728881635863,-1.08749650825
1385572670099626509,-0.0634705995899,-0.307805041694,-0.114718162925,0.0198288766614,0.00744803742584,-1.08764096402
1385572670109695249,-0.0635472057237,-0.307812775966,-0.114690531203,0.019810435668,0.00799675407675,-1.08784187033
1385572670119639096,-0.0634980439356,-0.307705335592,-0.114735215174,0.0197263009906,0.00728716447141,-1.08800752136
1385572670129861593,-0.0634855107608,-0.307821351128,-0.114697883883,0.0201029262006,0.00727816341424,-1.08754888425
1385572670139752228,-0.063485449817,-0.307813447245,-0.114686401124,0.0200204256172,0.00723297577106,-1.08786472928
1385572670149629458,-0.0634947424848,-0.307827282533,-0.114693901066,0.0200044248741,0.00722920945318,-1.08785950019
1385572670159568025,-0.0636221496722,-0.307784302661,-0.11474175558,0.0203704747377,0.00796388150535,-1.08780218174
1385572670169709077,-0.0634488463827,-0.307835078016,-0.114725384485,0.0196987259405,0.00749227550348,-1.08739450464
1385572670179677222,-0.0635173961011,-0.307868803172,-0.114688474634,0.020239160679,0.00691306099008,-1.08786530278
1385572670189572433,-0.0635009276349,-0.307824637891,-0.114682815399,0.0202229369526,0.0071580811059,-1.08791193634
1385572670200813294,-0.0635646276027,-0.307818091011,-0.114690953648,0.0198394945328,0.0079510600445,-1.08727481457
1385572670209558702,-0.0634798801683,-0.307800699209,-0.114746532764,0.0197124708953,0.00742748830158,-1.08762498915
1385572670219580029,-0.0635329851467,-0.307730711977,-0.114801522982,0.0201289716148,0.00752877481449,-1.08825984895
1385572670229875943,-0.0634707601591,-0.307817468103,-0.114694667232,0.0200003068492,0.0072578703296,-1.08772235174
1385572670239747896,-0.0635652301066,-0.3078262655,-0.11465955345,0.0199537089438,0.00780646558988,-1.08759539785
1385572670249610352,-0.0634687508282,-0.307835932344,-0.11469541171,0.0198943859885,0.00722596438076,-1.08783649751
1385572670259621009,-0.0635372323246,-0.307731315998,-0.114790063001,0.0201280017027,0.00754192002595,-1.0880738686
1385572670269594122,-0.0634881545423,-0.307834689962,-0.114689677397,0.0199660718361,0.00727967037487,-1.0877031934
1385572670279570800,-0.0635955835229,-0.307851759411,-0.114654558769,0.019972876866,0.00771183398737,-1.08752524322
1385572670289640719,-0.0634953995038,-0.307808976616,-0.114755649254,0.0197369029873,0.00754876659077,-1.08783516826
1385572670299826851,-0.0634972261914,-0.307831514452,-0.114671676764,0.0201130356134,0.00717015633158,-1.08752042675
1385572670309579719,-0.0634983378706,-0.307818093827,-0.114681234967,0.0200655222723,0.00731510538303,-1.08759973062
1385572670319652552,-0.0634712790426,-0.307816549739,-0.114710237846,0.0198731584596,0.00731775650271,-1.08786262382
1385572670329887203,-0.0635579515598,-0.30774777136,-0.114757477893,0.0204635814435,0.00728079237491,-1.08854702997
1385572670339658871,-0.0635534389114,-0.307835746766,-0.114650961803,0.0199203578446,0.00791410651688,-1.08745150163
1385572670349586448,-0.0634986543035,-0.30783267343,-0.114752566316,0.019806820968,0.0069393162406,-1.0873781334
1385572670359596828,-0.0635004479269,-0.307887139179,-0.114727317385,0.020084516299,0.00683530832998,-1.08756373101
1385572670369619299,-0.0634391951712,-0.307834198252,-0.11468229881,0.0201243320258,0.00700812589532,-1.08771681171
1385572670379580074,-0.0634873226639,-0.307817174123,-0.114696530664,0.0202540581768,0.00717218078071,-1.08769324713
1385572670389587633,-0.0635332582291,-0.307763631413,-0.114858381946,0.0205266376876,0.00699777899228,-1.08785757217
1385572670399699334,-0.0634821327465,-0.307836814376,-0.114768391473,0.0203966318655,0.00675067665633,-1.08761776745
1385572670409548786,-0.0634446349064,-0.307866328548,-0.114729416076,0.0196928358351,0.00733040774734,-1.08792142484
1385572670419623504,-0.0634186487281,-0.307863468835,-0.114788640418,0.0195704743299,0.00762558754997,-1.08835292002
1385572670429716333,-0.0634888447843,-0.307793464522,-0.114758011329,0.0192780040816,0.00758487740255,-1.08743008828
1385572670439562255,-0.0634536682544,-0.30789651969,-0.114772327313,0.018919563921,0.00725607633498,-1.08808330813
1385572670449603666,-0.0635702052425,-0.307930824885,-0.114699064088,0.0183389841869,0.0068583724019,-1.08887628932
1385572670459604529,-0.0635371824392,-0.307818110898,-0.114686314578,0.0190854178698,0.00697343916897,-1.08776263104
1385572670469619905,-0.0634817832188,-0.307891690011,-0.114756699412,0.0190592971855,0.00708743349529,-1.08777495399
1385572670479584501,-0.0634925500204,-0.307884055653,-0.114788175261,0.0190898926583,0.00717823234678,-1.08860572467
1385572670489590775,-0.0635919113779,-0.307899797785,-0.11480549651,0.0184732562737,0.00829661999693,-1.08827662458
1385572670499560484,-0.0635475607862,-0.30779489564,-0.114908523301,0.0188087026488,0.00763601913856,-1.08858357235
1385572670509561264,-0.0636558951716,-0.30787147186,-0.114690014882,0.0185207349824,0.00654042065611,-1.08828377594
1385572670519835944,-0.0635285872391,-0.307904305347,-0.11481918483,0.0186200721584,0.00703822465041,-1.08806878478
1385572670529549806,-0.063599369674,-0.307802713465,-0.114776038462,0.0185261493594,0.00795125807712,-1.08771497312
1385572670539571593,-0.0635901762819,-0.307802722039,-0.114709970915,0.0190512580578,0.00705885552429,-1.08787188481
1385572670549586324,-0.0636322460243,-0.307896150996,-0.114620357118,0.0189286726201,0.00673174513828,-1.0874808324
1385572670559750322,-0.0635764317573,-0.307899978731,-0.114697846815,0.0182867301969,0.0067004567268,-1.08874058922
1385572670569565048,-0.0635558865637,-0.307855606594,-0.114963420316,0.0186454681844,0.00757369872864,-1.08836363833
1385572670579591042,-0.0635625067967,-0.307743413198,-0.11493593967,0.0191551035121,0.00748381471585,-1.08839787021
1385572670589696625,-0.0636010068754,-0.307884508872,-0.114679275153,0.0183570542759,0.00701853862759,-1.08880133811
1385572670599545392,-0.063635253946,-0.307830301424,-0.114578702783,0.0182843971233,0.00700153286376,-1.08766967686
1385572670609552194,-0.0635690043816,-0.307864285362,-0.114721725002,0.0176754773715,0.00714048980797,-1.08785620131
1385572670619723082,-0.0635725178479,-0.307870375637,-0.114939094679,0.0185498172479,0.00719472699608,-1.08892431169
1385572670629521220,-0.0636209480702,-0.307836222319,-0.114777287406,0.0189979224428,0.00787753723648,-1.0879229103
1385572670639506930,-0.0635164958623,-0.307724583063,-0.114696282992,0.0193719329654,0.00766692890931,-1.08771120208
1385572670649514522,-0.0636313904803,-0.307673628631,-0.11476185079,0.0204264995298,0.00751131402174,-1.08887811734
1385572670659568805,-0.0635826820053,-0.307771556333,-0.11479493093,0.0200834999089,0.00681030618071,-1.08746719618
1385572670669563924,-0.0635461428257,-0.307746787343,-0.11486102492,0.0191640827402,0.00697036201951,-1.08797250353
1385572670679654311,-0.0636301388441,-0.307888107421,-0.114699858824,0.0183285943448,0.00695671572199,-1.08857837812
1385572670689621997,-0.0636427213821,-0.307857288978,-0.114561962187,0.0182511008216,0.00658903284369,-1.08727132083
1385572670699539368,-0.0636595338082,-0.30785982929,-0.114639199733,0.0174701687161,0.00800890991431,-1.08842705037
1385572670709701903,-0.0635449165357,-0.307822645123,-0.114840766851,0.018515307418,0.00745967578704,-1.0883900966
1385572670719723608,-0.0636935206952,-0.307777163035,-0.11479371335,0.0198866457863,0.0068475256195,-1.08778336802
1385572670729541948,-0.0636534907672,-0.307801987756,-0.114644233382,0.0197775687991,0.00697073566253,-1.08841777907
1385572670739541710,-0.0635761384246,-0.307726771389,-0.114789149284,0.0198512643658,0.006951852806,-1.08773547896
1385572670749560313,-0.0635523684744,-0.307757420685,-0.114756509197,0.01981351951,0.00678642274549,-1.08753702978
1385572670759915601,-0.0636752142909,-0.307848879414,-0.1146530135,0.0186465455576,0.0066472050948,-1.08837394522
1385572670769664785,-0.0636927800914,-0.307864924375,-0.114681806208,0.0178577000838,0.007884104911,-1.08787623278
1385572670779508410,-0.0635175201278,-0.307801923679,-0.114808888334,0.018199726303,0.00731206672789,-1.08816880742
1385572670789590333,-0.063669936363,-0.307830952402,-0.114667711749,0.0186332049873,0.00651944433659,-1.08843831543
1385572670799535063,-0.0636692345413,-0.307812817969,-0.114717597839,0.0199589962011,0.00668057953956,-1.08752179656
1385572670809572392,-0.0635557719638,-0.307711081123,-0.114762748871,0.0197490446255,0.00693685010198,-1.08810536445
1385572670819716860,-0.0637049097012,-0.307738243394,-0.114806204007,0.0201376151591,0.00696316062587,-1.08865412807
1385572670829583031,-0.063693436011,-0.307723592656,-0.114752503207,0.0201605091925,0.00668898996133,-1.08786701877
1385572670839493924,-0.0636655472246,-0.307891725708,-0.114575438372,0.0183512175561,0.00804575539968,-1.08869602186
1385572670849591868,-0.0636163271131,-0.307749241709,-0.114652688952,0.0186236506211,0.0070765767549,-1.08823993313
1385572670859587628,-0.0636246906992,-0.307781211351,-0.114661416502,0.0194516161024,0.00653906670663,-1.08763789071
1385572670869554273,-0.0635665072207,-0.307697738641,-0.114631168581,0.0192162014419,0.00697975091145,-1.08871359524
1385572670879715700,-0.0636023575545,-0.307753223225,-0.114696791893,0.0192344396961,0.00687369377355,-1.08793273144
1385572670889805973,-0.0635384314484,-0.307678580927,-0.114737079569,0.0192050462053,0.00729759275171,-1.0878373577
1385572670899573678,-0.0635495690063,-0.307749489491,-0.114806225061,0.019716361617,0.00684743246961,-1.08834793163
1385572670909596926,-0.0636076476005,-0.307725934139,-0.114804288904,0.02022334585,0.00693360151782,-1.08765547692
1385572670919603469,-0.0635084074714,-0.30767762728,-0.114736017718,0.0193706856846,0.00738927569479,-1.08825004753
1385572670929546072,-0.0635783143424,-0.307719061334,-0.114718305328,0.0195289603637,0.00725362274915,-1.08862618275
1385572670939602050,-0.063638671236,-0.307620967306,-0.114847972246,0.0201558190608,0.00712774228769,-1.08803035535
1385572670949641856,-0.0634743883058,-0.307781102442,-0.114885666617,0.0187071822372,0.00820680174933,-1.08854424178
1385572670959633029,-0.0634823617276,-0.307734151803,-0.114982178836,0.0191836859159,0.00766429039081,-1.09095187264
1385572670969628547,-0.0635609293586,-0.307654166291,-0.114920798819,0.0195617621627,0.00675893422601,-1.08993843592
1385572670979844076,-0.063520629251,-0.307625885255,-0.114693093222,0.0194178475146,0.00649048860945,-1.09131688534
1385572670989591732,-0.0636342493266,-0.307617154095,-0.114505435987,0.0192634598132,0.00857674963103,-1.09033281399
1385572670999627396,-0.0636288033918,-0.307551048031,-0.114879789953,0.0203090382169,0.00781647614171,-1.0917637144
1385572671009568493,-0.0634732385708,-0.307676651005,-0.11510373385,0.0203678194599,0.0069010061161,-1.09132156314
1385572671019648606,-0.0635182067677,-0.307573270234,-0.114990451825,0.021067443653,0.0069449249345,-1.09171044817
1385572671029558282,-0.0636970763897,-0.307482151224,-0.114800273408,0.02183250883,0.00783163379357,-1.09242225165
1385572671039614538,-0.0634869632476,-0.307511351644,-0.11471917918,0.0213249472348,0.00713102069226,-1.09169402347
1385572671049730396,-0.0636365592255,-0.307442066142,-0.114979547764,0.0212845998746,0.00688137671485,-1.09338376221
1385572671059588212,-0.0635765328953,-0.307562759088,-0.115055704482,0.019941806654,0.00853252529061,-1.09212722539
1385572671069657596,-0.063700506294,-0.307604423712,-0.114822205713,0.0203717708067,0.00829981392545,-1.09346076442
1385572671079565873,-0.0636258927492,-0.307447360301,-0.114738210348,0.0210410566084,0.00679247789825,-1.09352950132
1385572671089603430,-0.063574532056,-0.307485047871,-0.114760856844,0.0207875495031,0.00690318476789,-1.09341595356
1385572671099832077,-0.0636362692992,-0.307452687199,-0.114859680124,0.0209110749498,0.00714855728178,-1.09360493929
1385572671109576492,-0.0635844276035,-0.307483006432,-0.11498329443,0.0210343934511,0.00767680040998,-1.09422491886
1385572671119657186,-0.063599227751,-0.307458228321,-0.114876648329,0.0218354744938,0.00691475005776,-1.09303326243
1385572671129537850,-0.0635951648947,-0.307362401835,-0.114788374065,0.0218082012137,0.00746363215381,-1.09422678372
1385572671139582909,-0.0636397207306,-0.307508264306,-0.1149443028,0.022253501244,0.00733602165079,-1.09448422842
1385572671149640998,-0.0636883124671,-0.307274188041,-0.114984812056,0.0224552808985,0.00734514807964,-1.09407300017
1385572671159579802,-0.0635880648121,-0.307498591225,-0.114957009543,0.0218736225524,0.00691021721598,-1.09432201646
1385572671169590596,-0.0637643207572,-0.307577729681,-0.114885864771,0.0211317575605,0.00459333779897,-1.09281907819
1385572671179612258,-0.0635904844565,-0.307443244116,-0.114802731776,0.0218204441098,0.00662847126062,-1.09430859975
1385572671189767701,-0.0636502332025,-0.307482724,-0.114875553905,0.0218913522834,0.00710812136474,-1.09345826582
1385572671199529411,-0.0635933811703,-0.307414134843,-0.114916192629,0.0216945283716,0.00748800657313,-1.0943562442
1385572671209529361,-0.0636326369553,-0.307597757937,-0.114815013419,0.0216147549931,0.00653637586694,-1.09487313521
1385572671219802033,-0.0636852530607,-0.307580643028,-0.114765351264,0.0216805430372,0.00594167293894,-1.09438778234
1385572671229559266,-0.0636319278529,-0.307469409707,-0.114831648644,0.0216068784597,0.00761585995527,-1.09473038154
1385572671239594135,-0.063634413796,-0.307422536922,-0.114923968322,0.0226033499978,0.00735567600168,-1.09459688662
1385572671249571668,-0.0636974716505,-0.307412799802,-0.114894585693,0.0225695236924,0.00654500343406,-1.09529565728
1385572671259527960,-0.0636221999427,-0.307572328668,-0.11487119919,0.0220520415801,0.0063562272034,-1.09382090744
1385572671269685034,-0.0637301012992,-0.307464347854,-0.115009959678,0.0220130701212,0.00724462891604,-1.09545304065
1385572671279601888,-0.0637087625815,-0.307413322531,-0.114795689919,0.0214041286389,0.0076165221321,-1.09448242568
1385572671289593764,-0.0635871966277,-0.307378458043,-0.11467453693,0.0210589388804,0.00690684586056,-1.09451205696
1385572671299539736,-0.0637477637065,-0.307414305469,-0.11467353518,0.0210336100021,0.0065398563553,-1.09392339918
1385572671309560720,-0.0636049395842,-0.307429013359,-0.114969814992,0.0217743299077,0.00649469056173,-1.09491830011
1385572671319686245,-0.0637212997323,-0.307550994691,-0.114921828998,0.0226950231897,0.00772543197644,-1.09481276413
1385572671329629474,-0.0636764231211,-0.307444539819,-0.114712831975,0.0230064007542,0.0058906044719,-1.09558346771
1385572671339625987,-0.0636683980884,-0.307507941356,-0.114635239496,0.0221638756176,0.00602870073887,-1.09429903298
1385572671349601848,-0.063685222241,-0.307431827805,-0.114783125708,0.0218743553194,0.00628371248996,-1.09587086409
1385572671359529413,-0.0637673119838,-0.30738431797,-0.114885999394,0.0218940965745,0.00802617166057,-1.09531836669
1385572671369562907,-0.0637600496631,-0.307326255278,-0.114855023915,0.0217797776329,0.00701208563609,-1.09483630104
1385572671379639670,-0.0638029719819,-0.307521558836,-0.114708760154,0.021467546739,0.00603723825071,-1.09627500502
1385572671389893101,-0.0637918616729,-0.307464652875,-0.114690633285,0.0212840272324,0.00612973622582,-1.09510717765
1385572671399824961,-0.0638670762804,-0.307526515279,-0.114918525723,0.0218833263405,0.00778598781156,-1.09541951325
1385572671409731666,-0.0638383950524,-0.307447092178,-0.114871666466,0.0221319627149,0.00682772627769,-1.09527805908
1385572671419697004,-0.0638574931442,-0.30756925772,-0.114737187903,0.0219794715504,0.00501840774361,-1.09549879679
1385572671429567098,-0.0639335108884,-0.307521369777,-0.114770050782,0.0216712183888,0.00680877573955,-1.0959801147
1385572671439701567,-0.0639043318774,-0.307460001817,-0.114882777611,0.0213353127809,0.00687679446115,-1.09581323647
1385572671449576323,-0.0639724543373,-0.307567157681,-0.114917053069,0.021719258174,0.00632190633451,-1.09627077262
1385572671459530668,-0.0638813468653,-0.307590039693,-0.114929027005,0.0218651466091,0.00614045671408,-1.09676510223
1385572671469626711,-0.063934487234,-0.307544522465,-0.114847214494,0.022816021473,0.00632276711033,-1.09626723689
1385572671479743147,-0.0639654836122,-0.30759481798,-0.114861136047,0.0225564331921,0.00655345756009,-1.0970898533
1385572671489499926,-0.0639576213278,-0.30756939492,-0.114920321557,0.0221433111538,0.00615030184115,-1.09654174005
1385572671499578130,-0.0640077907818,-0.307628268243,-0.114847691706,0.0223113692755,0.00614428175933,-1.09662118093
1385572671509562115,-0.0639564399235,-0.307631284701,-0.114852651971,0.0223651786858,0.00590753116514,-1.09637531895
1385572671519664579,-0.0640163202834,-0.307685025495,-0.114850726946,0.0227069892057,0.00580087942239,-1.09646465979
1385572671529556340,-0.0640464297776,-0.307681214808,-0.114851053618,0.0224471139041,0.00634288163231,-1.09638522115
1385572671539805254,-0.0640050402662,-0.307643677692,-0.115091223576,0.0225088698638,0.00771065941701,-1.09636156714
1385572671549560489,-0.0639520156898,-0.307779931106,-0.115093663361,0.0232389054463,0.00698823165121,-1.09658908194
1385572671559551187,-0.0638949608226,-0.307806118244,-0.115017344519,0.0233454222321,0.00624284871667,-1.09687885253
1385572671569675569,-0.0638232001316,-0.307887461094,-0.115024313348,0.0232061655976,0.00639953735085,-1.09631295003
1385572671579594476,-0.0639073320531,-0.307889800858,-0.114915124386,0.0231697798957,0.00608303600122,-1.09779147408
1385572671589523179,-0.0638434499255,-0.307913490534,-0.114808580672,0.0222920211904,0.00595821977856,-1.09765752135
1385572671599819677,-0.0639331343688,-0.307864610215,-0.114945335561,0.0215537563379,0.00796133852224,-1.0987327909
1385572671609545712,-0.0639931019866,-0.308088433104,-0.115057987889,0.021599867544,0.00735532111534,-1.09908163003
1385572671619570800,-0.064004519016,-0.308008230718,-0.115113503163,0.0224572242416,0.0076534822465,-1.09916836139
1385572671629859924,-0.0640097796595,-0.308234187425,-0.11514610998,0.0228819166042,0.00685968885654,-1.10071082626
1385572671639605827,-0.0641363682651,-0.308168264489,-0.115118692862,0.0232682207614,0.00687638329561,-1.10145121474
1385572671649610892,-0.0641591294589,-0.308346052092,-0.114979870576,0.0226611308755,0.00483383369275,-1.10230715089
1385572671659996573,-0.0643681788887,-0.308379783175,-0.115033621699,0.0218722669256,0.00451106121937,-1.10254085365
1385572671669660643,-0.0645396940763,-0.3084660216,-0.115087195194,0.021237133365,0.00651536163534,-1.10420911588
1385572671679636489,-0.0647300699497,-0.308471171116,-0.114800070024,0.0210417132982,0.00748929089911,-1.1042951205
1385572671689514162,-0.0648768395224,-0.308545618796,-0.114924924873,0.0215302948649,0.00719155054964,-1.10587598987
1385572671699643279,-0.0650798612536,-0.308623387557,-0.115132771325,0.0219354817138,0.00762208914115,-1.10670684169
1385572671709539586,-0.0652040576614,-0.308657960118,-0.115294537578,0.0226602864653,0.00838096897369,-1.10763551907
1385572671719700998,-0.0654568290181,-0.308734646819,-0.115046923997,0.0231166935969,0.00648661456942,-1.10870286956
1385572671729542350,-0.0657685889841,-0.308753071351,-0.114817855272,0.0235643280447,0.00698557602482,-1.10928135653
1385572671739624807,-0.0660209114529,-0.308821279764,-0.11501762853,0.0227416625847,0.00644644180985,-1.11054441589
1385572671749531281,-0.0661868737744,-0.30881831491,-0.115174537759,0.0212036021904,0.00780934699238,-1.11171030677
1385572671759565525,-0.0664534049061,-0.308742883355,-0.115298439709,0.0217234546681,0.00670761628891,-1.11235351875
1385572671769954235,-0.066606621391,-0.308773524099,-0.11517348459,0.0217435635738,0.00837610060487,-1.11369458235
1385572671779547037,-0.0670217398686,-0.308984892332,-0.115242997393,0.0218340727793,0.00456713646745,-1.1154174309
1385572671789528388,-0.0673345878168,-0.309001627969,-0.115247399401,0.0221608971687,0.00423147627111,-1.11756814865
1385572671799699317,-0.0676037733863,-0.309127950869,-0.115155770325,0.0217744557674,0.00507277783201,-1.11967032991
1385572671809534184,-0.0678546154961,-0.308989982467,-0.115055393933,0.0212583903166,0.00624209859697,-1.12056418914
1385572671819611995,-0.0681841451811,-0.30911611709,-0.115201044062,0.0213266211953,0.00704878081934,-1.1232175311
1385572671829534325,-0.0684583983111,-0.309096533577,-0.115184755319,0.0211872830691,0.00753822375654,-1.12488167426
1385572671839524037,-0.0687837702998,-0.309098338308,-0.11495567421,0.0221894796442,0.00687889132072,-1.12685830978
1385572671849918735,-0.0691405351086,-0.309020539075,-0.114909237892,0.0219733408966,0.00624729792802,-1.12851618284
1385572671859595493,-0.0695792130787,-0.308919971401,-0.1152002258,0.0221101990007,0.00494540067625,-1.13139777998
1385572671869653227,-0.0698244102914,-0.308957097837,-0.115255333057,0.0203006533493,0.00551232268635,-1.13321094534
1385572671879554717,-0.0702510193559,-0.308853814627,-0.115208344486,0.01851426086,0.00534350357648,-1.13525065913
1385572671889744088,-0.0705965822155,-0.308669345636,-0.115293055318,0.0177855291552,0.005644551715,-1.13745512312
1385572671899722954,-0.0709127101847,-0.308417164199,-0.115216206736,0.0178069444374,0.00471639410549,-1.13950371799
1385572671909584458,-0.0714447121793,-0.308256393695,-0.115082819026,0.0197291406308,0.00317763620138,-1.14167888499
1385572671919594453,-0.0718472775438,-0.308069384831,-0.115135808147,0.0204753711957,0.00522994141356,-1.14448671539
1385572671929800924,-0.0723834942498,-0.30784732418,-0.115370558535,0.0210091394758,0.00538939225728,-1.14805318703
1385572671939640711,-0.0725255440468,-0.30752056613,-0.115576670609,0.0199021185168,0.00374939908169,-1.15064367615
1385572671949718526,-0.0729637762207,-0.307269161182,-0.11546809484,0.0195546140097,0.00242909421599,-1.15260833814
1385572671959652062,-0.0732428818854,-0.3068978507,-0.115455449284,0.0183154924777,0.00184461653397,-1.1553808379
1385572671969753401,-0.0737642441303,-0.306585405452,-0.115807853329,0.017740823725,0.0020660694661,-1.1579415937
1385572671979651138,-0.0742597828482,-0.306401185175,-0.115956075619,0.0176032681145,-0.000681130621083,-1.16124633773
1385572671989560231,-0.0746046057884,-0.306163835252,-0.116106179723,0.0175793887988,-0.00161686938225,-1.16432445937
1385572671999618962,-0.0752574900039,-0.306051389339,-0.116310014034,0.0183506210678,-0.00254258990935,-1.16814945759
1385572672009559944,-0.0755791144764,-0.305768686551,-0.11680232558,0.0187252522912,-0.00582567700857,-1.17115837927
1385572672019806706,-0.0760904338648,-0.305522665584,-0.117023294282,0.0193529321089,-0.00835615356748,-1.17418387052
1385572672029744304,-0.0765597602719,-0.305181217902,-0.117264941142,0.0202391543217,-0.0104289770062,-1.1771343139
1385572672039794403,-0.0770757304659,-0.30492395825,-0.117751959176,0.0214594817789,-0.0126066876846,-1.17990519134
1385572672049862562,-0.0775848909773,-0.304611763689,-0.118512312296,0.0223377394149,-0.014737957293,-1.18302326676
1385572672059857138,-0.0781153633601,-0.304396925528,-0.119027912746,0.0224818858355,-0.0189885927029,-1.18705102325
1385572672069997463,-0.0785870696482,-0.304311681197,-0.119350774414,0.0225774237722,-0.0221123275692,-1.18966774725
1385572672079732935,-0.0791852230615,-0.304081220353,-0.11996413414,0.0225630546991,-0.0243189724344,-1.19268493963
1385572672089931533,-0.0795505735188,-0.303692583505,-0.120674428859,0.022335441524,-0.0265037212979,-1.19540584619
1385572672099638769,-0.0801336376128,-0.303549103831,-0.121576091462,0.023507480993,-0.0299088591891,-1.19801650058
1385572672109904755,-0.0804789097032,-0.303235710237,-0.122384945834,0.02368851263,-0.0310484147219,-1.20014259804
1385572672119687092,-0.0812253760504,-0.303084630481,-0.122983210945,0.0243127813264,-0.0327120032268,-1.20366685622
1385572672129694841,-0.0817000928308,-0.302678956877,-0.123927766373,0.0243253962141,-0.0349455974755,-1.20545209034
1385572672139760576,-0.0821184872046,-0.302305504731,-0.125198249643,0.025854149753,-0.0357404387104,-1.20808129847
1385572672149721127,-0.082786435929,-0.302114824245,-0.126288201524,0.0267373168443,-0.0367885828671,-1.21061538697
1385572672159632069,-0.0830394983498,-0.301713961795,-0.127508956939,0.0279603128048,-0.036945188016,-1.21283142668
1385572672169717941,-0.0835129273654,-0.301426057282,-0.128872358926,0.0291235507017,-0.0382307162685,-1.21558763752
1385572672179618940,-0.0838814207308,-0.300969518827,-0.130309119913,0.0299201375998,-0.0383629959357,-1.21750545038
1385572672189616483,-0.0844302386377,-0.300792002422,-0.131796545794,0.0303204015879,-0.037373664096,-1.21935840671
1385572672199651879,-0.0848553410057,-0.300458248132,-0.133349603991,0.0315263814798,-0.0396752255434,-1.22272616635
1385572672209608390,-0.0853119153884,-0.300021051884,-0.135085417897,0.0316470507653,-0.0406854791905,-1.224585941
1385572672219667443,-0.085792302934,-0.299881861404,-0.136900275895,0.0313995788527,-0.0416875096079,-1.22672587727
1385572672229644808,-0.0862360069115,-0.299485041007,-0.138955260794,0.031945127781,-0.04048402497,-1.22947686335
1385572672239615745,-0.0865223313469,-0.29919906448,-0.140996834091,0.033724943155,-0.0431551572882,-1.23128322559
1385572672249735059,-0.0867840466221,-0.299119590012,-0.143160187658,0.0331709392755,-0.0430393373556,-1.23298253115
1385572672259743565,-0.0870051111606,-0.298905255521,-0.145416606229,0.0338389980308,-0.044964095666,-1.23412946266
1385572672269693982,-0.0871262888761,-0.29867837663,-0.147787644175,0.0352044442262,-0.0452248235837,-1.23511398294
1385572672279795584,-0.0874690811484,-0.298729067245,-0.15010831572,0.0365459592091,-0.0485142379543,-1.23685276941
1385572672289759495,-0.0874749507978,-0.298598039579,-0.152957515948,0.0393284485555,-0.0504661907204,-1.23799037176
1385572672299652149,-0.0875228937073,-0.298840399018,-0.155825325492,0.0411469400942,-0.0508602230357,-1.24056663843
1385572672309560682,-0.0874727093625,-0.298974516514,-0.158515742073,0.0419882702167,-0.051785361956,-1.2419738923
1385572672319662467,-0.0874869498257,-0.298863530625,-0.161694555271,0.0439739996295,-0.0517507298624,-1.24415114292
1385572672329549906,-0.0874005189283,-0.29908483211,-0.16481668385,0.0446414041765,-0.0520786307864,-1.24497917392
1385572672339629293,-0.0872701295319,-0.299344016678,-0.167945258727,0.0455506670498,-0.0525148726905,-1.24586963212
1385572672350030162,-0.087185453801,-0.299748372176,-0.17106781888,0.0460879890153,-0.0531020401777,-1.24753250739
1385572672359612287,-0.0871492026329,-0.300080226567,-0.174476723773,0.0481166981683,-0.0524674327803,-1.24882848224
1385572672369630573,-0.0866039924168,-0.300397841602,-0.17805922665,0.0496662360247,-0.0530236334763,-1.25085038167
1385572672379615451,-0.0864145193733,-0.301000342518,-0.181681753908,0.0515524116809,-0.0528581840074,-1.25248412956
1385572672389872679,-0.0860847572191,-0.301560267233,-0.185240598042,0.052132065033,-0.0523821151765,-1.25406808594
1385572672399608218,-0.0858290887375,-0.302230275864,-0.188827315456,0.0536035890739,-0.0518647863751,-1.25535820683
1385572672409967498,-0.0855338997402,-0.302871938227,-0.192629242353,0.0532065491989,-0.0517856524653,-1.25616663873
1385572672419690163,-0.0850033251309,-0.303649675921,-0.196475400946,0.0518921039238,-0.0503314143174,-1.25765824384
1385572672429629891,-0.0845707511156,-0.30440930114,-0.20031970564,0.0520140306465,-0.048131060198,-1.25931524772
1385572672439608287,-0.0841485415998,-0.305213505714,-0.204001992593,0.0517777781999,-0.0471462855289,-1.26067344252
1385572672449719498,-0.083648677128,-0.306001853163,-0.207872601825,0.0526445705306,-0.0460787784669,-1.26254610586
1385572672459563230,-0.0830354557911,-0.306999070754,-0.211908820637,0.0532390286069,-0.0435246978704,-1.26411029801
1385572672470158082,-0.0825038263223,-0.307828213346,-0.215806186073,0.054892763914,-0.0412750980781,-1.26560515352
1385572672479851361,-0.0817990902294,-0.308707907937,-0.219906682088,0.0575230842939,-0.0380758509986,-1.26841901321
1385572672489568289,-0.0811377891442,-0.309741402387,-0.224010389423,0.059168639229,-0.0335399460445,-1.27082578283
1385572672499612785,-0.0803960076878,-0.310649444444,-0.228086613832,0.0607319176555,-0.0323391919562,-1.27345415059
1385572672509596713,-0.0796372047881,-0.311669913647,-0.232271040436,0.0618968143043,-0.0292623382562,-1.27562351825
1385572672519703707,-0.0789669392647,-0.312750629779,-0.236360955651,0.0626101073759,-0.026602215876,-1.27759583691
1385572672529764573,-0.0779540500035,-0.313841963552,-0.240621696264,0.0628149537276,-0.0238546606765,-1.27967625486
1385572672539843838,-0.0771605710333,-0.315000519905,-0.244859294099,0.0632394366706,-0.0231071912796,-1.28110428439
1385572672549765070,-0.0762558394513,-0.316072024671,-0.249118027861,0.0637308419167,-0.0202699814159,-1.28299133821
1385572672559606773,-0.0752748206909,-0.317342989446,-0.253534028796,0.0635421840906,-0.0181154469859,-1.28533937885
1385572672569603864,-0.0742892003757,-0.318542486015,-0.257671045664,0.0629037099111,-0.0180311002568,-1.28736990331
1385572672579685474,-0.073279043448,-0.319771038246,-0.262029653237,0.0636212221389,-0.0154753458925,-1.28900546343
1385572672589595646,-0.0721732607771,-0.320933977894,-0.266355418291,0.0639709939717,-0.0153657874087,-1.29122420083
1385572672599616521,-0.070814866042,-0.322170743169,-0.270781712714,0.0640270209771,-0.013464179644,-1.29271882114
1385572672609923324,-0.0697579365883,-0.323219430401,-0.275255934663,0.0658638745094,-0.011365211747,-1.29447120912
1385572672619807669,-0.0685560640417,-0.324523191376,-0.279622566826,0.0668455146819,-0.00987643666828,-1.29596771817
1385572672629605794,-0.0670882544057,-0.325677680345,-0.283998241971,0.0680237522714,-0.00901926783753,-1.29819252053
1385572672639577813,-0.0656528824889,-0.326801053744,-0.288639866481,0.0696289214417,-0.00695443751627,-1.30043573227
1385572672649662319,-0.0643775266646,-0.327974089716,-0.293206269512,0.0710240126281,-0.00593051577887,-1.30265689472
1385572672659603263,-0.06282296335,-0.329058119183,-0.29768984588,0.0716817742903,-0.00446736884469,-1.30394565351
1385572672669718574,-0.0614523176257,-0.330313553229,-0.302192210349,0.072627477612,-0.00468516930218,-1.30613066926
1385572672679586525,-0.0597696614202,-0.331494671903,-0.306860495519,0.0723532420994,-0.00227365121586,-1.30787206264
1385572672689529690,-0.0582868252515,-0.332672091111,-0.311457886044,0.0736339845891,-0.00266338882107,-1.31014604566
1385572672699596126,-0.0567298401049,-0.333695610368,-0.316029041129,0.0744583300979,-0.00188439618867,-1.31137525528
1385572672709589075,-0.0550941264435,-0.334953517444,-0.320531690198,0.0747904112689,-0.00119967123599,-1.31306323476
1385572672719622213,-0.0533330307004,-0.335932987767,-0.325288347517,0.0753428822866,0.000220218460579,-1.31486452236
1385572672729562971,-0.0516161374572,-0.336856342763,-0.329991367026,0.0764122179598,0.00107322437128,-1.31603697081
1385572672739560754,-0.0498810551578,-0.338117162461,-0.334863823308,0.0763189952911,0.0032148556715,-1.31873455332
1385572672749648431,-0.048084909717,-0.338964258367,-0.33950596973,0.0755204003282,0.00396096112342,-1.32002444429
1385572672759560309,-0.0463112830806,-0.339953267388,-0.344010189119,0.0743243590405,0.00545278896753,-1.32152402113
1385572672769711001,-0.0444767140208,-0.341149832631,-0.348825572291,0.0732775378143,0.00637918270543,-1.32333912252
1385572672779654254,-0.042641405213,-0.342096613993,-0.353599650755,0.0729592211755,0.00793924023112,-1.32474924984
1385572672789535293,-0.0404996181078,-0.343163429743,-0.358262978706,0.0720901749772,0.00929646916467,-1.32588369624
1385572672799537200,-0.0386558234138,-0.343964257293,-0.363070370539,0.07218792148,0.0110662377948,-1.3270738332
1385572672809582557,-0.036762217388,-0.344915689137,-0.367747593983,0.071474047794,0.0125572435071,-1.32872885581
1385572672819637616,-0.0346478791741,-0.34572359652,-0.372616413487,0.071154715089,0.0133832966108,-1.33043565206
1385572672829860620,-0.0324533265603,-0.346668606123,-0.377632005547,0.0697137930649,0.0158380522305,-1.33187077874
1385572672839594213,-0.030437892959,-0.347610190975,-0.382510310761,0.0685636330821,0.0144758887247,-1.33331254693
1385572672849781018,-0.0281357414892,-0.348477933972,-0.387706360903,0.0673718027232,0.0148593607985,-1.33400615552
1385572672859566232,-0.0263466232043,-0.34924108932,-0.392795277707,0.0676066702865,0.0180579326784,-1.33459180364
1385572672869653193,-0.0238629085438,-0.350059295507,-0.397850696838,0.0663409576994,0.0197476402415,-1.33602354033
1385572672879746619,-0.0216201314147,-0.350740910871,-0.402561746921,0.0681645772301,0.0194068453042,-1.33718337033
1385572672889652091,-0.0194634631763,-0.351784448347,-0.407245047668,0.0691922593217,0.0224453521862,-1.33913595293
1385572672899573963,-0.0168885765222,-0.352310672939,-0.411929708919,0.0709744804727,0.0210249536795,-1.34129328481
1385572672909723374,-0.0146638143049,-0.35307711482,-0.416433611123,0.0716670141783,0.0214855035537,-1.34315274875
1385572672919685757,-0.0123674439408,-0.353735943317,-0.420778766393,0.0716432885239,0.0212916550594,-1.34475179696
1385572672929551736,-0.0103110342018,-0.354451994805,-0.424768618346,0.0699680381406,0.0242294506701,-1.34509485914
1385572672939585151,-0.00763942710931,-0.35514692402,-0.428997763385,0.0669150021093,0.0219841584306,-1.34722619138
1385572672949591798,-0.00519803863196,-0.355742204645,-0.433024308961,0.0656164594619,0.0208056842575,-1.34827116118
1385572672959688962,-0.002794264056,-0.356421742365,-0.436930309988,0.0637922096556,0.0214562582077,-1.34995933137
1385572672970317135,-0.000414902055022,-0.357145331229,-0.440443759265,0.0625419402865,0.0199613569628,-1.35117548959
1385572672979724648,0.00194452303288,-0.357692223571,-0.443929546156,0.061959221013,0.0193197830273,-1.35280450327
1385572672989658388,0.00450081841156,-0.358176912351,-0.447547380818,0.06150411553,0.0189805237992,-1.3548293685
1385572672999669404,0.00711326108764,-0.358888284612,-0.450933126358,0.0606673327163,0.0189477636275,-1.35618485274
1385572673009586206,0.00958378030403,-0.359308926425,-0.453943010755,0.0590614171515,0.017803717122,-1.35761408492
1385572673019782358,0.012127431429,-0.359982426529,-0.456931844318,0.0571570228037,0.017496899476,-1.35922882481
1385572673029580492,0.0147017420599,-0.360417327801,-0.459951250469,0.0560876991337,0.0181769453266,-1.36068738509
1385572673039625683,0.0172161446562,-0.360906045003,-0.462684225762,0.0551102505122,0.0158608466158,-1.3617006302
1385572673049795737,0.0198188379332,-0.36149599026,-0.465364097811,0.0531678558496,0.0162200693627,-1.36352158993
1385572673059627392,0.0223167324897,-0.36189878445,-0.467566187175,0.0520981304328,0.0140155739906,-1.3643999693
1385572673070101378,0.0250783167042,-0.362517645363,-0.47007503327,0.0507868387967,0.0139766268902,-1.36588891682
1385572673079574647,0.0276342186398,-0.362913859646,-0.472220854671,0.0494728315067,0.0133755226863,-1.36785918234
1385572673089874300,0.0302772672004,-0.363400541168,-0.474353756293,0.0494341899781,0.0129673312467,-1.36901661549
1385572673099617460,0.0329978321767,-0.363818617384,-0.476187569114,0.0484943133769,0.0125255640437,-1.37069721843
1385572673109531435,0.0356439359912,-0.36440036405,-0.47796759642,0.0477712322734,0.0108737111485,-1.37231024541
1385572673119594201,0.038361817357,-0.364663696931,-0.479709597227,0.0475378016865,0.0117869078247,-1.3737204983
1385572673129726130,0.0409418111238,-0.365123826213,-0.481152109487,0.0474080055411,0.00979442048932,-1.3755687643
1385572673139578454,0.043735450018,-0.365557160759,-0.482480301119,0.04676538657,0.00865258914657,-1.37676870634
1385572673149530235,0.0464009817477,-0.365954926626,-0.48383479386,0.0467215475883,0.00927532387156,-1.3780443153
1385572673159581777,0.0491892197517,-0.366360040709,-0.484972907819,0.0461965955464,0.00817042324669,-1.37950130352
1385572673169772868,0.0518940578395,-0.366762032488,-0.485923036827,0.046065514204,0.00721123523097,-1.38118120589
1385572673179811265,0.0545689089758,-0.367224508401,-0.486839816927,0.0448922364994,0.00745642145105,-1.38301442303
1385572673189895185,0.0573801885538,-0.367638001558,-0.487729517783,0.0446578632706,0.00731189073371,-1.38402666102
1385572673199644222,0.0600410696175,-0.367971050217,-0.488349364885,0.0439447939573,0.00570072930298,-1.38569033682
1385572673209600833,0.0629488212365,-0.3682971619,-0.489122299597,0.0434266650628,0.00599550524822,-1.38744012418
1385572673219656151,0.0656789137914,-0.368712234083,-0.489516758019,0.0430673019541,0.00530380120876,-1.38846092256
1385572673229579968,0.0685216486225,-0.369106010818,-0.490045962307,0.042206907754,0.00550715026963,-1.39004877682
1385572673239564507,0.0712830783366,-0.369549634164,-0.490286740255,0.0418485076147,0.00485041450821,-1.39117867467
1385572673250002711,0.0739424060016,-0.369920161809,-0.490515012366,0.0415724624123,0.00496386734824,-1.39288399247
1385572673259927695,0.0768268570824,-0.370252406479,-0.490653185402,0.0410710017351,0.00438382563766,-1.39388533614
1385572673270057814,0.0795608448833,-0.370622336933,-0.490702063583,0.0402056507346,0.00471071234347,-1.39513016167
1385572673279788031,0.0823663612471,-0.371021422044,-0.490669898115,0.0397185339292,0.00427037719506,-1.39689327506
1385572673289783864,0.0851583876055,-0.371356649128,-0.490440313384,0.0387454629145,0.00484891859268,-1.39806854291
1385572673299620543,0.0879305232031,-0.371773980379,-0.490353214907,0.0389842200407,0.0051324901963,-1.399454481
1385572673309598533,0.090857839726,-0.372151418427,-0.490012403066,0.0378815243554,0.00475161514877,-1.40078751112
1385572673319652415,0.0935682664844,-0.372548124056,-0.48962515097,0.0376033273399,0.00463314657974,-1.40190983516
1385572673330046497,0.0963991610024,-0.37286919486,-0.489094403426,0.0366840273156,0.00457594777807,-1.40290805931
1385572673339587760,0.0991716120075,-0.373213014151,-0.488586510076,0.0358586760874,0.00508288596218,-1.4039161726
1385572673349491612,0.102077115677,-0.373533667286,-0.487972392549,0.0351515624549,0.00499823738087,-1.40514330675
1385572673359618833,0.104844208666,-0.374233874596,-0.487476939163,0.0330306508014,0.00348922341462,-1.40674311657
1385572673369701258,0.107630373174,-0.374411679047,-0.486603510764,0.033400428232,0.00517675538547,-1.40883531354
1385572673379539690,0.11045939486,-0.374778786234,-0.485838402589,0.0321993287008,0.00540689944383,-1.41038906445
1385572673389580643,0.113335320859,-0.375036879498,-0.484989904072,0.0315593601811,0.00587186877537,-1.4119818754
1385572673399618556,0.116010023581,-0.375615620535,-0.483930984342,0.0308082630226,0.0045900186616,-1.41275377256
1385572673409559689,0.118882572594,-0.375853345266,-0.483223699602,0.0309583788678,0.0050848626842,-1.4141384413
1385572673419618759,0.121648729689,-0.376416493466,-0.482045944546,0.0295338672828,0.0049396355051,-1.41531095831
1385572673429891125,0.124559602674,-0.376733870558,-0.481142255712,0.0296229331003,0.00551174818938,-1.41683840883
1385572673439546015,0.127243692308,-0.377174142161,-0.479856733722,0.0290897540888,0.00357900283226,-1.41745969352
1385572673449530076,0.130264875251,-0.377501334078,-0.478962269642,0.0289698798109,0.00439096937218,-1.41876024684
1385572673459794576,0.133001397567,-0.37787603368,-0.477880444001,0.0291433306088,0.00450714391904,-1.42005002598
1385572673469660741,0.13580740192,-0.378268416868,-0.47677968727,0.0290729964665,0.00580629925295,-1.42162799613
1385572673479636615,0.138707873866,-0.378695722969,-0.475352714961,0.0280963196515,0.0043422905765,-1.4226720901
1385572673489585966,0.141478044563,-0.37921712134,-0.474257510645,0.0285292700076,0.00477826473894,-1.42427598615
1385572673499590235,0.14437896995,-0.379605227487,-0.472970752044,0.0278891778102,0.00430773851137,-1.42571929749
1385572673509562149,0.147057010023,-0.379998734894,-0.471662682217,0.027598708652,0.00387926852763,-1.426370448
1385572673519591044,0.149887823495,-0.380361625964,-0.470447850291,0.0278973009868,0.00349876861888,-1.42778064961
1385572673529866871,0.15275706619,-0.380767681379,-0.469082106627,0.0274016725377,0.00377007376723,-1.42872852487
1385572673539571577,0.155518632529,-0.381330987604,-0.467680273596,0.0266198851693,0.00435671723713,-1.43018123011
1385572673549564805,0.158380356751,-0.381688419078,-0.466281167896,0.0267011823447,0.00402334568294,-1.43181841811
1385572673559823825,0.161235238058,-0.382166011885,-0.464977172293,0.0279765100393,0.00280705846136,-1.43266476596
1385572673569727960,0.164121206485,-0.382453682298,-0.463678895869,0.0282685336221,0.00330375725521,-1.4343219254
1385572673579581822,0.167057713448,-0.382971197406,-0.462319250127,0.0286029833178,0.00343427227534,-1.43542714508
1385572673589603727,0.169617813619,-0.383426076508,-0.46085806508,0.0304712299232,0.0017266722514,-1.43650639063
1385572673599558157,0.172587158519,-0.383897891192,-0.45934722422,0.0300953423751,0.00149616609266,-1.43804461254
1385572673609570398,0.17543861016,-0.384279222674,-0.458060041571,0.0305612048921,0.00116511290796,-1.43902022411
1385572673619617847,0.178305506128,-0.385018979782,-0.456479253167,0.0296891151718,0.000237335421117,-1.44043332251
1385572673629595158,0.181078213429,-0.385132143497,-0.45519870181,0.0304764952893,0.00118798337651,-1.44196269353
1385572673639520428,0.18378816192,-0.385778544091,-0.453656882561,0.0300970758534,1.4155007048e-05,-1.44275762751
1385572673649560522,0.186799046782,-0.38623767635,-0.452336052721,0.0295472825561,-0.000272022299896,-1.44450435097
1385572673659584423,0.189474244322,-0.386711011606,-0.450948935595,0.0291820664045,-0.0011732466745,-1.44521544135
1385572673669586890,0.192480678628,-0.387187229157,-0.449607932278,0.0291653351195,-0.000568611242341,-1.44631031407
1385572673679520348,0.19500821112,-0.387666458016,-0.448046635659,0.0282400096674,-0.000382399513015,-1.44749401912
1385572673689574611,0.197912096908,-0.388156319531,-0.446910683974,0.0281945665374,2.61035389185e-05,-1.44917756243
1385572673699585322,0.200828415059,-0.388622090662,-0.445419818696,0.0272226163283,4.85929522949e-05,-1.45054194465
1385572673709524100,0.203503699889,-0.389020802876,-0.44408417516,0.0267978579281,0.000283199445353,-1.45129912568
1385572673719731996,0.206506546943,-0.389671156001,-0.442623998611,0.0265241908988,-0.000500017845943,-1.45242911141
1385572673729547371,0.209132898803,-0.390090674836,-0.441232622705,0.0260079391846,0.000657082892458,-1.4535257459
1385572673739532183,0.211972117513,-0.39062199133,-0.44002635071,0.0259120695748,0.000217555102958,-1.45486859577
1385572673749666473,0.214840853879,-0.391006659839,-0.438543727622,0.0247172882951,0.00149928136115,-1.4558109477
1385572673759588424,0.217575716625,-0.391566540401,-0.437291790507,0.0249585247913,0.00181526280838,-1.45754080304
1385572673769638310,0.220466130157,-0.39218750157,-0.435877558541,0.0239151383791,0.000683651499317,-1.45820861238
1385572673779524154,0.223214306725,-0.39275524615,-0.434526885595,0.0245950649981,0.000225147681229,-1.45855787808
1385572673789527136,0.226000890532,-0.393349757657,-0.433298824576,0.0234760039415,0.000359866936353,-1.45993127232
1385572673799571545,0.228934118115,-0.393784832881,-0.432036861405,0.0225475138491,0.000612429347418,-1.4614052626
1385572673809789421,0.231592762753,-0.394407457219,-0.43086141858,0.0218888715933,0.000199128242224,-1.46192646824
1385572673819715664,0.234475448251,-0.395055561445,-0.429723132349,0.0207788397279,0.00017703466791,-1.4637984633
1385572673829750103,0.237120538917,-0.395634994667,-0.428609150611,0.0199222230025,0.00158570077016,-1.46458915096
1385572673839542447,0.239900320971,-0.39611314536,-0.42731227882,0.0191603037428,-0.000607757775063,-1.46515796253
1385572673849570042,0.242707134522,-0.396773331382,-0.426309183129,0.0174454865504,9.7782998249e-05,-1.46675108795
1385572673859638955,0.245318853162,-0.397465297223,-0.425254699222,0.0165709500239,0.00053926483364,-1.46720301922
1385572673869746883,0.248201532793,-0.397972380455,-0.424273883217,0.0166714704491,-0.000644466757135,-1.46820781822
1385572673879525636,0.250823158841,-0.398565242709,-0.42318290555,0.0160216831316,-0.000628255340101,-1.46878174762
1385572673889719701,0.253574333167,-0.399173596048,-0.422422523322,0.0168112481694,0.000407703764774,-1.47033631879
1385572673899587899,0.256371357736,-0.399809217418,-0.421413360124,0.0164274355464,-6.66189673951e-05,-1.47151567276
1385572673909529581,0.258925730222,-0.400461707288,-0.420714848629,0.0163689107749,-0.000674402799597,-1.47198092619
1385572673919702197,0.261568826545,-0.401134195449,-0.419846110531,0.0167966451792,-0.00017452719575,-1.47326995269
1385572673929628632,0.264478861505,-0.401649454394,-0.418948574744,0.0173434624445,0.00111446128056,-1.47398006886
1385572673939629344,0.267183838859,-0.402319403657,-0.41818762126,0.0166671275832,0.00130706364793,-1.47530538354
1385572673949628642,0.26983102495,-0.40292843025,-0.417484224591,0.0168466964776,0.00137156464496,-1.47628954797
1385572673959613393,0.27252291533,-0.403486826915,-0.416785645938,0.0170616048304,0.00216788045544,-1.47725624542
1385572673969569308,0.275032483163,-0.404046398771,-0.416029992867,0.016053944659,0.00380851217686,-1.47865656363
1385572673979545112,0.277742146253,-0.404751680217,-0.415660820701,0.014434017966,0.000824491711878,-1.47923054559
1385572673989577011,0.280275311046,-0.405415496603,-0.4149675368,0.0146569666106,0.00263625711382,-1.4802769833
1385572673999655960,0.282901649806,-0.405934047477,-0.414427993373,0.0139294892575,0.00388678693125,-1.48153339868
1385572674009517270,0.285334335715,-0.406742287709,-0.413712578324,0.0128855772803,0.00374895882859,-1.48197355793
1385572674019626879,0.288108429612,-0.407151741211,-0.413159946209,0.0124505104429,0.00479962575202,-1.48349876243
1385572674029608625,0.290731192814,-0.407895727711,-0.41259400557,0.0112082677067,0.004999008065,-1.48474849328
1385572674039605298,0.293290134298,-0.40855197443,-0.412463976389,0.0109886506382,0.00848106862713,-1.48511934962
1385572674049594611,0.295523406715,-0.409288738444,-0.411560734529,0.00966358463675,0.00544738556942,-1.48620831518
1385572674059563711,0.29813202535,-0.409946601012,-0.411387528461,0.00655472504174,0.00276382910614,-1.48643451438
1385572674069788390,0.300543882522,-0.410617947385,-0.410863790516,0.00522589705561,0.0023673633913,-1.48726169985
1385572674079593575,0.303167718895,-0.411413794105,-0.410594203883,0.00442928661655,0.00356713089858,-1.48785423646
1385572674089881147,0.30548323428,-0.412038080513,-0.410218818117,0.00342080870567,0.00340389944656,-1.48813851314
1385572674099625130,0.307888941675,-0.412542470871,-0.409976101083,0.00268203948448,0.00243301845607,-1.48950198011
1385572674109757426,0.310495679256,-0.413250615669,-0.409721892554,0.00156925628247,0.00177434768024,-1.48976779753
1385572674119676720,0.312741245515,-0.414056705908,-0.409390610519,0.000620779924876,0.00145553617125,-1.49092904618
1385572674129713028,0.315123933566,-0.414665640962,-0.409303937765,0.00184814846391,0.00355760175071,-1.49260415691
1385572674139825838,0.317781463991,-0.415340154061,-0.409060872227,0.00318660289434,0.00434983057008,-1.4931942811
1385572674149723328,0.320043155761,-0.415894401956,-0.40888633573,0.00418626734699,0.00497020562483,-1.49399642585
1385572674159719065,0.322266167945,-0.416539659068,-0.408640395903,0.00399583293449,0.00557918810558,-1.49477958334
1385572674169714937,0.324770494024,-0.417136281819,-0.408780580512,0.00463345033609,0.00685544371328,-1.49503795918
1385572674179621779,0.326904592519,-0.417886668271,-0.408698167249,0.00528543302839,0.00640533258332,-1.49611111342
1385572674189629612,0.329121543996,-0.418659014705,-0.408540654303,0.003821326663,0.00741366915057,-1.49700998648
1385572674199634125,0.331544703394,-0.419177181668,-0.40879762232,0.00411724063801,0.00984895476156,-1.49760685317
1385572674209864305,0.333728869492,-0.419867545069,-0.408687798524,0.00470493223443,0.00875835515516,-1.49840460316
1385572674219658470,0.335921337192,-0.420455221095,-0.408692876376,0.00485662147715,0.00935301914796,-1.49939832057
1385572674229616228,0.33811756157,-0.421134772936,-0.408811076595,0.00518791071654,0.0108903570074,-1.50046629063
1385572674239759530,0.340282557302,-0.421933447377,-0.408864886802,0.00425697335129,0.0110224791577,-1.50134980051
1385572674249712340,0.342343954105,-0.422488996624,-0.408910815048,0.0049500142851,0.0113010387141,-1.5020013767
1385572674259705043,0.344546173717,-0.423106004343,-0.409168436378,0.00549434762649,0.0112192810747,-1.50267495502
1385572674269719786,0.346625061011,-0.42368612391,-0.409325096463,0.00531234861544,0.011722072861,-1.50326921482
1385572674279898697,0.348747200482,-0.424667544805,-0.409468942205,0.00524997221808,0.0105223923555,-1.50449611224
1385572674289544902,0.350672077639,-0.425298577814,-0.409448535044,0.00395930460007,0.00949181686184,-1.50535305592
1385572674299678860,0.352735470202,-0.42594190245,-0.409976649229,0.00417340859152,0.00947551901861,-1.50640614113
1385572674309677878,0.354786110618,-0.426809714893,-0.410171770674,0.00317137676951,0.0080717761985,-1.50712557044
1385572674319872644,0.356467648348,-0.427466330598,-0.410389786434,0.000385519088891,0.00536621420594,-1.50795177364
1385572674331731269,0.358512750557,-0.428076667122,-0.410737960016,-0.000655104466519,0.00476745204874,-1.50788672773
1385572674339643295,0.360222182647,-0.429019161913,-0.410809290119,-0.00243523610988,0.00247722450751,-1.50895650971
1385572674349656205,0.362268513271,-0.429751953025,-0.411249461973,-0.00317694581261,0.0021872668828,-1.50922982369
1385572674359919516,0.364122954363,-0.43026801425,-0.411295563781,-0.00270659752141,0.0027866375368,-1.50993164894
1385572674369671155,0.366012854188,-0.431081301516,-0.411802626345,-0.00459636041337,0.00545373099369,-1.51118248515
1385572674379584660,0.367871200109,-0.431753979821,-0.412061342905,-0.00527396191309,0.00214405776149,-1.51143294981
1385572674389774330,0.369422506031,-0.43240517072,-0.412455121317,-0.00763427495984,-0.000317753206204,-1.51150978332
1385572674399710007,0.371364137198,-0.432997331811,-0.412718350349,-0.00826078318304,0.00206716213514,-1.51280208413
1385572674409548432,0.372952214448,-0.433892306911,-0.413099954401,-0.00891743672301,0.00122519987786,-1.51314846542
1385572674419618212,0.374700756946,-0.434550889044,-0.413546393341,-0.0106417684848,0.00314978199329,-1.51424572312
1385572674430023629,0.376186258795,-0.435329005687,-0.413748189481,-0.0111949880079,0.000980979382634,-1.51435183286
