%time,field.linear.x,field.linear.y,field.linear.z,field.angular.x,field.angular.y,field.angular.z
1385568271262710520,-0.0,0.0,0.0,1.0,0.0,0.0
1385568271302432595,-0.0,0.0,6.5312651745e-08,1.0,0.0,0.104693428311
1385568271352375680,-0.0206778909741,0.0372143313587,-0.0100000148959,1.0,0.0,0.011694086384
1385568271402428953,-0.0164746449355,0.0297414633301,-0.011822581277,1.0,0.0,0.0522726769466
1385568271452418764,-0.0206538031063,0.0372706368413,-0.0120929769763,1.0,0.0,0.0335165370835
1385568271502422802,-0.0209341846872,0.0377950997437,-0.0119244483009,1.0,0.0,0.0410468256534
1385568271552374045,-0.0219363177958,0.0396723661029,-0.0115290821904,1.0,0.0,0.0368633608217
1385568271602344672,-0.0220586576683,0.0399028719211,-0.0109395489759,1.0,0.0,0.0378613151309
1385568271652432404,-0.0219505497817,0.0397447698243,-0.010171953939,1.0,0.0,0.0367509034031
1385568271702368738,-0.0214576340123,0.0388873485792,-0.00924869600225,1.0,0.0,0.0366349578803
1385568271752380751,-0.0207089336169,0.0376001063533,-0.00819304489682,1.0,0.0,0.0361348823333
1385568271802379351,-0.0197491397414,0.0358803137665,-0.00699419791294,1.0,0.0,0.035867704947
1385568271852499048,-0.0186201738719,0.0339170060261,-0.00567636962095,1.0,0.0,0.0355317633931
1385568271902512691,-0.0174176377358,0.0316751295712,-0.00424835439017,1.0,0.0,0.0353415573754
1385568271952382190,-0.0160636860978,0.0294364331641,-0.00271897826384,1.0,0.0,0.0349838013132
1385568272002361542,-0.0147514653032,0.027037310107,-0.00108885506883,1.0,0.0,0.0348282159377
1385568272052340205,-0.0134751249696,0.0245978466789,0.000649308555615,1.0,0.0,0.0346915311872
1385568272102412488,-0.01208975915,0.0223246404027,0.00245701056006,1.0,0.0,0.03441578128
1385568272152408973,-0.0108528507785,0.0200562193543,0.00434203563465,1.0,0.0,0.0343254133486
1385568272202444131,-0.00968358657249,0.0178794390607,0.00631608783707,1.0,0.0,0.034197291377
1385568272252351994,-0.00852591087021,0.0159558537255,0.00834050033671,1.0,0.0,0.0340568378035
1385568272302531324,-0.00751802612254,0.0140548217183,0.0104419567484,1.0,0.0,0.033960532282
1385568272352381421,-0.00661463102899,0.012388605854,0.0126182460569,1.0,0.0,0.0338886643541
1385568272402416855,-0.00575785939251,0.010965695035,0.0148123861502,1.0,0.0,0.0337816023357
1385568272452388545,-0.0050402339305,0.00968352252402,0.0170673199371,1.0,0.0,0.0337013121398
1385568272502413051,-0.00440624305705,0.00857514705834,0.019372372709,1.0,0.0,0.0336080724231
1385568272552345647,-0.00387721904792,0.00760899769072,0.0217376790666,1.0,0.0,0.0335598837887
1385568272602389324,-0.0034602202761,0.0068318070295,0.0241379544341,1.0,0.0,0.0335021602035
1385568272652361693,-0.0030976339468,0.00621947141437,0.0265707813328,1.0,0.0,0.0335014939881
1385568272702376359,-0.00282111839838,0.00579188071322,0.029041549853,1.0,0.0,0.0334132555271
1385568272752383912,-0.00262681990613,0.00539653672883,0.0315664299927,1.0,0.0,0.033367465409
1385568272802406957,-0.00250057543416,0.00520157973596,0.0341058557385,1.0,0.0,0.0333184888835
1385568272852381638,-0.0024486593804,0.00509981072639,0.0366711767052,1.0,0.0,0.0333115753649
1385568272902475812,-0.00243538248195,0.00500933685896,0.0392755185633,1.0,0.0,0.0332876516714
1385568272952383988,-0.00248001206849,0.00503572822581,0.0418970614869,1.0,0.0,0.0333267619682
1385568273002395590,-0.00254859898245,0.00510958625134,0.044549238413,1.0,0.0,0.0333083571601
1385568273052384280,-0.00256752467467,0.00536619265138,0.0472182652534,1.0,0.0,0.0333090144965
1385568273102367504,-0.00258449173434,0.00548860040308,0.0499132727488,1.0,0.0,0.033287550694
1385568273152363573,-0.00287657306395,0.00566926940866,0.0526347164874,1.0,0.0,0.033327061968
1385568273202344011,-0.00296747883001,0.00600634386225,0.0553461492677,1.0,0.0,0.0333093314883
1385568273252372975,-0.00292692128903,0.00616100705065,0.0581101377706,1.0,0.0,0.0333181167271
1385568273302319018,-0.00325661214878,0.00652159209322,0.0608734341423,1.0,0.0,0.0333822838257
1385568273352455636,-0.00331465015715,0.00687349493361,0.0636382371693,1.0,0.0,0.0333982525683
1385568273402542245,-0.00352558624398,0.00716139678123,0.0664141342469,1.0,0.0,0.0333785845709
1385568273452372693,-0.00349285057819,0.00748627320272,0.0691996761328,1.0,0.0,0.0333102994925
1385568273502573366,-0.00367059727834,0.00785688862358,0.071968248251,1.0,0.0,0.0334120942447
1385568273552555748,-0.00361263418979,0.00797590684743,0.0748118367528,1.0,0.0,0.0334386636114
1385568273602336358,-0.00390946282358,0.00810891393542,0.0776539643299,1.0,0.0,0.0334156443637
1385568273652298805,-0.00352473009323,0.0082793140599,0.0805041151612,1.0,0.0,0.0331890354511
1385568273702394483,-0.00360177998489,0.00836746045212,0.0833357089896,1.0,0.0,0.0331415846876
1385568273752612120,-0.00335146035771,0.00825181894175,0.0862003786333,1.0,0.0,0.0328740073842
1385568273802396483,-0.00311654813762,0.00858011130425,0.0890626623699,1.0,0.0,0.0326263097036
1385568273852358799,-0.00279784110478,0.00829222772994,0.0919321935543,1.0,0.0,0.0322454698015
1385568273902398943,-0.00298407406092,0.00835122312485,0.0947207897561,1.0,0.0,0.0318469767321
1385568273952334993,-0.00371835866454,0.0079947938265,0.0974173214425,1.0,0.0,0.0314237050512
1385568274002471325,-0.00493217463676,0.00853112119136,0.0999278969358,1.0,0.0,0.0307397428198
1385568274052614406,-0.00644003561338,0.00806048093538,0.102295541414,1.0,0.0,0.0298773329707
1385568274102413295,-0.00820470923757,0.00786262140444,0.104455816255,1.0,0.0,0.0290424604844
1385568274152501267,-0.00936806216239,0.00771566593804,0.106396062037,1.0,0.0,0.0283423585913
1385568274202529618,-0.00963204692578,0.00701855155858,0.108131985339,1.0,0.0,0.0277511351313
1385568274252328631,-0.0100079970528,0.00631959251988,0.109526110167,1.0,0.0,0.0272383133763
1385568274302487402,-0.0103105774237,0.00621194272024,0.110486412188,1.0,0.0,0.0265062740653
1385568274352596274,-0.0108321149628,0.00633229235022,0.111059689855,1.0,0.0,0.0257849960542
1385568274402374286,-0.0125576878146,0.0072570655624,0.111167130125,1.0,0.0,0.0254345738062
1385568274452722590,-0.0139369080619,0.00823494439207,0.110890572208,1.0,0.0,0.0249999777278
1385568274502488398,-0.0152747777162,0.00824763081453,0.11046142783,1.0,0.0,0.0245936676505
1385568274552400525,-0.0169062465928,0.00845196681989,0.109786695606,1.0,0.0,0.024178123742
1385568274602428626,-0.018045260919,0.00863733352986,0.108942190955,1.0,0.0,0.0238173407828
1385568274652503179,-0.0193947315029,0.00834997649458,0.107997207589,1.0,0.0,0.0234220458765
1385568274702472502,-0.0214515815292,0.00841924387005,0.106832641578,1.0,0.0,0.0230881376134
1385568274752497995,-0.024093238919,0.00767541263195,0.105450189939,1.0,0.0,0.0228254526726
1385568274802521650,-0.0267318408984,0.00784098385486,0.103770431394,1.0,0.0,0.0225848779056
1385568274852373765,-0.0295048746804,0.00785239456259,0.101841627906,1.0,0.0,0.0223230585123
1385568274902564998,-0.032806993508,0.00848235037739,0.0995080806918,1.0,0.0,0.0221333525277
1385568274952589157,-0.0359750882211,0.00892155360686,0.0972874363217,1.0,0.0,0.0219155515792
1385568275002398195,-0.0390779913779,0.00987132237763,0.0952899319067,1.0,0.0,0.0217324529695
1385568275052345914,-0.0420294512767,0.0106859681147,0.0936716841474,1.0,0.0,0.0215388093286
1385568275102338510,-0.0449590200593,0.0113386510725,0.0925008730156,1.0,0.0,0.0213754765537
1385568275152398385,-0.0478102747754,0.0120872734681,0.0917916962286,1.0,0.0,0.0212660716962
1385568275202534707,-0.050308161864,0.013079222775,0.0915523789253,1.0,0.0,0.0211262910185
1385568275252517913,-0.0525283799349,0.0140718337981,0.0918129496505,1.0,0.0,0.0210429551228
1385568275302521744,-0.054667121164,0.0148571808226,0.0925765753888,1.0,0.0,0.0209109528579
1385568275352383093,-0.0565076435233,0.0159103406449,0.0937556364666,1.0,0.0,0.0208235605262
1385568275402415027,-0.0582204518854,0.0167459734692,0.0953623111962,1.0,0.0,0.0207690023239
1385568275452347551,-0.0596971554387,0.0177673453275,0.0973176167638,1.0,0.0,0.0207186553673
1385568275502682617,-0.0607191223671,0.0187208137092,0.0996039130552,1.0,0.0,0.0206266613395
1385568275552357828,-0.0615095224821,0.0194835981684,0.102225742355,1.0,0.0,0.0205846297815
1385568275602503205,-0.0622191735331,0.0201477868926,0.105078038665,1.0,0.0,0.0205293235922
1385568275652441567,-0.0625463224501,0.021028908941,0.108076742325,1.0,0.0,0.0204419372885
1385568275702486434,-0.0633491533878,0.0218900681394,0.111022001141,1.0,0.0,0.0203962698499
1385568275752360854,-0.0638400856101,0.0226298340593,0.11400419199,1.0,0.0,0.020317170768
1385568275802422038,-0.0641114811909,0.0233253415221,0.117046865179,1.0,0.0,0.0203023769059
1385568275852647933,-0.0642970787856,0.0230884048436,0.120199563079,1.0,0.0,0.0202611856332
1385568275902373272,-0.0639701083749,0.0235838238612,0.123397574566,1.0,0.0,0.0202425402243
1385568275952416449,-0.0635577228296,0.0240609019184,0.126529140011,1.0,0.0,0.0202367836524
1385568276002556565,-0.0621019174837,0.0244215703536,0.129760455089,1.0,0.0,0.0201750430336
1385568276052383161,-0.0606289074377,0.0246723827631,0.133008151087,1.0,0.0,0.020170841858
1385568276102390788,-0.0600940889723,0.0243582685901,0.136011443071,1.0,0.0,0.0201658208204
1385568276152479774,-0.059171324806,0.0241933980456,0.138908330067,1.0,0.0,0.0201508391179
1385568276202376028,-0.0582743456004,0.0244976109904,0.141677850696,1.0,0.0,0.0201868118958
1385568276252375443,-0.057591176957,0.0245253512555,0.144319877464,1.0,0.0,0.0201484975504
1385568276302473892,-0.0569054833598,0.0240722025269,0.146959911882,1.0,0.0,0.0202361061349
1385568276352494850,-0.0563731985532,0.0239943990221,0.148741108363,1.0,0.0,0.0202298001576
1385568276402506490,-0.0553745731259,0.0237987058238,0.150135821552,1.0,0.0,0.0202037980231
1385568276452440615,-0.0550662442734,0.0235008289172,0.151250420387,1.0,0.0,0.0201947836765
1385568276502417720,-0.0545644095731,0.0232121494869,0.152178887897,1.0,0.0,0.0202337795393
1385568276552385988,-0.0538523348354,0.0225688185998,0.153011297832,1.0,0.0,0.0202012878822
1385568276602346481,-0.053435060316,0.0219221644539,0.153650580213,1.0,0.0,0.0202845353536
1385568276652336920,-0.0529911246643,0.0213644821939,0.154098549073,1.0,0.0,0.0202611479081
1385568276702377354,-0.0528378895524,0.0207273217352,0.154355065305,1.0,0.0,0.0202704333241
1385568276752328300,-0.0525737981043,0.0201301853832,0.154432007629,1.0,0.0,0.0203127395613
1385568276802471278,-0.0527779825708,0.0191433627205,0.154280495011,1.0,0.0,0.0203116693719
1385568276852383145,-0.0519092495175,0.0188516603178,0.154131300788,1.0,0.0,0.0203410499316
1385568276902439102,-0.0508915198852,0.0178293459487,0.153993778374,1.0,0.0,0.0203490844379
1385568276952411704,-0.0501423885178,0.0172164471442,0.153698794487,1.0,0.0,0.0203618887563
1385568277002435162,-0.0498818977448,0.0160536083035,0.153088793632,1.0,0.0,0.0203614822182
1385568277052745524,-0.0495801129989,0.0152967794047,0.152282863647,1.0,0.0,0.0203149668683
1385568277102437969,-0.049363162102,0.0149499893357,0.151260658048,1.0,0.0,0.020299536342
1385568277152339426,-0.0496448435328,0.0145291499623,0.149902683099,1.0,0.0,0.0202465969676
1385568277202372421,-0.0495696632279,0.0140230130684,0.148519635101,1.0,0.0,0.0201917762653
1385568277252398644,-0.0498868420389,0.0138239114595,0.146946244933,1.0,0.0,0.0201155465791
1385568277302352384,-0.0499038907578,0.0132002481162,0.145360807356,1.0,0.0,0.019983477098
1385568277352364147,-0.0501182309184,0.0122058294631,0.143757882904,1.0,0.0,0.0199482746924
1385568277402863837,-0.0500410319275,0.0114982075497,0.142161101474,1.0,0.0,0.0198255570487
1385568277452878109,-0.0505753755582,0.0104269308695,0.140403233412,1.0,0.0,0.0197304476359
1385568277502792102,-0.0506291613177,0.00981995424252,0.138672109486,1.0,0.0,0.0196004932699
1385568277552499282,-0.0507759271679,0.00926983610315,0.13692662221,1.0,0.0,0.0194390336456
1385568277602413408,-0.0508767372958,0.00834278364281,0.135212293681,1.0,0.0,0.0193692631724
1385568277652390866,-0.0512229246122,0.00765435418829,0.133406450777,1.0,0.0,0.019263018009
1385568277702446226,-0.0510581460038,0.00700689885093,0.131723480053,1.0,0.0,0.0191371663944
1385568277752381308,-0.0515767529339,0.00601113853169,0.129862645547,1.0,0.0,0.0189926766095
1385568277802490448,-0.0514471529251,0.00528613652044,0.128111241756,1.0,0.0,0.0188733542214
1385568277852406388,-0.0520957105022,0.00426743492178,0.126246638379,1.0,0.0,0.0188017348166
1385568277902410641,-0.0519413184223,0.00364006784311,0.124514056496,1.0,0.0,0.0186653481718
1385568277952404758,-0.0522585982389,0.00285769098527,0.122774517576,1.0,0.0,0.0185452422084
1385568278002398751,-0.0522577993166,0.00224412572722,0.121086196617,1.0,0.0,0.0183955837869
1385568278052386026,-0.0525398969362,0.00115873863893,0.119437497449,1.0,0.0,0.018378625105
1385568278102373287,-0.0527527334108,0.000372176469105,0.11773387121,1.0,0.0,0.0183016955066
1385568278152324980,-0.0527703504923,-0.000272468415962,0.11612881374,1.0,0.0,0.0181770883611
1385568278202584357,-0.0530738639787,-0.00106738092946,0.114429240489,1.0,0.0,0.0180879820096
1385568278252457668,-0.0531702564206,-0.00201791312876,0.112848006754,1.0,0.0,0.0181032734364
1385568278302470314,-0.053406421952,-0.00279922261984,0.111258333062,1.0,0.0,0.0180019109583
1385568278352356187,-0.053695647957,-0.00364859240307,0.109549151563,1.0,0.0,0.0179575463805
1385568278402490830,-0.0539466256696,-0.00435228655229,0.107878828592,1.0,0.0,0.01788764961
1385568278452384338,-0.0540157938565,-0.00496563975476,0.106274897398,1.0,0.0,0.0178207702767
1385568278502325546,-0.0543276911449,-0.00597084900401,0.104618108899,1.0,0.0,0.0178339989537
1385568278552414899,-0.0542907383972,-0.0065034840975,0.103049888338,1.0,0.0,0.0177862732058
1385568278602407294,-0.0542043987785,-0.00697951984796,0.101542305971,1.0,0.0,0.0177330593163
1385568278652459867,-0.0544401379561,-0.00772460166878,0.099890249727,1.0,0.0,0.0176875246549
1385568278702426977,-0.0544698993246,-0.00835727194005,0.0983290732055,1.0,0.0,0.0176668783982
1385568278752367461,-0.0544174022432,-0.00848477271385,0.0967259937018,1.0,0.0,0.0175493555449
1385568278802394086,-0.0550986744725,-0.00965466396932,0.0947844437012,1.0,0.0,0.0175962449589
1385568278852345834,-0.0545366865975,-0.00950935586612,0.093437136035,1.0,0.0,0.0175088721335
1385568278902402896,-0.0547395230505,-0.0100062416655,0.0919294002816,1.0,0.0,0.017470603889
1385568278952384351,-0.0546047119379,-0.0103897394976,0.090431261949,1.0,0.0,0.0174481466272
1385568279002430358,-0.0548333746043,-0.0106074079464,0.088800799038,1.0,0.0,0.0174032074205
1385568279052447447,-0.0546045124502,-0.0107819933589,0.0873355285481,1.0,0.0,0.0173623727092
1385568279102387433,-0.0546231876976,-0.0109865744467,0.0858738008292,1.0,0.0,0.0173359782203
1385568279152310142,-0.0546057553559,-0.01112120051,0.0843985593842,1.0,0.0,0.0173090564808
1385568279202412007,-0.0546696933467,-0.0112035216339,0.0828789507777,1.0,0.0,0.0172499773021
1385568279252463404,-0.0545812639386,-0.0113500528356,0.0814554648961,1.0,0.0,0.0172495482165
1385568279302352217,-0.0545349939639,-0.0113937468112,0.0800053737578,1.0,0.0,0.0172465593588
1385568279352420106,-0.0544492144509,-0.0114404937696,0.0786486291668,1.0,0.0,0.0172439789494
1385568279402412080,-0.0545169359771,-0.0113169823985,0.0772503266953,1.0,0.0,0.0172196181606
1385568279452449559,-0.0543592486029,-0.0113551352235,0.0759475283035,1.0,0.0,0.0172218367875
1385568279502459818,-0.0542782940513,-0.0111790520764,0.0746241244648,1.0,0.0,0.0171864020126
1385568279552322442,-0.0542292758025,-0.011155543366,0.0733292163401,1.0,0.0,0.0172071455833
1385568279602353291,-0.0541035324395,-0.0108942507079,0.0720498079189,1.0,0.0,0.0171750516808
1385568279652426538,-0.0539586866058,-0.0106470890169,0.0708025901626,1.0,0.0,0.0171485434254
1385568279702360831,-0.0538259508805,-0.0105545535473,0.0695412591303,1.0,0.0,0.0171615453152
1385568279752584463,-0.053645988973,-0.0102570760803,0.0682933105251,1.0,0.0,0.0171589970706
1385568279802439808,-0.0535630057107,-0.0099820784794,0.0669687986304,1.0,0.0,0.0171424745188
1385568279852365329,-0.0533138866251,-0.00953541638353,0.0657251979118,1.0,0.0,0.0171054552014
1385568279902642764,-0.0532452969091,-0.00952230933863,0.0644570653218,1.0,0.0,0.0171613923073
1385568279952480161,-0.0529483331302,-0.00887820636878,0.0633080416598,1.0,0.0,0.0171078559663
1385568280002385222,-0.0527290864838,-0.00854507641695,0.0621750472132,1.0,0.0,0.0170887141743
1385568280052321104,-0.0525112525503,-0.00819776408981,0.060960759737,1.0,0.0,0.0171113031646
1385568280102475635,-0.0522660712015,-0.00785747690932,0.0598269915084,1.0,0.0,0.0170817960562
1385568280152579098,-0.0519935729973,-0.00738406276898,0.0587244993461,1.0,0.0,0.0171040157178
1385568280202390118,-0.0517579628272,-0.00709281708116,0.0575839661384,1.0,0.0,0.0171054899858
1385568280252396040,-0.0514083948308,-0.00654108386915,0.0565279981971,1.0,0.0,0.0170994493756
1385568280302402248,-0.0511969324985,-0.00621059608318,0.0554634687532,1.0,0.0,0.0170783619072
1385568280352794564,-0.0509646661803,-0.00584139976696,0.0543877494084,1.0,0.0,0.0170934873026
1385568280402658539,-0.0506798775576,-0.00548955200613,0.0533652606793,1.0,0.0,0.0170933749051
1385568280452901428,-0.0503748494301,-0.00505334573663,0.0524098262239,1.0,0.0,0.0170828266104
1385568280502412305,-0.0501024726062,-0.0047842312353,0.0514899033279,1.0,0.0,0.0170834279919
1385568280552401474,-0.0498606447016,-0.00439106137075,0.0505828270999,1.0,0.0,0.017055961856
1385568280602431418,-0.0496002708746,-0.00425418491422,0.0496733137561,1.0,0.0,0.0171123610544
1385568280652626473,-0.0493764437328,-0.00408962532133,0.0487328438983,1.0,0.0,0.0171496764001
1385568280702550461,-0.0490783566903,-0.0039124683558,0.0479800681125,1.0,0.0,0.0171828355111
1385568280752360009,-0.0487736323204,-0.00375404638964,0.0473580106459,1.0,0.0,0.0171919923242
1385568280802333238,-0.0484384379255,-0.00356804047989,0.0467103474332,1.0,0.0,0.0172040890607
1385568280852450641,-0.0482244587841,-0.00375215549649,0.0460793262228,1.0,0.0,0.0172802096673
1385568280902452342,-0.0479319947467,-0.00381458841661,0.0454283562956,1.0,0.0,0.0173404826505
1385568280952474112,-0.0477177541596,-0.0037099605389,0.0448228124342,1.0,0.0,0.0173410532864
1385568281002507902,-0.0473648874855,-0.00388195121268,0.0442620939851,1.0,0.0,0.0174063532235
1385568281052661305,-0.0471540086318,-0.00390683696379,0.0436105714522,1.0,0.0,0.0174459714628
1385568281102379669,-0.0468622392165,-0.00396650974576,0.0430143886418,1.0,0.0,0.0174534052839
1385568281152507625,-0.046536797145,-0.00408037236082,0.0425326461145,1.0,0.0,0.0174939936278
1385568281202814728,-0.0461867258034,-0.00416108119527,0.0420626809432,1.0,0.0,0.0174884975703
1385568281252490268,-0.0458924586971,-0.0041654472071,0.0415566057371,1.0,0.0,0.0174884636991
1385568281302523221,-0.045560149048,-0.00429062091519,0.0410756278775,1.0,0.0,0.0174619806111
1385568281352567551,-0.0451581951495,-0.0043678333136,0.0406495963559,1.0,0.0,0.0174437844528
1385568281402393355,-0.0447640042475,-0.00449606806056,0.04020841584,1.0,0.0,0.0174063389163
1385568281452367092,-0.0445359406601,-0.00467419588643,0.0396690521573,1.0,0.0,0.0174012230862
1385568281502342874,-0.0441155028077,-0.00480087702647,0.0391455513544,1.0,0.0,0.0173639813023
1385568281552602497,-0.043740240018,-0.00493588586362,0.0387821903571,1.0,0.0,0.0173162690562
1385568281602313461,-0.0432749353057,-0.0050946547791,0.038420451599,1.0,0.0,0.0172844289542
1385568281652337150,-0.0429423324283,-0.00532536754763,0.0380096014634,1.0,0.0,0.0172724219503
1385568281702351988,-0.0425098387868,-0.00543330294801,0.0376070822394,1.0,0.0,0.017211043255
1385568281752389068,-0.042128502136,-0.00566659530743,0.0371750967899,1.0,0.0,0.0171926154657
1385568281802373059,-0.0417035036699,-0.00595753395385,0.03674950052,1.0,0.0,0.0171824272051
1385568281852391373,-0.0412311405512,-0.00609272833919,0.036382915664,1.0,0.0,0.0171112641008
1385568281902612367,-0.0407231097862,-0.00644233590787,0.0359781768134,1.0,0.0,0.0171241039567
1385568281952411410,-0.0403188983729,-0.00684791931442,0.0355683634493,1.0,0.0,0.0171311432386
1385568282002376628,-0.0397989999816,-0.00687269601233,0.035283421118,1.0,0.0,0.0170395588978
1385568282052345958,-0.039286727231,-0.00731987526247,0.0348748813871,1.0,0.0,0.0170757193692
1385568282102378226,-0.0388544268709,-0.00758393640959,0.034426485619,1.0,0.0,0.0170331340603
1385568282152488706,-0.0382728311062,-0.00795081027105,0.0341054245156,1.0,0.0,0.0170266951427
1385568282202341033,-0.0378509516529,-0.00827455496573,0.0336399628883,1.0,0.0,0.01701069559
1385568282252428060,-0.0373611865618,-0.00854636435895,0.0332397541998,1.0,0.0,0.0169743355339
1385568282302318806,-0.0368780055038,-0.00911051270851,0.0328187109956,1.0,0.0,0.0170296090206
1385568282352396958,-0.0363449027074,-0.00944010789906,0.0325509046776,1.0,0.0,0.0169961061915
1385568282402527173,-0.036001969209,-0.0100387963595,0.032138116604,1.0,0.0,0.0170539987544
1385568282452333700,-0.0355729958509,-0.0104927741017,0.0317232080849,1.0,0.0,0.0170948284936
1385568282502342825,-0.0352117200609,-0.0109879369347,0.0312961239837,1.0,0.0,0.0171548700279
1385568282552371432,-0.0348851041296,-0.0113689792294,0.0309523060848,1.0,0.0,0.0171976792197
1385568282602477594,-0.03458163752,-0.0116864624304,0.0306024089509,1.0,0.0,0.0171982933008
1385568282652404615,-0.0342942102231,-0.0121490239696,0.0302466849489,1.0,0.0,0.0172553011475
1385568282702386692,-0.0339936631974,-0.0125568433267,0.029938473011,1.0,0.0,0.0173346910793
1385568282752396948,-0.0337677604957,-0.0128995010513,0.0296030539839,1.0,0.0,0.0173928752909
1385568282802431758,-0.0336015872833,-0.0131821915695,0.0292158907153,1.0,0.0,0.0174360045048
1385568282852328482,-0.0333842398579,-0.0132829177605,0.0288463288405,1.0,0.0,0.0174434324951
1385568282902378846,-0.0333220257544,-0.0134090799354,0.0285034023161,1.0,0.0,0.0174730865728
1385568282952314931,-0.033126113261,-0.01356450554,0.0281639029594,1.0,0.0,0.0175050357413
1385568283002443005,-0.0330385169374,-0.0134693808946,0.0279172497718,1.0,0.0,0.0174920773505
1385568283052385783,-0.0329107544638,-0.0134644583571,0.0277166017295,1.0,0.0,0.0174957164519
1385568283102456869,-0.0327747042772,-0.0134264635404,0.027579772857,1.0,0.0,0.0174908085384
1385568283152390840,-0.0328157968025,-0.0132539016169,0.027239059923,1.0,0.0,0.0174853100557
1385568283202354604,-0.0327342976095,-0.0131595857463,0.0269694328782,1.0,0.0,0.0175154608259
1385568283252480937,-0.0326867178037,-0.0129292125761,0.0267150759675,1.0,0.0,0.017506176808
1385568283302362269,-0.0327602957102,-0.0127354132305,0.0264389268958,1.0,0.0,0.017516367466
1385568283352405637,-0.0326950394541,-0.0124466221724,0.0261598700903,1.0,0.0,0.0175318862604
1385568283402410116,-0.0326830814707,-0.0121997611488,0.0259103472449,1.0,0.0,0.0175652406009
1385568283452353543,-0.0326450022855,-0.0119029860001,0.0256216842622,1.0,0.0,0.0175729482096
1385568283502328214,-0.0325650854226,-0.0116290587834,0.0254506319204,1.0,0.0,0.017630558213
1385568283552428730,-0.0325700762498,-0.0112731486614,0.0252048031359,1.0,0.0,0.0176023499352
1385568283602429979,-0.0324842404149,-0.0109848069061,0.0249994690791,1.0,0.0,0.0176661401689
1385568283652387063,-0.0324302410708,-0.01055207105,0.0247682960854,1.0,0.0,0.0176359221403
1385568283702293507,-0.0324190565907,-0.0101424853356,0.0245529156481,1.0,0.0,0.01763785488
1385568283752387352,-0.0323468250551,-0.00982534356129,0.0243294615994,1.0,0.0,0.0176629893353
1385568283802376654,-0.0322721412312,-0.00935733269307,0.0241410156917,1.0,0.0,0.0176144231287
1385568283852327908,-0.0321728727667,-0.00902488242572,0.0240017685469,1.0,0.0,0.0176496266024
1385568283902323287,-0.0321095025719,-0.00853398445579,0.0238157050222,1.0,0.0,0.0175729777066
1385568283952347098,-0.0320727703654,-0.00830865291745,0.0235745033778,1.0,0.0,0.0176076010952
1385568284002471035,-0.0319815819811,-0.00799572855732,0.0234348576513,1.0,0.0,0.0175978637562
1385568284052521545,-0.0318730844755,-0.00761420260208,0.0232293119928,1.0,0.0,0.0175762518049
1385568284102507078,-0.0319433175304,-0.00738397624487,0.0230317635036,1.0,0.0,0.0175570134634
1385568284152439341,-0.0317853041674,-0.00711335879759,0.0228339615447,1.0,0.0,0.0175873955178
1385568284202492068,-0.0316881522046,-0.00673043596306,0.0226813764802,1.0,0.0,0.0175330105377
1385568284252336646,-0.0315476814913,-0.00643220306632,0.0225590270771,1.0,0.0,0.0175485214845
1385568284302380132,-0.0314680350965,-0.00652194856734,0.0222979184259,1.0,0.0,0.0176384247222
1385568284352344021,-0.0313287794172,-0.00605580459787,0.0220781183069,1.0,0.0,0.0175648506325
1385568284402486985,-0.0312976326501,-0.00604664033629,0.0215805198471,1.0,0.0,0.017600507351
1385568284452296102,-0.0308182141662,-0.00570470910657,0.0215748267552,1.0,0.0,0.0176257051822
1385568284502387475,-0.0307895024014,-0.00560193964222,0.0212639516119,1.0,0.0,0.0176267570327
1385568284552432600,-0.0304705894221,-0.00541073623246,0.0210378937063,1.0,0.0,0.0176057473768
1385568284602429870,-0.0300966692188,-0.00520733996653,0.0208921880726,1.0,0.0,0.0176044854318
1385568284652387241,-0.0298405244462,-0.00499105667842,0.0207350507239,1.0,0.0,0.0175538165787
1385568284702368549,-0.0294658375605,-0.00492079670729,0.0204314322748,1.0,0.0,0.0175741768373
1385568284752406264,-0.029199442444,-0.00487275847139,0.0201006674984,1.0,0.0,0.0175531843043
1385568284802421703,-0.0288089309321,-0.00475088607063,0.0198353965876,1.0,0.0,0.0175344142591
1385568284852391066,-0.0283785537976,-0.00461227109735,0.0195828044244,1.0,0.0,0.0174883221725
1385568284902599354,-0.0280789531436,-0.00460944045974,0.0192847536492,1.0,0.0,0.017466998407
1385568284952391609,-0.0276560043655,-0.00456971121447,0.0190157991847,1.0,0.0,0.017443375732
1385568285002383307,-0.0271678644086,-0.00460762274409,0.0188878265514,1.0,0.0,0.017452580645
1385568285052407598,-0.0267606858516,-0.00450572404936,0.0186342872674,1.0,0.0,0.0173837850695
1385568285102334092,-0.0264489294793,-0.00477866947739,0.0183098428497,1.0,0.0,0.0174005029356
1385568285152402674,-0.0260463551303,-0.00480932277563,0.0180281633392,1.0,0.0,0.0173763645939
1385568285202338032,-0.0256114239048,-0.00517598018831,0.0176819364065,1.0,0.0,0.0174436846449
1385568285252393371,-0.0251863141461,-0.00526828516047,0.017521329422,1.0,0.0,0.0174042373539
1385568285302409194,-0.0249097274675,-0.00553681510821,0.0171743105184,1.0,0.0,0.0174411656651
1385568285352387256,-0.0246358682128,-0.00581168466306,0.0167154459598,1.0,0.0,0.0174326949636
1385568285402402638,-0.024380650413,-0.00596430805359,0.0163949222734,1.0,0.0,0.0173705370899
1385568285452384033,-0.0240505475286,-0.00627508003431,0.016121247016,1.0,0.0,0.0173623615739
1385568285502383389,-0.023746597632,-0.00648741991734,0.0159515528295,1.0,0.0,0.0173039788736
1385568285552434651,-0.0235075290394,-0.00676233510993,0.0157630914911,1.0,0.0,0.0172888873748
1385568285602344682,-0.0231893222187,-0.0070165120168,0.0156660302523,1.0,0.0,0.0172599119051
1385568285652515219,-0.0230265726256,-0.00726282949577,0.0153577372444,1.0,0.0,0.017184622877
1385568285702403399,-0.0226994520564,-0.00748841124258,0.0151807545993,1.0,0.0,0.0171643028419
1385568285752304784,-0.0224710273917,-0.00775462504418,0.0150164471885,1.0,0.0,0.0171148725363
1385568285802396722,-0.0222063982632,-0.00802789817361,0.0148008859391,1.0,0.0,0.0170959598214
1385568285852369445,-0.0219319234309,-0.00815682558954,0.014518614029,1.0,0.0,0.0170124086056
1385568285902351770,-0.0217228419191,-0.00847324241145,0.0143061965803,1.0,0.0,0.0170098715049
1385568285952382687,-0.0214077350807,-0.00858439458169,0.0140977028794,1.0,0.0,0.0169531967609
1385568286002425537,-0.0212454062916,-0.00878638506618,0.0138291120476,1.0,0.0,0.0169063317626
1385568286052518952,-0.0209939135306,-0.00885865695366,0.0136522738479,1.0,0.0,0.0168446616102
1385568286102435749,-0.0207820974501,-0.0090829904914,0.0133721524659,1.0,0.0,0.0168155419576
1385568286152395378,-0.0205851669785,-0.00923406594155,0.0132065219192,1.0,0.0,0.0167709659592
1385568286202387899,-0.020366842005,-0.00934702939048,0.0130548470822,1.0,0.0,0.0167262664429
1385568286252402228,-0.0202890704646,-0.00948418885062,0.012769508431,1.0,0.0,0.0166684849704
1385568286302321828,-0.0201470833543,-0.00954738747541,0.0124879868672,1.0,0.0,0.0166138347514
1385568286352449503,-0.0200592232123,-0.00966020116116,0.0122726402046,1.0,0.0,0.0165637548008
1385568286402319882,-0.019963797566,-0.0097796828469,0.0120306932334,1.0,0.0,0.0165066682806
1385568286452365418,-0.0199814519392,-0.00985979304777,0.0118690960028,1.0,0.0,0.0164539358577
1385568286502359762,-0.0199254219121,-0.00997330620646,0.011700795308,1.0,0.0,0.0164391608835
1385568286552316000,-0.0199498026955,-0.0101493701726,0.0114800834017,1.0,0.0,0.0164198083905
1385568286602436076,-0.0200865829615,-0.0101851113891,0.0112863861851,1.0,0.0,0.0163903779822
1385568286652477934,-0.0201125973055,-0.0103361507668,0.0110180355766,1.0,0.0,0.0163946948813
1385568286702531231,-0.0202279803896,-0.0104235786829,0.0108461308277,1.0,0.0,0.0163938000509
1385568286752324834,-0.0203414956849,-0.0106022052862,0.0106644605076,1.0,0.0,0.0164369070434
1385568286802320536,-0.0205412284294,-0.0107508188568,0.0103613502061,1.0,0.0,0.0164616153196
1385568286852383408,-0.0206802822141,-0.0108266937142,0.0102094802195,1.0,0.0,0.0164995553239
1385568286902429257,-0.0208719564179,-0.0109182612163,0.0100012336688,1.0,0.0,0.0165112563963
1385568286952393028,-0.0210961618421,-0.0109387544498,0.0097872834656,1.0,0.0,0.0165442896755
1385568287002450136,-0.0213471447029,-0.0110693017708,0.00951918956254,1.0,0.0,0.0165609937962
1385568287052381592,-0.0215691923882,-0.0110484771737,0.00937493251791,1.0,0.0,0.0165789170948
1385568287102446554,-0.0216685354319,-0.0110853149208,0.00927081768287,1.0,0.0,0.0166328588048
1385568287152784054,-0.0219548442957,-0.0110037256411,0.00913096349314,1.0,0.0,0.0166211465305
1385568287202342601,-0.0221252042917,-0.0110633368503,0.00893057101934,1.0,0.0,0.0166765944953
1385568287252314802,-0.0222328568238,-0.0108743018973,0.00880616259378,1.0,0.0,0.0166590680482
1385568287302418052,-0.0223605846617,-0.0108380689108,0.00862510570423,1.0,0.0,0.0166845839986
1385568287352373651,-0.0224447497944,-0.010707785348,0.00838571623045,1.0,0.0,0.0166869195353
1385568287402419451,-0.0223867218912,-0.0107559366293,0.00824381518718,1.0,0.0,0.0167975871825
1385568287452297948,-0.0224183551195,-0.0104167191665,0.008091411617,1.0,0.0,0.0167405790069
1385568287502339670,-0.0223044650078,-0.0103227543854,0.00794568025075,1.0,0.0,0.0167899694867
1385568287552402755,-0.0222595620096,-0.0101920569452,0.00774348700939,1.0,0.0,0.016791668753
1385568287602449712,-0.0221238364387,-0.0101531824813,0.00759298930295,1.0,0.0,0.0168584900092
1385568287652392668,-0.0219358880962,-0.0100280449941,0.00746633257948,1.0,0.0,0.0168705793681
1385568287702326849,-0.0217031457349,-0.0100170332384,0.00732733676797,1.0,0.0,0.016926009548
1385568287752376215,-0.0214007504685,-0.00989820983419,0.00724431112569,1.0,0.0,0.0169428735759
1385568287802426806,-0.0211921489572,-0.00993034881022,0.00716846652782,1.0,0.0,0.016988524632
1385568287852392341,-0.0208595751557,-0.00990749321847,0.00713507968314,1.0,0.0,0.0170156646063
1385568287902382651,-0.0205311084644,-0.00991434423293,0.00707381098088,1.0,0.0,0.0170527232145
1385568287952397854,-0.0201379831492,-0.00989503108655,0.00700126353794,1.0,0.0,0.0170933653413
1385568288002460944,-0.0198295779816,-0.00989793622104,0.00691375223532,1.0,0.0,0.0170880562064
1385568288052426709,-0.0194408502917,-0.00997795330534,0.0068267892246,1.0,0.0,0.01713407887
1385568288102459360,-0.019072958456,-0.0100035213347,0.00672473667762,1.0,0.0,0.0171433319272
1385568288152385962,-0.0187430973277,-0.00997939361425,0.00660264098155,1.0,0.0,0.0171431454152
1385568288202347171,-0.0183601919256,-0.00995782968636,0.0064911846154,1.0,0.0,0.0171347586608
1385568288252380232,-0.0179671377168,-0.0100092869486,0.00639089121896,1.0,0.0,0.0171347895125
1385568288302374076,-0.0176890399083,-0.0100216846954,0.00624123099315,1.0,0.0,0.0171518296822
1385568288352347232,-0.0173360199196,-0.0100183000634,0.00607423955436,1.0,0.0,0.0171705065065
1385568288402432898,-0.0170505457501,-0.0100223265685,0.00591279326446,1.0,0.0,0.0171718646198
1385568288452332822,-0.0167614398194,-0.00999623334752,0.00575481385221,1.0,0.0,0.0171710204482
1385568288502506333,-0.0165755642709,-0.0101185144222,0.00554212578624,1.0,0.0,0.0172070155871
1385568288552363148,-0.0162821316849,-0.0101064447564,0.00537031297746,1.0,0.0,0.0171975698321
1385568288602384054,-0.0161564340275,-0.0102614349067,0.0052076258562,1.0,0.0,0.0172401576743
1385568288652390840,-0.0159431775818,-0.0102617294795,0.00508540876195,1.0,0.0,0.0172040128612
1385568288702387973,-0.015836359967,-0.0104957388375,0.00494063320955,1.0,0.0,0.0172332084292
1385568288752460355,-0.0157302155779,-0.0107098456628,0.0047937636811,1.0,0.0,0.0172556995012
1385568288802371049,-0.015692799108,-0.0109854996336,0.0046692943002,1.0,0.0,0.0172708449884
1385568288852421659,-0.015555421081,-0.0113072145246,0.00458064949417,1.0,0.0,0.0173574204237
1385568288902328531,-0.0155576292114,-0.011538333528,0.00451582247872,1.0,0.0,0.0173585605959
1385568288952380129,-0.0155163571792,-0.011815531989,0.00448246535181,1.0,0.0,0.017392698694
1385568289002480083,-0.0155888849616,-0.0121511658539,0.00443396640951,1.0,0.0,0.0174215488573
1385568289052352659,-0.0156761582753,-0.0125191255796,0.00440248336322,1.0,0.0,0.0174644626606
1385568289102343774,-0.0157278254622,-0.0127810336345,0.00437868163601,1.0,0.0,0.0174801599705
1385568289152398087,-0.0159026391937,-0.0131729712872,0.00435203316575,1.0,0.0,0.0175661451239
1385568289202416389,-0.016022400715,-0.0134492760199,0.00428446542922,1.0,0.0,0.0176023024805
1385568289252391317,-0.0162839350196,-0.013746955216,0.00431903194732,1.0,0.0,0.0176882242368
1385568289302425053,-0.0164696032966,-0.0140042913173,0.00435797825915,1.0,0.0,0.0177424906548
1385568289352379164,-0.0168424151604,-0.0142284255941,0.00437570041922,1.0,0.0,0.0177780177449
1385568289402468323,-0.0171364183475,-0.0144687877809,0.00442497039723,1.0,0.0,0.0178598259837
1385568289452333823,-0.0174861041897,-0.014609715727,0.00450881325561,1.0,0.0,0.0179080995426
1385568289502353936,-0.0179346805418,-0.0148495188963,0.00444764080794,1.0,0.0,0.017981106924
1385568289552387818,-0.018391017961,-0.0148724207836,0.00446706748173,1.0,0.0,0.0180056035057
1385568289602336270,-0.0187910826973,-0.0150220575378,0.00453240817156,1.0,0.0,0.0181053836466
1385568289652400838,-0.0192548033087,-0.0150825308451,0.00455581011175,1.0,0.0,0.0181672281064
1385568289702379305,-0.0196917161287,-0.0151227329293,0.00461112286317,1.0,0.0,0.018262705768
1385568289752418101,-0.0201647076018,-0.0151528406616,0.0046734291169,1.0,0.0,0.0183610070738
1385568289802385548,-0.0206058364137,-0.0150552569981,0.00470764058559,1.0,0.0,0.0184372678096
1385568289852352941,-0.0210646507075,-0.0148811097306,0.00476565127696,1.0,0.0,0.018517912133
1385568289902418022,-0.0214557327853,-0.0146874473527,0.00485176327722,1.0,0.0,0.0186014791563
1385568289952334453,-0.0218961475543,-0.014399941827,0.00482365609864,1.0,0.0,0.0186825407551
1385568290002427360,-0.0223383589855,-0.0140956807221,0.00483178243797,1.0,0.0,0.01878643434
1385568290052339540,-0.0227293894543,-0.0136673826095,0.00482657884515,1.0,0.0,0.018850403492
1385568290102428147,-0.0230367465449,-0.0131361537349,0.00488611260889,1.0,0.0,0.0189270496114
1385568290152328406,-0.0234935529196,-0.0126534313989,0.00489001184449,1.0,0.0,0.0190347141297
1385568290202492316,-0.0237864521,-0.0119887547192,0.00485893864409,1.0,0.0,0.0190692529947
1385568290252327302,-0.0240595986834,-0.0113489676512,0.00483344762095,1.0,0.0,0.0191958017013
1385568290302393209,-0.0243050834307,-0.0106075175814,0.00479034498752,1.0,0.0,0.0192589091494
1385568290352324399,-0.0245013511012,-0.00992137579372,0.00478799234661,1.0,0.0,0.0193954209846
1385568290402672701,-0.0247525631103,-0.00912395358835,0.00471545742171,1.0,0.0,0.0194712173449
1385568290452475114,-0.0248487863134,-0.00840109888628,0.00469931889161,1.0,0.0,0.0196158396544
1385568290502344868,-0.0249583525527,-0.00759501169887,0.00468309738718,1.0,0.0,0.019677699616
1385568290552387079,-0.0249951275563,-0.00679742392554,0.00473377126673,1.0,0.0,0.0197726507081
1385568290602352691,-0.0251054577232,-0.00600991062893,0.00463552256517,1.0,0.0,0.0198189698559
1385568290652485419,-0.0248708565672,-0.00532250780053,0.00467315003778,1.0,0.0,0.0199498159828
1385568290702358543,-0.0248472724843,-0.00455802277782,0.00466842563007,1.0,0.0,0.0200100837615
1385568290752346549,-0.0246050581812,-0.00386153780478,0.00463140661006,1.0,0.0,0.0200845662097
1385568290802475096,-0.0244363617346,-0.00319341068489,0.00464716036952,1.0,0.0,0.0201370838809
1385568290852363613,-0.0240912188248,-0.0024826992982,0.00469535228997,1.0,0.0,0.0201689102513
1385568290902474939,-0.0237716741195,-0.00190183832841,0.00465487448717,1.0,0.0,0.0202186446391
1385568290952383316,-0.0232970310147,-0.00130603265896,0.00468193088132,1.0,0.0,0.0202635501437
1385568291002452283,-0.0227726832618,-0.000682209829019,0.00475596789432,1.0,0.0,0.0203065904603
1385568291052424154,-0.0222535468596,-0.000189079953141,0.00479144451018,1.0,0.0,0.0203163974369
1385568291102409261,-0.0215936897019,0.000430459831202,0.00480625508916,1.0,0.0,0.0203458283438
1385568291152359622,-0.0209455277803,0.00100564596358,0.0047564332935,1.0,0.0,0.0203307600771
1385568291202325938,-0.0202756189953,0.00144305499123,0.00467542468146,1.0,0.0,0.0203645697336
1385568291252324198,-0.0194557487859,0.00201585737209,0.00465775182331,1.0,0.0,0.0203832611899
1385568291302363073,-0.0187254655151,0.00244787170493,0.00459977394563,1.0,0.0,0.0203929518542
1385568291352333139,-0.017894784117,0.00286880952621,0.00446306113447,1.0,0.0,0.0204382236184
1385568291402338880,-0.017040935118,0.00340014983244,0.00437334995469,1.0,0.0,0.0203872272135
1385568291452350026,-0.016168738255,0.00385766080687,0.00428569225429,1.0,0.0,0.0203661360077
1385568291502415012,-0.015368903497,0.00420684204704,0.0041658140665,1.0,0.0,0.0203495969674
1385568291552423411,-0.0144476560828,0.00450578150488,0.00402566816171,1.0,0.0,0.0203368833294
1385568291602424208,-0.01358849567,0.00486492451743,0.00399336973714,1.0,0.0,0.0202782182666
1385568291652379080,-0.0126594203546,0.00506496321752,0.00389806583078,1.0,0.0,0.0202536042268
1385568291702376362,-0.0118023775664,0.00526065651763,0.00381431020788,1.0,0.0,0.020195635404
1385568291752438193,-0.0109077355211,0.00545980725752,0.00379256847515,1.0,0.0,0.0200846320695
1385568291802399531,-0.0100301833211,0.00548294737848,0.00380663134555,1.0,0.0,0.0200399287744
1385568291852445654,-0.00916472295829,0.00546322037302,0.00383557119022,1.0,0.0,0.0199793435682
1385568291902374112,-0.00833041523053,0.00540034587915,0.00383664792005,1.0,0.0,0.019867244304
1385568291952344153,-0.0075689782511,0.00519593337983,0.00378704232989,1.0,0.0,0.0197964874203
1385568292002345157,-0.00670345603529,0.0050661992947,0.00382685022941,1.0,0.0,0.0196902356572
1385568292052337493,-0.00605214209693,0.00477986676389,0.00383076131604,1.0,0.0,0.019588902589
1385568292102520279,-0.00536318860872,0.00441670388423,0.00381069353782,1.0,0.0,0.0194937754298
1385568292152335320,-0.00469044321433,0.00394327367154,0.00384756939092,1.0,0.0,0.0194505378397
1385568292202479771,-0.0040739903982,0.00356812374306,0.00383030132233,1.0,0.0,0.0193520416786
1385568292252344145,-0.00349144094534,0.00297300903254,0.00379754742043,1.0,0.0,0.0193465332041
1385568292302393512,-0.00293056392745,0.00256663459613,0.00378023287606,1.0,0.0,0.0192348739167
1385568292352353122,-0.00249904280564,0.00196018109835,0.00371416755027,1.0,0.0,0.019189822384
1385568292402419450,-0.00205103623905,0.00139375798725,0.00363868281087,1.0,0.0,0.0190789714192
1385568292452428309,-0.00168272173139,0.000828688214588,0.00358136470491,1.0,0.0,0.0189719357729
1385568292502406095,-0.0013596302552,0.000200535406599,0.00348621762938,1.0,0.0,0.0188539931349
1385568292552479130,-0.00107738238828,-0.000357883956537,0.00344285298314,1.0,0.0,0.0186988962422
1385568292602515334,-0.000914335964474,-0.00100717333976,0.00335509417082,1.0,0.0,0.0185764943302
1385568292652387149,-0.000754342140827,-0.00157043008726,0.00332634643356,1.0,0.0,0.018405651012
1385568292702442067,-0.000708656589535,-0.00216012443534,0.00324333251371,1.0,0.0,0.0182803287943
1385568292752438216,-0.000654680866779,-0.00270131434659,0.00319290005715,1.0,0.0,0.018095648881
1385568292802440668,-0.000721544085321,-0.00327408922723,0.00314372593839,1.0,0.0,0.0180013141342
1385568292852384708,-0.000828437587099,-0.00376645409663,0.003083907428,1.0,0.0,0.0178355577075
1385568292902440610,-0.00104817966528,-0.00422111754156,0.00303646367011,1.0,0.0,0.0177298163535
1385568292952382035,-0.00126235798054,-0.00472146706905,0.00301249352895,1.0,0.0,0.0175672408955
1385568293002465754,-0.00155505645173,-0.00509331762909,0.00296449607907,1.0,0.0,0.0174264114488
1385568293052389883,-0.00189819144663,-0.00548846191131,0.00289157632622,1.0,0.0,0.0172653328834
1385568293102419651,-0.00224675541313,-0.00579691242874,0.00280176161046,1.0,0.0,0.0171257298855
1385568293152396725,-0.00261530973852,-0.00608331303572,0.0027311667914,1.0,0.0,0.0169876384346
1385568293202447577,-0.00301595339415,-0.00635411269954,0.00261836256466,1.0,0.0,0.0168355576862
1385568293252389948,-0.00348368170543,-0.00655986837997,0.00251825184259,1.0,0.0,0.0166548042975
1385568293302495059,-0.00391934262409,-0.00677908780807,0.00239703477985,1.0,0.0,0.0165165933126
1385568293352369252,-0.00432711690643,-0.00686949695372,0.00231590340849,1.0,0.0,0.0163690426327
1385568293402411755,-0.00478036751998,-0.00697207017388,0.00221735483469,1.0,0.0,0.0162124434068
1385568293452352917,-0.00519755352026,-0.00708622250006,0.00214759481849,1.0,0.0,0.0160882340196
1385568293502418070,-0.00562056895122,-0.00700401398192,0.0020753728889,1.0,0.0,0.0158673141498
1385568293552361346,-0.00605595460335,-0.00704715278235,0.00202136769936,1.0,0.0,0.0157593670593
1385568293602413003,-0.00644950535597,-0.0069679717252,0.00198472873966,1.0,0.0,0.0155977449594
1385568293652386034,-0.00681580436734,-0.00687760044879,0.00193389744668,1.0,0.0,0.0154450996448
1385568293702326706,-0.00714558835383,-0.00663435047171,0.00187268025089,1.0,0.0,0.0153173116603
1385568293752332910,-0.00745268643572,-0.00644874456885,0.00183392700373,1.0,0.0,0.0151817856784
1385568293802390775,-0.00772763303667,-0.00620556919204,0.00182663051737,1.0,0.0,0.0150902616392
1385568293852340623,-0.00802991805726,-0.00588487856507,0.0018199194364,1.0,0.0,0.0149467832409
1385568293902348703,-0.00823282879936,-0.00557772671484,0.0018225172294,1.0,0.0,0.0148267571527
1385568293952372457,-0.00835580475088,-0.00512364319037,0.00182188320101,1.0,0.0,0.0146828666351
1385568294002418470,-0.00855396336722,-0.00475297972228,0.00183534421834,1.0,0.0,0.0145320303788
1385568294052323009,-0.00858125576813,-0.00423264233252,0.00184820178518,1.0,0.0,0.0143794532249
1385568294102388397,-0.00863594733369,-0.00379860459644,0.00187179827955,1.0,0.0,0.0142478431721
1385568294152340325,-0.00863704607915,-0.00328613641538,0.00183320922924,1.0,0.0,0.0141455323219
1385568294202382455,-0.00859252535733,-0.00278533240975,0.00180709175855,1.0,0.0,0.0140144096135
1385568294252455654,-0.00847459717025,-0.00220392106819,0.00177989271715,1.0,0.0,0.0139305439357
1385568294302400415,-0.00827645195887,-0.00165580411614,0.00177362925035,1.0,0.0,0.0138487333546
1385568294352316707,-0.00809868242893,-0.00115650541159,0.00175932259626,1.0,0.0,0.0137033086084
1385568294402327520,-0.00784899038121,-0.000545117580834,0.00171572857047,1.0,0.0,0.0135903543333
1385568294452509693,-0.00760333391045,-0.000107390030002,0.00169675821289,1.0,0.0,0.0134896426258
1385568294502414165,-0.00725264528254,0.000522519747935,0.00166627546758,1.0,0.0,0.0133337755908
1385568294552376289,-0.00700266312669,0.00103725031253,0.00162823920555,1.0,0.0,0.01321046884
1385568294602397071,-0.00662458900532,0.00157916508445,0.00159327589254,1.0,0.0,0.0130385671725
1385568294652417742,-0.00625303707797,0.00200558212413,0.00156158578688,1.0,0.0,0.0128931846544
1385568294702458438,-0.00588297755736,0.00252713211417,0.00153987469512,1.0,0.0,0.0127474972645
1385568294752478569,-0.00553863852946,0.00278836100394,0.00149431568026,1.0,0.0,0.0126126351395
1385568294802363857,-0.00517354662387,0.00324965538883,0.00145240503408,1.0,0.0,0.0124645583389
1385568294852604134,-0.00475657858847,0.00352574806875,0.00150945882699,1.0,0.0,0.0123401705909
1385568294902442703,-0.00439017299192,0.00383719007906,0.001523188399,1.0,0.0,0.0122270041263
1385568294952409431,-0.00403886068309,0.00408092268376,0.00151056653069,1.0,0.0,0.0120704327
1385568295002344505,-0.0036559226393,0.00436621835163,0.00153669913346,1.0,0.0,0.0119073215087
1385568295052370647,-0.00332579074475,0.00451597197925,0.00154045492374,1.0,0.0,0.0117735827258
1385568295102366156,-0.00302890733067,0.00467634334685,0.00151360403586,1.0,0.0,0.0116017708681
1385568295152390217,-0.00269967023486,0.00476278350087,0.00149159552225,1.0,0.0,0.0114641273544
1385568295202391538,-0.00241316081919,0.00485439951306,0.00143413309286,1.0,0.0,0.0113321695978
1385568295252388383,-0.00211526053809,0.00483129263281,0.00139027358822,1.0,0.0,0.0111994581516
1385568295302404328,-0.0017804301494,0.00484747599348,0.00134146699732,1.0,0.0,0.0110988504185
1385568295352351896,-0.00158887426668,0.00487058715257,0.00129629179502,1.0,0.0,0.0109310935578
1385568295402422959,-0.00138735467931,0.00478457022694,0.00127540582954,1.0,0.0,0.0108424011799
1385568295452548711,-0.00115666986437,0.00474536378815,0.0012489640474,1.0,0.0,0.0107301883341
1385568295502382714,-0.00105710115,0.00462527319344,0.00122828003918,1.0,0.0,0.0106251104335
1385568295552427881,-0.000882540703582,0.00457074702592,0.0012218730588,1.0,0.0,0.0105172307216
1385568295602358189,-0.000893305434781,0.00440737955112,0.00120397849378,1.0,0.0,0.0104034796707
1385568295652356124,-0.000802856053969,0.00426835719894,0.0012159198187,1.0,0.0,0.0102471566234
1385568295702440736,-0.000872135709437,0.00409917509222,0.00122757723716,1.0,0.0,0.010160318152
1385568295752346866,-0.000932016840928,0.00391273000678,0.00123652023766,1.0,0.0,0.010042125957
1385568295802460921,-0.00107595774513,0.00374600407946,0.0012380734014,1.0,0.0,0.00993628539066
1385568295852385952,-0.00125358598805,0.00357759592097,0.00125803167931,1.0,0.0,0.00985645677908
1385568295902414271,-0.00142700299692,0.00341201515473,0.00129862422731,1.0,0.0,0.00973176650786
1385568295952360115,-0.00170035222778,0.00322174254271,0.00134897641035,1.0,0.0,0.00964277779241
1385568296002347968,-0.00198904551434,0.00308461754612,0.00137938200019,1.0,0.0,0.00952718501989
1385568296052358621,-0.00233831026337,0.00293002970479,0.00140268265929,1.0,0.0,0.00941426922114
1385568296102344278,-0.00267145880267,0.00276331500361,0.00143560261815,1.0,0.0,0.00932729213252
1385568296152348364,-0.00304144737078,0.00272469429827,0.00145238664053,1.0,0.0,0.00922597031735
1385568296202487470,-0.00336393986052,0.00269697310953,0.00147866541571,1.0,0.0,0.00909744942003
1385568296252392104,-0.00380863965632,0.00260402031016,0.0014870277288,1.0,0.0,0.00903689618563
1385568296302363553,-0.00413597967286,0.00267052798468,0.0014962842534,1.0,0.0,0.00893674553877
1385568296352482785,-0.00459082411209,0.00263071748851,0.00149142859703,1.0,0.0,0.00890751124848
1385568296402349263,-0.0049239111765,0.0027088871243,0.00150675836119,1.0,0.0,0.00876179443742
1385568296452378695,-0.00537271607838,0.00266337176706,0.0015208558522,1.0,0.0,0.00871393285521
1385568296502338825,-0.00575240745072,0.00275184265516,0.00152248003678,1.0,0.0,0.00858826633826
1385568296552419596,-0.00622152020749,0.00279576220988,0.00154200320296,1.0,0.0,0.00851738399372
1385568296602760690,-0.00660488033597,0.00287555495611,0.00158349756939,1.0,0.0,0.00837734629654
1385568296652676672,-0.00702096310582,0.00294993892061,0.00163153171409,1.0,0.0,0.00825789373409
1385568296702329989,-0.00739668786733,0.00304625507612,0.0016823447444,1.0,0.0,0.00813914088946
1385568296752470620,-0.00771698970033,0.00325325327878,0.00173659169915,1.0,0.0,0.00802542533959
1385568296802393036,-0.00809105868179,0.0033194098503,0.00180816587292,1.0,0.0,0.00791900462843
1385568296852421808,-0.00836598361541,0.00351895746677,0.00189037994686,1.0,0.0,0.0077931984052
1385568296902492792,-0.00861286937503,0.00375095252818,0.00198195148051,1.0,0.0,0.00773026377497
1385568296952378371,-0.00887848403113,0.0038501698151,0.0020733125338,1.0,0.0,0.00763313376523
1385568297002330816,-0.00901243000376,0.00419387223788,0.00217838108905,1.0,0.0,0.00754608475505
1385568297052377789,-0.00924339946673,0.00428761971297,0.00228253436838,1.0,0.0,0.00749139595588
1385568297102490833,-0.00932592289258,0.00461853481181,0.00237280203538,1.0,0.0,0.00738436839536
1385568297152457441,-0.00943069159328,0.00479580202988,0.00245356940404,1.0,0.0,0.00737091260436
1385568297202373828,-0.00945210279221,0.00505416616824,0.00253911364478,1.0,0.0,0.00728950468649
1385568297252418429,-0.00944163626151,0.00528019056032,0.00261133918111,1.0,0.0,0.00721765219361
1385568297302357326,-0.00943335346065,0.00555082768557,0.00270129114084,1.0,0.0,0.0071747906395
1385568297352413272,-0.00937153329585,0.00567908564448,0.00277912125111,1.0,0.0,0.00711462609966
1385568297402430226,-0.0092998775493,0.00595069716406,0.0028424162633,1.0,0.0,0.00708073406484
1385568297452451709,-0.00912502907851,0.00619299482676,0.00289631293991,1.0,0.0,0.00699729981489
1385568297502411353,-0.00892978453019,0.00642280424446,0.00295657559857,1.0,0.0,0.00697012026245
1385568297552464182,-0.00879307487089,0.00661666343521,0.00298788879443,1.0,0.0,0.00698001524403
1385568297602353021,-0.0085806225125,0.00681570650847,0.00297210749961,1.0,0.0,0.00693501648826
1385568297652391106,-0.00835028604016,0.00706186834499,0.00294029886785,1.0,0.0,0.00693165848748
1385568297702380047,-0.00800019452689,0.00733077770136,0.0029289189732,1.0,0.0,0.00692145835468
1385568297752429072,-0.00776620112592,0.0074614528697,0.00289390386083,1.0,0.0,0.00691390802593
1385568297802433721,-0.00743136710318,0.00759472218602,0.00287387489673,1.0,0.0,0.00689925451614
1385568297852401581,-0.00710890296643,0.00773781216737,0.0028681806216,1.0,0.0,0.00692553961445
1385568297902328629,-0.00674556955814,0.00792374157051,0.00284531941736,1.0,0.0,0.00691042023844
1385568297952398168,-0.00635578509263,0.00798061440726,0.00284795100324,1.0,0.0,0.00693439748778
1385568298002389351,-0.00599425670687,0.00816060660228,0.00283893720802,1.0,0.0,0.00693806393618
1385568298052522004,-0.00566681410836,0.00819918805246,0.00283180689857,1.0,0.0,0.0069688050326
1385568298102384551,-0.00530454898728,0.00829662225967,0.0028194834082,1.0,0.0,0.00695402212791
1385568298152378522,-0.00497549814736,0.00834928736816,0.00280582023773,1.0,0.0,0.0069720878112
1385568298202439183,-0.00461395281033,0.00834752552261,0.00282287754991,1.0,0.0,0.00693017211711
1385568298252376624,-0.00439386226122,0.00829842070778,0.00279854780537,1.0,0.0,0.00694940194195
1385568298302488802,-0.00416003762232,0.00830302560235,0.0027770982908,1.0,0.0,0.00695872624228
1385568298352403805,-0.00395533612219,0.00820515914238,0.00274458043836,1.0,0.0,0.00692703137392
1385568298402501645,-0.00378735949335,0.00822000757904,0.00269796262817,1.0,0.0,0.00691845178827
1385568298452383960,-0.00369471964316,0.00817178022918,0.00265303309085,1.0,0.0,0.00689739068025
1385568298502423692,-0.00362428566101,0.00814037444722,0.00260852105815,1.0,0.0,0.00688446787879
1385568298552397112,-0.00360828997625,0.00803480150872,0.00256440690907,1.0,0.0,0.00684721451518
1385568298602291148,-0.0036143301606,0.00789134679068,0.00253212304443,1.0,0.0,0.00678337684926
1385568298652365237,-0.00362918813754,0.00783217461634,0.00247860013626,1.0,0.0,0.00671133137232
1385568298702413370,-0.00373786578721,0.00763242382279,0.00242633956541,1.0,0.0,0.00667233101366
1385568298752386600,-0.0039052350508,0.00742263060517,0.00236179724692,1.0,0.0,0.00666361656205
1385568298802396062,-0.00407254495613,0.0071456010429,0.00228768331568,1.0,0.0,0.00663330855033
1385568298852339591,-0.00423048900415,0.00687763044955,0.00221591235823,1.0,0.0,0.0066049158786
1385568298902492938,-0.0044504073222,0.00662954923519,0.00214650382246,1.0,0.0,0.00657167521716
1385568298952344105,-0.00472367268291,0.00629706693548,0.00208032106753,1.0,0.0,0.00658972943425
1385568299002558546,-0.00497454848042,0.00596637413534,0.00201933078174,1.0,0.0,0.00655519071035
1385568299052532455,-0.0053073461917,0.00560330258678,0.00196139147639,1.0,0.0,0.00656688057145
1385568299102415598,-0.00564085824074,0.00516079020505,0.00188851993504,1.0,0.0,0.00657872420091
1385568299152381300,-0.00598726245884,0.0047981001174,0.0018053967866,1.0,0.0,0.00652081994808
1385568299202381112,-0.00634530047486,0.00429951071805,0.00174357576923,1.0,0.0,0.00654512623574
1385568299252285076,-0.00663395373738,0.00386681431123,0.0017051775135,1.0,0.0,0.00651350378738
1385568299302416180,-0.00706655842592,0.00340149270099,0.00161922467376,1.0,0.0,0.00653659417984
1385568299352343808,-0.00740011593461,0.00295214538041,0.0015582937771,1.0,0.0,0.00655193226713
1385568299402341427,-0.00772344114813,0.0025258366775,0.00150039399405,1.0,0.0,0.00655601919775
1385568299452331852,-0.00810218012062,0.00201844794769,0.00146346987272,1.0,0.0,0.00654557579501
1385568299502410057,-0.00838572073101,0.00162729793576,0.00143213789361,1.0,0.0,0.00653890844993
1385568299552346194,-0.00873717905089,0.00114383735651,0.00140866547645,1.0,0.0,0.00650774645195
1385568299602710648,-0.00899261947257,0.000762901544691,0.00141441238656,1.0,0.0,0.00649363660219
1385568299652384793,-0.00923411690244,0.000503730311931,0.0014148392251,1.0,0.0,0.00648160293581
1385568299702352805,-0.00944220643978,0.000153215326499,0.00141296538349,1.0,0.0,0.00645983447783
1385568299752382831,-0.00962254270028,-0.000116958675688,0.00141155951182,1.0,0.0,0.00643891382614
1385568299802397829,-0.00978984341822,-0.000391235274621,0.00141436788158,1.0,0.0,0.00643111922808
1385568299852459055,-0.00983253635162,-0.000561366529069,0.00143031540477,1.0,0.0,0.00639518734971
1385568299902372276,-0.00996317483194,-0.000788879155571,0.00143221089795,1.0,0.0,0.006378243314
1385568299952423381,-0.00994823377957,-0.000907053928048,0.00143578622472,1.0,0.0,0.0063145502602
1385568300002467882,-0.00993340455563,-0.00102704245054,0.00143143481748,1.0,0.0,0.00629741054384
1385568300052336505,-0.0098319038753,-0.00113127109477,0.00141308867773,1.0,0.0,0.00628196565585
1385568300102482738,-0.00973022219273,-0.00120312278683,0.00139250484826,1.0,0.0,0.0062189126357
1385568300152414092,-0.00956229668524,-0.00133043194042,0.00136408998136,1.0,0.0,0.0061320380495
1385568300202512804,-0.00942468346327,-0.00145177510004,0.00131753922356,1.0,0.0,0.00614922397604
1385568300252347284,-0.00913702329248,-0.00143490828001,0.0012696019433,1.0,0.0,0.00609902222447
1385568300302454482,-0.00887294109148,-0.001495432042,0.00124476416434,1.0,0.0,0.00604289620295
1385568300352388514,-0.00859708398903,-0.0014916475047,0.0012360371366,1.0,0.0,0.00599538616419
1385568300402976591,-0.00831244055721,-0.00146627065197,0.00120755876785,1.0,0.0,0.00590577324312
1385568300452357208,-0.00797007483289,-0.0015413087599,0.00119021273636,1.0,0.0,0.00587062583135
1385568300502530856,-0.00768370698542,-0.00147540718378,0.00114272973013,1.0,0.0,0.00577484662853
1385568300552479175,-0.00728431360275,-0.00136637880388,0.0011197450472,1.0,0.0,0.00575977441188
1385568300602334821,-0.00699049296907,-0.0013644009005,0.00109010114309,1.0,0.0,0.00571205882014
1385568300652307611,-0.0067300938056,-0.00133350828266,0.00102878742216,1.0,0.0,0.00564888404064
1385568300702507716,-0.00647326627401,-0.00122069888363,0.000961904133176,1.0,0.0,0.0056124243253
1385568300752382602,-0.00626443341642,-0.00119399137655,0.000878479805449,1.0,0.0,0.00557118551769
1385568300802607012,-0.00605803294352,-0.00120638263122,0.000810990530325,1.0,0.0,0.00553818584977
1385568300852326664,-0.00588045874567,-0.00117924743997,0.000754235802769,1.0,0.0,0.00545726130425
1385568300902415210,-0.00571905838218,-0.00113814861689,0.000682691634793,1.0,0.0,0.00541636440443
1385568300952486306,-0.00570884439849,-0.00121512520405,0.000611473138076,1.0,0.0,0.00538587725734
1385568301002407045,-0.00561540719445,-0.00132875900285,0.000552392522019,1.0,0.0,0.00532658824281
1385568301052352982,-0.00558077662443,-0.00140717298921,0.000508224303855,1.0,0.0,0.00529311365261
1385568301102387434,-0.0055530054179,-0.00149973725427,0.000463538168149,1.0,0.0,0.00529317805606
1385568301152319581,-0.00547259610503,-0.00167448126755,0.000436649300653,1.0,0.0,0.00519532465465
1385568301202540554,-0.00552177362225,-0.00175534268625,0.000386293904385,1.0,0.0,0.00522333762361
1385568301252351019,-0.0055382277301,-0.00199791276846,0.000339497899471,1.0,0.0,0.00516066871303
1385568301302369273,-0.00552115943039,-0.0021331958485,0.000276151360841,1.0,0.0,0.00514998714298
1385568301352377086,-0.00558537258057,-0.00227555223057,0.000225152018061,1.0,0.0,0.00508529388679
1385568301402480881,-0.00563329557209,-0.00249671805644,0.00015279738259,1.0,0.0,0.00505690198435
1385568301452378702,-0.00570416131506,-0.00271477527885,0.000110675886918,1.0,0.0,0.00498995047507
1385568301502496996,-0.00573178039774,-0.00276862268797,4.67497584752e-05,1.0,0.0,0.00490414776654
1385568301552498651,-0.00581322224673,-0.00301257043417,-5.87600861188e-06,1.0,0.0,0.0048527435336
1385568301602349060,-0.00591690866374,-0.00313108587566,-6.50593387661e-05,1.0,0.0,0.0047805040994
1385568301652333122,-0.00604437453387,-0.00334430353431,-0.000137635899246,1.0,0.0,0.00473098743613
1385568301702321441,-0.00609100012639,-0.00348634091746,-0.000194993942696,1.0,0.0,0.00466871036843
1385568301752637221,-0.0062069817272,-0.00369660229741,-0.000251553539547,1.0,0.0,0.00459975383413
1385568301802374923,-0.00632660965925,-0.0038412758164,-0.000305343545047,1.0,0.0,0.00459055386134
1385568301852360458,-0.00645003345829,-0.00406709929074,-0.000349150512198,1.0,0.0,0.00457442761614
1385568301902372739,-0.00652386959083,-0.00418977359257,-0.000411997195242,1.0,0.0,0.00449940275544
1385568301952333578,-0.00664859580887,-0.00429996071986,-0.000465738522636,1.0,0.0,0.00446739330618
1385568302002420311,-0.00673307761898,-0.00440355271015,-0.000515345015469,1.0,0.0,0.00441002369215
1385568302052351505,-0.00682771879168,-0.00444910526917,-0.000569679096838,1.0,0.0,0.00434040231598
1385568302102388022,-0.00690665991488,-0.00452512612584,-0.000632141097252,1.0,0.0,0.00428022952049
1385568302152351884,-0.00703569038385,-0.00451507145264,-0.000707171728803,1.0,0.0,0.00425804496446
1385568302202391503,-0.00711589867669,-0.00458430003353,-0.000771664202424,1.0,0.0,0.00416318904935
1385568302252385549,-0.00706601360139,-0.00450111026137,-0.000783691990067,1.0,0.0,0.00413697028704
1385568302302570251,-0.00710368151294,-0.00449972372759,-0.000827571124683,1.0,0.0,0.00401384114006
1385568302352329528,-0.00709041730723,-0.00446254466923,-0.000871554966731,1.0,0.0,0.00398146836179
1385568302402594795,-0.0070908534699,-0.00447427946006,-0.000873005214407,1.0,0.0,0.00395643376947
1385568302452346136,-0.00701327471678,-0.00441755470142,-0.000862004573566,1.0,0.0,0.00387339108026
1385568302502438360,-0.00689970680104,-0.00430644851575,-0.000850427043081,1.0,0.0,0.00380860829002
1385568302552373439,-0.00679423234194,-0.00422443208822,-0.000843767748568,1.0,0.0,0.00376853194309
1385568302602400787,-0.00663249212483,-0.00414205601589,-0.000837572795042,1.0,0.0,0.00366961225417
1385568302652366156,-0.00646489971798,-0.00404585273743,-0.000819530527589,1.0,0.0,0.00362678453881
1385568302702404762,-0.00628937894838,-0.00395537346816,-0.000862415311364,1.0,0.0,0.00351953193069
