%time,field.header.seq,field.header.stamp,field.header.frame_id,field.child_frame_id,field.transform.translation.x,field.transform.translation.y,field.transform.translation.z,field.transform.rotation.x,field.transform.rotation.y,field.transform.rotation.z,field.transform.rotation.w
1385568268856546360,548425,1385568268856546360,/world,vicon/Archie/Archie,0.125112243957,0.0495064439418,0.113232351571,0.00140630269854,-0.00481034220558,0.66127365573,0.750128012514
1385568268866568823,548426,1385568268866568823,/world,vicon/Archie/Archie,0.125103602782,0.0495206230018,0.113220995437,0.00146588427251,-0.0047256118112,0.661273955082,0.750128173119
1385568268876378438,548427,1385568268876378438,/world,vicon/Archie/Archie,0.125165100435,0.0495325657583,0.113260894901,0.00129517639127,-0.00447665020919,0.661308656099,0.750099422404
1385568268886407655,548428,1385568268886407655,/world,vicon/Archie/Archie,0.125179404674,0.0495187964983,0.113291795446,0.00125236652646,-0.0046229622619,0.661287511492,0.750117248797
1385568268896314321,548429,1385568268896314321,/world,vicon/Archie/Archie,0.125096931774,0.0495266886866,0.113210441942,0.00143035727156,-0.00470493233973,0.661291749277,0.750112684887
1385568268906291181,548430,1385568268906291181,/world,vicon/Archie/Archie,0.125175819931,0.0495159464235,0.113299929466,0.00129332475316,-0.00464851763539,0.661280478625,0.750123221334
1385568268916336832,548431,1385568268916336832,/world,vicon/Archie/Archie,0.125113796427,0.0495572364035,0.113214358554,0.0012431750356,-0.00449539958557,0.661312778963,0.750095763406
1385568268926300699,548432,1385568268926300699,/world,vicon/Archie/Archie,0.125178450061,0.0495157203875,0.113289626763,0.00125231905806,-0.00461819930215,0.661286208802,0.750118426637
1385568268936510262,548433,1385568268936510262,/world,vicon/Archie/Archie,0.125153952204,0.0495298209822,0.113270879424,0.00130610469565,-0.00451722858607,0.661314125709,0.750094337983
1385568268946514939,548434,1385568268946514939,/world,vicon/Archie/Archie,0.125190579365,0.0495172847063,0.11329358225,0.00125541011459,-0.00461804147246,0.66128730258,0.750117458192
1385568268956117857,548435,1385568268956117857,/world,vicon/Archie/Archie,0.125036013585,0.049564185301,0.113156339752,0.00138217298973,-0.00468154151007,0.66128949681,0.750114907315
1385568268966362488,548436,1385568268966362488,/world,vicon/Archie/Archie,0.125034197464,0.049558513868,0.113149392037,0.00137257261242,-0.00468631749435,0.661291940865,0.750112740473
1385568268976354105,548437,1385568268976354105,/world,vicon/Archie/Archie,0.1250506964,0.0495675915163,0.113155419838,0.00138962156537,-0.0047213136858,0.661254764516,0.750145262302
1385568268986411463,548438,1385568268986411463,/world,vicon/Archie/Archie,0.125084038077,0.0495286341289,0.113212075098,0.0014395347766,-0.00472172455226,0.661278627601,0.750124129551
1385568268996343386,548439,1385568268996343386,/world,vicon/Archie/Archie,0.125086701434,0.0495551976873,0.113194522855,0.00136273102176,-0.00485362578096,0.661239734799,0.750157715686
1385568269006118994,548440,1385568269006118994,/world,vicon/Archie/Archie,0.125122128531,0.0495246725759,0.113206894126,0.00138354147484,-0.0048393207004,0.661259826917,0.750140058985
1385568269016397046,548441,1385568269016397046,/world,vicon/Archie/Archie,0.12509855945,0.0495246189419,0.113244502679,0.001407260392,-0.00478423715203,0.661262257895,0.750138225247
1385568269026301425,548442,1385568269026301425,/world,vicon/Archie/Archie,0.125123656558,0.0495203653984,0.113251756954,0.0014193504183,-0.00484593591834,0.661239076793,0.750158240421
1385568269036245499,548443,1385568269036245499,/world,vicon/Archie/Archie,0.125076061642,0.0495611249069,0.113196110771,0.00138708749138,-0.00487172970526,0.661240761682,0.750156648526
1385568269046426595,548444,1385568269046426595,/world,vicon/Archie/Archie,0.125194540581,0.0495236217969,0.113289333044,0.00126716385337,-0.00462501948397,0.661284823263,0.750119581142
1385568269056445804,548445,1385568269056445804,/world,vicon/Archie/Archie,0.125095719072,0.0495211431919,0.113230966389,0.00140822009407,-0.00482159110548,0.661273632897,0.750127956825
1385568269066309711,548446,1385568269066309711,/world,vicon/Archie/Archie,0.125080263092,0.04956119436,0.113200419463,0.00138385410567,-0.0048598039936,0.661229744424,0.750166443093
1385568269076325336,548447,1385568269076325336,/world,vicon/Archie/Archie,0.12511208125,0.0495706441485,0.113213722968,0.00125003596134,-0.00445136793716,0.66129168037,0.75011461538
1385568269086289976,548448,1385568269086289976,/world,vicon/Archie/Archie,0.125052418975,0.0495790051815,0.11315290713,0.00132012340453,-0.00481171542825,0.661250335938,0.750148717183
1385568269096288291,548449,1385568269096288291,/world,vicon/Archie/Archie,0.125151292802,0.0495288049168,0.113277914597,0.001328950414,-0.00448654629384,0.661307445296,0.750100371676
1385568269106323223,548450,1385568269106323223,/world,vicon/Archie/Archie,0.125182682282,0.049517291833,0.113301502542,0.00125126722096,-0.00461389912414,0.661289771711,0.750115313866
1385568269116393728,548451,1385568269116393728,/world,vicon/Archie/Archie,0.125128764694,0.0495280560696,0.113254071354,0.00143719524455,-0.00485202536156,0.661236649823,0.750160306369
1385568269126181559,548452,1385568269126181559,/world,vicon/Archie/Archie,0.125168536674,0.0495240245291,0.113316014044,0.00129636150992,-0.00461583296469,0.661270779605,0.750131968105
1385568269136362313,548453,1385568269136362313,/world,vicon/Archie/Archie,0.125106797165,0.0495321183838,0.113234361691,0.00147605168927,-0.00471921873099,0.661248905012,0.750150275523
1385568269146484736,548454,1385568269146484736,/world,vicon/Archie/Archie,0.125125863953,0.0495238753312,0.113248885361,0.0014355456935,-0.00483611527829,0.661235837246,0.750161128518
1385568269156226830,548455,1385568269156226830,/world,vicon/Archie/Archie,0.1250921114,0.0495307982954,0.11322859752,0.00143468510932,-0.00468269868696,0.661275169542,0.750127431947
1385568269166540570,548456,1385568269166540570,/world,vicon/Archie/Archie,0.125164958616,0.0495170279504,0.113304641604,0.00125929272936,-0.00461548013222,0.661287653365,0.750117158204
1385568269176307524,548457,1385568269176307524,/world,vicon/Archie/Archie,0.125084506765,0.0495635470733,0.113206946728,0.00138454373376,-0.00484178483064,0.661229170588,0.750167064141
1385568269186329498,548458,1385568269186329498,/world,vicon/Archie/Archie,0.125109771485,0.0495474120314,0.113245946515,0.0011789526497,-0.00458190813781,0.661313789412,0.750094452801
1385568269196458924,548459,1385568269196458924,/world,vicon/Archie/Archie,0.12505010661,0.0495552973991,0.113199859874,0.00137746671548,-0.00483074794295,0.66126205377,0.75013816241
1385568269206396463,548460,1385568269206396463,/world,vicon/Archie/Archie,0.125171085401,0.049519287784,0.11330908671,0.00126547225483,-0.00462664192329,0.661284086129,0.750120223829
1385568269216224686,548461,1385568269216224686,/world,vicon/Archie/Archie,0.125086153492,0.0495583000254,0.113191552317,0.00138173055484,-0.00486477279588,0.66121843586,0.750176382516
1385568269226433645,548462,1385568269226433645,/world,vicon/Archie/Archie,0.12517790422,0.0495405381328,0.11327844762,0.00126413364183,-0.00459496233612,0.66127881269,0.750125069688
1385568269236442094,548463,1385568269236442094,/world,vicon/Archie/Archie,0.125153238256,0.0495144935554,0.113303859675,0.00124664894495,-0.00459365615344,0.661311793445,0.750096031212
1385568269246514636,548464,1385568269246514636,/world,vicon/Archie/Archie,0.125134065391,0.0495184945032,0.113252577545,0.0014413736299,-0.00487496889013,0.661242993598,0.750154557766
1385568269256327336,548465,1385568269256327336,/world,vicon/Archie/Archie,0.125116378865,0.0495721536675,0.113239763073,0.00126590915071,-0.00448250830291,0.661291240294,0.750114791285
1385568269266279809,548466,1385568269266279809,/world,vicon/Archie/Archie,0.125045285154,0.0495761706661,0.11317765796,0.00141883169855,-0.00472713180078,0.661246067191,0.750152837604
1385568269276474260,548467,1385568269276474260,/world,vicon/Archie/Archie,0.125135854857,0.0495605798153,0.113257036386,0.00122241649795,-0.0045793992297,0.661284187458,0.750120495799
1385568269286375009,548468,1385568269286375009,/world,vicon/Archie/Archie,0.125168479138,0.0495205226203,0.11330334371,0.00128735318115,-0.00460252052193,0.661288592731,0.750116362074
1385568269296396842,548469,1385568269296396842,/world,vicon/Archie/Archie,0.125112780906,0.0495283529498,0.113251303524,0.0014400177751,-0.00482365718892,0.661242995302,0.750154890569
1385568269306368033,548470,1385568269306368033,/world,vicon/Archie/Archie,0.125170923837,0.0495510271261,0.113258217149,0.00126266987303,-0.00446503218412,0.661299953802,0.750107219172
1385568269316423147,548471,1385568269316423147,/world,vicon/Archie/Archie,0.125113419531,0.0495364592676,0.113228558081,0.0014480889538,-0.00471377043079,0.661254334907,0.750145577854
1385568269326327101,548472,1385568269326327101,/world,vicon/Archie/Archie,0.125131009533,0.0495174395476,0.113267370191,0.00144425218632,-0.00485713264761,0.661234366844,0.750162272114
1385568269336345463,548473,1385568269336345463,/world,vicon/Archie/Archie,0.125179436284,0.0495229527186,0.113303786636,0.00128192793085,-0.00462058896327,0.661286322775,0.750118261429
1385568269346467818,548474,1385568269346467818,/world,vicon/Archie/Archie,0.125132444525,0.0495618360445,0.113258343699,0.00122262030166,-0.00460170583161,0.661271493863,0.750131549068
1385568269356365087,548475,1385568269356365087,/world,vicon/Archie/Archie,0.125170887069,0.0495242059157,0.113298197786,0.00126800435405,-0.00457688239907,0.661292319786,0.750113266184
1385568269366399650,548476,1385568269366399650,/world,vicon/Archie/Archie,0.125132883667,0.0495295842969,0.113277986933,0.00128305953083,-0.00446193268763,0.661326534015,0.75008376887
1385568269376356473,548477,1385568269376356473,/world,vicon/Archie/Archie,0.125117076878,0.0495268365023,0.113246630681,0.00143642315076,-0.00483092194648,0.661239113615,0.750158272305
1385568269386340260,548478,1385568269386340260,/world,vicon/Archie/Archie,0.125174792886,0.0495220147735,0.113300088158,0.00124944452821,-0.00460824027534,0.66127657954,0.750126981492
1385568269396354961,548479,1385568269396354961,/world,vicon/Archie/Archie,0.125152314368,0.049528373389,0.113279061923,0.00130222345365,-0.00448159796162,0.661300552494,0.750106524944
1385568269406303585,548480,1385568269406303585,/world,vicon/Archie/Archie,0.125180933492,0.0495171921767,0.113292347978,0.00128211011297,-0.00458346194681,0.66129007486,0.75011518113
1385568269416345123,548481,1385568269416345123,/world,vicon/Archie/Archie,0.12513159121,0.0495516453877,0.113248240617,0.00120371367226,-0.00459445545068,0.661290305284,0.750115040637
1385568269426415588,548482,1385568269426415588,/world,vicon/Archie/Archie,0.125166007305,0.0495165897984,0.113310062514,0.00127255999312,-0.00460489786155,0.661296816835,0.750109122428
1385568269436322336,548483,1385568269436322336,/world,vicon/Archie/Archie,0.125144505647,0.0495236794569,0.113297032068,0.0012357287492,-0.00460489772758,0.661310158725,0.750097421578
1385568269446454855,548484,1385568269446454855,/world,vicon/Archie/Archie,0.125176385519,0.0495111420925,0.113301213546,0.00127018794765,-0.0046062219033,0.661302829486,0.750103817519
1385568269456534608,548485,1385568269456534608,/world,vicon/Archie/Archie,0.125151147663,0.049513782836,0.113297645895,0.00125179898713,-0.00458906609552,0.661308144575,0.750099267691
1385568269466444856,548486,1385568269466444856,/world,vicon/Archie/Archie,0.125168523453,0.0495246041602,0.113304084385,0.00130619195145,-0.00460519304481,0.661292941611,0.750112479189
1385568269476327214,548487,1385568269476327214,/world,vicon/Archie/Archie,0.125127149133,0.0495130750041,0.113251416024,0.00143484468406,-0.00484173138262,0.661249003313,0.750149488086
1385568269486511740,548488,1385568269486511740,/world,vicon/Archie/Archie,0.125110669704,0.0495265683547,0.113214574445,0.00145559407548,-0.00471448539689,0.661275442905,0.750126951579
1385568269496447968,548489,1385568269496447968,/world,vicon/Archie/Archie,0.125134267581,0.0495543766301,0.11324725629,0.00121076937515,-0.00460395047309,0.661281277987,0.7501229293
1385568269506361264,548490,1385568269506361264,/world,vicon/Archie/Archie,0.125129964993,0.0495441468844,0.113235112771,0.00139267132294,-0.00483903953082,0.661236286327,0.750160794635
1385568269516716908,548491,1385568269516716908,/world,vicon/Archie/Archie,0.125162590004,0.0495152972945,0.113297154035,0.00126297591026,-0.00459932745021,0.66129023778,0.750114972851
1385568269526323224,548492,1385568269526323224,/world,vicon/Archie/Archie,0.125115171093,0.0495097427519,0.113251688467,0.00144494969335,-0.00482683387799,0.661242534286,0.750155267026
1385568269536345830,548493,1385568269536345830,/world,vicon/Archie/Archie,0.125117919623,0.0495431215807,0.113240795114,0.0011770741061,-0.0045726327156,0.66131018718,0.750097688211
1385568269546380694,548494,1385568269546380694,/world,vicon/Archie/Archie,0.125171487829,0.0495351596232,0.113283111881,0.00124308906438,-0.004592189778,0.661284183337,0.750120387265
1385568269556432244,548495,1385568269556432244,/world,vicon/Archie/Archie,0.12511236826,0.0495550442833,0.113223901658,0.00124038718394,-0.00446402273424,0.661308819869,0.750099445877
1385568269566426127,548496,1385568269566426127,/world,vicon/Archie/Archie,0.125178461079,0.0495200701107,0.113303611863,0.00125637071017,-0.00457540296846,0.661300053164,0.750106477046
1385568269576271724,548497,1385568269576271724,/world,vicon/Archie/Archie,0.125180980107,0.0495133877855,0.113308547583,0.00127414599055,-0.00460691048279,0.661282840874,0.750121428366
1385568269586644737,548498,1385568269586644737,/world,vicon/Archie/Archie,0.125174817453,0.0495130901797,0.113309930912,0.00128467145526,-0.00461537842072,0.661299373757,0.750106783178
1385568269596373509,548499,1385568269596373509,/world,vicon/Archie/Archie,0.125166378581,0.0495148898937,0.113299798279,0.00126101496491,-0.00460618044449,0.661311506377,0.750096183483
1385568269606186042,548500,1385568269606186042,/world,vicon/Archie/Archie,0.125156315317,0.0495305431656,0.113277183447,0.00131048792073,-0.0044795940999,0.661317847835,0.750091274441
1385568269616210271,548501,1385568269616210271,/world,vicon/Archie/Archie,0.125084221869,0.0495452733513,0.113201401485,0.00137282966396,-0.00485578360539,0.661240106988,0.750157355236
1385568269626702327,548502,1385568269626702327,/world,vicon/Archie/Archie,0.125152976007,0.0495024164999,0.113299945615,0.00124560203016,-0.0045895611833,0.661322662536,0.750086475295
1385568269636424551,548503,1385568269636424551,/world,vicon/Archie/Archie,0.125058671082,0.0495687240433,0.11316180028,0.00140652940346,-0.00469875949823,0.661268067797,0.750133645324
1385568269646582436,548504,1385568269646582436,/world,vicon/Archie/Archie,0.125117705528,0.0495610109292,0.113223398666,0.00124528850305,-0.00445396104637,0.661304692302,0.750103136526
1385568269656309608,548505,1385568269656309608,/world,vicon/Archie/Archie,0.125129810289,0.0495151319695,0.113243250536,0.00142245483848,-0.0048492840791,0.661264504907,0.750135798117
1385568269666316001,548506,1385568269666316001,/world,vicon/Archie/Archie,0.125153914117,0.0495107625399,0.113291697307,0.00124606328914,-0.00457826721114,0.661314697709,0.750093565757
1385568269676275506,548507,1385568269676275506,/world,vicon/Archie/Archie,0.125168165247,0.0495056567872,0.113291350915,0.00125047490036,-0.00460974415813,0.66131195145,0.750095786844
1385568269686364519,548508,1385568269686364519,/world,vicon/Archie/Archie,0.125130843728,0.0495466579768,0.113259887624,0.00120328826389,-0.00459865566293,0.661302067554,0.750104645974
1385568269696433488,548509,1385568269696433488,/world,vicon/Archie/Archie,0.125172191033,0.0495036969843,0.113299646998,0.00128093861235,-0.00462018953984,0.661296036574,0.750109702015
1385568269706187982,548510,1385568269706187982,/world,vicon/Archie/Archie,0.12513266915,0.0495201955722,0.113266685512,0.00128216154932,-0.00447167857169,0.661347838307,0.750064928469
1385568269716377210,548511,1385568269716377210,/world,vicon/Archie/Archie,0.12518252254,0.0495090611291,0.113293438953,0.00125511478333,-0.00461102016695,0.66130172631,0.750104785986
1385568269726465519,548512,1385568269726465519,/world,vicon/Archie/Archie,0.125174677977,0.0495065456763,0.113297118197,0.00127840634526,-0.00461297018557,0.66130343434,0.750103228838
1385568269736395311,548513,1385568269736395311,/world,vicon/Archie/Archie,0.125115471657,0.0495253256698,0.113219988352,0.00146232965286,-0.00471510995283,0.661271995417,0.750129973676
1385568269746450287,548514,1385568269746450287,/world,vicon/Archie/Archie,0.125122790136,0.0495076928682,0.113252447642,0.00144186597245,-0.00484094246874,0.661248737792,0.750149713769
1385568269756449461,548515,1385568269756449461,/world,vicon/Archie/Archie,0.125186011377,0.0495063224116,0.113290918002,0.00125929921396,-0.00461430646605,0.661282863888,0.750121387689
1385568269766293449,548516,1385568269766293449,/world,vicon/Archie/Archie,0.125102111877,0.0495623052361,0.113209280708,0.00121902184943,-0.00444258800063,0.661338762156,0.750073209139
1385568269776745405,548517,1385568269776745405,/world,vicon/Archie/Archie,0.125147724661,0.0495217735039,0.113271627359,0.0012830014648,-0.00448323770998,0.661318256229,0.75009094013
1385568269786444255,548518,1385568269786444255,/world,vicon/Archie/Archie,0.125118035898,0.0495430894793,0.113240494199,0.00118765179163,-0.00457995925733,0.661317593522,0.750091097104
1385568269796342371,548519,1385568269796342371,/world,vicon/Archie/Archie,0.125082468549,0.049511063868,0.113207249327,0.00145478969991,-0.00470647309186,0.661305392322,0.750100600443
1385568269806325509,548520,1385568269806325509,/world,vicon/Archie/Archie,0.125125990112,0.0495095810472,0.113239666284,0.0014193350261,-0.00485128984687,0.66126207465,0.750137933386
1385568269816336693,548521,1385568269816336693,/world,vicon/Archie/Archie,0.125174523029,0.0495116922261,0.113296808821,0.00125857402491,-0.0046299158739,0.661296453334,0.750109312486
1385568269826191051,548522,1385568269826191051,/world,vicon/Archie/Archie,0.125175010874,0.0495104651511,0.113295055471,0.00126059616977,-0.00460784734737,0.661299111674,0.750107101379
1385568269836278946,548523,1385568269836278946,/world,vicon/Archie/Archie,0.125167937409,0.049503868445,0.113287977621,0.00125727416789,-0.00457480688106,0.661318161135,0.750090514643
1385568269846436816,548524,1385568269846436816,/world,vicon/Archie/Archie,0.12518238528,0.0495108799851,0.113287461608,0.00127049325441,-0.00461531015366,0.661295493883,0.750110228253
1385568269856244657,548525,1385568269856244657,/world,vicon/Archie/Archie,0.125189424254,0.0495051472054,0.113306296402,0.00127871422585,-0.00462837356856,0.661282617596,0.750121485303
1385568269866394894,548526,1385568269866394894,/world,vicon/Archie/Archie,0.125140678104,0.0495443354156,0.113255559095,0.00122202281752,-0.00461758375161,0.661290306336,0.750114868088
1385568269876273422,548527,1385568269876273422,/world,vicon/Archie/Archie,0.125146141988,0.0495365489458,0.113242678532,0.00122819991361,-0.00461902954374,0.661274020423,0.750129206207
1385568269886352784,548528,1385568269886352784,/world,vicon/Archie/Archie,0.12517838994,0.0495094265365,0.113299080366,0.0012707359117,-0.00462624722405,0.661288812776,0.750116050464
1385568269896311612,548529,1385568269896311612,/world,vicon/Archie/Archie,0.125136907308,0.049509122961,0.11324468538,0.0014204437553,-0.00485133532162,0.66124220737,0.750155443943
1385568269906200925,548530,1385568269906200925,/world,vicon/Archie/Archie,0.125132743098,0.0495064076168,0.113240434513,0.00143745204723,-0.00485678933436,0.661238026176,0.750159061845
1385568269916307762,548531,1385568269916307762,/world,vicon/Archie/Archie,0.125184745134,0.0494985123275,0.1132943237,0.00126147145797,-0.00460023130545,0.661296123212,0.75010978129
1385568269926213365,548532,1385568269926213365,/world,vicon/Archie/Archie,0.125167614321,0.0495041445515,0.113284839152,0.00127162173082,-0.00460103919644,0.661314020599,0.750093980495
1385568269936663190,548533,1385568269936663190,/world,vicon/Archie/Archie,0.1251595674,0.0494993556114,0.113299024905,0.00125962802383,-0.00458288645868,0.661312428214,0.75009551577
1385568269946290187,548534,1385568269946290187,/world,vicon/Archie/Archie,0.125083553158,0.0495403768752,0.113205523591,0.00138115836155,-0.00487363606744,0.661243221143,0.750154479134
1385568269956272062,548535,1385568269956272062,/world,vicon/Archie/Archie,0.125131710447,0.0495241887205,0.113217991643,0.00139686424596,-0.00483554133895,0.661241779729,0.75015596715
1385568269966310041,548536,1385568269966310041,/world,vicon/Archie/Archie,0.125171721624,0.0495027196085,0.113302623379,0.00128246984658,-0.0046021880943,0.661288094342,0.750116811848
1385568269976287791,548537,1385568269976287791,/world,vicon/Archie/Archie,0.125129920408,0.0494994732597,0.113248239117,0.00144826565783,-0.00484834896134,0.661251616721,0.750147115853
1385568269986354483,548538,1385568269986354483,/world,vicon/Archie/Archie,0.12511463096,0.0495117078565,0.113231168998,0.00142803869185,-0.00484264220728,0.661269808043,0.750131155528
1385568269996374150,548539,1385568269996374150,/world,vicon/Archie/Archie,0.125184915293,0.0495058085207,0.113293751052,0.00126639798449,-0.00461784547336,0.661280570876,0.7501233754
1385568270006426816,548540,1385568270006426816,/world,vicon/Archie/Archie,0.125146275166,0.0495166531179,0.113274118474,0.00131643062437,-0.00447719105561,0.661322171715,0.750087466212
1385568270016443018,548541,1385568270016443018,/world,vicon/Archie/Archie,0.125141830703,0.0495079724312,0.113249987294,0.00143087312961,-0.00485246674645,0.661245214303,0.750152766262
1385568270026280659,548542,1385568270026280659,/world,vicon/Archie/Archie,0.125122761084,0.0495403779108,0.113230680303,0.00118970814545,-0.00457882849576,0.661306981688,0.750100456535
1385568270036315780,548543,1385568270036315780,/world,vicon/Archie/Archie,0.125082364285,0.0495243976715,0.113210154309,0.00145962300115,-0.00471919886666,0.661294837061,0.75010981672
1385568270046360075,548544,1385568270046360075,/world,vicon/Archie/Archie,0.12512236666,0.0495122085198,0.113242102841,0.00138315370877,-0.00484938147242,0.661267914915,0.750132864958
1385568270056488442,548545,1385568270056488442,/world,vicon/Archie/Archie,0.125139272744,0.0495084255796,0.113237319329,0.00143751974416,-0.00486794274114,0.661233878733,0.750162645222
1385568270066529303,548546,1385568270066529303,/world,vicon/Archie/Archie,0.12506580491,0.0495521591884,0.113156193898,0.00139879984804,-0.00475215547388,0.661253690552,0.750145997195
1385568270076253065,548547,1385568270076253065,/world,vicon/Archie/Archie,0.125159889593,0.0494965232231,0.113278205039,0.00125575605114,-0.00462696960535,0.661317571658,0.750090716944
1385568270086392560,548548,1385568270086392560,/world,vicon/Archie/Archie,0.12512752386,0.0495102246333,0.113244258422,0.00144830431726,-0.00484680035172,0.661251289445,0.750147414278
1385568270096313121,548549,1385568270096313121,/world,vicon/Archie/Archie,0.125129818003,0.0494958272256,0.113234633523,0.00143332653838,-0.00482651215729,0.661270978396,0.750130217687
1385568270106261286,548550,1385568270106261286,/world,vicon/Archie/Archie,0.125090567372,0.0495440485997,0.113188101602,0.0013705282796,-0.00482797447146,0.661241379872,0.750156416929
1385568270116389654,548551,1385568270116389654,/world,vicon/Archie/Archie,0.1251438515,0.0495133043252,0.113236078545,0.00142044309571,-0.00486054173139,0.661228052294,0.750167861439
1385568270126218995,548552,1385568270126218995,/world,vicon/Archie/Archie,0.125054063105,0.0495509328063,0.113149003813,0.00136355016775,-0.00469813523358,0.661299861257,0.75010570039
1385568270136401746,548553,1385568270136401746,/world,vicon/Archie/Archie,0.12517989276,0.0495011012092,0.113284239594,0.0012603265097,-0.00464178650632,0.661300847963,0.750105361851
1385568270146406634,548554,1385568270146406634,/world,vicon/Archie/Archie,0.125134213895,0.0495094368015,0.113246784345,0.00143736535461,-0.00484092802261,0.661244067194,0.750153839554
1385568270156248512,548555,1385568270156248512,/world,vicon/Archie/Archie,0.125182972059,0.0495089114608,0.113297958829,0.00128675215701,-0.0046255862817,0.661295487788,0.750110142613
1385568270166250026,548556,1385568270166250026,/world,vicon/Archie/Archie,0.12509860942,0.0495460336752,0.11319185976,0.00138604273256,-0.00487065638662,0.661244195533,0.750153630576
1385568270176346463,548557,1385568270176346463,/world,vicon/Archie/Archie,0.125142224519,0.0495044094579,0.11324360606,0.00142924145728,-0.0048397110587,0.661240199392,0.750157272293
1385568270186329661,548558,1385568270186329661,/world,vicon/Archie/Archie,0.12513739844,0.049505861446,0.113245979495,0.00145067186695,-0.00485650761207,0.661253263723,0.750145606599
1385568270196331567,548559,1385568270196331567,/world,vicon/Archie/Archie,0.12512321235,0.0495109006605,0.113242144131,0.00146488889302,-0.00484694124032,0.661250294573,0.750148258138
1385568270206346661,548560,1385568270206346661,/world,vicon/Archie/Archie,0.125132009536,0.0495502591919,0.113234327935,0.00122281855283,-0.0046062024528,0.661294176417,0.750111524942
1385568270216405805,548561,1385568270216405805,/world,vicon/Archie/Archie,0.125111464069,0.0495032393945,0.113237404498,0.00141103764151,-0.00481696160223,0.661275662835,0.750126191781
1385568270226327545,548562,1385568270226327545,/world,vicon/Archie/Archie,0.12512288783,0.0495066148741,0.113240937985,0.00143242239938,-0.00486206222248,0.661250954806,0.750147640992
1385568270236437936,548563,1385568270236437936,/world,vicon/Archie/Archie,0.12510353456,0.049530232988,0.113218266276,0.00146346807751,-0.00472686579914,0.661280116817,0.750122738026
1385568270246492608,548564,1385568270246492608,/world,vicon/Archie/Archie,0.125163918022,0.0495133183643,0.113283222887,0.00126019684972,-0.00462331353433,0.661311080017,0.750096455346
1385568270256302996,548565,1385568270256302996,/world,vicon/Archie/Archie,0.125140625271,0.0495449362353,0.113249733603,0.00123626445683,-0.00459328992672,0.661272293323,0.750130873529
1385568270266331839,548566,1385568270266331839,/world,vicon/Archie/Archie,0.125079951024,0.0495258452152,0.113216060204,0.00144285800359,-0.00470293079783,0.661274387647,0.750127978978
1385568270276242618,548567,1385568270276242618,/world,vicon/Archie/Archie,0.125127400272,0.0495182267393,0.113259373177,0.00144954372044,-0.00484706057914,0.661236460285,0.750160481775
1385568270286375846,548568,1385568270286375846,/world,vicon/Archie/Archie,0.125181621077,0.0495092632613,0.113291647365,0.00128025555156,-0.00462447707255,0.661279453646,0.75012429593
1385568270296384706,548569,1385568270296384706,/world,vicon/Archie/Archie,0.125121000417,0.0495203273424,0.113260545548,0.00144524961665,-0.00483878882525,0.661242717428,0.750155027994
1385568270306292501,548570,1385568270306292501,/world,vicon/Archie/Archie,0.12512505533,0.0495091381621,0.113261725286,0.00143507003033,-0.0048470188815,0.661242324905,0.750155340404
1385568270316406109,548571,1385568270316406109,/world,vicon/Archie/Archie,0.125140587074,0.0495465939613,0.113246460527,0.0012163584789,-0.00463894235691,0.661287438783,0.750117273493
1385568270326292195,548572,1385568270326292195,/world,vicon/Archie/Archie,0.125120516976,0.0495208613968,0.113254715274,0.00144900689742,-0.00484778808336,0.661248667248,0.750149717985
1385568270336425325,548573,1385568270336425325,/world,vicon/Archie/Archie,0.125129427555,0.0495208133921,0.113256297478,0.00143283876499,-0.00485450042565,0.661238288196,0.750158854525
1385568270346433748,548574,1385568270346433748,/world,vicon/Archie/Archie,0.125151886517,0.0495169693014,0.113297971383,0.00129138452132,-0.00461871476269,0.661318524121,0.750089867586
1385568270356467226,548575,1385568270356467226,/world,vicon/Archie/Archie,0.125126473728,0.0495180153973,0.113244839031,0.00144057931901,-0.00484711222518,0.66124865133,0.750149752615
1385568270366417506,548576,1385568270366417506,/world,vicon/Archie/Archie,0.12509882574,0.049525925027,0.113223643274,0.00145040098066,-0.0046992796024,0.661265371632,0.750135935273
1385568270376336281,548577,1385568270376336281,/world,vicon/Archie/Archie,0.125158757966,0.0495204522865,0.113266983331,0.00130387753475,-0.00447723970892,0.661322934753,0.750086815107
1385568270386374518,548578,1385568270386374518,/world,vicon/Archie/Archie,0.125178979495,0.0495101836849,0.113317086403,0.00126377613069,-0.00459097725083,0.661283766392,0.750120727686
1385568270396369562,548579,1385568270396369562,/world,vicon/Archie/Archie,0.125097472591,0.0495388592128,0.113223896033,0.00146891658835,-0.00472270617309,0.661268721692,0.750132798938
1385568270406244737,548580,1385568270406244737,/world,vicon/Archie/Archie,0.125081359422,0.0495469251231,0.113188009444,0.00139446777441,-0.00485990241448,0.661247524408,0.750150750364
1385568270416422991,548581,1385568270416422991,/world,vicon/Archie/Archie,0.125132503019,0.0495201935236,0.113247069257,0.00144354085802,-0.00484177461712,0.661236163809,0.750160788818
1385568270426306009,548582,1385568270426306009,/world,vicon/Archie/Archie,0.125102452862,0.0495183154371,0.113223102519,0.0014613456147,-0.00472645421125,0.66127521192,0.750127068702
1385568270436585379,548583,1385568270436585379,/world,vicon/Archie/Archie,0.125115018679,0.0495136720103,0.113252015174,0.00142930558021,-0.00483652170262,0.661253974658,0.750145150049
1385568270446493007,548584,1385568270446493007,/world,vicon/Archie/Archie,0.125151354229,0.0495204377884,0.113262546197,0.0013176722176,-0.00448266797482,0.661309976157,0.750098183482
1385568270456229738,548585,1385568270456229738,/world,vicon/Archie/Archie,0.125147096853,0.0495364723389,0.113255346853,0.00121445493465,-0.00461854160481,0.661285367573,0.750119228394
1385568270466407605,548586,1385568270466407605,/world,vicon/Archie/Archie,0.125123237988,0.0495071186353,0.113260885164,0.0014306357679,-0.00483231072944,0.661259050476,0.750140700281
1385568270476315531,548587,1385568270476315531,/world,vicon/Archie/Archie,0.12509781925,0.0495071317203,0.113248125514,0.0014037057912,-0.00480994661461,0.661279078106,0.750123239796
1385568270486269743,548588,1385568270486269743,/world,vicon/Archie/Archie,0.125118374901,0.0495151977067,0.113257191679,0.00144108558436,-0.00484152931059,0.661254478429,0.750144651133
1385568270496274732,548589,1385568270496274732,/world,vicon/Archie/Archie,0.125088804474,0.0495441460811,0.113193871707,0.00141097790078,-0.00485745339056,0.661241018794,0.750156469913
1385568270506440656,548590,1385568270506440656,/world,vicon/Archie/Archie,0.125056479312,0.0495581397572,0.113165116178,0.00141285314899,-0.00471582548983,0.661267814287,0.750133749823
1385568270516421380,548591,1385568270516421380,/world,vicon/Archie/Archie,0.125148794712,0.0495150288824,0.11327621371,0.00130935871278,-0.00448556356916,0.661312978236,0.750095533993
1385568270526230506,548592,1385568270526230506,/world,vicon/Archie/Archie,0.125066361388,0.0495375050893,0.113186619478,0.00135317540861,-0.00484160633101,0.661263239972,0.750137090955
1385568270536361666,548593,1385568270536361666,/world,vicon/Archie/Archie,0.125091664652,0.0495471161088,0.113188685727,0.00136291911338,-0.00484137163042,0.661238268967,0.750159086612
1385568270546257860,548594,1385568270546257860,/world,vicon/Archie/Archie,0.125106513777,0.0495725693288,0.113195826759,0.00123030709027,-0.00446493368842,0.66130919115,0.750099129724
1385568270556334341,548595,1385568270556334341,/world,vicon/Archie/Archie,0.125176706409,0.0495109857917,0.113306516468,0.00127377620046,-0.00461462956731,0.661296578586,0.750109270599
1385568270566518264,548596,1385568270566518264,/world,vicon/Archie/Archie,0.125123073259,0.049502721771,0.113251106001,0.0014158969883,-0.00484791954154,0.661249119729,0.750149381503
1385568270576244016,548597,1385568270576244016,/world,vicon/Archie/Archie,0.125129562068,0.0495016377672,0.113260873237,0.00144393024554,-0.00486560883407,0.661259923006,0.750139690419
1385568270586325719,548598,1385568270586325719,/world,vicon/Archie/Archie,0.125130822841,0.0494993141919,0.113241176142,0.00139604905454,-0.00482753083578,0.661270744749,0.750130487404
1385568270596386421,548599,1385568270596386421,/world,vicon/Archie/Archie,0.125195778005,0.0495024664419,0.113298767841,0.00125630006869,-0.00463103030277,0.661285599102,0.750118878372
1385568270606232862,548600,1385568270606232862,/world,vicon/Archie/Archie,0.125142232281,0.0495044773451,0.113241926996,0.00141750053773,-0.0048515280339,0.66123937482,0.750157945073
1385568270616946101,548601,1385568270616946101,/world,vicon/Archie/Archie,0.125131728103,0.0494960375079,0.113249108626,0.0014272971793,-0.00484311904811,0.661258466224,0.750141151963
1385568270626233241,548602,1385568270626233241,/world,vicon/Archie/Archie,0.125066963614,0.0495548859074,0.113152130172,0.00130979347234,-0.00481551597252,0.66126464061,0.750136101202
1385568270636352243,548603,1385568270636352243,/world,vicon/Archie/Archie,0.125131177756,0.0495371589434,0.113260691228,0.00122152316215,-0.00461107700533,0.661297286806,0.75010875499
1385568270646407953,548604,1385568270646407953,/world,vicon/Archie/Archie,0.1251706316,0.0495043722131,0.113294484558,0.00125152805104,-0.00459132770073,0.661310367471,0.750097294531
1385568270656379298,548605,1385568270656379298,/world,vicon/Archie/Archie,0.12513104884,0.0495087223108,0.113255101071,0.00143116130246,-0.00482206621528,0.661249342623,0.750149322692
1385568270666387008,548606,1385568270666387008,/world,vicon/Archie/Archie,0.125074585931,0.0495429925183,0.113191816475,0.00139022830784,-0.0048293848154,0.661249902663,0.750148858918
1385568270676416514,548607,1385568270676416514,/world,vicon/Archie/Archie,0.12519074369,0.0495031163341,0.11329985492,0.0012554139477,-0.00461332454732,0.66129090104,0.750114314871
1385568270686295303,548608,1385568270686295303,/world,vicon/Archie/Archie,0.125144778477,0.0495398384764,0.113247656669,0.00121560628316,-0.00461786110883,0.661283042777,0.750121280191
1385568270696425178,548609,1385568270696425178,/world,vicon/Archie/Archie,0.125161253475,0.0494898387812,0.113285300599,0.00125573144678,-0.00460995560088,0.661320364535,0.750088359394
1385568270706368821,548610,1385568270706368821,/world,vicon/Archie/Archie,0.125143593731,0.0495259607118,0.113252766836,0.00121509255087,-0.0046083676543,0.661296059808,0.750109863807
1385568270716432115,548611,1385568270716432115,/world,vicon/Archie/Archie,0.125133531758,0.0495077776831,0.11324923821,0.00144513353024,-0.00487105565499,0.66124972181,0.750148645144
1385568270726318639,548612,1385568270726318639,/world,vicon/Archie/Archie,0.125124095271,0.0495475601331,0.113216143833,0.00125264624256,-0.00448105098632,0.66131274111,0.750095866876
1385568270736303558,548613,1385568270736303558,/world,vicon/Archie/Archie,0.125081269202,0.04955235159,0.113190108939,0.00137567996713,-0.00486601840542,0.661240404638,0.750157021325
1385568270746357517,548614,1385568270746357517,/world,vicon/Archie/Archie,0.125116087309,0.0495186649504,0.113208781683,0.00142338111449,-0.00472064258684,0.66126059993,0.750140059255
1385568270756256518,548615,1385568270756256518,/world,vicon/Archie/Archie,0.125191753117,0.0494951677586,0.113302045204,0.001293741477,-0.00460657726592,0.661295125877,0.75011056663
1385568270766429509,548616,1385568270766429509,/world,vicon/Archie/Archie,0.125134381701,0.0494982615347,0.113246022424,0.00141492110443,-0.00483059825491,0.661243206036,0.750154707903
1385568270776317486,548617,1385568270776317486,/world,vicon/Archie/Archie,0.12512721754,0.0495118636688,0.113249541772,0.00142015035885,-0.00483433403614,0.66124373444,0.750154208181
1385568270786232201,548618,1385568270786232201,/world,vicon/Archie/Archie,0.125085423854,0.0495428667739,0.113188496134,0.00141343778637,-0.00485417108161,0.66123329205,0.750163297357
1385568270796465348,548619,1385568270796465348,/world,vicon/Archie/Archie,0.125132343257,0.0495037444907,0.11325171409,0.00143558737013,-0.00485606367198,0.661251049147,0.750147590636
1385568270806320504,548620,1385568270806320504,/world,vicon/Archie/Archie,0.125108349992,0.0495217685476,0.113222679838,0.00147636107004,-0.00471927867667,0.661273897557,0.750128243154
1385568270816385443,548621,1385568270816385443,/world,vicon/Archie/Archie,0.12513540448,0.0495088302045,0.113254842017,0.0014450739822,-0.00482209632274,0.661247397355,0.750151010557
1385568270826473383,548622,1385568270826473383,/world,vicon/Archie/Archie,0.125148949443,0.049517616123,0.113261799653,0.00129783757198,-0.00446104583366,0.661322012844,0.750087734879
1385568270836388461,548623,1385568270836388461,/world,vicon/Archie/Archie,0.125143443158,0.0494946901419,0.11324842076,0.00143767870526,-0.00484619424342,0.661241396969,0.750156158687
1385568270846480060,548624,1385568270846480060,/world,vicon/Archie/Archie,0.125194202826,0.0495032221907,0.113293663029,0.00126376722157,-0.00462895594179,0.661289942592,0.750115049499
1385568270856259302,548625,1385568270856259302,/world,vicon/Archie/Archie,0.125190506395,0.0495010782867,0.113300998084,0.00126825352925,-0.00459905003509,0.661285600936,0.750119053396
1385568270866311211,548626,1385568270866311211,/world,vicon/Archie/Archie,0.125169755823,0.0495057410894,0.113281713799,0.00130798446364,-0.00447415230819,0.661306938374,0.750100929473
1385568270876171754,548627,1385568270876171754,/world,vicon/Archie/Archie,0.125163831771,0.0495189741059,0.113271944976,0.00131331375804,-0.00447245916232,0.661309169804,0.75009896297
1385568270886350541,548628,1385568270886350541,/world,vicon/Archie/Archie,0.125185096362,0.0495040243419,0.113314631887,0.00128908717785,-0.00461928973967,0.661284188474,0.750120138705
1385568270896401027,548629,1385568270896401027,/world,vicon/Archie/Archie,0.125144634748,0.0495063131608,0.113253338099,0.00142735019339,-0.00484078599057,0.661241919698,0.750155752558
1385568270906601176,548630,1385568270906601176,/world,vicon/Archie/Archie,0.125136405116,0.0494972174565,0.113261254092,0.00141041937174,-0.00483678013092,0.661240354725,0.750157189899
1385568270916422512,548631,1385568270916422512,/world,vicon/Archie/Archie,0.12514319733,0.0495043331226,0.113246132022,0.00142640168253,-0.00484301901078,0.661243499425,0.75015434746
1385568270926970356,548632,1385568270926970356,/world,vicon/Archie/Archie,0.125126846453,0.0495112886273,0.113250707869,0.00143927497247,-0.0048731933784,0.661242827754,0.75015471952
1385568270936436675,548633,1385568270936436675,/world,vicon/Archie/Archie,0.125100066176,0.0495402713697,0.113186291168,0.00144035818266,-0.00470994381153,0.661267224296,0.750134254563
1385568270946387969,548634,1385568270946387969,/world,vicon/Archie/Archie,0.125134576664,0.0495168630575,0.113270618371,0.00127581797608,-0.0044711842123,0.661328248726,0.750082214319
1385568270956186589,548635,1385568270956186589,/world,vicon/Archie/Archie,0.12506203502,0.0495569010251,0.113171288791,0.0014156879427,-0.00472575747097,0.661271580315,0.750130362078
1385568270966472455,548636,1385568270966472455,/world,vicon/Archie/Archie,0.125118299536,0.0495016208714,0.113241226299,0.00140582663439,-0.00485243581018,0.661276233455,0.750125469895
1385568270976286172,548637,1385568270976286172,/world,vicon/Archie/Archie,0.125175654937,0.0495026085842,0.113302095709,0.00128425584362,-0.00461718274299,0.661289603918,0.750115385831
1385568270987124834,548638,1385568270987124834,/world,vicon/Archie/Archie,0.125040862719,0.0495562512431,0.113158561495,0.00139228827956,-0.00470438165882,0.661286374773,0.75011749804
1385568270996355532,548639,1385568270996355532,/world,vicon/Archie/Archie,0.125161415354,0.0495021411374,0.113297807499,0.00123920820254,-0.00460181983057,0.661320808589,0.750088045328
1385568271006299139,548640,1385568271006299139,/world,vicon/Archie/Archie,0.125161971991,0.049519978624,0.113270798368,0.00130167885792,-0.0044787206434,0.661315077387,0.750093737552
1385568271016597110,548641,1385568271016597110,/world,vicon/Archie/Archie,0.125120935999,0.0495532043109,0.113233065302,0.00123253069135,-0.0044698436524,0.661314852289,0.750094105768
1385568271026397920,548642,1385568271026397920,/world,vicon/Archie/Archie,0.125123834719,0.0495573490447,0.113225951362,0.00123863983295,-0.00447510404266,0.661316343972,0.750092749205
1385568271036324659,548643,1385568271036324659,/world,vicon/Archie/Archie,0.125088285671,0.0495402982937,0.113198865968,0.00138173102242,-0.00487240793242,0.661229274385,0.750166779561
1385568271046447113,548644,1385568271046447113,/world,vicon/Archie/Archie,0.125183814631,0.0495060058933,0.11331340526,0.00128486774773,-0.00462330958365,0.661287732946,0.75011699646
1385568271056233957,548645,1385568271056233957,/world,vicon/Archie/Archie,0.125074850126,0.049554698094,0.113170401011,0.00141587444097,-0.004715924806,0.66125999954,0.750140632389
1385568271066513817,548646,1385568271066513817,/world,vicon/Archie/Archie,0.125137285685,0.0495049037705,0.1132569024,0.00143282726497,-0.00483582219536,0.661256462682,0.750142954636
1385568271076329326,548647,1385568271076329326,/world,vicon/Archie/Archie,0.125097566813,0.0495521560797,0.113209897452,0.00120379400947,-0.00444965261416,0.661337488603,0.750074314745
1385568271086417100,548648,1385568271086417100,/world,vicon/Archie/Archie,0.125173372418,0.0495099359862,0.113281993454,0.00132055648169,-0.00447771276097,0.661304850905,0.750102726557
1385568271096478523,548649,1385568271096478523,/world,vicon/Archie/Archie,0.125160913056,0.0495190925039,0.113279255844,0.00131945547399,-0.00447882825513,0.661304509586,0.750103022748
1385568271106332793,548650,1385568271106332793,/world,vicon/Archie/Archie,0.125120237638,0.0494996192538,0.113238673762,0.00140629634654,-0.00484988885759,0.661260554331,0.750139307192
1385568271116406273,548651,1385568271116406273,/world,vicon/Archie/Archie,0.125125100826,0.0495126438318,0.113226067914,0.00145668116709,-0.00469756707292,0.661264502781,0.750136699746
1385568271126163066,548652,1385568271126163066,/world,vicon/Archie/Archie,0.125084012439,0.0495499283391,0.113201245621,0.00137862554207,-0.00486961721942,0.661240587626,0.750156831266
1385568271136332388,548653,1385568271136332388,/world,vicon/Archie/Archie,0.125129308206,0.0495023685127,0.113262714358,0.00146268108835,-0.00486838282019,0.66124757747,0.750150518698
1385568271146337306,548654,1385568271146337306,/world,vicon/Archie/Archie,0.125162109788,0.0495103341542,0.11326809197,0.00129441239536,-0.00448056264495,0.661306925486,0.750100926116
1385568271156245010,548655,1385568271156245010,/world,vicon/Archie/Archie,0.125127005705,0.0495617497446,0.11321677051,0.00124534707779,-0.0044664687208,0.661307773427,0.750100345669
1385568271166403279,548656,1385568271166403279,/world,vicon/Archie/Archie,0.125116615877,0.049498734338,0.113241655582,0.00141434795208,-0.00482801727322,0.661267012956,0.750133739706
1385568271176228539,548657,1385568271176228539,/world,vicon/Archie/Archie,0.125090276137,0.0495106556217,0.113228795627,0.00145641306986,-0.00468599632649,0.661297524934,0.750107661483
1385568271186606154,548658,1385568271186606154,/world,vicon/Archie/Archie,0.125139621285,0.049512121846,0.113248204078,0.00142645160347,-0.00486106154487,0.661231692991,0.750164637596
1385568271196376436,548659,1385568271196376436,/world,vicon/Archie/Archie,0.125188560364,0.0495193882881,0.113272715567,0.00125420077153,-0.00460900294045,0.661280414151,0.750123588439
1385568271206302391,548660,1385568271206302391,/world,vicon/Archie/Archie,0.125088886931,0.0495179933409,0.113214166456,0.001436285257,-0.00469444003152,0.661293271148,0.750111397628
1385568271216259133,548661,1385568271216259133,/world,vicon/Archie/Archie,0.125139154634,0.0495071066554,0.113242981905,0.00143062674058,-0.00486751182653,0.661244673743,0.750153145753
1385568271226408446,548662,1385568271226408446,/world,vicon/Archie/Archie,0.125144846135,0.0495012846062,0.113241759395,0.00145687009381,-0.00487136917848,0.661230372998,0.750165675779
1385568271236466222,548663,1385568271236466222,/world,vicon/Archie/Archie,0.125099781241,0.0495240829705,0.113218387456,0.00147822733424,-0.00472950547318,0.661276502634,0.750125878561
1385568271246460968,548664,1385568271246460968,/world,vicon/Archie/Archie,0.125180740296,0.0495003778518,0.11330480273,0.00127924757881,-0.00458568025377,0.661283128405,0.750121296291
1385568271256347005,548665,1385568271256347005,/world,vicon/Archie/Archie,0.125155988212,0.0495088010323,0.113294448801,0.00123766475601,-0.00455311665389,0.661319873872,0.75008916919
1385568271266297090,548666,1385568271266297090,/world,vicon/Archie/Archie,0.125086611042,0.0495447969592,0.113202856496,0.00136763176061,-0.00485329513826,0.661235247201,0.750161664556
1385568271276323637,548667,1385568271276323637,/world,vicon/Archie/Archie,0.125165034386,0.0495263573799,0.113267708483,0.00128936390798,-0.00447940824478,0.661304096159,0.750103436098
1385568271286402677,548668,1385568271286402677,/world,vicon/Archie/Archie,0.125182863664,0.0495200550312,0.113277941991,0.00124883876621,-0.00462305915276,0.6612893876,0.75011560014
1385568271296292411,548669,1385568271296292411,/world,vicon/Archie/Archie,0.125122204796,0.0495077721706,0.11324232783,0.00141832611811,-0.00483100931714,0.661252172508,0.750146795003
1385568271306326025,548670,1385568271306326025,/world,vicon/Archie/Archie,0.125142761838,0.0495437387685,0.113249138536,0.00122391948723,-0.00460160989523,0.661283298707,0.750121140922
1385568271316332191,548671,1385568271316332191,/world,vicon/Archie/Archie,0.12518858828,0.0495134103449,0.113298817895,0.00126872465611,-0.00460947758379,0.661297476845,0.750108518931
1385568271326451565,548672,1385568271326451565,/world,vicon/Archie/Archie,0.12513866897,0.0495227896811,0.113263879492,0.00127870506112,-0.00445607776849,0.66132724552,0.750083183799
1385568271336474451,548673,1385568271336474451,/world,vicon/Archie/Archie,0.125128902825,0.0495093059585,0.113245880994,0.00143351799114,-0.00488097458179,0.661236189944,0.750160530967
1385568271346440597,548674,1385568271346440597,/world,vicon/Archie/Archie,0.12516769522,0.0495050975138,0.113288668,0.00125160803861,-0.00461146814069,0.661308711532,0.750098630775
1385568271356427324,548675,1385568271356427324,/world,vicon/Archie/Archie,0.125108563949,0.0495129975778,0.113241045392,0.00142137946583,-0.0048480385684,0.661264008323,0.750136245957
1385568271366402356,548676,1385568271366402356,/world,vicon/Archie/Archie,0.125142413479,0.0495137367257,0.113266724686,0.00128953878969,-0.0044704887702,0.661324707352,0.750085317325
1385568271376388196,548677,1385568271376388196,/world,vicon/Archie/Archie,0.125133002682,0.0495348285443,0.113240307885,0.00117518061506,-0.00458670311315,0.661321394433,0.75008772445
1385568271386425416,548678,1385568271386425416,/world,vicon/Archie/Archie,0.125193702613,0.0495056185996,0.113303620007,0.00127039864592,-0.00459691632473,0.66130067088,0.750105777302
1385568271396374559,548679,1385568271396374559,/world,vicon/Archie/Archie,0.125192978377,0.0495085716803,0.113304179102,0.00131303273399,-0.00461895330243,0.661281814505,0.750122192059
1385568271406453584,548680,1385568271406453584,/world,vicon/Archie/Archie,0.125108948306,0.0495230974241,0.113213669847,0.0014465620125,-0.00471723924441,0.661281779432,0.750121365716
1385568271416530660,548681,1385568271416530660,/world,vicon/Archie/Archie,0.125141942397,0.0495510635009,0.113234509461,0.00122758516185,-0.0046275366233,0.66128301529,0.750121225288
1385568271426397571,548682,1385568271426397571,/world,vicon/Archie/Archie,0.125122362005,0.0495123090224,0.113243672422,0.00142858473533,-0.00485240177922,0.66124947008,0.750149019637
1385568271436347700,548683,1385568271436347700,/world,vicon/Archie/Archie,0.1251156622,0.0495294117864,0.113217384802,0.00145699939351,-0.00469520148016,0.6612786975,0.750124200695
1385568271446380575,548684,1385568271446380575,/world,vicon/Archie/Archie,0.125144198841,0.0495533790944,0.113250004663,0.00121863876807,-0.00460075751965,0.661281173179,0.750123028541
1385568271456298825,548685,1385568271456298825,/world,vicon/Archie/Archie,0.125108717595,0.0495195192731,0.11320950852,0.00145109315679,-0.00471919068891,0.661274602638,0.750127671449
1385568271466425042,548686,1385568271466425042,/world,vicon/Archie/Archie,0.125181885692,0.0495229315156,0.113275787834,0.00124604872903,-0.0045869712708,0.661285503961,0.750119250059
1385568271476407329,548687,1385568271476407329,/world,vicon/Archie/Archie,0.125174426438,0.0495016076428,0.11328797319,0.0012379093171,-0.00459804605193,0.661311994772,0.750095841292
1385568271486584614,548688,1385568271486584614,/world,vicon/Archie/Archie,0.125135144002,0.0495472871242,0.113251636998,0.00122155661508,-0.0045960218485,0.661297863955,0.750108338516
1385568271496487178,548689,1385568271496487178,/world,vicon/Archie/Archie,0.12517587354,0.049509002733,0.113290680178,0.00126652447261,-0.00461681623823,0.661296683042,0.750109177334
1385568271506153454,548690,1385568271506153454,/world,vicon/Archie/Archie,0.125090404056,0.0495563580757,0.113191462033,0.00137628290912,-0.00484976078297,0.661238077155,0.750159177099
1385568271516443730,548691,1385568271516443730,/world,vicon/Archie/Archie,0.125128110615,0.0495165485284,0.113251210843,0.00143259634911,-0.00485198726434,0.661237377564,0.750159673935
1385568271526366916,548692,1385568271526366916,/world,vicon/Archie/Archie,0.125147912467,0.0495460235924,0.113240767505,0.00121202607394,-0.00460089570184,0.66130183155,0.750104826235
1385568271536478331,548693,1385568271536478331,/world,vicon/Archie/Archie,0.12519201343,0.0495121689499,0.11329879007,0.00126669359678,-0.00461751830006,0.66129298794,0.750112430315
1385568271546645719,548694,1385568271546645719,/world,vicon/Archie/Archie,0.125168616482,0.0495419736437,0.113241413617,0.00128592120957,-0.00446881813197,0.661303621529,0.750103923616
1385568271556213003,548695,1385568271556213003,/world,vicon/Archie/Archie,0.12509367812,0.0495711692428,0.113155524488,0.00134119675788,-0.00484014487306,0.661235603783,0.750161482935
1385568271566481573,548696,1385568271566481573,/world,vicon/Archie/Archie,0.125179404024,0.0495028860404,0.113303075109,0.00126877945942,-0.00462949757961,0.661295730012,0.750109935555
1385568271576433868,548697,1385568271576433868,/world,vicon/Archie/Archie,0.125178370929,0.049522681564,0.11330119054,0.00127983343063,-0.00460025734321,0.661294515819,0.750111167099
1385568271586422632,548698,1385568271586422632,/world,vicon/Archie/Archie,0.125148217839,0.0495065766131,0.113239089478,0.00142301061857,-0.00485696470028,0.661243307978,0.750154432493
1385568271596413884,548699,1385568271596413884,/world,vicon/Archie/Archie,0.12511877592,0.0495484268142,0.113230862373,0.00116926866499,-0.00458811344695,0.661306860491,0.750100538791
1385568271606340150,548700,1385568271606340150,/world,vicon/Archie/Archie,0.125070868748,0.0495631036414,0.113159920907,0.00139054849533,-0.00470899875086,0.661269312905,0.750132513304
1385568271616493926,548701,1385568271616493926,/world,vicon/Archie/Archie,0.125088718714,0.0495206613725,0.113214513984,0.00144516787288,-0.00471867268241,0.661299751142,0.750105515749
1385568271626399462,548702,1385568271626399462,/world,vicon/Archie/Archie,0.125088218883,0.0495279184584,0.113207029922,0.00144823073366,-0.00470173989481,0.661288874116,0.750115205312
1385568271636516855,548703,1385568271636516855,/world,vicon/Archie/Archie,0.125043984423,0.0495596275893,0.113138546476,0.00135818454333,-0.00471426992568,0.661281715342,0.750121606107
1385568271646421675,548704,1385568271646421675,/world,vicon/Archie/Archie,0.125135179874,0.0495143075307,0.113236898917,0.0014217655153,-0.00481912097577,0.661242572453,0.75015532727
1385568271656405510,548705,1385568271656405510,/world,vicon/Archie/Archie,0.125181241815,0.0495121734965,0.113300130496,0.00129905413162,-0.00462704216189,0.661285410341,0.750118996566
1385568271666338982,548706,1385568271666338982,/world,vicon/Archie/Archie,0.125181090217,0.0495244148766,0.113300573342,0.00126452250663,-0.00461187983048,0.661284972532,0.750119534908
1385568271676561415,548707,1385568271676561415,/world,vicon/Archie/Archie,0.125148033308,0.0495219228692,0.113293977003,0.00126193954004,-0.00455300595223,0.661302306339,0.750104617555
1385568271686470812,548708,1385568271686470812,/world,vicon/Archie/Archie,0.125136242514,0.049517474595,0.113253785227,0.00142197115427,-0.00484243729946,0.66124410497,0.750153825853
1385568271696562552,548709,1385568271696562552,/world,vicon/Archie/Archie,0.125168982307,0.0495259723847,0.113271172463,0.00122396664206,-0.00458135949579,0.661295471617,0.750110533368
1385568271706441587,548710,1385568271706441587,/world,vicon/Archie/Archie,0.125140740522,0.0495050726818,0.113242935038,0.00142942822466,-0.00486461961356,0.661247737329,0.750150466298
1385568271716327157,548711,1385568271716327157,/world,vicon/Archie/Archie,0.125078105391,0.049560314292,0.113201223997,0.00139317223325,-0.00484463008087,0.661232760088,0.750163865843
1385568271726313844,548712,1385568271726313844,/world,vicon/Archie/Archie,0.125123023813,0.0495152952653,0.113244380288,0.00144699312222,-0.00483143666877,0.661238915599,0.75015842322
1385568271736502747,548713,1385568271736502747,/world,vicon/Archie/Archie,0.125156894273,0.0495152215847,0.113297491012,0.00127707336277,-0.00460401348002,0.661309954456,0.750097537845
1385568271746464427,548714,1385568271746464427,/world,vicon/Archie/Archie,0.125108332044,0.0495129011699,0.113246187969,0.00141732703166,-0.00483313618042,0.661262156066,0.750137982596
1385568271756258561,548715,1385568271756258561,/world,vicon/Archie/Archie,0.125136394584,0.0495600025223,0.113212858866,0.00117265352745,-0.00458325157926,0.661303773292,0.750103284967
1385568271766390983,548716,1385568271766390983,/world,vicon/Archie/Archie,0.125181246861,0.0495244860492,0.113293992828,0.00125434570351,-0.00461585832564,0.661263059194,0.750138845158
1385568271776362837,548717,1385568271776362837,/world,vicon/Archie/Archie,0.125111653023,0.0495625873396,0.113224330426,0.00124484088262,-0.00448449324623,0.661269377244,0.750134088287
1385568271786412603,548718,1385568271786412603,/world,vicon/Archie/Archie,0.125131813365,0.0495206927081,0.11324951066,0.0014410584742,-0.00485129441149,0.661313737176,0.750092347192
1385568271796451264,548719,1385568271796451264,/world,vicon/Archie/Archie,0.125127467135,0.0495123030149,0.113247980345,0.00142209878847,-0.00486626145431,0.66134865753,0.750061497691
1385568271806287383,548720,1385568271806287383,/world,vicon/Archie/Archie,0.1251742868,0.0495339458409,0.113289042074,0.00126033726668,-0.00458974346952,0.661230620318,0.750167589648
1385568271816432747,548721,1385568271816432747,/world,vicon/Archie/Archie,0.12512265307,0.0495587456663,0.113227048146,0.00118625110701,-0.00460052346705,0.661341223513,0.750070139437
1385568271826339475,548722,1385568271826339475,/world,vicon/Archie/Archie,0.125119370499,0.0494847524182,0.11327421852,0.00129371761871,-0.00445043392043,0.661405584431,0.750014115078
1385568271836394209,548723,1385568271836394209,/world,vicon/Archie/Archie,0.125059949891,0.0494883629769,0.113236795598,0.00140236149305,-0.00463379941067,0.661168349264,0.750221950636
1385568271846534372,548724,1385568271846534372,/world,vicon/Archie/Archie,0.125031743317,0.0495015992557,0.11318028544,0.00108493502743,-0.00436231832598,0.661000300242,0.750372171775
1385568271856360823,548725,1385568271856360823,/world,vicon/Archie/Archie,0.125104481162,0.0494984424871,0.113253691798,0.00124293939086,-0.00447116005104,0.661399010351,0.750019875027
1385568271866354036,548726,1385568271866354036,/world,vicon/Archie/Archie,0.125119409516,0.0495438990515,0.113253979469,0.00123539987694,-0.00468135827283,0.661644688111,0.749801884077
1385568271876296816,548727,1385568271876296816,/world,vicon/Archie/Archie,0.125092174147,0.0495719247471,0.113214604555,0.00105119391748,-0.00468156152082,0.6610998875,0.750282557921
1385568271886521076,548728,1385568271886521076,/world,vicon/Archie/Archie,0.125083194171,0.049594392866,0.113191809371,0.00102883090176,-0.00463552195831,0.66097238677,0.750395200792
1385568271896497778,548729,1385568271896497778,/world,vicon/Archie/Archie,0.125129341734,0.0495455389927,0.113224967141,0.00129229380052,-0.00436217074943,0.661629640266,0.749816991381
1385568271906317453,548730,1385568271906317453,/world,vicon/Archie/Archie,0.125179318424,0.0495704422542,0.113243886999,0.00121828168447,-0.00466642252472,0.661566475017,0.749871015192
1385568271916330041,548731,1385568271916330041,/world,vicon/Archie/Archie,0.125065223805,0.0495818223506,0.113292912257,0.00113028220817,-0.00463039138063,0.661017359031,0.750355471092
1385568271926243055,548732,1385568271926243055,/world,vicon/Archie/Archie,0.124980501405,0.0496045589684,0.113168829573,0.00135145789028,-0.00465639975803,0.660957298143,0.750407850129
1385568271936476236,548733,1385568271936476236,/world,vicon/Archie/Archie,0.12509724424,0.0495712049313,0.113156758197,0.00155734525171,-0.00495333344517,0.661470332125,0.749953357804
1385568271946509661,548734,1385568271946509661,/world,vicon/Archie/Archie,0.125167056002,0.0495110751989,0.113281784559,0.00132837585582,-0.00448293844844,0.66143225163,0.749990343394
1385568271956279984,548735,1385568271956279984,/world,vicon/Archie/Archie,0.124820366369,0.049523826825,0.11308362745,0.00111660823877,-0.00461458701553,0.660998493153,0.750372208189
1385568271966457598,548736,1385568271966457598,/world,vicon/Archie/Archie,0.125134446558,0.0495549203599,0.113211044624,0.000960987933038,-0.00464580116886,0.661120858961,0.750264421974
1385568271976322330,548737,1385568271976322330,/world,vicon/Archie/Archie,0.125144064748,0.0495184307518,0.113201422924,0.00138549889053,-0.00486939075031,0.661520719274,0.749909799508
1385568271986278482,548738,1385568271986278482,/world,vicon/Archie/Archie,0.125086404219,0.0495753033215,0.113188272526,0.0014375932523,-0.00486959137501,0.661118173817,0.750264607092
1385568271996360221,548739,1385568271996360221,/world,vicon/Archie/Archie,0.125063298296,0.0495812732302,0.113188508769,0.00101362129448,-0.00455346094378,0.660918454571,0.750443225682
1385568272006236945,548740,1385568272006236945,/world,vicon/Archie/Archie,0.125122734168,0.0495666852754,0.113248419491,0.00115538882188,-0.00450527336911,0.661385477136,0.750031744809
1385568272016606962,548741,1385568272016606962,/world,vicon/Archie/Archie,0.125111918692,0.0495460490645,0.113385377059,0.00171923355221,-0.00451099935912,0.661566094296,0.749871320961
1385568272026349225,548742,1385568272026349225,/world,vicon/Archie/Archie,0.125096782617,0.0495051523287,0.113233035169,0.00111250895489,-0.004547116247,0.660963194534,0.750403719026
1385568272036533209,548743,1385568272036533209,/world,vicon/Archie/Archie,0.124955295515,0.0495353535186,0.113201618241,0.000880012778353,-0.00445556537047,0.661119379839,0.750266978559
1385568272046375730,548744,1385568272046375730,/world,vicon/Archie/Archie,0.125100403715,0.0495779410898,0.113199874262,0.00122418132294,-0.00439335600577,0.661557623016,0.749880464629
1385568272056231987,548745,1385568272056231987,/world,vicon/Archie/Archie,0.125133062176,0.0495071250958,0.11324810263,0.0014683236814,-0.00490018909284,0.661398877982,0.750016904061
1385568272066512369,548746,1385568272066512369,/world,vicon/Archie/Archie,0.125108156374,0.0495496356724,0.113232365591,0.00109394640502,-0.00459173976417,0.660946729922,0.750417976472
1385568272076243299,548747,1385568272076243299,/world,vicon/Archie/Archie,0.125050386786,0.0495917403193,0.113285940228,0.0011234838872,-0.00448676579259,0.661131212375,0.750256040789
1385568272086487912,548748,1385568272086487912,/world,vicon/Archie/Archie,0.125157027992,0.0495494082179,0.113252289899,0.0012511006925,-0.0045667472418,0.661543594683,0.749891760123
