%time,field.linear.x,field.linear.y,field.linear.z,field.angular.x,field.angular.y,field.angular.z
1385568271262381541,0.0,0.0,0.0,0.0,0.0,0.0
1385568271262397329,0.125155988212,-0.0495088010323,-0.113294448801,-0.00416557658643,0.0084675727638,-1.44519123804
1385568271272313287,0.125086611042,-0.0495447969592,-0.113202856496,-0.0043666440752,0.00909028976264,-1.44497060328
1385568271282310848,0.125165034386,-0.0495263573799,-0.113267708483,-0.00399034166814,0.00842546198442,-1.44514787181
1385568271292424547,0.125182863664,-0.0495200550312,-0.113277941991,-0.00424098211645,0.0085874507731,-1.44511111621
1385568271302302182,0.125122204796,-0.0495077721706,-0.11324232783,-0.00426131548809,0.00912380134832,-1.44501525507
1385568271312227107,0.125142761838,-0.0495437387685,-0.113249138536,-0.00424992690662,0.00852234792433,-1.44509455303
1385568271322220650,0.12518858828,-0.0495134103449,-0.113298817895,-0.00419327656036,0.00859333139716,-1.44513242539
1385568271332313487,0.12513866897,-0.0495227896811,-0.113263879492,-0.0039757308901,0.00837624093929,-1.44520922843
1385568271342410776,0.125128902825,-0.0495093059585,-0.113245880994,-0.00430441304057,0.00921894750147,-1.44497351097
1385568271352269734,0.12516769522,-0.0495050975138,-0.113288668,-0.00422171685846,0.00857361551133,-1.44516243915
1385568271362225812,0.125108563949,-0.0495129975778,-0.113241045392,-0.00427940265038,0.0091533208851,-1.44504710991
1385568271372193772,0.125142413479,-0.0495137367257,-0.113266724686,-0.00397851239531,0.0084122029158,-1.44520268188
1385568271382418707,0.125133002682,-0.0495348285443,-0.113240307885,-0.00430375909068,0.00843530360227,-1.44519594572
1385568271392205428,0.125193702613,-0.0495056185996,-0.113303620007,-0.00417418661732,0.00857668308859,-1.44514072662
1385568271402296757,0.125192978377,-0.0495085716803,-0.113304179102,-0.00413915690714,0.00866623656742,-1.44509076186
1385568271412238254,0.125108948306,-0.0495230974241,-0.113213669847,-0.004068830236,0.00899029519911,-1.44509215671
1385568271422394509,0.125141942397,-0.0495510635009,-0.113234509461,-0.00427871740745,0.00856609407862,-1.44509423252
1385568271432277260,0.125122362005,-0.0495123090224,-0.113243672422,-0.0042741860304,0.00916947916696,-1.4450084147
1385568271442355636,0.1251156622,-0.0495294117864,-0.113217384802,-0.00402398521063,0.00897105416819,-1.44508354312
1385568271452248951,0.125144198841,-0.0495533790944,-0.113250004663,-0.00425669779054,0.0085140969408,-1.44508887888
1385568271462270033,0.125108717595,-0.0495195192731,-0.11320950852,-0.00406452740943,0.00899925461581,-1.44507304844
1385568271472200460,0.125181885692,-0.0495229315156,-0.113275787834,-0.00419738995435,0.0085296422512,-1.44510015381
1385568271482344456,0.125174426438,-0.0495016076428,-0.11328797319,-0.00422455120007,0.00853534263877,-1.44517098558
1385568271492298604,0.125135144002,-0.0495472871242,-0.113251636998,-0.00424624579945,0.00851075692851,-1.44513329705
1385568271502275135,0.12517587354,-0.049509002733,-0.113290680178,-0.00420627527066,0.00860143538821,-1.44513043656
1385568271512262304,0.125090404056,-0.0495563580757,-0.113191462033,-0.00434902411758,0.0090964118912,-1.44497807214
1385568271522314111,0.125128110615,-0.0495165485284,-0.113251210843,-0.00426747118903,0.00917423156763,-1.44497616056
1385568271532233577,0.125147912467,-0.0495460235924,-0.113240767505,-0.00426703558502,0.00850544081754,-1.44514397199
1385568271542251721,0.12519201343,-0.0495121689499,-0.11329879007,-0.00420690780029,0.00860273304505,-1.44512059595
1385568271552233003,0.125168616482,-0.0495419736437,-0.113241413617,-0.00398149329298,0.00840502369621,-1.44514643698
1385568271562251809,0.12509367812,-0.0495711692428,-0.113155524488,-0.00438891718604,0.00903559755407,-1.44497135969
1385568271572278327,0.125179404024,-0.0495028860404,-0.113303075109,-0.00421965522156,0.00862344801828,-1.44512810792
1385568271582316331,0.125178370929,-0.049522681564,-0.11330119054,-0.00416438103471,0.00859420826193,-1.44512435824
1385568271592231076,0.125148217839,-0.0495065766131,-0.113239089478,-0.00428850877586,0.00916898816697,-1.44499207541
1385568271602240949,0.12511877592,-0.0495484268142,-0.113230862373,-0.00431433035706,0.00842968335159,-1.44515722506
1385568271612267711,0.125070868748,-0.0495631036414,-0.113159920907,-0.00414181748303,0.00890391788199,-1.4450588589
1385568271622294903,0.125088718714,-0.0495206613725,-0.113214513984,-0.00407303322597,0.00899050423691,-1.44514010171
1385568271632241020,0.125088218883,-0.0495279184584,-0.113207029922,-0.00404591055143,0.00896921117252,-1.44511080276
1385568271642223626,0.125043984423,-0.0495596275893,-0.113138546476,-0.00419749127214,0.0088689529347,-1.4450920663
1385568271652286377,0.125135179874,-0.0495143075307,-0.113236898917,-0.00424031463462,0.00911056835172,-1.4449894437
1385568271662268824,0.125181241815,-0.0495121734965,-0.113300130496,-0.00417086907089,0.0086598637742,-1.44510050709
1385568271672261909,0.125181090217,-0.0495244148766,-0.113300573342,-0.00420261505835,0.00859144746209,-1.44509913194
1385568271682298891,0.125148033308,-0.0495219228692,-0.113293977003,-0.004128814191,0.00849961097336,-1.44514436044
1385568271692337148,0.125136242514,-0.049517474595,-0.113253785227,-0.00427086363459,0.00914581332078,-1.44499394309
1385568271702259246,0.125168982307,-0.0495259723847,-0.113271172463,-0.00422320886288,0.00849196128915,-1.44512666725
1385568271712354092,0.125140740522,-0.0495050726818,-0.113242935038,-0.00428905915139,0.00918893501451,-1.44500401165
1385568271722266431,0.125078105391,-0.049560314292,-0.113201223997,-0.00431683388307,0.00911108115625,-1.44496377899
1385568271732234004,0.125123023813,-0.0495152952653,-0.113244380288,-0.00421870932192,0.00916243035002,-1.44497987367
1385568271742281653,0.125156894273,-0.0495152215847,-0.113297491012,-0.00417366703773,0.00859610687091,-1.44516559034
1385568271752236430,0.125108332044,-0.0495129011699,-0.113246187969,-0.00426574897632,0.00912561416378,-1.44504191255
1385568271762234609,0.125136394584,-0.0495600025223,-0.113212858866,-0.0043027866516,0.00842688427096,-1.44514890664
1385568271772259607,0.125181246861,-0.0495244860492,-0.113293992828,-0.00422289445411,0.00858407964329,-1.44504078775
1385568271782269161,0.125111653023,-0.0495625873396,-0.113224330426,-0.00406347461921,0.00837439069873,-1.44505544774
1385568271792251710,0.125131813365,-0.0495206927081,-0.11324951066,-0.00425479367905,0.00918395025694,-1.44517973001
1385568271802278168,0.125127467135,-0.0495123030149,-0.113247980345,-0.0043034625231,0.00918112594208,-1.44527313919
1385568271812262213,0.1251742868,-0.0495339458409,-0.113289042074,-0.00417899452107,0.00855300505714,-1.44495384977
1385568271822241974,0.12512265307,-0.0495587456663,-0.113227048146,-0.00430565633907,0.00847056536799,-1.44524903662
1385568271832331857,0.125119370499,-0.0494847524182,-0.11327421852,-0.00394661980379,0.00838721896591,-1.44541800811
1385568271842330474,0.125059949891,-0.0494883629769,-0.113236795598,-0.0040234451637,0.00880726399203,-1.4447883745
1385568271852288551,0.125031743317,-0.0495015992557,-0.11318028544,-0.00413892097712,0.00798109403972,-1.44433637236
1385568271862272693,0.125104481162,-0.0494984424871,-0.113253691798,-0.00405013547658,0.00835117264253,-1.44540088822
1385568271872258388,0.125119409516,-0.0495438990515,-0.113253979469,-0.00434235764715,0.0086550820975,-1.44605966747
1385568271882297773,0.125092174147,-0.0495719247471,-0.113214604555,-0.00461275434209,0.00841497557992,-1.44460719432
1385568271892350671,0.125083194171,-0.049594392866,-0.113191809371,-0.00458401908373,0.00831710038253,-1.4442665818
1385568271902274873,0.125129341734,-0.0495455389927,-0.113224967141,-0.0038344551718,0.0082517929058,-1.44601413819
1385568271912369217,0.125179318424,-0.0495704422542,-0.113243886999,-0.00434736400432,0.00861048502814,-1.4458508182
1385568271922279243,0.125065223805,-0.0495818223506,-0.113292912257,-0.00442548347286,0.00844325164934,-1.44438621878
1385568271932253459,0.124980501405,-0.0496045589684,-0.113168829573,-0.00412724420318,0.00877502238879,-1.44422625976
1385568271942221236,0.12509724424,-0.0495712049313,-0.113156758197,-0.00421729603912,0.00948995590325,-1.44559896664
1385568271952241209,0.125167056002,-0.0495110751989,-0.113281784559,-0.00393793383724,0.00848168405292,-1.44548960624
1385568271962266118,0.124820366369,-0.049523826825,-0.11308362745,-0.00442489715487,0.00840156726294,-1.44433568369
1385568271972249790,0.125134446558,-0.0495549203599,-0.113211044624,-0.00470105898976,0.00824191030319,-1.44466260871
1385568271982293056,0.125144064748,-0.0495184307518,-0.113201422924,-0.00436460337362,0.00913640723593,-1.44573209861
1385568271992313901,0.125086404219,-0.0495753033215,-0.113188272526,-0.00428179464086,0.00920793228741,-1.44465867511
1385568272002248688,0.125063298296,-0.0495812732302,-0.113188508769,-0.00449776769914,0.00817416090467,-1.44412147128
1385568272012346821,0.125122734168,-0.0495666852754,-0.113248419491,-0.00422644585758,0.00828660570311,-1.44536548551
1385568272022291403,0.125111918692,-0.0495460490645,-0.113385377059,-0.00339038562019,0.00904023448547,-1.44584645108
1385568272032260954,0.125096782617,-0.0495051523287,-0.113233035169,-0.00434145424818,0.00829509595943,-1.4442404685
1385568272042226156,0.124955295515,-0.0495353535186,-0.113201618241,-0.00457098890509,0.00784939474498,-1.44465557558
1385568272052249251,0.125100403715,-0.0495779410898,-0.113199874262,-0.00397708147417,0.00820880884889,-1.44582264611
1385568272062252518,0.125133062176,-0.0495071250958,-0.11324810263,-0.0042796218231,0.00929287832741,-1.4454075931
1385568272072204955,0.125108156374,-0.0495496356724,-0.113232365591,-0.00442812505101,0.00833762532223,-1.44419736367
1385568272082240633,0.125050386786,-0.0495917403193,-0.113285940228,-0.00424703685198,0.00821807931136,-1.44468730522
1385568272092206345,0.125157027992,-0.0495494082179,-0.113252289899,-0.00416598727845,0.00850455007149,-1.44578805234
1385568272102270704,0.125152568148,-0.0495179405799,-0.113277475038,-0.00394723512198,0.00855171728752,-1.44521062068
1385568272112291421,0.125115846629,-0.049544550262,-0.113232422558,-0.00440447609304,0.00823960958871,-1.44432771787
1385568272122250295,0.125159999951,-0.0495527594215,-0.113267095153,-0.00427998449601,0.00830739986874,-1.44496165607
1385568272132220905,0.125058322005,-0.0495093630517,-0.113300341712,-0.00358287881766,0.00845778023943,-1.44540946706
1385568272142298161,0.125189576937,-0.0495101313176,-0.113315841216,-0.00413245960661,0.0087129466981,-1.44481566926
1385568272152234344,0.125079949069,-0.049563987707,-0.113225658625,-0.00455697245359,0.00827342946728,-1.44461011273
1385568272162266371,0.125194602139,-0.0495145092855,-0.113316279461,-0.00412567424491,0.008560850556,-1.44513425255
1385568272172198260,0.125159180408,-0.0494954004002,-0.113267527471,-0.00430353047969,0.00939204791623,-1.44505010114
1385568272182239197,0.125083055455,-0.0495367320681,-0.113186416434,-0.0046580487971,0.0090954151674,-1.44461107561
1385568272192272222,0.125209652192,-0.0495042804009,-0.113337137401,-0.00415177731155,0.00853325046339,-1.44491723661
1385568272202284433,0.125206884684,-0.0495121756828,-0.113320504902,-0.00405350524573,0.00866180818601,-1.44505562703
1385568272212326959,0.125104530902,-0.0494995828275,-0.1132317553,-0.00386615810286,0.00839823116352,-1.44471922367
1385568272222264902,0.125074772046,-0.0495740798911,-0.113161918481,-0.00428123354663,0.00823596440059,-1.44488689905
1385568272232220572,0.125204222363,-0.0495292045408,-0.113295248913,-0.00410059739625,0.00848926081173,-1.44501939079
1385568272242251984,0.12517789152,-0.0495183792494,-0.113269939117,-0.00388406111199,0.00848573187923,-1.44506580436
1385568272252218016,0.125075457685,-0.0495336993312,-0.11327989645,-0.00420983959368,0.00860789161726,-1.44496990895
1385568272262273952,0.125088812833,-0.0495640544658,-0.11317975808,-0.00463604534424,0.0084066455152,-1.44493418807
1385568272272194418,0.125197307489,-0.0495090833864,-0.113325520763,-0.00423187083575,0.00837335412986,-1.44491923208
1385568272282240744,0.125206286156,-0.0495254831717,-0.113290995351,-0.00422481997655,0.00859562355545,-1.44508858311
1385568272292513080,0.125190833401,-0.0495025241219,-0.113301920834,-0.00414360173086,0.00866599773071,-1.4451299583
1385568272302325244,0.125043049877,-0.0495695771611,-0.113114106233,-0.00443422005469,0.00834497418988,-1.44451821103
1385568272312318724,0.125171719759,-0.0495204132818,-0.113282045984,-0.00396786187201,0.00847497496388,-1.44476688454
1385568272322382544,0.125149406049,-0.049567408415,-0.113240510703,-0.00435030988722,0.00847538423757,-1.44521180754
1385568272332273519,0.125097937381,-0.049525638192,-0.113198176045,-0.00413426357976,0.00897360052624,-1.44511316643
1385568272342241219,0.12505684982,-0.0494881363099,-0.113305051185,-0.00458219205924,0.00870869254275,-1.44484408601
1385568272352225786,0.125159619239,-0.0495175533773,-0.113309890466,-0.00392384332739,0.00834127391149,-1.44487236956
1385568272362378385,0.125105299714,-0.0494444659384,-0.113398783376,-0.00390996116838,0.00874788558366,-1.445197489
1385568272372207984,0.125041322616,-0.0495550866672,-0.113174044733,-0.00431802737709,0.00899459527211,-1.44481697539
1385568272382217602,0.125225752592,-0.0494776086068,-0.113347691824,-0.003598861983,0.00844680744312,-1.44486905543
1385568272392210226,0.125138524557,-0.0495371244784,-0.113272939874,-0.00377939634794,0.00822508371823,-1.44474734238
1385568272402266444,0.125218365197,-0.0495403958929,-0.113361926525,-0.00367498303498,0.00845254460251,-1.44507026558
1385568272412409665,0.125163648278,-0.0495396968937,-0.113237973395,-0.00413348422863,0.00815575736218,-1.4452784714
1385568272422313746,0.125090177222,-0.0495430345653,-0.11325098817,-0.00463331058463,0.00811783054787,-1.44436335687
1385568272432218937,0.125096342567,-0.0495586452253,-0.11322202061,-0.00443742738565,0.00826062277625,-1.44475606254
1385568272442272661,0.125244453703,-0.0495018593758,-0.113316316516,-0.00359043482568,0.00845394906639,-1.44524270902
1385568272452244956,0.125106284777,-0.0495815230526,-0.113324938334,-0.0028243621149,0.00850050774512,-1.4453670309
1385568272462262300,0.12516185151,-0.0495294539916,-0.113316392283,-0.00311184467655,0.00827472741731,-1.4446277677
1385568272472213534,0.125170152261,-0.0495219741142,-0.113287321428,-0.00328866851101,0.00807119420946,-1.44525640419
1385568272482311339,0.125214159947,-0.0495518784384,-0.113359478921,-0.00374687898358,0.00862433196167,-1.44527862923
1385568272492314602,0.125124131685,-0.0495023658463,-0.113237125391,-0.00482334850008,0.00816539131044,-1.44464946029
1385568272502253689,0.125197656351,-0.0494908472847,-0.113375167701,-0.00424914328081,0.0082261880205,-1.44510110257
1385568272512202173,0.125191418969,-0.0495225758233,-0.113413541684,-0.00379289363893,0.00870707855306,-1.44502138219
1385568272522204546,0.125190767893,-0.049485759561,-0.113375566701,-0.00330897747874,0.00853391010273,-1.44486010895
1385568272532205270,0.125001502104,-0.0494608483204,-0.113314438883,-0.00268087075508,0.00816433254258,-1.4450213153
1385568272542230942,0.12513696377,-0.0495231745656,-0.113332828883,-0.0032024288836,0.00814296593449,-1.44463113876
1385568272552209772,0.125126965294,-0.0495068919325,-0.113340199906,-0.00398344122221,0.00799490809596,-1.44496834138
1385568272562215473,0.12518673307,-0.049512284458,-0.113305562971,-0.00400452287529,0.00834652479352,-1.44525647881
1385568272572188768,0.125075101428,-0.0495353870806,-0.113234688619,-0.00415084143403,0.00829821852998,-1.44460808702
1385568272582192848,0.125103630405,-0.0494777284221,-0.113310520272,-0.0041756790291,0.00794658452537,-1.44508409975
1385568272592267287,0.125131436007,-0.0495483377194,-0.113354923197,-0.00323789985479,0.00840814072245,-1.44513320549
1385568272602226258,0.125009824387,-0.0494904780574,-0.113314693132,-0.00285891321582,0.00861190873948,-1.44424196926
1385568272612211458,0.125113656875,-0.0494813144581,-0.113273218574,-0.00347590596839,0.00786257258946,-1.44535424282
1385568272622230715,0.12513124804,-0.049522366164,-0.113302004255,-0.00394862004122,0.00855519979965,-1.44509909831
1385568272632368075,0.125142697028,-0.0494704825331,-0.113367532527,-0.00422579316279,0.00814357280419,-1.44458402958
1385568272642221402,0.125106645737,-0.049490890125,-0.113383233417,-0.00446539477031,0.00802184636337,-1.44533517754
1385568272652190535,0.125175669633,-0.0494961700248,-0.113398708709,-0.00330958288429,0.00860986784321,-1.44491184875
1385568272662302208,0.125178969049,-0.0494561674075,-0.11335507267,-0.00279699070551,0.00840812363409,-1.44469712589
1385568272672200292,0.124933616978,-0.0494799008586,-0.113284881973,-0.00258136714069,0.00837693412787,-1.44509279315
1385568272682205766,0.125101679688,-0.0495087036056,-0.11339101484,-0.00386731731982,0.00823717403303,-1.44481107607
1385568272692194339,0.125137966347,-0.0494612191701,-0.113403183856,-0.004232979352,0.00819022056327,-1.44473920923
1385568272702330040,0.125123214763,-0.049499573666,-0.113297047155,-0.00405824943561,0.00839844065758,-1.44528150197
1385568272712238034,0.125165106144,-0.0494751694695,-0.11336089755,-0.00394413000702,0.00855172039924,-1.44457641318
1385568272722338794,0.125107983164,-0.0494370607124,-0.113371006363,-0.00432917094443,0.00799790892664,-1.44495376958
1385568272732228622,0.125117652294,-0.0495266865853,-0.113385743156,-0.00385541916207,0.00843002214979,-1.44508491196
1385568272742233777,0.125053825233,-0.0494234982758,-0.113273006889,-0.00287012952599,0.0084165802999,-1.44434167641
1385568272752243557,0.125062101665,-0.0494493072494,-0.113280782925,-0.00368048883959,0.00804378586119,-1.44533351347
1385568272762240217,0.125076915359,-0.0495140220073,-0.11333830019,-0.00452969437626,0.0086765116592,-1.4449482421
1385568272772247973,0.125064352486,-0.0494678802331,-0.113340494095,-0.00484552820058,0.0082216561741,-1.44450637214
1385568272782298724,0.125029138342,-0.0494819265024,-0.113396476571,-0.00393551363915,0.00798568105502,-1.44504622326
1385568272792296578,0.125088630448,-0.0494867238236,-0.113337119471,-0.00351034897705,0.0083793036765,-1.44484497583
1385568272802374779,0.125069915244,-0.0494402854197,-0.113284264423,-0.00321404775614,0.00805254771364,-1.44485008016
1385568272812389943,0.124958296783,-0.0494553266781,-0.113179387389,-0.00343090030994,0.00838913305855,-1.44484852434
1385568272822249218,0.125045098143,-0.0495584806961,-0.113232433192,-0.00487138632676,0.0084494104193,-1.44452249547
1385568272832297956,0.125123503218,-0.0494169184746,-0.113427539237,-0.005063260278,0.00839177224217,-1.44458973112
1385568272842268178,0.125136919543,-0.0495061814287,-0.113419153052,-0.00457023203792,0.00841236779923,-1.44499661044
1385568272852230248,0.125098729071,-0.0494797183987,-0.113347709744,-0.00432650115991,0.00829165451933,-1.44466365484
1385568272862377093,0.125086020374,-0.0494487417284,-0.113356724799,-0.00411981757011,0.0080091683191,-1.4452832714
1385568272872219713,0.125091964527,-0.0495382909734,-0.113299295486,-0.0041292308954,0.0083134282872,-1.44477467597
1385568272882243954,0.124991604416,-0.0494374601198,-0.113242086822,-0.00367185004113,0.00786594287606,-1.44428765767
1385568272892329215,0.125016194069,-0.0494535016463,-0.113297357731,-0.00442103723207,0.0085205982624,-1.44507229288
1385568272902285364,0.125003928902,-0.049442122736,-0.113381598845,-0.00428954530922,0.00831812944104,-1.44379516686
1385568272912247453,0.125048105211,-0.0494260074413,-0.113326206112,-0.00453632639399,0.00827715511719,-1.44438998468
1385568272922313727,0.125018925838,-0.0494064743346,-0.113272476713,-0.00374627684888,0.0087160925997,-1.4444896853
1385568272932236855,0.12498509061,-0.0494299445813,-0.113244165567,-0.00428624687,0.00914030082896,-1.44375218341
1385568272942260160,0.124985086326,-0.0493430368122,-0.113297989136,-0.00413349295337,0.0076876198336,-1.44454463465
1385568272952257235,0.124829069397,-0.0493745264744,-0.113275469282,-0.00413766368328,0.00781129568743,-1.44383111081
1385568272962283827,0.125004411684,-0.0494145006126,-0.113227537442,-0.00391398851595,0.00827069584528,-1.44404557486
1385568272972313164,0.125092500319,-0.0493797330213,-0.113300888409,-0.00352528554833,0.00841755120793,-1.4445899942
1385568272982285470,0.125035091396,-0.0494127990281,-0.113385112738,-0.00416724467369,0.00826754000653,-1.44376652385
1385568272992223754,0.124930496563,-0.0493791100515,-0.113408269557,-0.00367547347123,0.00821382594952,-1.44489860039
1385568273002254341,0.124986278254,-0.0493796419191,-0.113307297598,-0.00366010275095,0.00892138782493,-1.44395011356
1385568273012361851,0.124914208328,-0.0494143509021,-0.11318602307,-0.00402459755387,0.0088896259462,-1.44390246491
1385568273022330935,0.124968498854,-0.0493427806937,-0.113292296389,-0.00392045280587,0.00821780791888,-1.4443658589
1385568273032224502,0.12502671817,-0.0493827437378,-0.113388478228,-0.00459207553903,0.00822499411713,-1.44394107206
1385568273042239947,0.124940519853,-0.0493722873312,-0.11337238144,-0.00446848471493,0.00912388092524,-1.44397334687
1385568273052238237,0.1248553869,-0.0493365816412,-0.113367587343,-0.00401550095577,0.0100382429679,-1.44421951915
1385568273062246131,0.124856812168,-0.0493552183311,-0.113245218931,-0.00379796312869,0.00791577169264,-1.44363120488
1385568273072290401,0.124918641124,-0.0493788237622,-0.113280361667,-0.00359013913749,0.0089559138737,-1.44407517825
1385568273082292154,0.124871678036,-0.0493936818871,-0.113252008182,-0.00436934694504,0.00903053882272,-1.44380825954
1385568273092234588,0.124826777489,-0.0492973932647,-0.113416173864,-0.00381295975324,0.00888426965287,-1.44340953139
1385568273102262432,0.124798148967,-0.0493976494008,-0.113243823789,-0.00469220663062,0.0085857953141,-1.44359845559
1385568273112333428,0.124842561511,-0.0492774481885,-0.113423583503,-0.00391056036306,0.00917998777613,-1.44387345484
1385568273122308061,0.124924896526,-0.0493857429754,-0.113335576664,-0.00388729512158,0.0085161032124,-1.44382685045
1385568273132242896,0.124881175006,-0.0493941037095,-0.113229582684,-0.00435808848884,0.00868426171368,-1.44388863326
1385568273142294578,0.124882866723,-0.049253555614,-0.113352769782,-0.00380183319694,0.0082243095079,-1.44346262732
1385568273152225305,0.124832470111,-0.049407237604,-0.113361351856,-0.00398324128172,0.00855023874083,-1.4437415808
1385568273162245624,0.124913241306,-0.0493017409497,-0.113342339777,-0.00383951938051,0.0085502697917,-1.44368253745
1385568273172260728,0.124858602841,-0.049391011867,-0.113228674336,-0.00419709580422,0.00829161301418,-1.44373687765
1385568273182304024,0.124846196399,-0.0493565407803,-0.113259169227,-0.00445539015557,0.00823235562473,-1.44365114794
1385568273192281195,0.124846401283,-0.0492761459443,-0.113373501498,-0.0038511654258,0.00834258737545,-1.44347452033
1385568273202271974,0.124585932647,-0.0492902562335,-0.11326247583,-0.0042204550816,0.0104728299375,-1.44378656888
1385568273212304960,0.124877065184,-0.0492304123753,-0.113271209869,-0.00362047222134,0.00906567730752,-1.44369761481
1385568273222324296,0.124874715542,-0.0493275417449,-0.11327986838,-0.00387485046183,0.00880495917005,-1.44367507731
1385568273232202948,0.124917807496,-0.0491889291815,-0.11329730501,-0.00447778897491,0.00910040257026,-1.44320204542
1385568273242251827,0.124911276341,-0.0491854776512,-0.113276030516,-0.00403592128216,0.00909618430824,-1.44363950077
1385568273252232910,0.12485576772,-0.0491857800009,-0.113209370611,-0.00441622955624,0.00901989346535,-1.44279750103
1385568273262364280,0.124975055453,-0.0491579002445,-0.113204512884,-0.00383596584712,0.00882147651597,-1.44364534584
1385568273272382355,0.124914214522,-0.049189994949,-0.113248983789,-0.00402985221618,0.00870867538646,-1.44260737759
1385568273282290180,0.124904395763,-0.049118260127,-0.113259072944,-0.00391754900954,0.00867344826035,-1.44331182772
1385568273292231566,0.125137775903,-0.049162201001,-0.113399241756,-0.00372238661698,0.00863115484747,-1.44340148824
1385568273302272360,0.124956572556,-0.0490040106845,-0.11322474622,-0.00367359761206,0.00879923790832,-1.44263003123
1385568273312752287,0.125015015686,-0.0491624081097,-0.113285506159,-0.0031573095469,0.0090163703315,-1.4437031525
1385568273322298168,0.125182878254,-0.0490481354798,-0.113303719571,-0.00364834749839,0.00866847478545,-1.44202315384
1385568273332201673,0.125192999402,-0.0490546180443,-0.113329302305,-0.00417773009792,0.00860552956397,-1.44308119285
1385568273342230731,0.12503616898,-0.0489907430657,-0.113338539957,-0.00388762207027,0.00802764800916,-1.44202092186
1385568273352367663,0.125041642832,-0.0490342123288,-0.113332417678,-0.00386215521293,0.00831575910353,-1.44335065217
1385568273362228921,0.125122783717,-0.0490424511817,-0.113277447974,-0.00277877149122,0.00787051792701,-1.44291078667
1385568273372354904,0.12516952906,-0.0489951261831,-0.113304023798,-0.00279226349116,0.00816078290635,-1.44368007614
1385568273382385885,0.125147895247,-0.049003996759,-0.113380303782,-0.00278499518917,0.00839223805582,-1.44413758721
1385568273392266490,0.125189708156,-0.0487827593952,-0.113519525952,-0.00275367627025,0.00853715965868,-1.44369109209
1385568273402370122,0.124995007354,-0.0489694564259,-0.113451586881,-0.0035245290882,0.00918401261126,-1.44464337042
1385568273412370072,0.125062229493,-0.0486965412915,-0.113382081333,-0.00341245732716,0.00823650848051,-1.44398120267
1385568273422332090,0.125071166853,-0.0487316298743,-0.113125100357,-0.00296299493479,0.00780179480504,-1.44440830798
1385568273432290759,0.125021649973,-0.0485845019593,-0.113208456864,-0.00262166390345,0.00820954261805,-1.4438764504
1385568273442442403,0.125017563544,-0.0486477342463,-0.11356017563,-0.00268340625703,0.00792598490689,-1.44374348557
1385568273452221325,0.125031394011,-0.0484738674463,-0.113649056865,-0.00234713687401,0.00822310584564,-1.44307814796
1385568273462272242,0.124950181325,-0.0484428336504,-0.113184876797,-0.00214403234085,0.00933573607434,-1.44320356384
1385568273472327153,0.124987089254,-0.0484294893353,-0.113055548882,-0.00267271108171,0.00921674676542,-1.44323709771
1385568273482257377,0.125032383608,-0.048368406617,-0.113341763185,-0.00355664815392,0.00765207313717,-1.44321654031
1385568273492239979,0.125056513179,-0.0483469968065,-0.11352067997,-0.00327799182431,0.00900058748125,-1.44193691914
1385568273502395733,0.125045901282,-0.0482143828464,-0.113465714783,-0.00338707677397,0.00916715101772,-1.44229659425
1385568273512268218,0.125034609828,-0.0482451724119,-0.113435356506,-0.00332982079937,0.00765278628929,-1.44238816447
1385568273522229944,0.125075524039,-0.0481172129849,-0.113135299871,-0.00334679260006,0.00788183838403,-1.44250673292
1385568273532202771,0.125089585905,-0.0481553885792,-0.113258940661,-0.00342209739723,0.00952605451448,-1.44231382605
1385568273542243855,0.124944920632,-0.0479427121821,-0.113451523167,-0.00418789692552,0.00888352419039,-1.44334696807
1385568273552392391,0.124922002889,-0.0481151881825,-0.113395801608,-0.00443915225901,0.00714849360195,-1.44310253574
1385568273562217329,0.124824559628,-0.047873971381,-0.113159764036,-0.00296301495805,0.0076294583545,-1.4441566937
1385568273572225939,0.124797317821,-0.0478994880051,-0.113172052319,-0.00256942337397,0.00965129092609,-1.44419256053
1385568273582370648,0.124727757518,-0.0477479286942,-0.113498961149,-0.00225082516459,0.00813334840823,-1.44551411446
1385568273592221476,0.124625052844,-0.047828779804,-0.113480171928,-0.00352451471559,0.00710604855839,-1.44637199621
1385568273602193179,0.124401158481,-0.0475782606259,-0.113294943555,-0.00412385815806,0.00802535737579,-1.4468502936
1385568273612311931,0.124195332984,-0.0474806280792,-0.113425918619,-0.00436274713271,0.00872381006294,-1.44733914434
1385568273622316827,0.124089472107,-0.0473465667041,-0.113562389553,-0.00458699720231,0.00902328175519,-1.44795780027
1385568273632279834,0.124006467959,-0.0473226912993,-0.113440883616,-0.00433203181199,0.00788553950073,-1.44786670418
1385568273642296934,0.123969186351,-0.0471703767258,-0.113218872053,-0.00348557363223,0.00857626769688,-1.44814204876
1385568273652201072,0.123847381324,-0.047097125114,-0.113389257008,-0.0034768906765,0.00746010455966,-1.44746513642
1385568273662302036,0.123807743917,-0.0469670284153,-0.11366917507,-0.0034437238219,0.00659227136094,-1.44819795023
1385568273672439763,0.123693244356,-0.0468148901486,-0.113434340404,-0.00337566327434,0.00854334581035,-1.44769131173
1385568273682329668,0.123586906642,-0.0466850705617,-0.113169644093,-0.00381886222668,0.0097402348662,-1.44898183241
1385568273692332437,0.12350226694,-0.04660960147,-0.113408470746,-0.00479876408098,0.00767449628891,-1.44921172839
1385568273702314689,0.123335387067,-0.0465429923629,-0.113430881631,-0.00497370592902,0.00730959153958,-1.45004655935
1385568273712264095,0.123174908075,-0.0463902143768,-0.113370685155,-0.00392163133532,0.00740291449393,-1.45040542282
1385568273722276371,0.123280499737,-0.0463307135114,-0.113569485556,-0.0034584722938,0.00750456395859,-1.45138058095
1385568273732206641,0.123073118453,-0.0461479029776,-0.11363014008,-0.00289042986518,0.00687280473992,-1.45148168756
1385568273742209232,0.12300596551,-0.0460033686156,-0.113448226736,-0.00293815690812,0.00729906690148,-1.45277793383
1385568273752247638,0.12295350273,-0.0457438868158,-0.113242855309,-0.00320009685806,0.00710879044035,-1.45273274706
1385568273762282575,0.12301844375,-0.0455908812835,-0.113380372376,-0.0039813951458,0.00752124259156,-1.45425508363
1385568273772380610,0.12269430447,-0.045419413713,-0.113284247082,-0.00383639737325,0.00856131370747,-1.45420760917
1385568273782384710,0.122547947145,-0.0451632768611,-0.113255319887,-0.00439260905919,0.00895962798934,-1.4553280513
1385568273792255702,0.12243672731,-0.0450281658969,-0.11333462086,-0.00473880070823,0.00688486223145,-1.45585323485
1385568273802353450,0.122274510797,-0.0448561273404,-0.11339108466,-0.00468025890996,0.00666681307873,-1.45627821771
1385568273812262989,0.122046098997,-0.0447945741422,-0.113605203807,-0.00419630176525,0.00608647906658,-1.45685255915
1385568273822262469,0.12208861768,-0.0445568673065,-0.113865491239,-0.00385807255206,0.00525826966407,-1.45731276411
1385568273832248010,0.121926827569,-0.0444396233023,-0.114120506161,-0.00370099549644,0.00455054631407,-1.45787601525
1385568273842302094,0.121805013819,-0.0443179869282,-0.114212960054,-0.00392689742157,0.00357713386673,-1.45854787926
1385568273852204789,0.12144713854,-0.0440674064304,-0.114016573853,-0.00418432042817,0.00249997724145,-1.45966369649
1385568273862354321,0.121279157795,-0.0439433737297,-0.114353331203,-0.004824568137,0.000220185048728,-1.46023617313
1385568273872337798,0.121147305328,-0.043771281274,-0.114822616777,-0.00509137974674,-0.00131004100274,-1.46116667042
1385568273882365876,0.120941745592,-0.0436809471762,-0.115045134788,-0.00588790090078,-0.00143556686594,-1.46119796309
1385568273892390907,0.120745390422,-0.0435803057694,-0.115266545385,-0.00537284557004,-0.00345487450433,-1.4619250563
1385568273902262583,0.12050473146,-0.0433915079991,-0.115339096083,-0.0053294493497,-0.00624826644237,-1.46243438415
1385568273912255589,0.12037766498,-0.0432570931501,-0.115501325771,-0.00464074285407,-0.00797250569645,-1.46328901607
1385568273922225669,0.120121733745,-0.0432145878967,-0.11597508081,-0.00324692516774,-0.0125078310078,-1.46454330939
1385568273932227846,0.120130272556,-0.0429997840769,-0.116470505658,-0.00187076646689,-0.0151744969735,-1.46539527387
1385568273942276189,0.119850458113,-0.0428113686703,-0.116754901219,-0.000763660646093,-0.0152092043941,-1.46658726535
1385568273952216083,0.119624471104,-0.0427275950085,-0.117392891169,-0.000932539223714,-0.0194562128843,-1.46857820616
1385568273962226733,0.119308278617,-0.0426322101852,-0.117930483061,-0.000879131444223,-0.0234038468565,-1.46989722182
1385568273972353513,0.11896303297,-0.0424265861298,-0.118247715572,-0.00162142470674,-0.0241257711683,-1.47132721007
1385568273982311313,0.118692272362,-0.0422734359463,-0.119001117111,-0.00142602346263,-0.0284445500412,-1.47324282368
1385568273992226618,0.1183320388,-0.0419518040625,-0.119706271215,-0.00180244254498,-0.0325114479581,-1.47489326389
1385568274002347153,0.118204146384,-0.0417772549277,-0.120652407148,-0.00141316405309,-0.0355644854855,-1.47690533466
1385568274012283226,0.117762067757,-0.0416740629878,-0.121295729008,-0.00102737308708,-0.0380513904805,-1.47816046544
1385568274022271827,0.117309580942,-0.0415147981593,-0.122227435154,-0.001318325978,-0.0413177050114,-1.47990875523
1385568274032339890,0.117286647696,-0.0414266938119,-0.12329529877,-0.000609385012402,-0.0448248236503,-1.48088521452
1385568274042266399,0.116866702969,-0.0412910220407,-0.124329147773,-1.57247520538e-05,-0.0481184017952,-1.48199201327
1385568274052239927,0.116457789655,-0.0411821300728,-0.125283769572,-0.0010117974447,-0.0511880495683,-1.48295610744
1385568274062422131,0.116209327757,-0.0410116055518,-0.126380404891,-0.000256479577272,-0.054154576339,-1.48403319685
1385568274072231491,0.115952977733,-0.0409493226442,-0.127783527883,-0.000848856504181,-0.0564315801417,-1.48496303882
1385568274082376169,0.115761682799,-0.0408086892008,-0.129003738325,-0.000428859860119,-0.0588390938647,-1.48470981356
1385568274092281698,0.115656182442,-0.0407299722714,-0.130240110648,-0.000283596504713,-0.0590117375415,-1.4851581099
1385568274102245396,0.1154117201,-0.0405741810332,-0.13167684666,-0.00023203756466,-0.0606315630613,-1.48512981843
1385568274112200392,0.115153938675,-0.0405364678904,-0.133243825167,-0.000680230059002,-0.0613779456844,-1.48498040031
1385568274122290079,0.1152227866,-0.0404945462441,-0.13509091438,-0.0011284561767,-0.0618027154388,-1.48499218359
1385568274132304581,0.115035444733,-0.040441080747,-0.136464539843,-0.00320956343525,-0.0615638755467,-1.48510890202
1385568274142310788,0.114906808308,-0.0404332011669,-0.138297438383,-0.00397187582713,-0.060400185728,-1.48490911784
1385568274152366173,0.115059534606,-0.0404759560834,-0.140433631644,-0.00454863885282,-0.0602773103489,-1.4851154937
1385568274162317696,0.114740151714,-0.0404229197105,-0.14242375359,-0.00546918575672,-0.0595733171969,-1.48487141458
1385568274172266701,0.11492707643,-0.040534102215,-0.144579924616,-0.00672412577612,-0.0597855583905,-1.48445757559
1385568274182360877,0.114912607995,-0.0406282974248,-0.14690741814,-0.00709072569894,-0.0587831941479,-1.48489971958
1385568274192327888,0.114665141461,-0.0408918474032,-0.149274464037,-0.00824670302058,-0.0582616041304,-1.48400333924
1385568274202311417,0.114903770925,-0.0410510364211,-0.151854258396,-0.00998919751281,-0.0586078595813,-1.48456742656
1385568274212290119,0.114703463702,-0.0412384547074,-0.154333756947,-0.0101358181812,-0.0586285889207,-1.48469298794
1385568274222264193,0.114771294408,-0.0415581553184,-0.15692782798,-0.0113517152994,-0.058669933201,-1.48507845976
1385568274232204569,0.114636410824,-0.0418424308804,-0.159686354514,-0.0110905544426,-0.0585433456684,-1.48619567191
1385568274242198000,0.114586941004,-0.0422234849095,-0.162653087159,-0.0111521956766,-0.0585567208452,-1.48687063346
1385568274252193816,0.11470049742,-0.0425980792194,-0.165687520294,-0.0107605554658,-0.0573726924671,-1.48829337629
1385568274262246157,0.114356116093,-0.0431202343822,-0.168586605031,-0.010525819089,-0.0561009210179,-1.49018130825
1385568274272410380,0.114301396568,-0.0436105473638,-0.171584842961,-0.0109380888304,-0.0560639876296,-1.49114031056
1385568274282297204,0.114058716022,-0.0444045403997,-0.174608302526,-0.00986085771903,-0.0560220873441,-1.4924385366
1385568274292329353,0.113819699893,-0.0450383011949,-0.177864275371,-0.00839360301845,-0.0554751528511,-1.49302274551
1385568274302327283,0.113720765889,-0.0458174857371,-0.181066394064,-0.00663926450551,-0.0552588720881,-1.49265282879
1385568274312326559,0.113564468999,-0.0466707536524,-0.184564696442,-0.00354035049138,-0.0563478150954,-1.49285003901
1385568274322296769,0.113441477807,-0.04750962512,-0.187711638154,-0.00275529691296,-0.056346898377,-1.49233335007
1385568274332346796,0.113438169899,-0.0485909708211,-0.191112968902,-0.000471561937693,-0.0564502877501,-1.49160238615
1385568274342258058,0.113329356312,-0.0496454315458,-0.19466448805,0.00193683082108,-0.0573698542135,-1.49143157912
1385568274352402948,0.113187424476,-0.0507232749381,-0.198110932004,0.00355738802578,-0.0578561393779,-1.49046293266
1385568274362395876,0.113139215129,-0.0518845467183,-0.201830345553,0.00673193779293,-0.05854161643,-1.49060288897
1385568274372276396,0.112993752648,-0.0530910643407,-0.205521044965,0.00796340807671,-0.0593994890837,-1.49049578043
1385568274382298454,0.112941941087,-0.054391606236,-0.209321829125,0.00985740734252,-0.0582815353252,-1.49015839347
1385568274392391277,0.112821641733,-0.0558885368948,-0.213135646099,0.0129173935419,-0.0579726456002,-1.49002640718
1385568274402242158,0.112910320622,-0.0571457086064,-0.216835019386,0.014712601999,-0.0568784051069,-1.48934413965
1385568274412315149,0.112726355976,-0.0585335083644,-0.220563975657,0.0156221604604,-0.055078023887,-1.48961844244
1385568274422407734,0.112740711179,-0.0600009586809,-0.224550456317,0.0172047711993,-0.0548102136595,-1.48944512795
1385568274432230100,0.112661779849,-0.0615038332232,-0.228451892706,0.0169153252904,-0.0531985924577,-1.48932647471
1385568274442222953,0.112638684325,-0.0630446967352,-0.232303189588,0.0170785924211,-0.0526175237395,-1.4899287817
1385568274452367335,0.112487289507,-0.0647520695636,-0.236198977456,0.0175383440712,-0.0513373946451,-1.48991458217
1385568274462244454,0.112588462243,-0.0663252741299,-0.240264815266,0.0173109012407,-0.0489040915469,-1.48995365786
1385568274472264884,0.112585023207,-0.0681011896915,-0.244585956998,0.0180157410684,-0.0475300248606,-1.49054277751
1385568274482429865,0.112415765343,-0.069824632521,-0.24842095582,0.0179855447044,-0.0470929890722,-1.49021874354
1385568274492291085,0.112713913847,-0.0717267747837,-0.252623630701,0.0183403759969,-0.0465354784758,-1.49073246948
1385568274502245191,0.112612271147,-0.0735531576943,-0.256750950093,0.0182583253949,-0.0448566195526,-1.49103704311
1385568274512361621,0.112652052062,-0.0753584642604,-0.260946652745,0.017776691131,-0.0418566919515,-1.49112263317
1385568274522250409,0.112898684689,-0.0771647686566,-0.265303630239,0.0189086901745,-0.0396765803382,-1.49110608755
1385568274532198719,0.112596361559,-0.0789489900442,-0.269320180728,0.0186764166691,-0.0371013945275,-1.49102860242
1385568274542209527,0.112765228572,-0.0809078256595,-0.273665208664,0.0183637636032,-0.0338016710012,-1.49159088823
1385568274552293792,0.11306323282,-0.0829518743024,-0.277832046289,0.0193379184522,-0.0328184309486,-1.49167926749
1385568274562253629,0.112966263075,-0.084939680039,-0.282028416183,0.0193915031184,-0.0303010478751,-1.49227516207
1385568274572215394,0.113303107688,-0.0868676893525,-0.286262640664,0.019077151816,-0.0270657911413,-1.49286679162
1385568274582218582,0.113347269267,-0.0888897450631,-0.290563770747,0.0185952277585,-0.0244055983136,-1.49298805689
1385568274592186116,0.113397609034,-0.0909133089943,-0.295025617472,0.0180202619922,-0.0215990107965,-1.49277685273
1385568274602276413,0.113768826,-0.0929579553098,-0.299148556925,0.0158708792347,-0.0194823409777,-1.49294579967
1385568274612222760,0.113640795235,-0.0950291611628,-0.303436475532,0.0155612795752,-0.015673468813,-1.49301032367
1385568274622366341,0.114123657437,-0.0971161139933,-0.307608326396,0.0150050407352,-0.0150054361737,-1.49272174303
1385568274632216514,0.114259954906,-0.0991712297523,-0.312141385184,0.0164296144648,-0.0139265939474,-1.49279098082
1385568274642232445,0.114476523919,-0.101386723109,-0.316585842594,0.0155325646625,-0.0124426244731,-1.49342927896
1385568274652285294,0.114719261445,-0.103484328172,-0.320780421244,0.0144197676916,-0.0113290272732,-1.49363912963
1385568274662287092,0.114885989112,-0.10570466257,-0.325174321606,0.012609395779,-0.0108767138166,-1.49373356581
1385568274672193661,0.114941157852,-0.107899672625,-0.3296657704,0.0113588003111,-0.0100102118452,-1.49376008067
1385568274682300233,0.115396445377,-0.110073474844,-0.334232396155,0.00917483884976,-0.00937336248564,-1.49351951263
1385568274692208151,0.115530202443,-0.112187871122,-0.338604247456,0.00796318334051,-0.00925103493748,-1.49307962909
1385568274702262773,0.115733538195,-0.114367674081,-0.343217079259,0.00726440539478,-0.00854455367962,-1.49323297301
1385568274712228796,0.116113925993,-0.116549546494,-0.347837446098,0.00697354598438,-0.00862568280558,-1.49312433553
1385568274722236180,0.116270463527,-0.118725198084,-0.352490747778,0.00689633791318,-0.00775357571785,-1.49341717208
1385568274732212276,0.11671380398,-0.120910711948,-0.357244969207,0.00635916816094,-0.00721675663367,-1.49365980694
1385568274742261784,0.116998377814,-0.123053470243,-0.361856449605,0.00605060980664,-0.006596584826,-1.49291947592
1385568274752222243,0.117163601306,-0.125212908712,-0.366578074403,0.00558974951343,-0.00624320522082,-1.49288485874
1385568274762289250,0.117493774778,-0.127316484363,-0.371420293809,0.00489010765737,-0.00437521951389,-1.49341953212
1385568274772219427,0.117962763048,-0.129608936159,-0.376165322446,0.00456515427762,-0.00474095322187,-1.49284100705
1385568274782227663,0.117920299049,-0.131820561378,-0.38086870156,0.0044918603626,-0.00483113195573,-1.49284310304
1385568274792264091,0.118471105523,-0.133890596018,-0.385817251304,0.00421026772244,-0.00367859664687,-1.4931352073
1385568274802221273,0.118799170056,-0.136219883994,-0.390731856385,0.00445521513857,-0.00398183089001,-1.49346164884
1385568274812215102,0.118946298107,-0.138452156606,-0.395838593988,0.00505522273624,-0.00502151295599,-1.49305150254
1385568274822227623,0.119548724605,-0.140616991702,-0.400965329926,0.00601264374709,-0.0043254488999,-1.49290895883
1385568274832180575,0.119844953534,-0.142831989733,-0.406269149182,0.00747352339755,-0.00582897308776,-1.49330527223
1385568274842202940,0.120147286969,-0.145123216088,-0.411247949498,0.00712575615019,-0.00583430519352,-1.4934178157
1385568274852187143,0.12067088071,-0.147303336269,-0.416105693857,0.0082753644873,-0.00675536263528,-1.49333689498
1385568274862300226,0.120972420851,-0.149574148818,-0.42074870288,0.00782754337504,-0.00617806866992,-1.49342471623
1385568274872192012,0.121364663093,-0.151791291494,-0.425380082319,0.00859955201516,-0.00804322774074,-1.49348192511
1385568274882192527,0.121742736895,-0.1539427861,-0.429814337302,0.00950057177978,-0.00802750498158,-1.49306419833
1385568274892180855,0.122116546452,-0.156195299911,-0.434172470835,0.0104464285025,-0.00939689099771,-1.49352012466
1385568274902222345,0.122639480345,-0.15849263538,-0.438215801883,0.0108580629839,-0.00948393236022,-1.49369935193
1385568274912237631,0.123061211157,-0.160646171075,-0.442256222104,0.0126399567304,-0.0102575096428,-1.49346968461
1385568274922193087,0.123380356107,-0.162940989927,-0.446272020732,0.0140516023558,-0.0110003767535,-1.49353791154
1385568274932186068,0.124042593274,-0.165103199269,-0.449989938249,0.0145637615545,-0.0105022561849,-1.49381731022
1385568274942214267,0.12436987213,-0.167349449095,-0.453470414786,0.0156294306022,-0.0107538656042,-1.49406368134
1385568274952191781,0.124831010164,-0.169572158079,-0.456899026293,0.0168132684367,-0.0113863243671,-1.49398601711
1385568274962204116,0.125331611605,-0.171766479619,-0.460283372261,0.0177207260074,-0.0104322264694,-1.49394632668
1385568274972247513,0.125786051967,-0.174073804837,-0.463369678397,0.0183854364817,-0.0113875811218,-1.494771393
1385568274982315191,0.126526720191,-0.176413307191,-0.466400550498,0.0189624262441,-0.0112721730141,-1.49422504372
1385568274992194842,0.126836982066,-0.178606504659,-0.46929617962,0.0198781044829,-0.0117006702561,-1.49497370248
1385568275002188327,0.127517477496,-0.180818327359,-0.472013663706,0.0201729037985,-0.0115520871053,-1.49446469491
1385568275012280681,0.12815063464,-0.183036717787,-0.474644183682,0.020071659304,-0.0114263761813,-1.49432768073
1385568275022220813,0.128612782955,-0.185317986026,-0.476976964911,0.0210918416505,-0.0114820304909,-1.49431377779
1385568275032204749,0.129271519498,-0.187474668453,-0.479254938319,0.0206905354312,-0.0116289620416,-1.49403717055
1385568275042237308,0.129765820508,-0.189846305233,-0.481402970091,0.0207193906967,-0.0119892987815,-1.49489219216
1385568275052190709,0.130309957315,-0.192125811988,-0.48342534708,0.0197608426149,-0.0120434076313,-1.49470509498
1385568275062204043,0.131110186928,-0.194429614017,-0.485292978221,0.0200313108911,-0.0120092080905,-1.49429935288
1385568275072246917,0.131638264382,-0.196744882051,-0.487020408875,0.0192484564915,-0.0121327256315,-1.49493162623
1385568275082305394,0.13230404806,-0.198912021472,-0.488521797815,0.0190346293266,-0.0118146153181,-1.49370820191
1385568275092191995,0.132936736628,-0.20121563306,-0.490092647294,0.0186653638536,-0.0112030292666,-1.49443381168
1385568275102196911,0.133530209838,-0.203523656173,-0.49125512701,0.0186160443809,-0.0125724864564,-1.49417852675
1385568275112201526,0.134298702502,-0.205788093822,-0.492596908477,0.0194542754363,-0.0118313256111,-1.49431151759
1385568275122313713,0.135081085093,-0.208042453279,-0.493688329249,0.0189763553074,-0.0111700691968,-1.49464391953
1385568275132196008,0.135702851597,-0.210508376621,-0.494745558249,0.0189991009461,-0.0112205664517,-1.49500227478
1385568275142218523,0.136481651079,-0.212675492338,-0.495363365956,0.0185307162844,-0.0119701159612,-1.494121081
1385568275152208929,0.137227218559,-0.214903210981,-0.496121985537,0.0183938965832,-0.0109051446323,-1.4943318784
1385568275162244486,0.137942206923,-0.217072960614,-0.4968996982,0.0183945847672,-0.00883629208352,-1.49473736251
1385568275172281513,0.138930137248,-0.219555057731,-0.497317809887,0.0178242252858,-0.00955817105967,-1.49391658656
1385568275182273708,0.139554624261,-0.221769826174,-0.497676125266,0.0179926900291,-0.00880747970312,-1.49453001739
1385568275192183921,0.140342199686,-0.224057703146,-0.498021201986,0.0173687128106,-0.00754860588292,-1.49468803231
1385568275202241190,0.141339956448,-0.226466969682,-0.498434281318,0.0176824702576,-0.0064187910197,-1.49404483071
1385568275212290025,0.142061556579,-0.228717202863,-0.498476226067,0.0165270465767,-0.00569279102845,-1.49444024541
1385568275222262456,0.142983997886,-0.231223222305,-0.498394151559,0.0156556024959,-0.00579539993222,-1.4950315218
1385568275232265164,0.143939334767,-0.233321499039,-0.498383067161,0.0154083708701,-0.00434742161643,-1.49399758066
1385568275242259922,0.144698233452,-0.235674626537,-0.498246999574,0.0142259168181,-0.00363078170948,-1.49463682875
1385568275252213326,0.145479948573,-0.237942135348,-0.497803259132,0.0138186702622,-0.00372375741733,-1.49450388796
1385568275262191852,0.146395548734,-0.240279545118,-0.497580912457,0.0137395086166,-0.00267890728127,-1.49423789213
1385568275272257620,0.147328073902,-0.242615276849,-0.497066319912,0.0125855672351,-0.00218072102961,-1.49478672423
1385568275282271795,0.148217355013,-0.244943880882,-0.496608364319,0.0120960449734,-0.00138482740131,-1.49472654158
1385568275292191386,0.149247973818,-0.247202514935,-0.49609761203,0.0122817734775,-0.00075883071601,-1.49440523508
1385568275302356619,0.150031023691,-0.249477761828,-0.495432655573,0.0115777823043,-2.38520410457e-05,-1.49461571912
1385568275312236570,0.151049037088,-0.251816270603,-0.494795995793,0.0104370542205,0.000828988429516,-1.49484116714
1385568275322208759,0.151985873097,-0.254139325284,-0.493976110311,0.0104329567244,0.00118759327788,-1.49444798292
1385568275332190661,0.15286909311,-0.256274710981,-0.493253993094,0.00977952837144,0.00237046255246,-1.49468941389
1385568275342238201,0.153864437445,-0.258884815816,-0.492150486807,0.00876913907998,0.00243210394455,-1.49432089621
1385568275352190750,0.15485432966,-0.260966945798,-0.491174439432,0.00816358418694,0.0033364785986,-1.49409794313
1385568275362199621,0.155965218872,-0.26315049658,-0.490316761312,0.0080967402146,0.00437121314556,-1.49464516582
1385568275372229395,0.156671625901,-0.265500444335,-0.489029497273,0.00727831703874,0.00410554374644,-1.49436431278
1385568275382406069,0.157915698564,-0.267768008768,-0.48813324438,0.00741752936984,0.00471811308391,-1.49375669873
1385568275392191487,0.158629684896,-0.269913369848,-0.486828136587,0.0073131307711,0.00586863098807,-1.49438086471
1385568275402306590,0.159773297534,-0.27227841981,-0.485588930427,0.00607677866962,0.0062204874033,-1.49374060911
1385568275412247498,0.160712975856,-0.274507341911,-0.484449542786,0.00631096533457,0.00643533676697,-1.49437327042
1385568275422244441,0.161616408032,-0.276656441666,-0.483137350396,0.00565255717554,0.00849519546762,-1.49396471024
1385568275432261106,0.162745358202,-0.278838434389,-0.481957841301,0.00528280007338,0.0087576262598,-1.49436117649
1385568275442253296,0.16352880578,-0.281154654909,-0.480583215069,0.00478725701737,0.00901229182306,-1.49415651127
1385568275452195245,0.164546285096,-0.283074351122,-0.479179531227,0.00405082049462,0.00974187502049,-1.4943039027
1385568275462332370,0.165625478586,-0.285348755833,-0.477802426953,0.00393373241172,0.0102484860598,-1.4940777242
1385568275472216964,0.166377049019,-0.287469802933,-0.476285633023,0.0030292988489,0.0109132631737,-1.49412166879
1385568275482290112,0.167517731437,-0.289562058455,-0.475033412305,0.00228661509965,0.0127736293506,-1.49456005246
1385568275492186820,0.168355417531,-0.291755773557,-0.473294628723,0.00146545155615,0.012704725165,-1.49446661364
1385568275502440820,0.169274083505,-0.293723085981,-0.471997201851,0.00131070828795,0.0138793742319,-1.49424852901
1385568275512268749,0.170449186787,-0.295842800759,-0.470414113358,0.000537251791849,0.0143831741151,-1.49415529637
1385568275522211353,0.171081021329,-0.298057336857,-0.468789934685,3.29977937003e-05,0.0141641229981,-1.49425881461
1385568275532228222,0.172300325195,-0.299908492272,-0.467392195806,-0.000802088962541,0.0153803780342,-1.49441411512
1385568275542273352,0.17304038763,-0.301879921291,-0.465817232154,-0.00143631852,0.0179458159048,-1.49419700906
1385568275552198018,0.173920201527,-0.304023187455,-0.46427966792,-0.00173244459353,0.0160281897364,-1.49421969687
1385568275562286886,0.175057153489,-0.306111845584,-0.462838639882,-0.00270213266398,0.0175825758953,-1.49435344991
1385568275572215601,0.175787268906,-0.30783028138,-0.461323107631,-0.00282996760226,0.0182276037871,-1.49475672388
1385568275582221228,0.176865499026,-0.309973395577,-0.459728040557,-0.00351937459532,0.017147437982,-1.49462675904
1385568275592192773,0.177554788897,-0.311858698843,-0.458206727416,-0.00362595367674,0.0185007374997,-1.49471570843
1385568275602247161,0.178705165161,-0.313889372865,-0.456975512278,-0.00332450840112,0.0183583640992,-1.49489101002
1385568275612211054,0.179418464657,-0.315714424216,-0.455308655531,-0.00314869894328,0.017349010723,-1.4948512584
1385568275622207439,0.180375002676,-0.317675844301,-0.453995345916,-0.00356774760461,0.0177413517555,-1.49503925709
1385568275632191154,0.181482408287,-0.319609579677,-0.452736005984,-0.00266774842036,0.017907332332,-1.49523169342
1385568275642188718,0.182080352658,-0.321388377221,-0.451160371395,-0.00277766371183,0.0161478424113,-1.49522846649
1385568275652196953,0.18294535166,-0.323290332786,-0.44993873953,-0.00237386005531,0.0156374300811,-1.49493394737
1385568275662255294,0.183872798555,-0.324989981411,-0.448515831918,-0.00247364486284,0.0150430893593,-1.49519990953
1385568275672192504,0.184988487544,-0.326797000011,-0.44836803035,0.00016114256495,0.0265246662037,-1.49374347069
1385568275682195564,0.185539497381,-0.328718001924,-0.445992446471,-0.00227436290531,0.0133977526335,-1.49522128954
1385568275692187227,0.186526890016,-0.330494264267,-0.444764905592,-0.0024431939722,0.0137155386999,-1.49471199239
1385568275702230138,0.187258633071,-0.332310608981,-0.443574268348,-0.00262325006491,0.0126531230976,-1.49530347554
1385568275712385667,0.188197213116,-0.334041157569,-0.442316817711,-0.00140312249306,0.0127149317553,-1.49478598545
1385568275722305412,0.189030865658,-0.335676385409,-0.441297589748,-0.00162356737348,0.0121784860653,-1.4956258482
1385568275732225430,0.189896165435,-0.337434627662,-0.440230668966,-0.00141674680748,0.0121445888406,-1.49474644889
1385568275742214262,0.190531725778,-0.339109760293,-0.438782109362,-0.0023784273795,0.0106606184093,-1.49505101198
1385568275752193031,0.191581289045,-0.340833261339,-0.437944466521,-0.0025473514278,0.0109551913363,-1.49486933489
1385568275762194354,0.192197993271,-0.342567329444,-0.436788607351,-0.00379864676434,0.00939229875287,-1.4951610554
1385568275772280437,0.193068287384,-0.344183647865,-0.435786772855,-0.00392164900742,0.00959711183164,-1.49487255022
1385568275782290079,0.193788666646,-0.345756971541,-0.434764489065,-0.00523130287723,0.00906892573142,-1.49487490173
1385568275792279226,0.194474871093,-0.347500858339,-0.433753866178,-0.00631990996686,0.0099179997243,-1.49466425528
1385568275802243723,0.195235460178,-0.349044389809,-0.432785362286,-0.00717966292958,0.00901325181663,-1.49472865968
1385568275812337809,0.196093347569,-0.350775115,-0.431845993517,-0.00813214509895,0.0098219222003,-1.49453452493
1385568275822273515,0.196635477954,-0.352266554574,-0.430959188595,-0.00815933307111,0.00878314788793,-1.49515269712
1385568275832223521,0.197614070258,-0.353847806994,-0.43016322039,-0.00800581331849,0.00917151037242,-1.49453725325
1385568275842207560,0.198287366195,-0.355377210435,-0.429342889674,-0.00774005308167,0.00935982690201,-1.49445529619
1385568275852317839,0.199097228963,-0.357062904995,-0.42854674176,-0.00807658918417,0.00985308438876,-1.49458160441
1385568275862272548,0.199690197157,-0.358542873299,-0.42777863807,-0.00745370348432,0.00948963651558,-1.49442673437
1385568275872227469,0.200375056001,-0.360077202371,-0.427189435996,-0.00599351514081,0.00951098635992,-1.49462560945
1385568275882418628,0.201209177388,-0.361599640247,-0.426524440745,-0.00581975610952,0.00963185408583,-1.49438733648
1385568275892308807,0.201891964445,-0.363164611512,-0.425799622151,-0.00658821101483,0.0100058775005,-1.49444162518
1385568275902272481,0.202594824919,-0.364580660718,-0.425260335353,-0.00607260210385,0.0106038303282,-1.4942352114
1385568275912335565,0.203186226372,-0.365952910347,-0.424834096765,-0.0054735671181,0.0120059982064,-1.49436062309
1385568275922261928,0.203883969275,-0.367432499616,-0.424355752822,-0.00553472984481,0.012993508575,-1.49433548716
1385568275932235806,0.204407528708,-0.368845105621,-0.423844938923,-0.00654089019165,0.0132445529335,-1.49486562938
1385568275942196896,0.205143277934,-0.370217470673,-0.42351840334,-0.00581108300898,0.0146632813728,-1.4944350838
1385568275952194822,0.205690500994,-0.371633570781,-0.423187097876,-0.00486544277911,0.0159535294465,-1.49486670319
1385568275962241054,0.206466065581,-0.373034938656,-0.422920211232,-0.00435138939937,0.0167923469498,-1.49436617198
1385568275972203927,0.207113401049,-0.374384897503,-0.422764990701,-0.00351138714499,0.018401264747,-1.4943632814
1385568275982248715,0.20755703387,-0.375799732341,-0.422406684966,-0.00382010931009,0.0192724201865,-1.49428913386
1385568275992210435,0.208555131553,-0.376944847434,-0.423053520024,-0.00168588540242,0.0280349217526,-1.49490995256
1385568276002260828,0.208886458179,-0.378375266528,-0.421966807224,-0.00412786738155,0.0217838366187,-1.49474439435
1385568276012204354,0.209467789755,-0.379932969523,-0.421846197033,-0.00428833288753,0.0206782815979,-1.49475224346
1385568276022238621,0.209972203846,-0.381116430029,-0.421725724873,-0.00429227955024,0.0204931811931,-1.49509589718
1385568276032189014,0.210620685792,-0.382370116217,-0.42165549848,-0.00465295990364,0.020645548972,-1.49382282551
1385568276042207700,0.211248814381,-0.3836068347,-0.421475218445,-0.00504724324049,0.0196389664837,-1.49385466824
1385568276052195793,0.211821203526,-0.385002345315,-0.421626369927,-0.00602713609142,0.0207496772773,-1.49436888673
1385568276062202498,0.212380246284,-0.386332086242,-0.421657441023,-0.00648725090507,0.0202550934421,-1.49381263401
1385568276072197985,0.212823460733,-0.387386670495,-0.421462445172,-0.00735535007941,0.0198131203369,-1.49438228637
1385568276082226117,0.213427020209,-0.388677998038,-0.421609737735,-0.00730910211696,0.0203775622951,-1.49372285654
1385568276092308392,0.214040617411,-0.389698454715,-0.42166687919,-0.00717972884828,0.0200885829602,-1.4940117421
1385568276102227563,0.214400809799,-0.39091540673,-0.421610390137,-0.00715003288208,0.0190342496485,-1.49437547727
1385568276112324741,0.214992232388,-0.392022298519,-0.421884610057,-0.00590639862228,0.0192247864944,-1.49431555657
1385568276122302422,0.215634340691,-0.393099373733,-0.422023432763,-0.00541640460604,0.018895322273,-1.49444609491
1385568276132192936,0.216067097723,-0.394142181274,-0.422156315811,-0.00537462962696,0.0191900402336,-1.49446904482
1385568276142202474,0.216712860696,-0.395198340031,-0.422345457336,-0.00509112967544,0.0191825604487,-1.49392309394
1385568276152214444,0.217164933278,-0.396460471477,-0.422375182749,-0.00463714466759,0.0181564041467,-1.49370772294
1385568276162189920,0.217548194148,-0.397527096843,-0.422606199579,-0.0042057769088,0.0174314377237,-1.4938794257
1385568276172202824,0.218122287543,-0.398604415591,-0.422776274482,-0.0033500912643,0.0166226373254,-1.49378523625
1385568276182245528,0.218685954182,-0.399484704084,-0.423037986218,-0.00367796439205,0.0167207224058,-1.49420481736
1385568276192187098,0.219133388906,-0.400615801304,-0.423223925472,-0.00366086310441,0.0155376365607,-1.49390570152
1385568276202200863,0.219502647418,-0.401502490391,-0.423402361307,-0.0030989108697,0.0151852710644,-1.49415710293
1385568276212326446,0.220079287102,-0.402514747418,-0.423562138878,-0.00349833212682,0.0146331837164,-1.49373511508
1385568276222308138,0.220624958707,-0.403559618593,-0.423883250427,-0.00391585548227,0.0134019649117,-1.49367726769
1385568276232254890,0.221018783552,-0.404523351336,-0.424205708952,-0.00337355712279,0.0129323284269,-1.49364850136
1385568276242273792,0.221457815757,-0.405556499618,-0.424367535888,-0.00420772072421,0.0116611873722,-1.49323663279
1385568276252290150,0.222132087542,-0.406539523736,-0.424833786391,-0.0041815296391,0.0131333140073,-1.49299051774
1385568276262361258,0.222384447043,-0.407589673603,-0.425034760999,-0.00399745015056,0.0118150152299,-1.4931803475
1385568276272320899,0.222920251915,-0.408590278039,-0.425311974028,-0.00442228217974,0.0113000083916,-1.49283487358
1385568276282369401,0.223261363504,-0.409295001207,-0.425620852215,-0.00340183736835,0.0116478764881,-1.49295305287
1385568276292211632,0.22372235093,-0.410364223521,-0.425808873856,-0.0050971116638,0.0111043417879,-1.49323595716
1385568276302218040,0.224294757889,-0.411192202097,-0.426254052416,-0.00379852830231,0.0100787065768,-1.49295990573
1385568276312208409,0.224555419732,-0.412093380902,-0.426611855466,-0.00357120268747,0.00905814167868,-1.49278302713
1385568276322239822,0.225072195978,-0.412978350897,-0.426916371865,-0.0039195155161,0.00939880090663,-1.49318731769
1385568276332184540,0.225423583316,-0.413843492259,-0.427321777688,-0.00347070003582,0.00917775726492,-1.4931710573
1385568276342198914,0.225942050388,-0.414730615904,-0.427775611846,-0.00340045399163,0.00876330085592,-1.49238434015
1385568276352199689,0.226368592626,-0.415540624248,-0.428132429238,-0.00377970264106,0.0092745934353,-1.49382204516
1385568276362271000,0.226622514885,-0.416532654331,-0.428434326808,-0.0041844840705,0.0088693767013,-1.49347691226
1385568276372191152,0.227291030863,-0.417377272411,-0.428891069838,-0.00502801556146,0.00837354309617,-1.49356849431
1385568276382412590,0.227616712986,-0.418267471718,-0.42918827942,-0.00474841972158,0.00700528556923,-1.49331103222
