%time,field.linear.x,field.linear.y,field.linear.z,field.angular.x,field.angular.y,field.angular.z
1385566595108513269,-0.0,0.0,0.0,1.0,0.0,0.0
1385566595197739391,-0.0,0.0,6.64258589104e-08,1.0,0.0,0.118003145458
1385566595297940288,0.0294996282438,-0.0023079861851,-0.0130677858517,1.0,0.0,0.0638714764243
1385566595397952426,0.0260308492709,-0.00209662783212,-0.0111687030625,1.0,0.0,0.0713405974692
1385566595497973512,0.0301407009057,-0.00240102753932,-0.0103300597187,1.0,0.0,0.065248610359
1385566595598226099,0.0286084077647,-0.00229240974893,-0.00856465029714,1.0,0.0,0.0626256631244
1385566595698018520,0.026727940766,-0.00215485790947,-0.00623848874515,1.0,0.0,0.0602278583511
1385566595798070367,0.0234472129258,-0.00190475450509,-0.00344101894511,1.0,0.0,0.058358498815
1385566595897247818,0.0198630860333,-0.00162543139024,-0.000216766474526,1.0,0.0,0.0568550044839
1385566595998026857,0.0161774766962,-0.00134118930655,0.00334486280781,1.0,0.0,0.055643086434
1385566596096966229,0.0127619297371,-0.00104043262838,0.00723410650298,1.0,0.0,0.0546854713762
1385566596197977205,0.00973739218239,-0.000825972645254,0.0113833360258,1.0,0.0,0.0539544699727
1385566596297052224,0.00735466827109,-0.000524516094604,0.0157544367248,1.0,0.0,0.0533379679114
1385566596397947319,0.00545853546927,-0.000407273407884,0.0203345689106,1.0,0.0,0.0528407591248
1385566596496957627,0.00421372615658,-0.000286508429218,0.0250953453331,1.0,0.0,0.0524467395501
1385566596598187158,0.0034922402445,-0.00033251827121,0.0300065135417,1.0,0.0,0.0521344917302
1385566596697088963,0.003122648019,-0.000222780434999,0.0350414870504,1.0,0.0,0.0518914271198
1385566596797194864,0.00320507839564,-0.000376077773825,0.0401956352942,1.0,0.0,0.0516415060579
1385566596897093756,0.00344207105553,-0.00032438356397,0.0454424395862,1.0,0.0,0.0514793498634
1385566596998035830,0.00399777939706,-0.000376498093069,0.0507788392156,1.0,0.0,0.0512684342853
1385566597097273041,0.0044655323218,-0.000281344698259,0.056181745786,1.0,0.0,0.0511302250813
1385566597197262048,0.00509529213348,-0.000195618745555,0.0616427815929,1.0,0.0,0.050979541623
1385566597298118886,0.00560496871858,-0.000165855315758,0.0671495868623,1.0,0.0,0.0509398954826
1385566597398019734,0.00622842077131,-0.000357358056448,0.0727233387347,1.0,0.0,0.0506497432844
1385566597496963374,0.0066830579825,-0.000447339574593,0.0782959242807,1.0,0.0,0.0500903569625
1385566597597879873,0.00710500908634,-0.00129560841134,0.0839558651754,1.0,0.0,0.0490024249391
1385566597698197800,0.00791670098394,-0.00177853044334,0.0896515812164,1.0,0.0,0.0474484745878
1385566597798028562,0.00859342396235,-0.003042582688,0.0953135436909,1.0,0.0,0.0453415262331
1385566597897057069,0.0101423388303,-0.003459445843,0.101019172212,1.0,0.0,0.0430911845364
1385566597997181974,0.00921373193415,-0.00371531222728,0.106529047919,1.0,0.0,0.0409925731905
1385566598097147737,0.00835673139733,-0.00273613558994,0.111069161406,1.0,0.0,0.0387205952336
1385566598196963832,0.0079007568328,-0.00247488460773,0.113782206911,1.0,0.0,0.0364079446016
1385566598297416701,0.00775209082074,-0.00134219409253,0.114542204451,1.0,0.0,0.0343857732281
1385566598397135800,0.00826226881938,-0.00233058674881,0.113688594588,1.0,0.0,0.032669235591
1385566598498032057,0.00928986441722,-0.00294829855101,0.111507221485,1.0,0.0,0.0308911630944
1385566598597041942,0.00992434386191,-0.00100189483821,0.10830368118,1.0,0.0,0.0288967959348
1385566598697015106,0.00804731664405,0.000397542371149,0.104535488311,1.0,0.0,0.0267652107805
1385566598797992795,0.00490672975836,0.000644768327271,0.0999849236669,1.0,0.0,0.0247431557393
1385566598897064889,0.00295888581779,0.00154058447257,0.0961140828138,1.0,0.0,0.0226690383644
1385566598996990091,0.00130316575318,0.00279219940192,0.0937220078199,1.0,0.0,0.0207068793324
1385566599098020647,-5.10314622271e-05,0.00382681990444,0.093042959022,1.0,0.0,0.0188039012468
1385566599197996653,-0.00120319941683,0.0047775742134,0.0939854754955,1.0,0.0,0.0169436007857
1385566599297067078,-0.00149790930223,0.00567734727403,0.0964250042026,1.0,0.0,0.0151775721331
1385566599397170684,-0.00135469189042,0.00633971909407,0.100264344147,1.0,0.0,0.0134698055932
1385566599497035355,-0.00137576647108,0.006126023428,0.105124756158,1.0,0.0,0.0118389003119
1385566599597055589,-0.00147780882849,0.00579840831661,0.110746947149,1.0,0.0,0.0102534595201
1385566599697189242,-0.00165700729279,0.00672669900216,0.116687774302,1.0,0.0,0.00874061217982
1385566599798008538,-0.00146035360715,0.00648833252112,0.122861192948,1.0,0.0,0.00734242233061
1385566599898082191,-0.00152797862405,0.00607427812336,0.129127395389,1.0,0.0,0.00608731409801
1385566599998214664,-0.00134163356566,0.00566503260652,0.135244199009,1.0,0.0,0.00493350243286
1385566600097984104,-0.00117403407373,0.00543257212686,0.141062964167,1.0,0.0,0.00399742422044
1385566600197035198,-1.56788344345e-05,0.00474737876224,0.146376780671,1.0,0.0,0.00316528307583
1385566600297178793,-0.000159226159387,0.0040340148141,0.148883926692,1.0,0.0,0.00247063990321
1385566600398210077,-0.00100663905365,0.00404438303141,0.150546141713,1.0,0.0,0.00190472137646
1385566600496957785,-8.90761354851e-05,0.00447163675164,0.151329467957,1.0,0.0,0.00144096030257
1385566600597359162,0.000622180579547,0.00253401144385,0.151561594761,1.0,0.0,0.00094334126127
1385566600697955290,0.000474744944038,0.00217863114766,0.151326010362,1.0,0.0,0.000580841427183
1385566600798076249,0.000113072409146,0.00141197893935,0.150674943524,1.0,0.0,0.000393145509586
1385566600897232501,9.49322652984e-07,0.000825395115634,0.149649108982,1.0,0.0,0.000184257699404
1385566600996990227,-0.000292757570998,0.000183254706083,0.148247547472,1.0,0.0,4.48384865446e-05
1385566601098206552,-0.000772019660843,-0.000784853252201,0.146523895072,1.0,0.0,-7.20576377739e-05
1385566601198084062,-0.000994825024749,-0.00126577736212,0.144582244515,1.0,0.0,-9.30106160916e-05
1385566601297033756,-0.00173830314427,-0.00144433567876,0.142379605824,1.0,0.0,-4.21760883855e-05
1385566601398159995,-0.00256293147677,-0.00184690354396,0.139935604081,1.0,0.0,5.9552867118e-06
1385566601497969950,-0.00334203626515,-0.00307932162883,0.137301331494,1.0,0.0,0.000130449915028
1385566601596979741,-0.00450684626792,-0.00375873995563,0.134421547151,1.0,0.0,0.000279786337011
1385566601696989056,-0.00589471218649,-0.00436950549133,0.131385992411,1.0,0.0,0.000405357714636
1385566601797219255,-0.00726794740661,-0.00508987324442,0.128172910465,1.0,0.0,0.000672938324594
1385566601897429351,-0.00889069566601,-0.00550880905808,0.124828350681,1.0,0.0,0.000949983742857
1385566601996958339,-0.00977060602776,-0.0058480757985,0.121453434993,1.0,0.0,0.00130539667135
1385566602098009774,-0.0109640654981,-0.00651906124696,0.118030743066,1.0,0.0,0.00162704214263
1385566602197165659,-0.01196776363,-0.00734864701988,0.114601720283,1.0,0.0,0.00202344024573
1385566602298088779,-0.012882875095,-0.0082475067669,0.111124958698,1.0,0.0,0.00242219761454
1385566602398058594,-0.013109247683,-0.00930837011746,0.107644314064,1.0,0.0,0.00275801721321
1385566602498010129,-0.0131753236693,-0.0102367281642,0.104185140028,1.0,0.0,0.00321997453686
1385566602597176162,-0.013166437953,-0.0113797842024,0.100696333199,1.0,0.0,0.0036099999181
1385566602698115318,-0.0126089617667,-0.0125866132248,0.097181090533,1.0,0.0,0.00404203030076
1385566602797056064,-0.0118620210789,-0.0137357223417,0.0936515325783,1.0,0.0,0.00447917720901
1385566602896947486,-0.0107348841136,-0.0149769987589,0.0901329827228,1.0,0.0,0.00487990722681
1385566602997095333,-0.00985849102466,-0.0164180234773,0.0865899951712,1.0,0.0,0.00527319862489
1385566603098009502,-0.00883331283281,-0.017773404716,0.0830907285621,1.0,0.0,0.00569313551041
1385566603197019119,-0.00786449450538,-0.0190734601224,0.0796085438176,1.0,0.0,0.00613327483168
1385566603297050071,-0.00695138545188,-0.0203459657465,0.0762359381248,1.0,0.0,0.00655064270556
1385566603397090626,-0.00610457631132,-0.0217064503199,0.0730062378709,1.0,0.0,0.00696324835373
1385566603497024349,-0.00575658486047,-0.0231627370882,0.0698613635006,1.0,0.0,0.00738783261027
1385566603597019920,-0.00558266467771,-0.0244505572828,0.066862306657,1.0,0.0,0.00776069202851
1385566603698027331,-0.00555717076586,-0.0257480647038,0.0639778139641,1.0,0.0,0.00811812594814
1385566603797045752,-0.00587473739592,-0.026942248457,0.0611619595137,1.0,0.0,0.00845069526417
1385566603898007718,-0.00645975898267,-0.0279290183958,0.0584793647244,1.0,0.0,0.00876956051503
1385566603997297161,-0.00727892534035,-0.0288435694717,0.0559407482395,1.0,0.0,0.00915674500945
1385566604098169396,-0.00809250868462,-0.0295517790575,0.0534599065189,1.0,0.0,0.00955667769092
1385566604198118944,-0.00928757800281,-0.0301780985348,0.0510350974491,1.0,0.0,0.00997831847839
1385566604298073988,-0.0104557115395,-0.0304928546585,0.0487282435069,1.0,0.0,0.0104268464842
1385566604396984496,-0.0117893804068,-0.030596292745,0.0466324255967,1.0,0.0,0.0108972006827
1385566604497032445,-0.013053841476,-0.0305799225812,0.0446742252818,1.0,0.0,0.0113728989189
1385566604598038024,-0.0146050153717,-0.0304195932502,0.0427645423792,1.0,0.0,0.0118238512132
1385566604697180957,-0.0159686013783,-0.0298494193363,0.0409963696446,1.0,0.0,0.012247461544
1385566604797254874,-0.0174747743343,-0.0291954451917,0.03930844996,1.0,0.0,0.0126407539721
1385566604897024675,-0.0188276044391,-0.0281708318278,0.037720554139,1.0,0.0,0.0130135655179
1385566604997081482,-0.0204314576858,-0.0270636302247,0.0362171702261,1.0,0.0,0.0133030794946
1385566605097128312,-0.021913379748,-0.0259462042011,0.0346950652968,1.0,0.0,0.0136010932198
1385566605197970492,-0.0233729243897,-0.0246568203006,0.0333669182549,1.0,0.0,0.0138823200729
1385566605297982499,-0.0247202498728,-0.0232868189561,0.0321616503987,1.0,0.0,0.0141950819997
1385566605398025549,-0.0261782573018,-0.021930086338,0.030960418631,1.0,0.0,0.0144463624414
1385566605497981067,-0.027611206224,-0.0205750931754,0.0297392411573,1.0,0.0,0.0147127798918
1385566605597216005,-0.0289792847943,-0.0190177028776,0.0287147972639,1.0,0.0,0.0149300820935
1385566605697099715,-0.030358089186,-0.0176467852467,0.0277210646528,1.0,0.0,0.0152084795334
1385566605798105566,-0.0317194970414,-0.0161769857383,0.0267291912258,1.0,0.0,0.0153734088129
1385566605897301173,-0.0329408955885,-0.0147671637109,0.0258592109768,1.0,0.0,0.0155901187849
1385566605998033541,-0.0340597544903,-0.0133387057536,0.0249814684003,1.0,0.0,0.0158185157628
1385566606098229697,-0.0351244096971,-0.0119275571354,0.0241739354357,1.0,0.0,0.0160059793325
1385566606198102157,-0.0358364533051,-0.0106337702423,0.0234988896118,1.0,0.0,0.0162847874401
1385566606297972160,-0.0365301030045,-0.0091528509296,0.0228972466194,1.0,0.0,0.0165001217054
1385566606396996918,-0.0369739434718,-0.00769287642876,0.0224129406296,1.0,0.0,0.0167057384812
1385566606497015847,-0.0373160165062,-0.00607554872532,0.0218399296943,1.0,0.0,0.016873433208
1385566606597617549,-0.0374090592425,-0.00455153033833,0.021453259387,1.0,0.0,0.0170993046457
1385566606697081742,-0.037517307367,-0.00300706141352,0.0210634276465,1.0,0.0,0.0172864008683
1385566606797018284,-0.0373884834423,-0.00145794288742,0.0208488438301,1.0,0.0,0.0173815870298
1385566606898156215,-0.0371635090679,-6.76527827391e-05,0.0207267972806,1.0,0.0,0.017486166714
1385566606998069515,-0.0366323690491,0.00141182984184,0.0206330056355,1.0,0.0,0.0175214422386
1385566607097952045,-0.0359994547838,0.00248379433456,0.0204186823659,1.0,0.0,0.017727692813
1385566607197042938,-0.0350291314608,0.00365297640387,0.0202753072166,1.0,0.0,0.0178393618487
1385566607297119044,-0.0340262626887,0.00457231177341,0.020017475549,1.0,0.0,0.0179845485686
1385566607397455514,-0.0327768377881,0.00538705305578,0.0198889318797,1.0,0.0,0.0180725311634
1385566607497180444,-0.0314479829143,0.00592145857193,0.019664432436,1.0,0.0,0.0181734087251
1385566607597976132,-0.0300411008373,0.00639053884198,0.0195194925905,1.0,0.0,0.0182397770937
1385566607698054888,-0.0285188789455,0.00667357742543,0.0194187088726,1.0,0.0,0.0182425097039
1385566607797984880,-0.026996808893,0.00650828177748,0.019235125536,1.0,0.0,0.0183161300945
1385566607897965280,-0.0254585356546,0.00624171455306,0.0189653816665,1.0,0.0,0.0184358401119
1385566607996987837,-0.0238948696516,0.00591025584318,0.018731317723,1.0,0.0,0.0184888549116
1385566608097132175,-0.0224066695191,0.00533663413276,0.0185012482631,1.0,0.0,0.0185485350412
1385566608197048957,-0.0209141391814,0.0047608027585,0.0182142829736,1.0,0.0,0.0186145650945
1385566608297937012,-0.0196421527875,0.00388498592155,0.0178988908237,1.0,0.0,0.0187234649799
1385566608396988551,-0.0184120611077,0.00323755936475,0.0175639598357,1.0,0.0,0.0187313957463
1385566608498290170,-0.0172930261334,0.00233293415866,0.0172758507736,1.0,0.0,0.0188069770742
1385566608597105645,-0.016248448355,0.0016650467869,0.0170432214438,1.0,0.0,0.0187903208188
1385566608697029928,-0.0155017348429,0.000743236120372,0.0168509997216,1.0,0.0,0.0188368967926
1385566608796973529,-0.01474326212,-4.09617902479e-05,0.0167692312204,1.0,0.0,0.0189024211035
1385566608898024614,-0.0143551279702,-0.000751061323277,0.0164259922211,1.0,0.0,0.018966626305
1385566608997139001,-0.0139544516406,-0.00111746447935,0.0163170585954,1.0,0.0,0.0189798951917
1385566609097996631,-0.0137821773274,-0.00149985655119,0.0160450754832,1.0,0.0,0.0190544923215
1385566609198019325,-0.0137421098807,-0.00166691276996,0.0158634368021,1.0,0.0,0.019119287222
1385566609297230939,-0.0139098500806,-0.00173935739817,0.0154894999788,1.0,0.0,0.0192278635982
1385566609397157301,-0.0141544792901,-0.0015903190692,0.0150946149626,1.0,0.0,0.0193233806005
1385566609498238856,-0.0144525216542,-0.00121913614726,0.0147897636257,1.0,0.0,0.0194495794515
1385566609597988908,-0.0149415906963,-0.000891988028127,0.0143325797582,1.0,0.0,0.0196149668884
1385566609697956732,-0.0154590532932,-0.000282305917925,0.0138689321932,1.0,0.0,0.0198728577023
1385566609797068138,-0.0160268626101,0.00054043320256,0.0134273541319,1.0,0.0,0.020097275964
1385566609897039773,-0.0165440238841,0.00149051949099,0.0129229920593,1.0,0.0,0.020327864555
1385566609996974962,-0.0171041487648,0.00254917394037,0.0123313494257,1.0,0.0,0.020622389773
1385566610097031531,-0.0176357800639,0.00372392831101,0.0117825997002,1.0,0.0,0.0209670514166
1385566610197197559,-0.0180992023181,0.00516717801045,0.011199727627,1.0,0.0,0.0212976770629
1385566610297048157,-0.0186626334788,0.00670255403503,0.0106250336039,1.0,0.0,0.0216716104839
1385566610396992301,-0.0191535997718,0.00843464557483,0.0101274308074,1.0,0.0,0.0219993331258
1385566610497936704,-0.0196685472724,0.0100864862203,0.00960539004521,1.0,0.0,0.022439430954
1385566610597152688,-0.0201450387852,0.011863490414,0.00904016147916,1.0,0.0,0.0228122912958
1385566610697169653,-0.0205846307976,0.0135170078216,0.00849935855968,1.0,0.0,0.0232696277355
1385566610798052127,-0.021004511098,0.0150520812016,0.00798412265915,1.0,0.0,0.0237090976053
1385566610898111071,-0.0212254994506,0.0164166098412,0.00748994414991,1.0,0.0,0.024180408922
1385566610997084511,-0.0212714410818,0.0175213295012,0.00716958154469,1.0,0.0,0.0247174863959
1385566611097111547,-0.0209790046485,0.0185212483761,0.00688210588075,1.0,0.0,0.0252108383086
1385566611198009906,-0.0204802492424,0.0191318706383,0.00656954305462,1.0,0.0,0.0257186216209
1385566611297286799,-0.0197179064625,0.0194405346587,0.00616340483989,1.0,0.0,0.0262780489581
1385566611397016885,-0.0186793811109,0.0196520034994,0.00583809405217,1.0,0.0,0.0268166412912
1385566611497958356,-0.0175944529098,0.0196235677864,0.00545345681445,1.0,0.0,0.0273614784672
1385566611597114228,-0.0163353110066,0.019377795473,0.0051343774507,1.0,0.0,0.0279307567343
1385566611697121299,-0.0149115450333,0.019307297012,0.00473238639178,1.0,0.0,0.0283404716819
1385566611797222642,-0.0136357941884,0.0188229558656,0.00432032858161,1.0,0.0,0.0288051640723
1385566611898030678,-0.0122430564523,0.0183098404013,0.00395674056977,1.0,0.0,0.0292612581752
1385566611997095252,-0.0108857223043,0.0175761774394,0.00352546803741,1.0,0.0,0.0297243664095
1385566612098060248,-0.00960147243685,0.0168408678332,0.00321208871778,1.0,0.0,0.0301056747597
1385566612197301299,-0.00827080395378,0.015856492134,0.0029656989302,1.0,0.0,0.0304952361383
1385566612297009894,-0.00729824612374,0.0145586406904,0.00262251831992,1.0,0.0,0.0309732582855
1385566612398003583,-0.00629436532687,0.0132534812746,0.00248129610459,1.0,0.0,0.0314246213618
1385566612498038926,-0.00561334479966,0.0116475786648,0.00232963299683,1.0,0.0,0.0318952132421
1385566612598061727,-0.00501388601043,0.00991476447471,0.0023258858167,1.0,0.0,0.0323445822834
1385566612697942192,-0.00461891811645,0.00800483455818,0.00239310525409,1.0,0.0,0.0328533652746
1385566612797997569,-0.00442818774522,0.00591123275317,0.00249689221987,1.0,0.0,0.033388415281
1385566612896983251,-0.00433856921566,0.00389127058211,0.0026144822358,1.0,0.0,0.0338681686592
1385566612998039627,-0.00450872097335,0.00170758952763,0.00274116264711,1.0,0.0,0.0343542044056
1385566613096980602,-0.00484708356077,-0.00028958041484,0.00283317555461,1.0,0.0,0.0348730031575
1385566613198036631,-0.00543845362775,-0.00209084944578,0.00295567201069,1.0,0.0,0.0353386603141
1385566613298103575,-0.00619477653123,-0.00367737089503,0.00296882034301,1.0,0.0,0.0358211265254
1385566613397248253,-0.00711039584588,-0.00505667423107,0.00296719023124,1.0,0.0,0.0363004248987
1385566613497086546,-0.00799367448702,-0.00593369208609,0.00300385153766,1.0,0.0,0.0366959144158
1385566613597393920,-0.00901026800188,-0.00662804457381,0.00301540179096,1.0,0.0,0.0371219438512
1385566613697164102,-0.00983252932512,-0.00695555991661,0.0031045673619,1.0,0.0,0.0374879524447
1385566613798104733,-0.0105955902439,-0.0070186142805,0.00314825678252,1.0,0.0,0.0378554343851
1385566613897077416,-0.0111503771239,-0.00671595338418,0.00329526358802,1.0,0.0,0.0382582421326
1385566613996985032,-0.011557565149,-0.00609316328897,0.00345965665103,1.0,0.0,0.0386151519013
1385566614098026129,-0.0117925427202,-0.00508296914115,0.00360347935723,1.0,0.0,0.038909035288
1385566614197090436,-0.0117444322878,-0.0038062351948,0.00390241182873,1.0,0.0,0.039225490015
1385566614297066434,-0.0116210119486,-0.00251324477968,0.00418923537823,1.0,0.0,0.0396041557882
1385566614397043010,-0.0113131375806,-0.000870318066787,0.00443735511261,1.0,0.0,0.0399098811662
1385566614497227972,-0.0108977352164,0.000811750584226,0.00469817950873,1.0,0.0,0.040196225815
1385566614596980097,-0.0103155746353,0.00238536930257,0.00494691403839,1.0,0.0,0.0404703452452
1385566614698087903,-0.0095981177234,0.00400491485849,0.00517246999484,1.0,0.0,0.0407030271141
1385566614797262148,-0.00870040891441,0.00539335646208,0.00531179379248,1.0,0.0,0.0409444038957
1385566614897990050,-0.00770816495856,0.00647085066672,0.00542663325779,1.0,0.0,0.041179965413
1385566614997979326,-0.00655538509996,0.00744115050863,0.00549296454511,1.0,0.0,0.0414222050446
1385566615098011788,-0.00534621655892,0.00814603786794,0.00546572824155,1.0,0.0,0.0416807775916
1385566615198025818,-0.00402858690324,0.00865481246851,0.00535256647278,1.0,0.0,0.0419530585831
1385566615298033343,-0.00267333091325,0.00895733321487,0.00521237766192,1.0,0.0,0.0421765667816
1385566615398201237,-0.00128081258258,0.00905183749921,0.00500957634028,1.0,0.0,0.0423450424185
1385566615496967797,9.28528736846e-05,0.00879468625727,0.00473985085927,1.0,0.0,0.0424750931038
1385566615597304854,0.00140336411732,0.00822127764865,0.00443591238494,1.0,0.0,0.042670875722
1385566615697330367,0.00255206646395,0.00723167271949,0.0040508896119,1.0,0.0,0.0427928634394
1385566615797940851,0.00364738400235,0.00602458753851,0.0037240927748,1.0,0.0,0.042910531818
1385566615897190145,0.00458104112093,0.00436467756083,0.00331455761195,1.0,0.0,0.0430470718714
1385566615998022359,0.00542156846596,0.00251308361,0.00294495304109,1.0,0.0,0.0430855009144
1385566616097125183,0.00604556802612,0.000352082154365,0.00250829505425,1.0,0.0,0.0431145236564
1385566616197312033,0.00649711195931,-0.0019790531177,0.00213733573772,1.0,0.0,0.0430658323573
1385566616296952186,0.00667853011071,-0.00445791886493,0.00180339473641,1.0,0.0,0.0429656685432
1385566616396963099,0.00673064107037,-0.00699759539848,0.00162914833365,1.0,0.0,0.0427664648148
1385566616497413007,0.00641804742553,-0.00940864178954,0.00144980073981,1.0,0.0,0.0425402396274
1385566616598016526,0.00581759922345,-0.0119140769063,0.00124771059728,1.0,0.0,0.0422634791485
1385566616697250517,0.00498743569628,-0.0140767866429,0.00119282927691,1.0,0.0,0.0418876576403
1385566616796972446,0.00383588986561,-0.0161662319641,0.0012104103561,1.0,0.0,0.0414718558232
1385566616897322933,0.00254643487935,-0.0178839830631,0.00125121821488,1.0,0.0,0.0410192537408
1385566616997005485,0.00100394137379,-0.0195615548406,0.00126654035391,1.0,0.0,0.040597226435
1385566617096993579,-0.000631604618911,-0.0208508734606,0.00130709571224,1.0,0.0,0.0401493571911
1385566617197051809,-0.00240373533748,-0.0217516197711,0.00131174642942,1.0,0.0,0.0396916517672
1385566617297263549,-0.00435328626668,-0.0222899892036,0.00123984469758,1.0,0.0,0.0392029425389
1385566617397059962,-0.00637597892737,-0.0224185220495,0.00112035660486,1.0,0.0,0.0387103810827
1385566617498214046,-0.00857223990698,-0.0220712415045,0.000929827858364,1.0,0.0,0.0382164173736
1385566617598054893,-0.010704110753,-0.0212316774062,0.000716451757849,1.0,0.0,0.037726638653
1385566617698040016,-0.0127615269706,-0.0200436570678,0.000398857146904,1.0,0.0,0.0372941823442
1385566617797402136,-0.0147420424669,-0.0182904882777,2.91255225593e-05,1.0,0.0,0.03675653794
1385566617897046145,-0.016421946942,-0.0161996850172,-0.000296112954453,1.0,0.0,0.0363660468749
1385566617997409950,-0.0178760581498,-0.0136812225149,-0.000639939724206,1.0,0.0,0.0359284210742
1385566618098203917,-0.0189864076553,-0.0109552253732,-0.000857599507129,1.0,0.0,0.0355747649927
1385566618197949617,-0.0197181610283,-0.0079730994846,-0.00101254411561,1.0,0.0,0.0352386008039
1385566618297990812,-0.0201655576996,-0.00485756735545,-0.00120565580126,1.0,0.0,0.0349008704137
1385566618398028902,-0.0202931519285,-0.00166078938282,-0.00125283484306,1.0,0.0,0.0345917840738
1385566618497012443,-0.0201330347463,0.00132662773064,-0.00130834446676,1.0,0.0,0.0343290969327
1385566618597400738,-0.0197617581568,0.0042005001252,-0.0014066517739,1.0,0.0,0.0340796431533
1385566618698052660,-0.0191280888498,0.0069517318468,-0.00135508747289,1.0,0.0,0.0338883729191
1385566618798021935,-0.0183293601949,0.00944566337824,-0.00136201192709,1.0,0.0,0.0337328835597
1385566618897113442,-0.0173433578943,0.0118422531907,-0.0012829579791,1.0,0.0,0.0335870180752
1385566618997043163,-0.0162165794209,0.0138146010119,-0.00121205004456,1.0,0.0,0.0334861831384
1385566619096996171,-0.0148989741497,0.0155839058437,-0.00101271174701,1.0,0.0,0.0333721647928
1385566619197063135,-0.0134585431141,0.0168448132613,-0.000826335671552,1.0,0.0,0.0332891191153
1385566619297203176,-0.0118612991159,0.0176320674788,-0.000673598793892,1.0,0.0,0.0332695015292
1385566619397940413,-0.0101211207731,0.0180005991578,-0.000545538221692,1.0,0.0,0.033241522917
1385566619498030905,-0.00831345724093,0.0179140036808,-0.000460368657112,1.0,0.0,0.0332613007379
1385566619597221985,-0.00653239743593,0.0172103618467,-0.000425875684653,1.0,0.0,0.0333389229393
1385566619697094717,-0.00475788397087,0.0162637673612,-0.000452752633932,1.0,0.0,0.0333729264159
1385566619798093102,-0.00307482883032,0.0147827576549,-0.000474990271906,1.0,0.0,0.0335018355919
1385566619897020630,-0.00145942313357,0.0130389757889,-0.000480131815915,1.0,0.0,0.033581285108
1385566619997011575,-0.00011123568105,0.0110799753743,-0.00048570163278,1.0,0.0,0.0337191666573
1385566620098218691,0.000999699000512,0.00894829998779,-0.000567205595487,1.0,0.0,0.0337732674283
1385566620198209851,0.00190353734028,0.00673202721632,-0.000509696954782,1.0,0.0,0.0339124482836
1385566620297960698,0.00242477146106,0.00437662071687,-0.000402731058192,1.0,0.0,0.0340175580024
1385566620397165599,0.00272009749945,0.00208502059102,-0.000213630573098,1.0,0.0,0.0341127963442
1385566620497229642,0.00273003357254,-0.000161199695679,-2.7234573842e-05,1.0,0.0,0.0341647999842
1385566620597083431,0.00255991275955,-0.00237903859623,0.000103064833384,1.0,0.0,0.0342189214241
1385566620698036849,0.00226159110629,-0.00435448220504,0.000282794251064,1.0,0.0,0.0342798241535
1385566620797013746,0.00174812647413,-0.00623788155327,0.0003499799822,1.0,0.0,0.0343335906277
1385566620897116584,0.00119566271309,-0.00796789999025,0.00046929968755,1.0,0.0,0.0344618693501
1385566620997128775,0.000464934166712,-0.00952139736611,0.000583271180204,1.0,0.0,0.0345180070451
1385566621097009169,-0.000328771232658,-0.0107363077376,0.00078224277784,1.0,0.0,0.0346515772254
1385566621197285107,-0.00136124788313,-0.0118070709847,0.000870870902314,1.0,0.0,0.034698104854
1385566621296980339,-0.00244493360438,-0.0125376776722,0.000974205594687,1.0,0.0,0.034714612674
1385566621397949831,-0.00356167907132,-0.0129818468226,0.00111014676028,1.0,0.0,0.0347546102832
1385566621497996284,-0.00473413250531,-0.0131460731566,0.00124038177626,1.0,0.0,0.0347836941163
1385566621598020570,-0.0058081423928,-0.0129967647056,0.00131510173944,1.0,0.0,0.0347687195397
1385566621697067747,-0.0067568333844,-0.0125869100892,0.00131657777274,1.0,0.0,0.0348394567041
1385566621797960005,-0.00753131724875,-0.0117503127666,0.0012459214041,1.0,0.0,0.0349352439997
1385566621897329958,-0.00813139325253,-0.010661582459,0.00112446900363,1.0,0.0,0.0350177253342
1385566621997998727,-0.00861893104323,-0.00924959459334,0.00100530086467,1.0,0.0,0.0351323982307
1385566622097003629,-0.00893680091499,-0.00751555834554,0.000922244863644,1.0,0.0,0.03525233437
1385566622198043652,-0.00916026169635,-0.00547241836117,0.000783668389534,1.0,0.0,0.0353256145248
1385566622298002791,-0.00924240110538,-0.00320293625146,0.000585844019578,1.0,0.0,0.035377228582
1385566622398105880,-0.00919349802625,-0.000755991040392,0.000420565539063,1.0,0.0,0.0354958212527
1385566622497068138,-0.00897727922752,0.00153605514509,0.000259193961478,1.0,0.0,0.0356198117822
1385566622597041872,-0.00849401652741,0.00370425105148,8.53056325551e-05,1.0,0.0,0.0356884321321
1385566622697991692,-0.00779526650831,0.00565032574914,-6.67992429472e-05,1.0,0.0,0.0357873672373
1385566622798059020,-0.00678747689347,0.00735817147353,-0.000193523829821,1.0,0.0,0.0359052657005
1385566622897446027,-0.00562503820314,0.00871605011951,-0.000340572664449,1.0,0.0,0.0359965735044
1385566622997250987,-0.00426835458384,0.00995600588321,-0.000434185098958,1.0,0.0,0.0360951816215
1385566623097032027,-0.00292764939773,0.0109811955336,-0.000579846457112,1.0,0.0,0.0361355137767
1385566623197127558,-0.00156561910037,0.0118268733655,-0.000690246333782,1.0,0.0,0.036149917974
1385566623297368929,-0.000401426708801,0.0123646962367,-0.000820279561426,1.0,0.0,0.036237359098
1385566623398194157,0.000570414844669,0.0127526872522,-0.000966650179709,1.0,0.0,0.036282940772
1385566623497308921,0.0013187623362,0.012745611418,-0.00115600203837,1.0,0.0,0.0363905324982
1385566623597599427,0.0018792990818,0.0124629722322,-0.00133097016068,1.0,0.0,0.0365013987562
1385566623696970872,0.00217986701825,0.0118718894881,-0.001539458424,1.0,0.0,0.036636780414
1385566623798119616,0.00231505924305,0.0110650410564,-0.00171381507495,1.0,0.0,0.0368231447553
1385566623897988198,0.00225608622866,0.00997435986778,-0.00192362846339,1.0,0.0,0.0369697154048
1385566623998232233,0.00199670508666,0.00866835414473,-0.00212053045175,1.0,0.0,0.0371596571809
1385566624098256748,0.00159695010155,0.00729825980694,-0.00232069585241,1.0,0.0,0.0373137990331
1385566624198030321,0.00123368514996,0.00567225815432,-0.00239602956409,1.0,0.0,0.0375131622181
1385566624296997754,0.000773360199876,0.00402996238351,-0.00250105040057,1.0,0.0,0.0376714163988
1385566624396955123,0.000379793208977,0.00233004487197,-0.00257178091031,1.0,0.0,0.0378361529108
1385566624497074755,0.000114539838361,0.000628455157804,-0.00270028740447,1.0,0.0,0.0379890569738
1385566624597000828,-7.43379234656e-05,-0.00101265958765,-0.00286986607651,1.0,0.0,0.0381494816629
1385566624697031555,-0.000218549503751,-0.00252758234444,-0.00294018641996,1.0,0.0,0.0383195567167
1385566624797063506,-0.00042819387665,-0.00380553493424,-0.00296910567073,1.0,0.0,0.0384492497195
1385566624897097940,-0.00063957990465,-0.00490816196977,-0.00296678346436,1.0,0.0,0.0385762091238
1385566624997983361,-0.00100840148931,-0.00588426288037,-0.00293515640537,1.0,0.0,0.0387566450413
1385566625098036360,-0.00144634611202,-0.0065914322529,-0.00286696937049,1.0,0.0,0.0389231643739
1385566625196982797,-0.00192189525851,-0.0072294976321,-0.00279811213688,1.0,0.0,0.039106315537
1385566625297665006,-0.00229815658911,-0.00767461288892,-0.00274838416013,1.0,0.0,0.0392506543762
1385566625397974358,-0.0025953812192,-0.0080890248974,-0.00275186606226,1.0,0.0,0.0393763493642
1385566625497037067,-0.00276911055124,-0.00826042873031,-0.00272019729519,1.0,0.0,0.0395101174749
1385566625597243410,-0.00277118385614,-0.00842624711362,-0.00268823828807,1.0,0.0,0.0396327755687
1385566625696999387,-0.00268139875018,-0.00834545526251,-0.00262782689622,1.0,0.0,0.0397237491251
1385566625797928402,-0.00247346401628,-0.00817600190095,-0.0025543123648,1.0,0.0,0.039849002452
1385566625896966362,-0.00220762666143,-0.00788502347008,-0.00253764591112,1.0,0.0,0.0399960640632
1385566625997297615,-0.00184373184353,-0.0074503937979,-0.00254075118422,1.0,0.0,0.0402171577787
1385566626097007993,-0.00154711250099,-0.00704113384347,-0.00249098118458,1.0,0.0,0.0404490387533
1385566626197270104,-0.00126571538286,-0.00645026054114,-0.00245783410237,1.0,0.0,0.0407148520453
1385566626297097485,-0.0010481336445,-0.00588865439601,-0.00240062003838,1.0,0.0,0.041001590646
1385566626398099074,-0.000874977480866,-0.00530997739726,-0.0023304185535,1.0,0.0,0.0413332165001
1385566626497046675,-0.000647043438117,-0.00461963455365,-0.00223701307531,1.0,0.0,0.0416093007131
1385566626597045328,-0.000419015286885,-0.00412040120098,-0.00209299042848,1.0,0.0,0.0419469972001
1385566626698025893,2.33489199486e-05,-0.00355812796512,-0.00187598648355,1.0,0.0,0.0422482251513
1385566626796996865,0.00046880406549,-0.00321249715641,-0.00163332057327,1.0,0.0,0.0426028128082
1385566626897408937,0.00112078199918,-0.00285954091225,-0.00135624471323,1.0,0.0,0.0429376267461
1385566626997061233,0.00180784690058,-0.00256338652,-0.0010104286576,1.0,0.0,0.0433282333388
1385566627097053061,0.00249429143899,-0.00229680214492,-0.000685214029186,1.0,0.0,0.043689895061
1385566627197084612,0.00317522568399,-0.00223249929487,-0.000350148098662,1.0,0.0,0.0441240339318
1385566627297037546,0.00368729660789,-0.00221314008038,-4.47550988707e-05,1.0,0.0,0.0445683903293
1385566627397051971,0.00419643532946,-0.00234712179695,0.000328203436794,1.0,0.0,0.0450370022338
1385566627497029171,0.00452271370666,-0.00271600147828,0.000686001542444,1.0,0.0,0.0454659611474
1385566627597053302,0.00479288629656,-0.00321272696256,0.00110028518641,1.0,0.0,0.0460015909542
1385566627697040713,0.0049486900139,-0.00383044163259,0.00149497794847,1.0,0.0,0.0464395306937
1385566627798206363,0.00490407551344,-0.00442604476452,0.00191797341074,1.0,0.0,0.0469660810545
1385566627897059539,0.00468206941864,-0.00512397022737,0.0022570587304,1.0,0.0,0.0473428670901
1385566627997420234,0.00440045740969,-0.00591567937765,0.00265183677032,1.0,0.0,0.0477917861877
1385566628098324621,0.0039420833085,-0.00662430910903,0.00299725697927,1.0,0.0,0.0482224315055
1385566628197214739,0.00347331128249,-0.0073506782862,0.00337721920163,1.0,0.0,0.0486904568691
1385566628297024833,0.00285787249711,-0.00809315359575,0.00373304384153,1.0,0.0,0.0490943521787
1385566628397293445,0.00215948319349,-0.00862661158967,0.00406570043685,1.0,0.0,0.0494217329492
1385566628497377907,0.0014934908411,-0.00914297861368,0.00433628626021,1.0,0.0,0.0497422761085
1385566628597286570,0.000710303140927,-0.00950587934562,0.00456588416966,1.0,0.0,0.050001246908
1385566628697086154,-0.000110520252166,-0.00977414032844,0.00474205051326,1.0,0.0,0.0501140876188
1385566628797045351,-0.000784631643792,-0.00979293805786,0.00497524887434,1.0,0.0,0.050271792935
1385566628898097735,-0.00150731313728,-0.00975024961154,0.00514252040207,1.0,0.0,0.0503661647296
1385566628997214595,-0.00217216256935,-0.00949555337059,0.00532341205119,1.0,0.0,0.0504289300451
1385566629097093907,-0.00285226177631,-0.00907649269724,0.00539565368996,1.0,0.0,0.0503568876625
1385566629198101416,-0.00344429198951,-0.00859310282554,0.00543028383219,1.0,0.0,0.0502440025944
1385566629297041235,-0.00398999602584,-0.00795092273462,0.00544769169557,1.0,0.0,0.0500860940674
1385566629397086339,-0.0044904649519,-0.00716912873341,0.00543920546951,1.0,0.0,0.0498368145812
1385566629498271172,-0.00496536669516,-0.00622564677114,0.00538814620275,1.0,0.0,0.0495342787819
1385566629598036137,-0.00548473163038,-0.00514138919251,0.00527850336921,1.0,0.0,0.0491768492634
1385566629697149590,-0.0060386116101,-0.0038700969792,0.00510215253495,1.0,0.0,0.0487143317735
1385566629797165027,-0.0066150243092,-0.0026273148211,0.0048825064988,1.0,0.0,0.0482630270914
1385566629897164486,-0.00712773208522,-0.00112563407363,0.00472743642438,1.0,0.0,0.047824943824
1385566629998122532,-0.00752404365385,0.000267262375016,0.0045565341126,1.0,0.0,0.0473346956297
1385566630097046219,-0.00783280043007,0.00156097622126,0.0043422101339,1.0,0.0,0.0468303368802
1385566630197028813,-0.00798321259555,0.00287699433568,0.00424894260424,1.0,0.0,0.0463131500146
1385566630298112736,-0.00805779593404,0.00391114662458,0.00411198212273,1.0,0.0,0.0457627720417
1385566630398119862,-0.00797663713336,0.00469221562499,0.0040348036171,1.0,0.0,0.0452875636135
1385566630497033313,-0.00778354827195,0.00540757198549,0.00393380679037,1.0,0.0,0.0448547964308
1385566630597077177,-0.00758653214718,0.00585600594962,0.00379183094153,1.0,0.0,0.0443925268836
1385566630697127743,-0.00725560318272,0.00613135778569,0.00366215725469,1.0,0.0,0.0439367386673
1385566630799224053,-0.00697154383538,0.00621384971942,0.00349659531593,1.0,0.0,0.043513284972
1385566630897367879,-0.00650649267408,0.00619539430363,0.00342201363897,1.0,0.0,0.0430749216802
1385566630997472241,-0.00592384014891,0.00606911368636,0.0033504036131,1.0,0.0,0.0426377784229
1385566631098050327,-0.00525959436049,0.0057225474947,0.00327448936175,1.0,0.0,0.0422878332053
1385566631198163814,-0.00454338194467,0.00544928802906,0.00322018267776,1.0,0.0,0.041898431869
1385566631298099515,-0.00375198339807,0.00494083419069,0.00311843399706,1.0,0.0,0.0415734538049
1385566631397041082,-0.00299112738041,0.00441493349709,0.00300850864312,1.0,0.0,0.0413250945494
1385566631497414080,-0.00225575534761,0.00387763850456,0.00287404176126,1.0,0.0,0.0410632362407
1385566631598110184,-0.00165737883998,0.00321574796597,0.00270441476531,1.0,0.0,0.04081763202
1385566631699078448,-0.00111981519802,0.0024917494718,0.00256104814151,1.0,0.0,0.040538228448
1385566631798282858,-0.000728269161352,0.00175711928353,0.00243171743394,1.0,0.0,0.0403187369601
1385566631897115302,-0.000513413582424,0.000981885786963,0.00224760717962,1.0,0.0,0.0400801806592
1385566631997043636,-0.000346436982967,0.00029825099259,0.00215198234642,1.0,0.0,0.0398590466899
1385566632097087851,-0.000367686794577,-0.000302733966598,0.00207628839372,1.0,0.0,0.0396365746935
1385566632197197017,-0.000414341439854,-0.000743115937106,0.001991648515,1.0,0.0,0.0395173453651
1385566632297062401,-0.000516864222818,-0.00100359289313,0.00189937583527,1.0,0.0,0.0394136718301
1385566632397078711,-0.000646452885719,-0.00106766754615,0.00179589017252,1.0,0.0,0.0393432529234
1385566632497469014,-0.0008184408605,-0.000955257389782,0.0016824221149,1.0,0.0,0.0392654058236
1385566632597147855,-0.00104989495017,-0.000659256941899,0.00152421365554,1.0,0.0,0.0391932411002
1385566632698108295,-0.00133935944171,-0.000163698330402,0.00132058861019,1.0,0.0,0.0391571101007
1385566632797152484,-0.00173169293574,0.000285748883541,0.00115146467735,1.0,0.0,0.0391890457504
1385566632898080748,-0.00223625995409,0.000839452168086,0.000946603808111,1.0,0.0,0.0392162527113
1385566632998029042,-0.00277744220207,0.0012654912665,0.000699204690004,1.0,0.0,0.0393448933252
1385566633097223958,-0.00337241990594,0.00170680400146,0.000339514057193,1.0,0.0,0.0393755907499
1385566633197089179,-0.00386657793398,0.00202496992747,4.70378034745e-05,1.0,0.0,0.039477956238
1385566633297129927,-0.00427082254404,0.00226115008861,-0.000201559066049,1.0,0.0,0.0396690460701
1385566633397208128,-0.00459352316202,0.00254358265924,-0.000360742705348,1.0,0.0,0.0398189410992
1385566633497123437,-0.00469063697951,0.00268246934984,-0.000532421643121,1.0,0.0,0.0399988550803
1385566633598388295,-0.00475196891185,0.00276982676247,-0.000720660818529,1.0,0.0,0.0402235678953
1385566633697198186,-0.00466246806028,0.00275040314304,-0.000909158727917,1.0,0.0,0.0405078979658
1385566633797066516,-0.00456153900281,0.0027373903019,-0.00105202309419,1.0,0.0,0.0407659323062
1385566633897140381,-0.0043160551695,0.00268486712799,-0.0011135832301,1.0,0.0,0.0410559529862
1385566633998043182,-0.00420351355168,0.00255705979969,-0.00117926303066,1.0,0.0,0.0413325798332
1385566634098152048,-0.00410963969318,0.00250121809948,-0.00121794435261,1.0,0.0,0.0416378846251
1385566634198336103,-0.00406096041789,0.00240866509778,-0.00118568000994,1.0,0.0,0.041974820647
1385566634297225893,-0.00411718341911,0.00224698480107,-0.0012012940525,1.0,0.0,0.0423334702105
1385566634397100015,-0.00422677498196,0.00209863485608,-0.00122134126911,1.0,0.0,0.0427692955675
1385566634498122769,-0.00436287064712,0.0019852940757,-0.00125702603859,1.0,0.0,0.0432027802518
1385566634598173511,-0.00457461739311,0.00190011053871,-0.00128933715704,1.0,0.0,0.0435521954855
1385566634698128427,-0.00471119812156,0.00204440810235,-0.00129382628878,1.0,0.0,0.0439545361976
1385566634798119592,-0.00487857352367,0.00226076726988,-0.001305299476,1.0,0.0,0.0443109274098
1385566634898174767,-0.0050246954076,0.00272105849025,-0.00134918120118,1.0,0.0,0.0446225399468
1385566634997034312,-0.0050913404551,0.00335931069053,-0.00138432044065,1.0,0.0,0.0448314491173
1385566635097063217,-0.00512602078507,0.00417993943124,-0.00142567783885,1.0,0.0,0.0450281743821
1385566635197184987,-0.00506870191248,0.0050904059077,-0.00148715132586,1.0,0.0,0.0452284907301
1385566635298178349,-0.00506676922947,0.00604207120976,-0.00151199174244,1.0,0.0,0.0454449489056
1385566635397252108,-0.00510163545548,0.00702903420665,-0.00152014440091,1.0,0.0,0.045586198397
1385566635497148693,-0.00521153868346,0.00803927367461,-0.00151969826463,1.0,0.0,0.0457727109869
1385566635598015559,-0.00530080522039,0.00892059789516,-0.00157493506619,1.0,0.0,0.0458957294873
1385566635697121270,-0.00540813212777,0.00980846810968,-0.00165896961006,1.0,0.0,0.0459682483383
1385566635797269675,-0.00551391476252,0.0106390266831,-0.00174799372761,1.0,0.0,0.0458845056311
1385566635897258134,-0.00549773967104,0.0113869176539,-0.00181489028701,1.0,0.0,0.0458386703956
1385566635997307349,-0.00544099902379,0.0119852005998,-0.00182232436083,1.0,0.0,0.045737148782
1385566636098125564,-0.00530711431028,0.0125624098484,-0.00185644927093,1.0,0.0,0.0455477621242
1385566636197136380,-0.00520855557998,0.0129180556959,-0.00179084671553,1.0,0.0,0.0453802518725
1385566636297095011,-0.00509795692386,0.0132255177881,-0.00162622623319,1.0,0.0,0.0452271069453
1385566636397143968,-0.00496464595199,0.0134736552176,-0.00144397647786,1.0,0.0,0.0449826275337
1385566636497064315,-0.00485385489475,0.0135050646033,-0.00133281193906,1.0,0.0,0.0447799950175
1385566636597357560,-0.00468556759009,0.0135565226355,-0.00123432460244,1.0,0.0,0.0446041733777
1385566636697250535,-0.00446535026484,0.0135890934754,-0.00110855583018,1.0,0.0,0.0444450159035
1385566636798161384,-0.00414852638558,0.0134901500533,-0.000974135450745,1.0,0.0,0.0442519123828
1385566636898124731,-0.00364163300566,0.0134115669046,-0.000814255588114,1.0,0.0,0.0441337903418
1385566636997088206,-0.00311952154047,0.013068313908,-0.000751345818793,1.0,0.0,0.0439941267344
1385566637097149328,-0.00238865758875,0.0125698273964,-0.000708283907672,1.0,0.0,0.0439440236589
1385566637197575218,-0.00158262509847,0.0120839733882,-0.000666450264472,1.0,0.0,0.043807495537
1385566637298253458,-0.000780081697161,0.011416589098,-0.000766876799944,1.0,0.0,0.0437629192426
1385566637397344621,4.19243602416e-05,0.0108623171327,-0.000866008926038,1.0,0.0,0.0437257135646
1385566637497131291,0.000811536725946,0.010365194314,-0.000962739538933,1.0,0.0,0.0437100712053
1385566637597088657,0.00151823811303,0.00990238321473,-0.00116754657821,1.0,0.0,0.0436389870831
1385566637698115454,0.00204948517132,0.00948720498244,-0.00143306484979,1.0,0.0,0.0436622117906
1385566637797042934,0.00267387023159,0.00905958059491,-0.00166425078033,1.0,0.0,0.0436857612172
1385566637897360298,0.00312937356596,0.00853153116546,-0.00191540949809,1.0,0.0,0.0437310406182
1385566637998048002,0.00373189810593,0.0080207910062,-0.00218956507566,1.0,0.0,0.0436884985811
1385566638098108295,0.00434319057395,0.00743401352761,-0.0024332817446,1.0,0.0,0.0436884882965
1385566638197365842,0.00497002898191,0.00683459135967,-0.00262733481881,1.0,0.0,0.0437579219034
1385566638298029166,0.00565300884537,0.00624801348743,-0.00286176352182,1.0,0.0,0.0437695091122
1385566638397127498,0.00639165233781,0.00569166206432,-0.00309811878247,1.0,0.0,0.0437636686338
1385566638498122520,0.0071207604506,0.00518831770202,-0.00331241796322,1.0,0.0,0.0438450466813
1385566638597127841,0.00767646350012,0.00470054521057,-0.00346731556675,1.0,0.0,0.0440290993358
1385566638698171031,0.00815944577375,0.00434868257203,-0.00358467677681,1.0,0.0,0.0441445833501
1385566638797068031,0.00844040266956,0.00406215774563,-0.00373459661723,1.0,0.0,0.0443630930173
1385566638898287756,0.00858613477979,0.00376536889701,-0.00390093730281,1.0,0.0,0.0445321926623
1385566638997181344,0.00856760173613,0.00359406185669,-0.00412411342018,1.0,0.0,0.0446018211424
1385566639097102736,0.00825384016591,0.00349771095281,-0.00427815472677,1.0,0.0,0.0447155961506
1385566639197256591,0.00781491101376,0.00327340035541,-0.00440256849777,1.0,0.0,0.0448178636104
1385566639297182667,0.00714475458251,0.00306130721976,-0.00451867026478,1.0,0.0,0.0449223339477
1385566639397090549,0.00649667294925,0.00283972366946,-0.00454747775863,1.0,0.0,0.044993157947
1385566639497114207,0.00571838172991,0.00242997212535,-0.00445693741317,1.0,0.0,0.0450291263806
1385566639597098859,0.00493881012427,0.00179749679216,-0.00436013696518,1.0,0.0,0.0449862804546
1385566639698114358,0.00404656541093,0.00112882983924,-0.00419484784466,1.0,0.0,0.0449543809591
1385566639798049762,0.00318231705711,0.000217062987098,-0.00398315650521,1.0,0.0,0.0449150824957
1385566639898169045,0.00237592705776,-0.000811239388631,-0.00377161232839,1.0,0.0,0.0448823899786
1385566639998363497,0.00157461545363,-0.00186995863542,-0.00359360543639,1.0,0.0,0.0448631878786
1385566640098188428,0.000891123333979,-0.00279226319317,-0.00335974620088,1.0,0.0,0.0448633782918
1385566640197225490,0.000362038978453,-0.00384546104371,-0.00303630994047,1.0,0.0,0.0448014104701
1385566640297121819,-8.65132702366e-05,-0.00476667926215,-0.00263548643787,1.0,0.0,0.0447563443078
1385566640397672755,-0.000381673542709,-0.00566364842292,-0.0022051250314,1.0,0.0,0.0446963290825
1385566640497134766,-0.000522783966124,-0.00649328916659,-0.00182788353193,1.0,0.0,0.0446542148703
1385566640598091252,-0.000606575000755,-0.00725322602716,-0.00151726607921,1.0,0.0,0.0446156620197
1385566640697091847,-0.000506741860607,-0.00788918463356,-0.00121233965354,1.0,0.0,0.0444615231905
1385566640798264778,-0.00024518982626,-0.00837586194064,-0.000879586488853,1.0,0.0,0.0443486774707
1385566640898144857,9.85602796387e-05,-0.00871031092643,-0.000506952426204,1.0,0.0,0.044177858045
1385566640998254928,0.000524543922081,-0.00892833901487,-0.000237536525805,1.0,0.0,0.043937007426
1385566641097120066,0.00118439974675,-0.00912823756951,3.90947751086e-05,1.0,0.0,0.0436862437564
1385566641197080413,0.00188400745104,-0.00922147022574,0.000329092595408,1.0,0.0,0.0434559748309
1385566641298232242,0.00267710935153,-0.00918589219149,0.000564940326682,1.0,0.0,0.0431877838898
1385566641397101326,0.00344921475849,-0.00909213521692,0.000822605099261,1.0,0.0,0.0428461221013
1385566641498234275,0.00412025431203,-0.00903268381693,0.000999891401095,1.0,0.0,0.0425372620357
1385566641598074240,0.00466262143707,-0.00869237550387,0.00117441882668,1.0,0.0,0.0422307532678
1385566641697202942,0.00493654936884,-0.00838601541444,0.00136559185601,1.0,0.0,0.0418757980583
1385566641797136491,0.00490939991936,-0.0079647765828,0.00152632727433,1.0,0.0,0.0415404540588
1385566641897188360,0.00466478630651,-0.00753629385658,0.00167117207916,1.0,0.0,0.0411332019181
1385566641997121081,0.00413573266504,-0.00717108949513,0.00180905630069,1.0,0.0,0.0407218735378
1385566642097125388,0.00349377110084,-0.00667222265467,0.0019821221198,1.0,0.0,0.0403196419648
1385566642198329601,0.00267662814859,-0.00622382334655,0.00212742459022,1.0,0.0,0.0399337211003
1385566642297282530,0.00176901957711,-0.00564101802901,0.00218686410285,1.0,0.0,0.039525418401
1385566642397095986,0.000767097685957,-0.00501770274498,0.00213614265835,1.0,0.0,0.039122181461
1385566642498114850,-0.000273316669436,-0.00446358002692,0.00199672247829,1.0,0.0,0.0387315795714
1385566642597069574,-0.00125889992767,-0.0037814691382,0.00179705800098,1.0,0.0,0.0382898283307
1385566642697086827,-0.00223906940712,-0.00324520674653,0.00148766882032,1.0,0.0,0.03785662566
1385566642797085076,-0.00307344799481,-0.00260267846238,0.0011529093232,1.0,0.0,0.0374872169767
1385566642897040648,-0.00392362168865,-0.00207153509584,0.000809135610254,1.0,0.0,0.0371084132173
1385566642997228165,-0.00482733810867,-0.00155817128455,0.000499224682977,1.0,0.0,0.0367339548057
1385566643097385874,-0.00563035550184,-0.00110035079293,0.000248847217856,1.0,0.0,0.0364345818102
1385566643197469780,-0.00644978898716,-0.000679012077485,3.1375743248e-05,1.0,0.0,0.0361780837337
1385566643298159579,-0.00710508121372,-0.000319721670897,-0.000182703891053,1.0,0.0,0.0359525525644
1385566643397485560,-0.00775432377877,4.63768147895e-05,-0.000376237170222,1.0,0.0,0.0357838835642
1385566643497489173,-0.00814961454374,0.000227503997395,-0.000588535686219,1.0,0.0,0.0356241327623
1385566643597646697,-0.00828442735751,0.000387419558542,-0.000769785892583,1.0,0.0,0.0355782917278
1385566643697446664,-0.00828335699778,0.000416169136931,-0.000974170336152,1.0,0.0,0.0355343626494
1385566643797480154,-0.00811524033395,0.000346135927524,-0.00117075633855,1.0,0.0,0.0355453475834
1385566643897402875,-0.00771076721331,-6.05436188609e-05,-0.00130770133706,1.0,0.0,0.0357116116852
1385566643998436770,-0.00730938310974,-0.000445471550194,-0.00145089607412,1.0,0.0,0.0358418363892
1385566644098457908,-0.00691904676066,-0.0010975778854,-0.00153943282289,1.0,0.0,0.0360566444542
1385566644197440894,-0.00635479785055,-0.00166450817878,-0.00162807693192,1.0,0.0,0.0362722354434
1385566644297462987,-0.00576675867153,-0.00227367747463,-0.00169762356088,1.0,0.0,0.0365495791361
1385566644397434202,-0.00520136544782,-0.00285355087406,-0.00175213673059,1.0,0.0,0.0368999006665
1385566644497376586,-0.00456057086068,-0.00331114183162,-0.00184432947619,1.0,0.0,0.0372747546971
1385566644597671542,-0.00388670990349,-0.00375954274205,-0.00190909765157,1.0,0.0,0.0376646880391
1385566644697497295,-0.00319597979494,-0.00416171806937,-0.00201601009447,1.0,0.0,0.0380578934067
1385566644797455042,-0.00238470813275,-0.00458233391465,-0.00213780322233,1.0,0.0,0.038403992269
1385566644898460501,-0.0013642153685,-0.00494216813966,-0.00220647267745,1.0,0.0,0.0387711208686
1385566644997565835,-0.000454856193023,-0.00532511889264,-0.00234380782537,1.0,0.0,0.0391085822863
1385566645097705356,0.000571894920931,-0.00567711570255,-0.00231462537412,1.0,0.0,0.0394527335451
1385566645197400839,0.00154009376479,-0.00609226342627,-0.00230171716403,1.0,0.0,0.0398506130697
1385566645297505999,0.00235462850297,-0.00639395554315,-0.0022755113819,1.0,0.0,0.0401529592094
1385566645397453348,0.0030491044602,-0.00669772484439,-0.00224324266538,1.0,0.0,0.0404641097979
1385566645497405700,0.00348920834927,-0.00692975774353,-0.00220558684596,1.0,0.0,0.0407207081893
1385566645597621846,0.00366703928197,-0.00714426117682,-0.00220605424559,1.0,0.0,0.0408930890693
1385566645697772564,0.00372470419843,-0.00731299936121,-0.00212395482083,1.0,0.0,0.0411116017892
1385566645797387311,0.00359372255584,-0.00746411638978,-0.00203565613971,1.0,0.0,0.0411911833003
1385566645898648479,0.00333777294557,-0.00760905029983,-0.00192428460798,1.0,0.0,0.041367068091
1385566645997624142,0.00288716196368,-0.00758575576022,-0.00180373874248,1.0,0.0,0.0414511121312
1385566646097396594,0.00240542564666,-0.00752320926026,-0.00166711036333,1.0,0.0,0.0415217019485
1385566646197518171,0.00187296342513,-0.00739056697791,-0.0015677336359,1.0,0.0,0.0416307329869
1385566646297471620,0.0013322379799,-0.00712222491047,-0.00147537378067,1.0,0.0,0.0416541772942
1385566646397544285,0.000802495278831,-0.00687395551475,-0.00136674372555,1.0,0.0,0.0417697349868
1385566646498508913,0.000283186209727,-0.00664727856216,-0.00122609083899,1.0,0.0,0.0418788246287
1385566646598484019,-0.000237565714733,-0.00634039888619,-0.00108000923003,1.0,0.0,0.0419854768387
1385566646697483792,-0.000763405269189,-0.00599602880983,-0.000886689239502,1.0,0.0,0.0420401253364
1385566646797502859,-0.00127778771572,-0.00585611301906,-0.000714109151724,1.0,0.0,0.0421696104713
1385566646898370953,-0.00176146350815,-0.00563493639407,-0.000444672472558,1.0,0.0,0.0422326206318
1385566646997515009,-0.00213954168432,-0.00552836675381,-0.000203826480914,1.0,0.0,0.0422695447778
1385566647097434911,-0.00233299694396,-0.00550328880834,-1.31764845974e-05,1.0,0.0,0.0423869795891
1385566647197954724,-0.00244980174961,-0.0055377063186,0.000165184326715,1.0,0.0,0.042474652816
1385566647298050595,-0.00228838508646,-0.00559052189588,0.000377699083026,1.0,0.0,0.0426238164671
1385566647398077370,-0.00206135790693,-0.00572717640126,0.00060620227573,1.0,0.0,0.0427959269538
1385566647497976322,-0.00169637592022,-0.00589110099355,0.000836619518378,1.0,0.0,0.0428616231382
1385566647598243275,-0.00113637680063,-0.00609772701738,0.00106412448864,1.0,0.0,0.0429872329211
1385566647697143856,-0.00054430170022,-0.00638054484518,0.00120491519625,1.0,0.0,0.0430550451866
1385566647796944008,0.000136202656144,-0.00672775789303,0.00125820619487,1.0,0.0,0.0430822092513
1385566647897166851,0.000853438589857,-0.00711231883821,0.00138356789151,1.0,0.0,0.0431517999828
1385566647997945861,0.00159901537424,-0.00745327658426,0.0015407773591,1.0,0.0,0.0432230371637
1385566648097192469,0.00230711062319,-0.00778439297067,0.00172308768316,1.0,0.0,0.0432292319565
1385566648197550010,0.00301019596988,-0.00799122967436,0.00193829551482,1.0,0.0,0.0432982123532
1385566648297267066,0.00366650633165,-0.00822130563082,0.00208735762415,1.0,0.0,0.0433521767815
1385566648398018984,0.00425639984545,-0.00848294148796,0.0022923122001,1.0,0.0,0.0434201926065
1385566648498018118,0.00475868194017,-0.00876029717601,0.00245623571906,1.0,0.0,0.0434591009961
1385566648597992168,0.00522700324521,-0.00897586482841,0.00258609404497,1.0,0.0,0.0435684906967
1385566648698003523,0.00551526136131,-0.00925138496803,0.00267015337903,1.0,0.0,0.043605762506
1385566648797955152,0.00564873571024,-0.00951402451854,0.00270532905359,1.0,0.0,0.0436578626958
1385566648897023910,0.00558380959523,-0.00964712778282,0.00276598039356,1.0,0.0,0.0436478795866
1385566648997113207,0.00541157531431,-0.00989549955246,0.00277413589154,1.0,0.0,0.043695760659
1385566649097451384,0.00502581393809,-0.0100393443786,0.00273676122197,1.0,0.0,0.0437473339179
1385566649197036821,0.0045369301073,-0.0103101738802,0.0026696693001,1.0,0.0,0.0438214620045
1385566649296947770,0.00383849693391,-0.0104631346292,0.00253333247582,1.0,0.0,0.0438812960171
1385566649396941433,0.00306124129847,-0.0105577287366,0.00239053904603,1.0,0.0,0.04389010992
1385566649496987691,0.00216592759744,-0.0106705367306,0.00228857756883,1.0,0.0,0.0438734869689
1385566649597956978,0.00129541876223,-0.0106749953072,0.00213856245506,1.0,0.0,0.0438806857753
1385566649697021361,0.000474947314941,-0.0106663772175,0.001992715368,1.0,0.0,0.0439425325622
1385566649798011300,-0.000344793006977,-0.0105403602761,0.00174562401722,1.0,0.0,0.0439832438999
1385566649897048238,-0.000971528518302,-0.010360783136,0.00151523901651,1.0,0.0,0.0440475932047
1385566649996977563,-0.0016214259713,-0.0101322739397,0.00130961061591,1.0,0.0,0.0440786348682
1385566650097049832,-0.00215175763895,-0.00985848052,0.00114958321027,1.0,0.0,0.0441206257116
1385566650197930787,-0.00269595305035,-0.0095152815527,0.000979421559121,1.0,0.0,0.0441603236753
1385566650297034860,-0.00313027410754,-0.00917709759878,0.000852961767182,1.0,0.0,0.0441908327434
1385566650397299251,-0.00353169308357,-0.00868931874912,0.000780313061408,1.0,0.0,0.0442232055777
1385566650498077580,-0.00373284596604,-0.00819322044984,0.000740462352262,1.0,0.0,0.0442714396356
1385566650597961913,-0.00388009930267,-0.00753102572289,0.000662788364937,1.0,0.0,0.0442801984293
1385566650697191558,-0.00392037811246,-0.00684006432908,0.000528121087901,1.0,0.0,0.0442688805823
1385566650797028438,-0.00392416520749,-0.0061516285961,0.00030528398322,1.0,0.0,0.0442964156089
1385566650898063983,-0.00394503504914,-0.00556920233734,7.33808667942e-05,1.0,0.0,0.0442876442122
1385566650997216881,-0.00388781228034,-0.00509548751716,-0.000130910807331,1.0,0.0,0.0443327271822
1385566651098946539,-0.00382223536131,-0.00467607916004,-0.000332402109949,1.0,0.0,0.0442611830394
1385566651197937180,-0.00371864357953,-0.00450461683824,-0.000501884799162,1.0,0.0,0.0442781899664
1385566651297951232,-0.00365188977875,-0.00433227949482,-0.000704492823765,1.0,0.0,0.0441974471183
1385566651397036810,-0.00356106222301,-0.00434128869884,-0.000814502010736,1.0,0.0,0.0441701739088
1385566651498007329,-0.00346148633197,-0.00441326114412,-0.000920924877056,1.0,0.0,0.0440736708095
1385566651598106810,-0.00330871789258,-0.00451347969212,-0.000994449112637,1.0,0.0,0.0440838163625
1385566651697108464,-0.00309004869991,-0.00459714386241,-0.00103773535136,1.0,0.0,0.0441260452566
1385566651797230275,-0.00290178827158,-0.00473934934896,-0.00108247133583,1.0,0.0,0.044166036168
1385566651898030757,-0.00275637136733,-0.00485791611407,-0.00112962197333,1.0,0.0,0.0441769674529
1385566651997063771,-0.00257598373339,-0.00499924103778,-0.00116911019987,1.0,0.0,0.0442477577128
1385566652097259155,-0.00242512853076,-0.00517738077386,-0.00122067489081,1.0,0.0,0.0443629137462
1385566652197967661,-0.00232537312683,-0.00530639760882,-0.00127114162722,1.0,0.0,0.0444334499067
1385566652297953048,-0.00226534138919,-0.00556358744498,-0.0013609317966,1.0,0.0,0.0445516010579
1385566652397314577,-0.00222731319276,-0.0055692154494,-0.00143042724101,1.0,0.0,0.044616165004
1385566652496986015,-0.00214739809702,-0.00566466949732,-0.00153603842422,1.0,0.0,0.0446930234896
1385566652598956175,-0.00202360505374,-0.00569748718041,-0.00160954897538,1.0,0.0,0.0448113559028
1385566652697011253,-0.00187908846013,-0.00561978609826,-0.00157650304048,1.0,0.0,0.0449465785704
1385566652797033127,-0.00167055967496,-0.00546786276269,-0.00150095375569,1.0,0.0,0.0451073916389
1385566652897143424,-0.00138066165018,-0.00537693782644,-0.0013887814975,1.0,0.0,0.045302239476
1385566652996966561,-0.00104911402379,-0.00526809807827,-0.00127472311448,1.0,0.0,0.045523257846
1385566653097303201,-0.000553376859874,-0.00536655455594,-0.00104005159665,1.0,0.0,0.0458028529799
1385566653198085219,-6.69874084677e-05,-0.00561943368713,-0.000843902899351,1.0,0.0,0.0460960083384
1385566653297133638,0.000572937851028,-0.00585093846977,-0.000649261453717,1.0,0.0,0.0464040148492
1385566653397461130,0.00132284668648,-0.00637009394615,-0.000521363320783,1.0,0.0,0.0467061258236
1385566653498181976,0.00209707229585,-0.00688119706849,-0.000362286386155,1.0,0.0,0.047000336584
1385566653598295190,0.00306182127606,-0.00759216601147,-0.000134084035965,1.0,0.0,0.0473730955538
1385566653697207410,0.0039446637648,-0.00843649964153,2.12295209345e-05,1.0,0.0,0.0476856679326
1385566653798061338,0.00494990603762,-0.00925122294787,0.00032713766573,1.0,0.0,0.0480385764927
1385566653898051294,0.00582764426907,-0.0101702822079,0.00056682376833,1.0,0.0,0.0483428881162
1385566653997344094,0.00661360994972,-0.0110927750521,0.000788703033761,1.0,0.0,0.0486296227291
1385566654097063095,0.00722077594834,-0.0120636982078,0.0010209857986,1.0,0.0,0.0488706133403
1385566654197267399,0.00771183545329,-0.0129401519581,0.0013743461913,1.0,0.0,0.04913957293
1385566654298222733,0.00795446624496,-0.0139241793126,0.00177001233305,1.0,0.0,0.0493229245227
1385566654397035005,0.0079222698406,-0.0148850608053,0.0020939643874,1.0,0.0,0.0494805934325
1385566654497035200,0.00770053042539,-0.0157977518881,0.002390254345,1.0,0.0,0.0496492992186
1385566654597953367,0.00732771442078,-0.0167920336003,0.00274407810249,1.0,0.0,0.0498177938469
1385566654696978509,0.00666609388374,-0.0176286261429,0.00306682822366,1.0,0.0,0.0499632707116
1385566654797066988,0.00582213108244,-0.0185400652958,0.00337821718014,1.0,0.0,0.0500367394721
1385566654897045188,0.00476617329421,-0.0191919561111,0.0037087482083,1.0,0.0,0.0500724028548
1385566654998011282,0.00354761044742,-0.0196828729387,0.00388592228691,1.0,0.0,0.0500709602393
1385566655098211764,0.00225361328498,-0.0198171236072,0.0039710541893,1.0,0.0,0.0499971235385
1385566655197129470,0.000972200447119,-0.0197028366483,0.00396501902604,1.0,0.0,0.0499330661399
1385566655298183744,-0.000410245812078,-0.0191070631515,0.00387099689195,1.0,0.0,0.0497554606404
1385566655398018847,-0.00161406876752,-0.0181901430578,0.00365286187226,1.0,0.0,0.0495737299212
1385566655497078255,-0.00267934946735,-0.0169436358257,0.00339456630983,1.0,0.0,0.0493617868353
1385566655597051559,-0.00364390945253,-0.0153537009683,0.00311299309151,1.0,0.0,0.0490798053923
1385566655698035522,-0.00440541302573,-0.0135578819984,0.00275614378301,1.0,0.0,0.0487720744109
1385566655796961894,-0.00480292768532,-0.0116266681547,0.00246697135336,1.0,0.0,0.0485263018434
1385566655898002188,-0.00510812907987,-0.00953201225795,0.00206122013731,1.0,0.0,0.0482121882475
1385566655997984790,-0.00510954415829,-0.00729823113155,0.0016576125525,1.0,0.0,0.0479313255348
1385566656097097787,-0.0049008252112,-0.00500430206901,0.00136236203589,1.0,0.0,0.047684138209
1385566656198020941,-0.00456940656852,-0.00277826901001,0.00101327365886,1.0,0.0,0.0473937243847
1385566656298016402,-0.00407722814042,-0.000580624106427,0.000640653872146,1.0,0.0,0.0470585058487
1385566656397031345,-0.00326538279923,0.00136620650705,0.000286896434977,1.0,0.0,0.0467598551828
1385566656497078555,-0.0023234787958,0.00314730039533,-3.21758672262e-05,1.0,0.0,0.0464477960579
1385566656597957487,-0.00114584749093,0.0045852409341,-0.000265003369209,1.0,0.0,0.0460646461538
1385566656697361706,0.000180500725574,0.00574550357806,-0.000501182849854,1.0,0.0,0.0456825886321
1385566656796971704,0.00167678185861,0.00654920802787,-0.000589930862004,1.0,0.0,0.0453626892654
1385566656898006726,0.00318739094806,0.00710100915201,-0.000558295663591,1.0,0.0,0.0450684726452
1385566656997931185,0.00458650742166,0.00737217068778,-0.000464129077786,1.0,0.0,0.0447516844347
1385566657098044200,0.00590700781887,0.00745806677702,-0.000362742097612,1.0,0.0,0.0444264663144
1385566657196967840,0.00714805325778,0.00736206794793,-0.000322796319318,1.0,0.0,0.0441172864099
1385566657297955683,0.00828725308846,0.00705067165171,-0.000235787139133,1.0,0.0,0.0437603845428
1385566657397048361,0.0093555820487,0.00649211425008,-0.000115196745759,1.0,0.0,0.0433995515969
1385566657497557245,0.0103730718631,0.00565758561247,8.86052677768e-05,1.0,0.0,0.0430409760324
