%time,field.linear.x,field.linear.y,field.linear.z,field.angular.x,field.angular.y,field.angular.z
1385566594606801610,0.0,0.0,0.0,0.0,0.0,0.0
1385566594606905260,-0.02346228203,0.0819497468537,-0.112483277041,-0.000902571960435,0.00635825967901,-1.3710555029
1385566594616600150,-0.0235132704,0.0820125417883,-0.11251433696,-0.000909732933829,0.0062810636067,-1.37127653438
1385566594626576457,-0.0235595512176,0.0819544189054,-0.112474106783,-0.000957815702444,0.00620298739787,-1.3712966241
1385566594636599448,-0.0234672162402,0.081957762547,-0.1124889885,-0.000898644261275,0.00631806901459,-1.37103700248
1385566594646582630,-0.023554028035,0.0819651937251,-0.112472090594,-0.000969165909667,0.00624654057292,-1.37127642685
1385566594656585807,-0.0234715758293,0.0819483138866,-0.112495588844,-0.000876814009563,0.00635286142236,-1.3710411589
1385566594666557823,-0.0235433888127,0.081968340088,-0.112465050028,-0.000984473148044,0.00621023738872,-1.37127058968
1385566594676586088,-0.0235495228608,0.0819686303636,-0.112466532543,-0.000971615872169,0.00621535864545,-1.37126938029
1385566594686568705,-0.023554571855,0.0819701626144,-0.112471190563,-0.0009690407639,0.00622081523845,-1.37126976036
1385566594696564326,-0.0234238583944,0.0819980919323,-0.112547769676,-0.000867553847555,0.00645473583592,-1.37102693148
1385566594706568211,-0.0235659853123,0.0819613498204,-0.112466045441,-0.000980377902358,0.00622901661668,-1.37129991342
1385566594716558864,-0.0235551159349,0.0819710804816,-0.112470395981,-0.00095980146576,0.00622001141751,-1.37131547237
1385566594726568158,-0.0235119603941,0.082004839606,-0.112526932812,-0.000943863151777,0.00636967026606,-1.37127510377
1385566594736563905,-0.0235500707383,0.0819609615353,-0.112470140772,-0.000973886027274,0.00623991976155,-1.37130161179
1385566594746554943,-0.023511700448,0.0820011793355,-0.112523365711,-0.000916405098312,0.00627371598081,-1.37125508689
1385566594756560670,-0.0235624634792,0.0819580111133,-0.112476374045,-0.000965477860678,0.00622991621403,-1.37128301675
1385566594766580062,-0.0235234843049,0.0820092677604,-0.112525086594,-0.000928333650859,0.00629946114485,-1.37129094832
1385566594776587391,-0.0235669996204,0.0819628640012,-0.112468717709,-0.000998233690074,0.00620358446993,-1.37127915699
1385566594786965572,-0.0235559623964,0.081963347561,-0.112478820238,-0.000966223584267,0.00626873916,-1.37129699401
1385566594796644797,-0.0235714039936,0.0819602688794,-0.112462302952,-0.00101579587062,0.00619749617485,-1.37131160159
1385566594806636687,-0.0235738166683,0.08196331565,-0.112480107119,-0.000968254238486,0.00626724756834,-1.37130101653
1385566594816639296,-0.0235675962442,0.0819669436544,-0.112477407278,-0.000960472569778,0.00625731400936,-1.37126465101
1385566594826570132,-0.0234892644233,0.0819447488404,-0.112501696481,-0.000880912848864,0.00631305959014,-1.37104228096
1385566594836575670,-0.0235263863532,0.0819973928065,-0.112531796536,-0.000886867108789,0.00631992751588,-1.37128566934
1385566594846641749,-0.0235778495629,0.0819603601913,-0.112471998985,-0.000996824805168,0.00619731065287,-1.37128337816
1385566594856594924,-0.0235692671537,0.0819617458482,-0.112471952686,-0.000998162683709,0.00623099495258,-1.37129146163
1385566594866570389,-0.0235799228038,0.081962338651,-0.112486147362,-0.000918738821783,0.00624048703765,-1.37131075753
1385566594876611977,-0.0236361563853,0.0820189256451,-0.112521729607,-0.00124693231181,0.00690062844135,-1.37147801674
1385566594886571952,-0.0235826833617,0.0819555206149,-0.112482389547,-0.000915263436796,0.00615245710942,-1.37131275828
1385566594896567470,-0.0235362275912,0.0819993765389,-0.112534633563,-0.000889309900471,0.00624663681932,-1.37129242135
1385566594906570010,-0.0235852516559,0.0819574117419,-0.11248780498,-0.000959434370883,0.00625330519333,-1.3713035539
1385566594916584213,-0.0235899031949,0.0819614956086,-0.112493024459,-0.000926394854452,0.00622550210752,-1.37130784164
1385566594926579036,-0.0235883773344,0.0819619603642,-0.112491418317,-0.000943738341021,0.00618227447223,-1.37128908731
1385566594936589384,-0.0235322158922,0.0820026725429,-0.112539713086,-0.000903662109063,0.00627798869718,-1.37128149512
1385566594946566193,-0.023534111932,0.0820032178404,-0.112535643256,-0.000876789431862,0.0063169151015,-1.37129902633
1385566594956591950,-0.0236421148842,0.0819393622615,-0.112424259209,-0.00130200499659,0.00613386991469,-1.3713276349
1385566594966563984,-0.02357912359,0.0819607405249,-0.112480955526,-0.000967894074605,0.00621183871988,-1.37127563088
1385566594976582873,-0.0235820868567,0.0819582691222,-0.112489232713,-0.000908048727685,0.00625634540264,-1.37132937838
1385566594986603872,-0.0235892703144,0.0819573631198,-0.112491153919,-0.000916753208481,0.00622485397084,-1.37130709784
1385566594996564061,-0.0235354735211,0.0820036763067,-0.112535033919,-0.000942263883795,0.00632425884664,-1.37130081373
1385566595006573163,-0.0235358421679,0.0820022798507,-0.112528339567,-0.000952297644325,0.00628923884478,-1.37129775594
1385566595016564248,-0.0235732328714,0.0819613312878,-0.112483659774,-0.000940251612484,0.00621831763526,-1.37130997002
1385566595026558879,-0.0235788697703,0.0819550216819,-0.112470568841,-0.000938763133721,0.00618357101444,-1.3712986994
1385566595036579696,-0.023539818112,0.0820019333086,-0.112538138695,-0.000910475377683,0.00630309919529,-1.37130155798
1385566595046571160,-0.0235429672137,0.0820073340083,-0.112534384817,-0.000899214244069,0.0062788558008,-1.37127207883
1385566595056596387,-0.0235964441678,0.081970104276,-0.112491506373,-0.000900330317911,0.0062154662685,-1.37134373556
1385566595066572437,-0.023577531211,0.0819672003455,-0.112484286836,-0.000957667300002,0.00624564736533,-1.37131417991
1385566595076598364,-0.0235684557759,0.0820469388796,-0.112597830884,-0.000805942569223,0.00703332084866,-1.37145072014
1385566595086613950,-0.0235823914771,0.081969681833,-0.112490052859,-0.00092463270316,0.00624388740778,-1.37132445212
1385566595096583043,-0.0235659026512,0.0819809845846,-0.112486839542,-0.000932493014788,0.00619703149883,-1.3712604845
1385566595106564011,-0.023639992134,0.0819509445919,-0.112415298515,-0.00130183391676,0.00612677114868,-1.37146786194
1385566595116581252,-0.0235699962341,0.0819771864862,-0.112477515846,-0.000907570279825,0.00627346782134,-1.37116213385
1385566595126578474,-0.023581064086,0.0819840314724,-0.112487067395,-0.000927335087022,0.00634623423601,-1.37105879987
1385566595136592742,-0.0235134265546,0.082010614546,-0.112532863251,-0.000913274457145,0.00627191034338,-1.37156873635
1385566595146574365,-0.023571964604,0.0820534672811,-0.112593290311,-0.000829213469842,0.00704840202696,-1.37165565931
1385566595156581292,-0.0236313213339,0.0819120096096,-0.112456688762,-0.00127116637512,0.00594357467129,-1.37092396808
1385566595166690539,-0.0235293252213,0.082004799209,-0.112546543177,-0.000877234029517,0.0062971344435,-1.37111338379
1385566595176616932,-0.0234988183717,0.0819658087673,-0.112557290841,-0.00082598194217,0.00594718479051,-1.371295184
1385566595186563344,-0.0236460833972,0.0819327324733,-0.112443140587,-0.00130532414369,0.00620066090727,-1.37111329708
1385566595196568132,-0.0235904916424,0.0819315274677,-0.112509896468,-0.000917008481508,0.0060091017277,-1.37110120786
1385566595206600277,-0.0235267829859,0.0820064724145,-0.112536941746,-0.000884096539035,0.00631274315799,-1.37149888734
1385566595216573140,-0.0235316244293,0.0819485804982,-0.112565509263,-0.000880602820469,0.00594038310511,-1.37128674528
1385566595226589218,-0.0235549135616,0.0819430730398,-0.112519318276,-0.000803398863036,0.00624130929648,-1.37117929645
1385566595236583706,-0.0237140766881,0.0819178059114,-0.112439689291,-0.000725229855659,0.00602310684308,-1.37100981646
1385566595246562659,-0.023614905168,0.0819572791838,-0.112562150751,-0.000538775119032,0.00648441373031,-1.37130439314
1385566595256566701,-0.0233973254747,0.0820127616416,-0.112560890384,-0.000845212941076,0.00643379548158,-1.37144534629
1385566595266566075,-0.0234929923506,0.0819328725876,-0.112535870892,-0.000839465696983,0.00623937345131,-1.37103167787
1385566595277186075,-0.0236293459497,0.0819543626089,-0.112449374946,-0.00100492425841,0.00604989717624,-1.37089244833
1385566595286623048,-0.0235315508166,0.0819533694718,-0.112471779803,-0.00118647925118,0.00620637606448,-1.37120157083
1385566595296577014,-0.0235700830918,0.0819242853642,-0.112428863731,-0.00129725206757,0.00617763239587,-1.37131797652
1385566595306592549,-0.0235910272234,0.0819247516387,-0.112492917319,-0.000990795667596,0.00625796380361,-1.37127433393
1385566595316589842,-0.0235351290748,0.0819789337943,-0.112536276304,-0.000857751576404,0.00616781744384,-1.37122698353
1385566595326620999,-0.0234719379773,0.081898083311,-0.112459222521,-0.000644027256861,0.00618986514929,-1.37098477729
1385566595336575930,-0.0236264783553,0.0820041404163,-0.112540134425,-0.000547018872137,0.00687909666428,-1.37132673468
1385566595346607857,-0.0235493850226,0.0820056608769,-0.11254602498,-0.000918486102902,0.00628361337085,-1.37112932106
1385566595356568116,-0.0235323479947,0.0819961870041,-0.112546899607,-0.000922038699628,0.00618050905218,-1.37131135922
1385566595366567042,-0.0235284988579,0.0820056163133,-0.112534318182,-0.000812638135871,0.00631101644884,-1.37149260383
1385566595376582177,-0.0235444013679,0.0820099384428,-0.112536428638,-0.000834792701293,0.00632616101118,-1.37125993444
1385566595386583921,-0.0236399360134,0.0819492292434,-0.112460921592,-0.00104083871183,0.0059786250458,-1.37113558243
1385566595396579534,-0.0235976468067,0.0819681030514,-0.112557386786,-0.000682822670968,0.00582500187013,-1.37161661656
1385566595406582221,-0.0235333009313,0.0820012414412,-0.112541037813,-0.000818964849286,0.00634093004794,-1.37143226505
1385566595416573778,-0.0235503064201,0.0819936049337,-0.112534371032,-0.000861944982509,0.00628265632857,-1.37122812527
1385566595426736083,-0.0235406659893,0.0819582751346,-0.112560521516,-0.000899644805621,0.00594871848437,-1.37127287458
1385566595436689458,-0.0235350727831,0.0819835564161,-0.112557453683,-0.000912763677536,0.00623215936431,-1.37137932248
1385566595446583368,-0.0235582513176,0.0818936896932,-0.112569686141,-0.000714219221502,0.00646680849836,-1.37082742691
1385566595456608789,-0.023629018784,0.0819671950904,-0.112577651079,-0.000828905614324,0.00660388768609,-1.37150662049
1385566595466594677,-0.023539714286,0.0819831677837,-0.112544000326,-0.00084970817531,0.00617063739616,-1.37135397131
1385566595476608181,-0.023545899072,0.081996109825,-0.112556258935,-0.000854921781538,0.00627178481853,-1.37133125406
1385566595486604999,-0.0236425000572,0.0819247589951,-0.112440249107,-0.000508464261392,0.00591886961793,-1.37139895654
1385566595496611376,-0.0235221049162,0.0820758083917,-0.112544526445,-0.00103452330526,0.0055851980989,-1.37163975001
1385566595506618261,-0.0235870928437,0.0819504784116,-0.11249655808,-0.000921811049177,0.00620012127322,-1.37143165402
1385566595516653887,-0.0235918627179,0.0819194122119,-0.112511106082,-0.000940695119383,0.00588726010241,-1.37121989482
1385566595526625654,-0.0236165896051,0.0819556435774,-0.112493683343,-0.00136839186305,0.00623681073276,-1.37113953879
1385566595536700277,-0.0235916456906,0.081970999522,-0.112471219661,-0.000956569177093,0.00615017320997,-1.37144642475
1385566595546692459,-0.0235303272071,0.0819682227962,-0.112558136573,-0.000867307854789,0.00596621842585,-1.37132651389
1385566595556588330,-0.0235580415402,0.081982925323,-0.112542017802,-0.000906438207595,0.0062832579148,-1.37121124943
1385566595566631949,-0.0235381848782,0.0819109951104,-0.112579788782,-0.000791654055975,0.00605668526051,-1.37110813584
1385566595576602236,-0.0235883754221,0.0820117483341,-0.112603118709,-0.000747761194039,0.00670809443862,-1.37158571598
1385566595586587551,-0.0235797125685,0.0819255337621,-0.112502288763,-0.000871046676494,0.00597324226135,-1.37127757244
1385566595596614939,-0.0235864800077,0.0819568693199,-0.112505418389,-0.00114507013249,0.0062938836324,-1.37122270791
1385566595606612157,-0.0234916924457,0.0819777988804,-0.112568319958,-0.000927312031681,0.00606076415899,-1.37143450035
1385566595616818551,-0.0235948786801,0.0820330642808,-0.112586645517,-0.000742972495614,0.00703344860447,-1.37151886758
1385566595626714243,-0.023611848978,0.0819064447946,-0.112457546878,-0.00060482525834,0.00581655726134,-1.37141057875
1385566595636613427,-0.0236301444439,0.0819748389581,-0.112564946366,-0.000456477814372,0.00653549862511,-1.37141145541
1385566595646590047,-0.0235456559508,0.0819899615537,-0.11254651078,-0.00092490075518,0.00624412069782,-1.37120154979
1385566595656578706,-0.0235257585995,0.0819248236426,-0.112485892441,-0.000694753851668,0.00617862339945,-1.37103945481
1385566595666586839,-0.0236151138079,0.0819706732497,-0.112524216062,-0.000906710987158,0.00664779386025,-1.3711700546
1385566595676594395,-0.0235753358714,0.0819691962063,-0.112516047205,-0.000407805220283,0.00608095952359,-1.37136246034
1385566595686601552,-0.0233425022295,0.0819783683841,-0.112554717364,-0.000165556019914,0.00732659893583,-1.37206448184
1385566595696619950,-0.0234168977574,0.0820610891815,-0.112522030435,2.75417659735e-05,0.00734791730613,-1.3715399032
1385566595706618201,-0.0234250197965,0.0820340410592,-0.112521257084,5.73127162011e-06,0.00738880423426,-1.37133534297
1385566595716632511,-0.0234658337627,0.0820374421122,-0.112554516259,0.000284029569467,0.00692715205221,-1.37153326373
1385566595726615765,-0.0234683995595,0.0820107482262,-0.112434702313,-0.000845503373835,0.00693642849008,-1.37183742624
1385566595736606321,-0.0234781114408,0.0819330263893,-0.112434655058,-0.000570554089793,0.00698560343492,-1.37161273218
1385566595746589917,-0.0234186816839,0.0820444713794,-0.112514667891,-0.000443062720286,0.00692546660704,-1.37125133173
1385566595756582496,-0.0234468766856,0.0820505378078,-0.112558708581,0.000175308846588,0.00714155444539,-1.37181900755
1385566595766593667,-0.0234201037536,0.0819861517903,-0.11249590711,0.000800166888044,0.0070179601039,-1.37178634695
1385566595776631162,-0.023407278897,0.0820284320351,-0.112522977699,0.000850428031915,0.00659720144732,-1.37147674829
1385566595786606358,-0.0234933197269,0.0820346833867,-0.112592495379,0.000702846566029,0.00675764487186,-1.37158274226
1385566595796591837,-0.0234168326005,0.0819703417102,-0.11255147736,-0.000220464344352,0.00730272232261,-1.37179665185
1385566595806670809,-0.0234546479571,0.0820450066907,-0.112554444617,-0.000156633620953,0.00687350826713,-1.37182765744
1385566595816626412,-0.0234303215789,0.082012272156,-0.112548372243,-6.28792287527e-05,0.00685644394265,-1.37153044436
1385566595826624847,-0.0234585305645,0.0820490112741,-0.112556261498,0.000110888132457,0.00755422765993,-1.37178711962
1385566595836573070,-0.0234719606973,0.0820831349883,-0.112541594859,0.00051791119326,0.00713715677258,-1.37161965636
1385566595846627793,-0.0234035040434,0.0820250379584,-0.112571131959,0.000583538482196,0.00696212927709,-1.37160246354
1385566595856606260,-0.0234122076276,0.0820996240005,-0.112513319599,0.000430841827112,0.0075272546771,-1.37164919657
1385566595866569202,-0.023431079899,0.0820854204147,-0.11260902005,3.7841222351e-05,0.0069994661784,-1.37152479629
1385566595876640907,-0.0234880919697,0.0819928170836,-0.112513118203,-0.000524039608768,0.00679206563708,-1.37148164689
1385566595886566456,-0.0234489448669,0.0820546854327,-0.112545979567,-0.000393062996352,0.00727348341277,-1.37166031202
1385566595896652601,-0.0235258683195,0.0820807869727,-0.112566017698,0.000292846762553,0.00679167596286,-1.37184121048
1385566595906611308,-0.0234268689911,0.0820415244233,-0.112525598144,-5.78403962447e-05,0.00739743302581,-1.37157219306
1385566595916667483,-0.0234601646109,0.0820649861051,-0.112569672463,5.8882984801e-05,0.00691637690256,-1.37169082388
1385566595926935624,-0.0235039283,0.0820648761829,-0.112500713472,-0.000250074094337,0.00704190968638,-1.37171159657
1385566595936672359,-0.0235231175633,0.0819863010393,-0.112447954453,-0.000333147127428,0.00732826682943,-1.37165857282
1385566595946601251,-0.0235603060964,0.08211304845,-0.112423781922,-0.000302538929373,0.00786620476156,-1.37181240693
1385566595956701894,-0.0234802910727,0.0820810203627,-0.112536629935,0.000182708727586,0.00669026306928,-1.37172851114
1385566595966637789,-0.0235029219689,0.0820808044298,-0.112566783103,0.000703254794593,0.00734362403509,-1.37177316605
1385566595976594123,-0.0234372880186,0.0821218074001,-0.11254793056,0.000341110530583,0.00707060897256,-1.37182292837
1385566595986749745,-0.0234680287992,0.0821045486021,-0.112474373227,0.000167130365647,0.00714471377634,-1.37159582779
1385566595996624759,-0.0236225919957,0.0820606897057,-0.112447016072,-0.00101693642381,0.00763392786212,-1.37182860321
1385566596006606034,-0.0235487898939,0.0820525539172,-0.112493409211,-0.00149223304594,0.00706602879703,-1.37152624878
1385566596016876019,-0.0236178666466,0.0820599999324,-0.112380480223,-0.00125374753183,0.00756105804981,-1.37151405688
1385566596026771011,-0.0235271363252,0.0821109059112,-0.112467655185,-0.000461302327942,0.00734155933156,-1.37186728492
1385566596036664601,-0.0235955435614,0.0821197064848,-0.112428541067,-0.000451108131527,0.00656554383013,-1.37195669669
1385566596046595701,-0.0234264596087,0.0821203336011,-0.112566314146,-0.00050129585399,0.00744388818449,-1.37145886223
1385566596056600752,-0.0235202847357,0.0821256006062,-0.112519624667,-0.000135674152516,0.00715777925106,-1.37194178853
1385566596066834902,-0.0235826622875,0.0821433450225,-0.112409693581,-0.000587786538596,0.00696896558393,-1.37186612428
1385566596076617221,-0.0236015742791,0.0820931157701,-0.112403792931,-0.000946033590361,0.00745344060628,-1.37174179084
1385566596086592956,-0.0236401234577,0.0821885190708,-0.112478796419,-0.00119101062685,0.00726275869899,-1.37221889719
1385566596096606968,-0.0235149343562,0.0821313900454,-0.112554912595,-0.000528142745042,0.00659433480871,-1.3717554509
1385566596106599645,-0.023503630535,0.0821458699857,-0.112506232136,-0.000316852952604,0.00739723120522,-1.37177347439
1385566596116614821,-0.023704086519,0.0821135163092,-0.112478197135,-0.00126884396594,0.00576207539867,-1.37194840345
1385566596126601732,-0.0236913875156,0.0820637489028,-0.112520675853,-0.00130482681903,0.00550736628336,-1.37156377736
1385566596136721260,-0.0237282113401,0.0820960945975,-0.11249687825,-0.00179669365838,0.0059293254815,-1.37182861314
1385566596146766279,-0.0237318289996,0.0821115748837,-0.112545418292,-0.00188554861493,0.00568553920242,-1.37206615179
1385566596156653480,-0.0236856377666,0.0820602686049,-0.112543127514,-0.00192550681429,0.00584840770762,-1.37149257962
1385566596166601798,-0.0237705419729,0.0821080812806,-0.112456655713,-0.00178916404087,0.00618477404024,-1.3719220552
1385566596176596448,-0.0237369220506,0.0820953450242,-0.112526193904,-0.00154188748724,0.00556672454847,-1.37181448554
1385566596186610873,-0.0237571024859,0.0820768325656,-0.11255035792,-0.00147017981944,0.00612419124894,-1.37179277374
1385566596196608112,-0.0236023047108,0.0821435014696,-0.112462981962,-0.00154396402591,0.00718633059332,-1.37248436465
1385566596206775984,-0.023596613447,0.0821873411169,-0.112488784531,-0.00149693540194,0.00655860190806,-1.3718959798
1385566596216615174,-0.0235983726296,0.0821372205852,-0.11242791642,-0.00152016109077,0.00699736114979,-1.3718358162
1385566596226618290,-0.0236479647219,0.0822163322419,-0.112441106174,-0.000932709007889,0.00705240410258,-1.37256259921
1385566596236628586,-0.0236761060276,0.0822025527101,-0.112398526632,-0.000897730893539,0.00716344331678,-1.37214690531
1385566596246594768,-0.0236056560521,0.0821743849527,-0.112521758017,-0.00137186220635,0.00669636305796,-1.37248563779
1385566596256591670,-0.023697384362,0.0822251647604,-0.112389230764,-0.00119613804974,0.00719667681294,-1.37252091951
1385566596266585391,-0.0236093385332,0.0822117114742,-0.112315207851,-0.00135486488368,0.00743339814056,-1.37203579635
1385566596276591159,-0.0236939363607,0.0822458212219,-0.112395430329,-0.00105174787619,0.00716467105755,-1.37281843401
1385566596286647776,-0.0236090642842,0.0822241554421,-0.112492796582,-0.00115272596481,0.00660859142561,-1.37218804188
1385566596296668634,-0.0236010722638,0.0821971183213,-0.112515053104,-0.000957865579113,0.00663329489482,-1.37228311029
1385566596306622334,-0.0236991582367,0.0822384573955,-0.112346003535,-0.000360703872425,0.0075982250326,-1.37241466362
1385566596316594538,-0.0236822431615,0.0821922911548,-0.11249439393,-0.000972990701554,0.00602309845746,-1.37205741746
1385566596326606493,-0.0237636614718,0.0822160741076,-0.112565667151,-0.00068121521375,0.00575245131195,-1.37263413715
1385566596336567088,-0.023625630052,0.0822089760077,-0.112522945994,-0.000490639380876,0.00685379902589,-1.37247023441
1385566596346612315,-0.0235910050005,0.0822977368453,-0.112374308259,-0.000617436312998,0.00696420777177,-1.37287402691
1385566596356578428,-0.0235976169407,0.0822750459628,-0.112374326762,-0.000186661533977,0.00702636855662,-1.37281764138
1385566596366560658,-0.023584177599,0.0822300132112,-0.112421396716,0.000165306304425,0.00674519852867,-1.37251188614
1385566596376559469,-0.0236253756763,0.082304339718,-0.112540371055,0.000558199759821,0.00643235442128,-1.37302400926
1385566596386567256,-0.023599692263,0.0822445215579,-0.112471419474,0.000119727477765,0.00685296739684,-1.3724373444
1385566596396613389,-0.0235525953498,0.0823508691932,-0.112408583206,-0.000801682427778,0.00738146690595,-1.37322746488
1385566596406666556,-0.0236236267497,0.0822686454287,-0.112426913037,-0.000649616685478,0.00745633806863,-1.37305828255
1385566596416574569,-0.0235286542289,0.082236235101,-0.112468706084,-0.000853887494046,0.00707306482503,-1.37287114989
1385566596426571505,-0.0235444884761,0.0823785758642,-0.11248565455,-6.8020620545e-05,0.00763278559216,-1.37350566086
1385566596436571598,-0.0235147501533,0.0822948518094,-0.112508477478,0.000494555189099,0.00717224882507,-1.37247640719
1385566596446567687,-0.0235437376511,0.0823679531083,-0.112470945624,0.000648289208272,0.00695917182861,-1.37326388992
1385566596456617611,-0.0235386816133,0.0823506834736,-0.112485122541,0.000855579665464,0.00654382631445,-1.37292612011
1385566596466564697,-0.0235092200517,0.0823814636864,-0.112499340667,0.00067301927599,0.00716563524663,-1.37310717053
1385566596476560565,-0.0235465407826,0.0824305549664,-0.112381922025,0.00101480830422,0.00687031094751,-1.37386519008
1385566596486605662,-0.02345337664,0.0823488945125,-0.11245184565,0.00105298274893,0.00725194997306,-1.37281528433
1385566596496566617,-0.0235740296329,0.0823918738156,-0.112473586077,0.000610139327835,0.0067956873322,-1.37322825575
1385566596506568022,-0.0235940293884,0.0823387111143,-0.112526971016,0.00062469910113,0.0071761852193,-1.37305953137
1385566596516656231,-0.0235354506938,0.0823953015147,-0.112513526835,0.000781158812487,0.00708375581276,-1.37336160683
1385566596526579302,-0.0234632044754,0.0824522610325,-0.112467212842,0.00136730994219,0.00783209334228,-1.37333503669
1385566596536567877,-0.0234978529089,0.0823660732075,-0.112492042448,0.00148651860709,0.00692842677851,-1.37285789275
1385566596546580393,-0.0235384568912,0.0823869987472,-0.112459271594,0.00154989270371,0.00680714250207,-1.37326310635
1385566596556575018,-0.0235079050192,0.082380152443,-0.112457828523,0.00071982007171,0.00744763225438,-1.37341435758
1385566596566615822,-0.0235223464347,0.0824091396602,-0.112478816262,0.000703319659478,0.00647980678019,-1.37337077247
1385566596576569839,-0.0234375249626,0.0823723548745,-0.112587129407,0.000382396217318,0.00754011014455,-1.37373412267
1385566596586562017,-0.0234536308695,0.0825066109198,-0.112481296226,0.000931914547446,0.00804560193629,-1.37346643779
1385566596596563984,-0.023436449737,0.082438923025,-0.112468162311,0.00155376657367,0.00739525083622,-1.37367599971
1385566596606584528,-0.0234836287883,0.0825007576601,-0.112545741363,0.00136493438709,0.00668107341531,-1.3739337501
1385566596616588413,-0.0235066596177,0.0824034914388,-0.112513574944,0.00128999612483,0.00662170283711,-1.37325353352
1385566596626681142,-0.0235305557678,0.0824694153772,-0.112437459451,0.000887085579984,0.0074037989141,-1.3736617536
1385566596636671097,-0.0235199258431,0.0824941378776,-0.112439701399,0.000724305354889,0.00739067043108,-1.37286413061
1385566596646647820,-0.023465825432,0.0824554882295,-0.112523735564,0.000868824015973,0.00665827682136,-1.37311531075
1385566596656610206,-0.0234763416514,0.0825369569438,-0.112588602706,0.000968093226833,0.00674383505519,-1.37367458196
1385566596666588577,-0.0233125771185,0.0824346675896,-0.112616765177,0.00137926261449,0.00704143098651,-1.37229228691
1385566596676574006,-0.0234903764053,0.0826395111912,-0.112433359436,0.00152276720009,0.00652726703376,-1.37317337483
1385566596686585892,-0.0233612528017,0.0825487705402,-0.112486824463,0.00205013317468,0.00752000000158,-1.37209044847
1385566596696612604,-0.0234440996527,0.0826312208446,-0.112618004628,0.00165211521051,0.00679475113403,-1.37279810002
1385566596706605079,-0.0235255951798,0.0825010563269,-0.112568141386,0.00173105710624,0.00637681197337,-1.37360934251
1385566596716649553,-0.0236014910042,0.0825726007572,-0.112515004757,0.00153198039497,0.00634766848832,-1.37350117619
1385566596726578047,-0.02367574154,0.0825626914241,-0.112581937512,0.00208068907784,0.00699705355072,-1.37506019524
1385566596736577481,-0.023746819135,0.0825895473244,-0.112529269864,0.00264708862199,0.00696926071164,-1.3746862373
1385566596746580371,-0.0236820053676,0.0826331338936,-0.112512356654,0.00194329134639,0.00666583514144,-1.37566292059
1385566596756566090,-0.0237378288611,0.0825901257419,-0.112659651342,0.00189583884658,0.00701766064929,-1.37495445278
1385566596766564843,-0.023766759568,0.0826902220961,-0.112622624199,0.00221632984675,0.00673560813452,-1.37523384955
1385566596776578116,-0.0237826248944,0.082695554588,-0.112590813626,0.00222823841118,0.00685892776663,-1.37555996725
1385566596786563018,-0.023817236143,0.0827610010294,-0.112439485173,0.00261544268174,0.00672488681714,-1.37582389618
1385566596796647296,-0.0238643028701,0.0828562834634,-0.112515169533,0.00198629373183,0.00730525109523,-1.37586129726
1385566596806586801,-0.0237989526467,0.0830776180866,-0.112663214709,0.0013120355887,0.00758610036653,-1.37530240238
1385566596816582418,-0.0236924357674,0.0829021792462,-0.112612249373,0.000689036893143,0.00724284558045,-1.37554263418
1385566596826599742,-0.023797555069,0.0831002860872,-0.112453779979,0.00120682539444,0.00765125802035,-1.3749967574
1385566596836596973,-0.0238342411909,0.0830120392487,-0.11264310383,0.00149627521409,0.00865356349875,-1.37712365524
1385566596846609827,-0.0239652226521,0.0831541735219,-0.112719940589,0.00216761879826,0.00809385792991,-1.37681605441
1385566596856598437,-0.0240752091499,0.0830382919506,-0.112766692031,0.00251953467435,0.00741944368181,-1.37902140085
1385566596866577738,-0.0240668381236,0.0831305844983,-0.112605654481,0.00328888665074,0.00775691901075,-1.3793491056
1385566596876593506,-0.0241072916154,0.0830759790079,-0.112700053947,0.00300112275865,0.00826377808495,-1.38011750619
1385566596886593004,-0.0242044921598,0.083161408213,-0.112666227541,0.00290364152331,0.00961815393876,-1.38021207095
1385566596896610115,-0.0241671318634,0.0830702369567,-0.112749554068,0.00333346803899,0.00744013701741,-1.3814965546
1385566596906592754,-0.0241614960755,0.0832292506787,-0.112653998312,0.00320770415517,0.00771030299165,-1.38130666066
1385566596916614994,-0.0241383461312,0.083242843985,-0.112548314462,0.00265300093552,0.00927255410868,-1.3823984706
1385566596926603808,-0.0241742408918,0.0834475600962,-0.112496328952,0.00205393474058,0.00854621831765,-1.38406640727
1385566596936659322,-0.0242181022795,0.0833391397181,-0.112780914961,0.0015995125624,0.00610412680237,-1.38594931004
1385566596946612588,-0.0243054314271,0.0835529017395,-0.11285875867,0.00110583270202,0.0058889025542,-1.38768999147
1385566596956594383,-0.0244626290449,0.0834392811276,-0.112585343793,0.00169984667431,0.00570241806359,-1.38891003797
1385566596966582030,-0.0245141812677,0.083713039556,-0.112508964775,0.00201404574625,0.00652099120374,-1.38960276908
1385566596976591914,-0.0244391146712,0.0837751326129,-0.11257129785,0.00176052124242,0.00744285278429,-1.39051921701
1385566596986593726,-0.0245560074594,0.0840035471946,-0.112699119294,0.00100124304545,0.00681556050091,-1.39088423206
1385566596996610509,-0.0246293551346,0.084043118216,-0.112719913039,0.000147364916996,0.00575979066021,-1.39189488321
1385566597006599137,-0.0246844715954,0.0842520526539,-0.112684323369,-0.0016439723695,0.00742954170552,-1.39253741555
1385566597016581292,-0.0248509741324,0.0844237922451,-0.112603938701,-0.00186968580838,0.00774245288883,-1.39433559256
1385566597026630912,-0.0249154643634,0.084602254884,-0.11260046882,-0.00258013868951,0.00640966436107,-1.39527289213
1385566597036608445,-0.0248203757853,0.084783465953,-0.112796247706,-0.00156279393507,0.00574131333613,-1.39652795071
1385566597046605783,-0.0249335552299,0.0850082756417,-0.112920136629,-0.00169160548132,0.00621255457689,-1.39697759171
1385566597056599357,-0.0247509436312,0.0850977373181,-0.113011247739,-0.000410721201191,0.00500728729814,-1.39827445601
1385566597066582012,-0.0247429702432,0.0853822579211,-0.112694169849,0.000771456893771,0.00502331749211,-1.39948855435
1385566597076611383,-0.0248485938987,0.0854684271011,-0.112555117288,0.00164134676627,0.00641261731245,-1.40097848647
1385566597086600335,-0.0249057669943,0.0858106215214,-0.112628265716,2.48735394658e-05,0.00652541365397,-1.40291260529
1385566597096568772,-0.0251214914215,0.0860246101881,-0.112527446528,-0.000541735831151,0.0054497207541,-1.40454788641
1385566597106613035,-0.0250643596991,0.0862650423459,-0.112546578623,-0.00151703100641,0.00806527681779,-1.4051416174
1385566597116591153,-0.0251933635684,0.0863933386415,-0.112663691244,-0.00140912368928,0.00687194358199,-1.40662491843
1385566597126739038,-0.0251784977992,0.0865745521022,-0.112710677337,-0.00216473007148,0.00696636113386,-1.40789743056
1385566597136621231,-0.0254342277635,0.0866542733068,-0.112722991677,-0.00213802172883,0.00716598003117,-1.41041694607
1385566597146614348,-0.0255193182452,0.086930520071,-0.112534975132,-0.001653826516,0.0065879875015,-1.41167361586
1385566597156581126,-0.0256912626897,0.0869999038131,-0.112408317275,-0.00160179722044,0.00617931641979,-1.41288721005
1385566597166623325,-0.0258452226805,0.0872193973367,-0.112871830363,-0.00230803982787,0.00711532065328,-1.41500605918
1385566597176610416,-0.0260911905658,0.0874692683422,-0.113138801581,-0.00274430358796,0.00762113091314,-1.41723058055
1385566597186603866,-0.0263034425521,0.0876798443513,-0.112940147768,-0.00331473530912,0.00706738238207,-1.41899235777
1385566597196571422,-0.0264959371218,0.0879848956947,-0.112789315804,-0.00288568859414,0.005069976589,-1.42006991454
1385566597206623414,-0.0266647323759,0.0882765123115,-0.112662617348,-0.00421153986445,0.00367242834081,-1.42185132603
1385566597216596499,-0.0268949551561,0.0885709753962,-0.112801623141,-0.00408237082034,0.00457293381623,-1.42296475799
1385566597226604697,-0.027018990329,0.088936259966,-0.112782934611,-0.00301580692761,0.00576252627219,-1.42468236342
1385566597236612203,-0.02735217946,0.0893422377726,-0.112823603909,-0.00225387737363,0.00618016731785,-1.42593728115
1385566597246585316,-0.0274391981073,0.0896335357103,-0.112558543176,-0.00225391009464,0.00496592446169,-1.42657254129
1385566597256604012,-0.0275681521603,0.0901074706696,-0.112438560828,-0.0012666278856,0.0064622911316,-1.42832414465
1385566597266588873,-0.0276645923821,0.0904797475461,-0.112582354431,-0.000805781460777,0.00711641233578,-1.42919707571
1385566597276599005,-0.0278613263256,0.0908611934329,-0.112606304342,-0.00066815754184,0.00894223137975,-1.43060897813
1385566597286586679,-0.0278856231838,0.0911687198099,-0.112574699334,-0.000896605680312,0.00797275974744,-1.43145810243
1385566597296601296,-0.0278374683438,0.0915658078668,-0.112722531808,-0.00155129158655,0.00693943678082,-1.43260794064
1385566597306620269,-0.0281012275684,0.0918065011409,-0.112794945003,-0.00257557643744,0.0056464004916,-1.43311168964
1385566597316600259,-0.0281184762959,0.0921061592629,-0.112903450685,-0.00217491938164,0.00328922698936,-1.43346829711
1385566597326690169,-0.0282072196234,0.0926179051229,-0.112951090117,-0.00191448529484,0.0042068551566,-1.43407896739
1385566597336687205,-0.0281167356163,0.0930579718876,-0.113301995229,-0.00200881983068,0.00263464992598,-1.4349595405
1385566597346617372,-0.0282857917089,0.0934508002021,-0.113694430374,-0.00308824695788,0.000842920527573,-1.43637184306
1385566597356601018,-0.0282091973181,0.093879424287,-0.114051217585,-0.00357118516707,-3.50773669926e-05,-1.43718303795
1385566597366576110,-0.0283759843482,0.0944428291287,-0.114134518592,-0.00302744218926,-0.00183478644248,-1.43789231258
1385566597376618463,-0.0285086317819,0.0949377071515,-0.114759814521,-0.00260609155315,-0.00249786284285,-1.43888679938
1385566597386594049,-0.0284961409729,0.0953964413929,-0.11534738822,-0.00180678026323,-0.00585649752382,-1.4395994689
1385566597396613446,-0.0286177726854,0.0959382924813,-0.115797064676,-0.000878500355174,-0.00776609377136,-1.44022741816
1385566597406615774,-0.028552681882,0.0964909790999,-0.116257432428,0.000570176303651,-0.00958156217243,-1.44124554903
1385566597416583931,-0.0287551639818,0.0970185062532,-0.117011555349,0.00166016597586,-0.0117174047256,-1.44213278168
1385566597426601180,-0.0287264757267,0.0975939908432,-0.118082650597,0.00283036177703,-0.0136865043294,-1.44262364408
1385566597436678932,-0.0288022212061,0.0982185203259,-0.118893156782,0.0039255849293,-0.0148347113077,-1.44417376733
1385566597446641815,-0.0289243888289,0.0988008864866,-0.119764050527,0.00461357386827,-0.0173170476625,-1.44461891721
1385566597456618621,-0.0287558336755,0.0993063951842,-0.120914521057,0.00539249110278,-0.0190123279433,-1.44543691816
1385566597466593181,-0.0290921711416,0.0999229715516,-0.122249553448,0.00557612195249,-0.0211159017041,-1.44716570786
1385566597476590082,-0.0291522392257,0.100580571104,-0.123423838536,0.00638839454505,-0.0228701147303,-1.44765257067
1385566597486584836,-0.0293656719845,0.101365413544,-0.125018775914,0.00676953534459,-0.0242437192104,-1.45002552095
1385566597496614997,-0.0295062786743,0.101814724874,-0.126479129037,0.00693914819164,-0.0264032006451,-1.45022117262
1385566597506603487,-0.0295120646464,0.102584373781,-0.128348907991,0.0072378996333,-0.0284591605929,-1.45143014648
1385566597516674985,-0.029551111757,0.103102327021,-0.130273195271,0.007892181775,-0.0301582413788,-1.4522820359
1385566597526627384,-0.0297231666758,0.103911163082,-0.131904321331,0.00802999700764,-0.0315814810929,-1.45225117229
1385566597536821911,-0.0299154372288,0.104559241162,-0.134399522077,0.00891082063413,-0.0324356589192,-1.45401747694
1385566597546629690,-0.0299516964736,0.105189126312,-0.136555350389,0.00919866913911,-0.0352237158293,-1.4550475507
1385566597556603608,-0.0302190706968,0.105821187125,-0.138848473788,0.00927158472644,-0.0348316682697,-1.45632502605
1385566597566608896,-0.0302295246147,0.106398640095,-0.141485154461,0.0103306989765,-0.0378332663574,-1.45773185096
1385566597576654287,-0.0303685261815,0.106961358204,-0.143964723103,0.0105305862825,-0.0385332339519,-1.45852217081
1385566597586580451,-0.0305762367697,0.10760116517,-0.146724823912,0.0104632157706,-0.0393278147026,-1.45979827729
1385566597597411179,-0.0306665559662,0.108124862163,-0.149512531363,0.0110431887605,-0.0411688036864,-1.4602350387
1385566597606649910,-0.030878202395,0.10858066505,-0.152451603302,0.0112899602085,-0.0409487487494,-1.46040616501
1385566597616605448,-0.0308658644982,0.109024724671,-0.155719913847,0.0125450812402,-0.0419520167202,-1.46114393627
1385566597626644701,-0.0307972218143,0.109350520302,-0.158824622981,0.0134988872693,-0.0442408857394,-1.46121134128
1385566597636639547,-0.0308511546784,0.109764571794,-0.162123069685,0.0145381123925,-0.0456088803006,-1.46136458524
1385566597646614926,-0.0307676724463,0.110034726781,-0.1655706014,0.0152706263352,-0.0454283699831,-1.46241892485
1385566597656604292,-0.030758378526,0.110290311584,-0.169064525828,0.0159229469925,-0.0469349788307,-1.46296996143
1385566597666616877,-0.0305800296025,0.110504085374,-0.172787819921,0.0163759813325,-0.0470725852862,-1.46357160534
1385566597676593128,-0.0307671768769,0.110764283119,-0.176206770298,0.0165446387105,-0.0468634637654,-1.46428600193
1385566597686591753,-0.0305888179109,0.110893289536,-0.179972597817,0.0172378468158,-0.0475374416877,-1.4647778071
1385566597696613083,-0.0305012108745,0.110928511415,-0.183713443631,0.0161032122826,-0.0464202334921,-1.46565065299
1385566597706612436,-0.0304532789405,0.110946969083,-0.187415342269,0.0149499866349,-0.0458720882637,-1.4658213596
1385566597716597618,-0.0304616834469,0.110992710133,-0.191474518977,0.0137501656547,-0.0438827072897,-1.46548248615
1385566597726610550,-0.0304637492595,0.110911392513,-0.195316232225,0.0130859448649,-0.043534697307,-1.46570260192
1385566597736705960,-0.030355041637,0.11079721109,-0.199284200332,0.0118665727705,-0.0421909615842,-1.46574752155
1385566597746623646,-0.0302071146831,0.110555751746,-0.203198278176,0.0110916271212,-0.0417195809418,-1.4665357896
1385566597756598834,-0.0301229583693,0.110351039473,-0.207249917086,0.0105901652031,-0.0414159705245,-1.46665160445
1385566597766604133,-0.0299311039763,0.110121102947,-0.211401159015,0.00986763942148,-0.0398779486926,-1.46653939876
1385566597776590466,-0.0298400735245,0.109764838304,-0.215496811898,0.00885090524453,-0.038669831735,-1.46751976816
1385566597786604742,-0.0296385963032,0.109498834565,-0.219963109618,0.00844281382457,-0.0372868247648,-1.46781729756
1385566597796631699,-0.0294088557018,0.108933300941,-0.224102090278,0.00683849188505,-0.0370852752769,-1.46837517598
1385566597806605077,-0.0292244068612,0.108523314237,-0.228191405465,0.00533597770483,-0.0346553405541,-1.46877577369
1385566597816654839,-0.029097840392,0.108164019585,-0.23262739459,0.00489771174895,-0.0322120897273,-1.46868468336
1385566597826706234,-0.028880702825,0.107565570139,-0.236853911518,0.00346168477765,-0.0304056728245,-1.46973199979
1385566597836616140,-0.028673564398,0.107042593734,-0.241351049917,0.00275916404079,-0.0281206991457,-1.46984449306
1385566597846637765,-0.0286680530909,0.106449792051,-0.245692360263,0.00253838358355,-0.0254297607301,-1.47048242564
1385566597856586105,-0.0283482841972,0.106016406986,-0.250003506578,0.00139715306822,-0.0228418530756,-1.47122002679
1385566597866602405,-0.0281048118422,0.105437815574,-0.254537744914,0.000912137499111,-0.0204642465603,-1.47175640422
1385566597876564802,-0.0280813754578,0.104839464464,-0.259030061584,0.00025348973087,-0.0173371803242,-1.47330522
1385566597886587645,-0.0278699124004,0.104189223254,-0.263485445655,-0.00096691704059,-0.0167793727433,-1.47414781087
1385566597896619249,-0.0277413810601,0.103572400169,-0.267895305922,-0.00262811891217,-0.0147311036302,-1.47456078846
1385566597906608893,-0.0274781982292,0.102912928722,-0.272588496703,-0.00283515775017,-0.011758494941,-1.47600379299
1385566597916594344,-0.027250114794,0.102275103308,-0.2771153523,-0.0028438159164,-0.0111622602485,-1.47621709428
1385566597926608161,-0.0271464415151,0.101624284319,-0.281761451238,-0.00221755828275,-0.00854885297487,-1.47720835287
1385566597936602114,-0.0268345581399,0.101003580367,-0.286225685415,-0.0018226618994,-0.00600430994349,-1.4781648301
1385566597946567694,-0.0264941612503,0.100399870102,-0.290976445136,0.000343693474693,-0.00270824683403,-1.47852247504
1385566597956580385,-0.0263923575229,0.0997052742489,-0.295631417043,0.00158526334418,1.0293851198e-05,-1.4806665418
1385566597966589149,-0.0261200401587,0.0990870439965,-0.300293070934,0.00293040945576,0.00169500096156,-1.4817588879
1385566597976571976,-0.0259106825051,0.0984974888357,-0.30482429372,0.00430014028683,0.00426587472582,-1.48267700329
1385566597986564616,-0.0255905108573,0.0978106381521,-0.309435888354,0.00595641999449,0.00677401946617,-1.48421237141
1385566597996607802,-0.0252493478069,0.0972521501019,-0.31413801782,0.00849655192107,0.00987562989892,-1.484465926
1385566598006581534,-0.0251247420646,0.0965475236855,-0.318829627279,0.00955690920151,0.0116222871741,-1.48567957329
1385566598016586575,-0.0249099736861,0.0959517071094,-0.323358372278,0.0121451389854,0.0145901027043,-1.48645656084
1385566598026604481,-0.0245530145959,0.0953110456792,-0.328141978777,0.0132388786773,0.0159500853717,-1.48768124951
1385566598036565619,-0.0242801027344,0.0946515599027,-0.332788133929,0.0150871271366,0.0163868034183,-1.48927871471
1385566598046575516,-0.0240191500287,0.0940497903452,-0.337569322138,0.0159702215706,0.0173407038368,-1.49026949159
1385566598056582860,-0.0235496939042,0.0933537985494,-0.342387323602,0.0179031381402,0.0168976444078,-1.49083947843
1385566598066573658,-0.0233558989871,0.0927235501296,-0.346957985379,0.0183024732408,0.0171627514156,-1.49210335812
1385566598076568809,-0.0230398690799,0.0920113155345,-0.351772678332,0.0183344896287,0.0165994021994,-1.49293261343
1385566598086584754,-0.0227034630513,0.091530950338,-0.356573004425,0.0183124432025,0.0167932380892,-1.49358019517
1385566598096576588,-0.0224574920605,0.0909110550688,-0.361432508402,0.0186295405685,0.0159412634287,-1.4949570364
1385566598106644584,-0.0220646808206,0.0903197461295,-0.36625019811,0.0183286766391,0.0153152969006,-1.49572645059
1385566598116601035,-0.0216640413753,0.0897297414592,-0.371081851262,0.0180565975491,0.0138922982344,-1.49620889133
1385566598126687823,-0.0213598327618,0.0890835179126,-0.375940301383,0.0178927431455,0.012375765893,-1.49712006938
1385566598136711966,-0.0208684962948,0.0885818862109,-0.381101418466,0.0170441473273,0.0118434889117,-1.49781718118
1385566598146626913,-0.0205455517893,0.0881388099031,-0.386209757949,0.016319146806,0.011231478409,-1.49886460257
1385566598156594404,-0.0199691892499,0.0874965951409,-0.391544751093,0.015001923843,0.00959609071957,-1.49972353127
1385566598166636881,-0.0197109248154,0.0870558015669,-0.396744427882,0.0134642173652,0.00858027937583,-1.50009332336
1385566598176603052,-0.0192058782176,0.0864983855253,-0.401805224976,0.0123512077767,0.00780431210822,-1.50135837427
1385566598186592547,-0.0189903452742,0.085993583364,-0.406773277841,0.0115589545603,0.00859490084259,-1.50209496869
1385566598196576982,-0.0184775559029,0.0855689001663,-0.411293418752,0.010717929106,0.00615466965834,-1.5024750431
1385566598206644812,-0.017973955705,0.0850662814041,-0.41596755304,0.0098809472437,0.00561839521513,-1.50368931384
1385566598216662277,-0.0174209000304,0.0846450666915,-0.420442697092,0.00944135156128,0.00494052468402,-1.50414141022
1385566598226693995,-0.016951220463,0.0841562820154,-0.424883506778,0.00868130603691,0.00514431390013,-1.50554179062
1385566598236687836,-0.0164417185618,0.0836948711582,-0.428994561185,0.00784536400536,0.00412279251845,-1.50582562272
1385566598246694171,-0.0160756452161,0.0832029254891,-0.433121518959,0.00739768950613,0.00543856824428,-1.5068963265
1385566598256614524,-0.0153746067672,0.0827595572033,-0.437178550138,0.00661403424745,0.00530756195256,-1.50724318239
1385566598266592328,-0.0149594867867,0.0823608357827,-0.440887457459,0.004844273006,0.00716569701992,-1.50858058343
1385566598276658833,-0.014636417788,0.0819089310401,-0.444473637726,0.00512647958453,0.00513766634604,-1.50904863911
1385566598286661060,-0.0141340988105,0.0814286993477,-0.447969839046,0.003919445375,0.00533590132826,-1.50965052258
1385566598296592545,-0.0135700754633,0.0809673621645,-0.451505457608,0.00337417679929,0.00631537056736,-1.51071499481
1385566598306636369,-0.013067478779,0.0805213729204,-0.454743807388,0.00313342748079,0.00669968330461,-1.51117800327
1385566598316637329,-0.0125825150549,0.080125466891,-0.457833601453,0.00263193860858,0.00723588677347,-1.5116463947
1385566598326678708,-0.0120333107118,0.0796548564167,-0.46068499527,0.00221324498132,0.00707277027898,-1.5126755131
1385566598336601162,-0.0115721332599,0.079348876094,-0.463515980399,0.00176256247402,0.00813379905842,-1.51304003402
1385566598346626880,-0.0110345211631,0.078799884598,-0.466335140777,0.00175306577267,0.00884709292544,-1.51420371423
1385566598356699382,-0.010458695592,0.0783767895109,-0.468942859204,0.00170199773646,0.00972074035759,-1.5147117602
1385566598366618603,-0.0100888234624,0.0781402718103,-0.471367055611,0.00188862505191,0.011585577945,-1.51571802025
1385566598376579320,-0.00956347369993,0.0775498144831,-0.473556227051,0.00108803442668,0.0106911566416,-1.51629414301
1385566598386656777,-0.00902648312807,0.0771510973398,-0.475896774475,0.00117191110265,0.0110512352036,-1.51674157784
1385566598396680554,-0.00858015630213,0.0767431216794,-0.477849530913,0.00150717333184,0.0109022808985,-1.51747486412
1385566598406618732,-0.00822126595117,0.076437111601,-0.479649745492,0.000642489414775,0.011297363488,-1.51791590341
1385566598416687567,-0.00769923257167,0.0759787648682,-0.481389279096,0.000687524275277,0.0112125607305,-1.51877751307
1385566598426600916,-0.00728100928694,0.0756041026223,-0.483155692101,0.000464872232684,0.0120511555115,-1.51935009006
1385566598436640772,-0.00661238818841,0.0752042882403,-0.484642673551,0.000122370082431,0.012304759893,-1.52057107634
1385566598446667450,-0.00625211746574,0.0747923801068,-0.486007506464,-4.20388035815e-05,0.0127315163689,-1.52094631764
1385566598456596303,-0.00579056586113,0.0744774322233,-0.487391050989,0.000161896279993,0.0124204895008,-1.52126201236
1385566598466590143,-0.00529166270963,0.0739749456732,-0.488502800926,-0.000211792778583,0.011807008703,-1.522102147
1385566598476649415,-0.0048767596528,0.073720603502,-0.489663575946,-0.000274946766035,0.0119695715963,-1.5223849293
1385566598486604238,-0.0044304106785,0.0734163725973,-0.490618332513,-9.36540820679e-06,0.0121112626285,-1.52303757377
1385566598496604486,-0.0039787258874,0.0730501598153,-0.491323636243,-0.000410299805794,0.0129931384915,-1.52394354246
1385566598506671461,-0.0033218486436,0.0726896863244,-0.492292191535,0.000211239182879,0.0129805796847,-1.52486550054
1385566598516604546,-0.00293381412459,0.0723251064256,-0.492848233542,-0.000250874633922,0.0132361220591,-1.5254304939
1385566598526720131,-0.00253348895658,0.0720790223528,-0.493615483299,0.000230540702571,0.0126192430304,-1.525978179
1385566598536782305,-0.00203745722771,0.0716619346259,-0.494006553568,-1.6909518487e-05,0.0113487190814,-1.52675809494
1385566598546636699,-0.00180318087788,0.071456994333,-0.494339292775,3.93093478128e-06,0.0110078033842,-1.526863351
1385566598556591473,-0.00122993552979,0.0710300238428,-0.494649958075,-0.000542260110767,0.0117853378434,-1.5278107128
1385566598566606507,-0.000856663955242,0.0707021986189,-0.494711509641,-0.000784257257006,0.0117708428106,-1.52838133418
1385566598576589105,-0.000395334975681,0.0703781112603,-0.494930466654,-0.00140588266262,0.010869594155,-1.52927064559
1385566598586680661,5.61752747172e-05,0.0700291311535,-0.494966044923,-0.00158859185713,0.0102158482864,-1.52983351438
1385566598596681166,0.000431837561814,0.0698992198668,-0.494871444927,-0.00222863859842,0.0114304612877,-1.53052284579
1385566598606693311,0.000751690203297,0.0696593997939,-0.494723107681,-0.00209475190861,0.010658474262,-1.53082375255
1385566598616648840,0.00123649973216,0.069339808133,-0.494522818659,-0.00259644854238,0.0116224938018,-1.53152276474
1385566598626680444,0.0017320487049,0.0690092670486,-0.494328060452,-0.00256930014068,0.0114692673257,-1.53219560749
1385566598636647654,0.00218056547859,0.0687176268358,-0.493992387235,-0.002212178225,0.0115739450648,-1.53280447972
1385566598646631697,0.0025852564092,0.0684661869873,-0.493583475404,-0.00233217063835,0.011300099397,-1.53351483981
1385566598656609742,0.00284681963626,0.0682960765936,-0.493063740756,-0.00304333883089,0.0115118765051,-1.53399870485
1385566598666587995,0.00332243240012,0.0680162565205,-0.492517265791,-0.00339845743727,0.0118491139438,-1.53476943422
1385566598676628921,0.00367506195477,0.0678311271485,-0.491926621505,-0.0028852104463,0.0108201190393,-1.53532987356
1385566598686600726,0.00406732739242,0.0675614743223,-0.491117008614,-0.00316097429426,0.0121703659178,-1.53576130399
1385566598696624077,0.00453393939505,0.0673770834995,-0.490494881195,-0.0024167810378,0.0125189233387,-1.53633873138
1385566598706621547,0.00472623798035,0.0672030433928,-0.489613111017,-0.00217246962163,0.0128719259785,-1.53688380659
1385566598716687322,0.00508711188816,0.0670507157927,-0.488731521776,-0.00243644631023,0.0135634802876,-1.53746966228
1385566598726661884,0.00555395636283,0.0667407478103,-0.487869946775,-0.00204151142687,0.0127729406988,-1.53828664256
1385566598736617604,0.00580575039834,0.0667255345685,-0.486722634536,-0.00212694721477,0.0134744185433,-1.53853962353
1385566598746598209,0.00624296733815,0.0663700137282,-0.485843787418,-0.00252345869747,0.0129145757421,-1.53940726518
1385566598756583235,0.00658164184339,0.0663284655706,-0.484814670902,-0.00268418928104,0.0134632523702,-1.54010459992
1385566598766600016,0.00699597077256,0.0660467483019,-0.483693610689,-0.00234808553435,0.0128890002779,-1.5406307719
1385566598776673306,0.00730562304204,0.0658623619364,-0.482600746248,-0.00225628899064,0.0129561403202,-1.54114477375
1385566598786675999,0.00766897524233,0.06579050612,-0.481323672174,-0.00203640304251,0.0133793285035,-1.5416448368
1385566598796646685,0.00793088339353,0.0656923407703,-0.480078349362,-0.00144101413061,0.0128424399999,-1.54207411005
1385566598806629069,0.00830639296776,0.0654822350867,-0.47889857933,-0.00110433415069,0.0122540042136,-1.54231739421
1385566598816651666,0.00864164704993,0.0653200712802,-0.477655141825,-0.000949673470479,0.0122951161843,-1.54320509386
1385566598826626351,0.00897344769807,0.0651980797388,-0.476363031053,-0.00114776427018,0.0117182167842,-1.54409026983
1385566598836605467,0.0092307115391,0.0650764913586,-0.47509051868,-0.00222311425184,0.0123815054804,-1.54460529946
1385566598846637219,0.00949237540096,0.0649095083041,-0.473830207582,-0.00217550686318,0.0108130024548,-1.54504945157
1385566598856592655,0.0099162788325,0.064775109745,-0.472550157601,-0.00328634481643,0.0107373101584,-1.54566548521
1385566598866589007,0.0100474497738,0.0647323585822,-0.471133049093,-0.00413022841913,0.0122464555886,-1.54587793113
1385566598876609501,0.0104637234516,0.0645072962883,-0.46982944713,-0.00428563338366,0.00992034547211,-1.54656824451
1385566598886581517,0.0106825418403,0.0644528494619,-0.4684884606,-0.00493961808597,0.011005696317,-1.54676026722
1385566598896623553,0.0109846725372,0.0642863738219,-0.467142383996,-0.00544108458685,0.00914068902078,-1.5474477229
1385566598906606150,0.0111196680753,0.0642429370918,-0.465865286979,-0.00477870640534,0.00969266566751,-1.5481290439
1385566598916577603,0.0114564724708,0.0640876722451,-0.464366793953,-0.00516031666834,0.00797079516442,-1.54865752113
1385566598926580482,0.0117625519496,0.0639823863599,-0.46308174984,-0.00490041879443,0.00711062710137,-1.54906546715
1385566598936570716,0.0119811837574,0.0638928406467,-0.461681096701,-0.00557515630213,0.00730439800533,-1.54988416086
1385566598946569849,0.0121199461012,0.0636990107608,-0.460135502138,-0.00656888699316,0.00634826026895,-1.55029854649
1385566598956582376,0.0124328927187,0.0636247442819,-0.458935867184,-0.0055989425695,0.00509277712277,-1.55060144915
1385566598966572475,0.0124898600165,0.0635214476263,-0.457414697515,-0.00648851600886,0.00449579531352,-1.55106669344
1385566598976561375,0.012832678647,0.0633577311557,-0.456151716744,-0.00718744757782,0.00365206516572,-1.55190360503
1385566598986567771,0.0130805359478,0.0632917794923,-0.454754068919,-0.00703146600178,0.00291122677789,-1.55230580518
1385566598996610784,0.0132979611272,0.0630524842663,-0.453424907715,-0.00752277816791,0.00347635533432,-1.55288481831
1385566599006577056,0.0135134710909,0.063035483696,-0.452311977543,-0.00620699129736,0.00152644424762,-1.55324674262
1385566599016567475,0.0139153780943,0.0628739155596,-0.451042522301,-0.00600289664444,0.000862026279144,-1.55368282621
1385566599026568774,0.0140670037004,0.0627644372397,-0.449725948002,-0.00574444208664,0.000958147640737,-1.55443984726
1385566599036578585,0.0144330457293,0.0626362832038,-0.448611384978,-0.00460636156281,0.000384126822107,-1.55482544741
1385566599046565683,0.0145451739209,0.0625226055474,-0.447224604002,-0.00345048339954,-0.00029727448291,-1.55543265849
1385566599056591167,0.0147755360886,0.062376431047,-0.446159881482,-0.00326734123211,-0.000815790712536,-1.55607374663
1385566599066588352,0.0150854739742,0.062183478582,-0.445008617208,-0.00209800457942,-0.00100328089406,-1.55626650216
1385566599076565399,0.0153873997597,0.0620724736116,-0.443755417348,-0.00192735818581,-0.00163861763085,-1.55691217275
1385566599086569028,0.015587031766,0.0618659681926,-0.442676537822,-0.00162609941877,-0.00171009859544,-1.5572414414
1385566599096601729,0.0158328861269,0.0617231033439,-0.441519784973,-0.000768555919172,-0.00194296858604,-1.55789608661
1385566599106574619,0.0160317927027,0.0615803659787,-0.440409747526,5.31719319405e-05,-0.00258678896436,-1.55817299971
1385566599116572022,0.0164038740163,0.061405265052,-0.439341713148,-3.65275940387e-05,-0.00223518218479,-1.55853638808
1385566599126577019,0.0164950153715,0.061245401542,-0.438162622863,0.00055428581854,-0.0030280116566,-1.55927248731
1385566599136584123,0.0167985845876,0.0610838919671,-0.437241741535,0.00096888240415,-0.00337744289917,-1.55947781339
1385566599146575127,0.0170876644483,0.0607950621803,-0.436144852131,0.000692936746766,-0.00301590060551,-1.56012652179
1385566599156569596,0.0170581878593,0.0605725520931,-0.435106960013,0.000937918156934,-0.00217608020456,-1.56024522681
1385566599166582012,0.0175472560605,0.0603619180222,-0.434154439362,0.000181874317658,-0.00323330457541,-1.56046443909
1385566599176572783,0.0177773575438,0.0601318143557,-0.433149149901,-2.17053973331e-05,-0.00237386191681,-1.56106663367
1385566599186563663,0.0178934067418,0.059886355499,-0.43225691333,0.000226117055012,-0.00347908294873,-1.56121942503
1385566599196584711,0.0182090953056,0.0596113250056,-0.431330419907,-0.000202962992157,-0.00282544950594,-1.56197427497
1385566599206570562,0.0184424622941,0.059401184398,-0.430430684969,-0.000334998314601,-0.00308424389101,-1.56258235922
1385566599216564208,0.0186331789979,0.0591291338962,-0.42954556729,0.000128768866272,-0.00392427457096,-1.5627604804
1385566599226566337,0.0189187418912,0.0588928755024,-0.428715977565,0.000270802279262,-0.00278679793077,-1.56341580993
1385566599236708535,0.0191494889214,0.058526926236,-0.428007417374,0.000735432241381,-0.00246253502724,-1.56349442385
1385566599246609644,0.0195390082826,0.0581985419911,-0.427028863452,0.000192078920976,-0.00302759385137,-1.56375019878
1385566599256617150,0.0198392519972,0.0579260056429,-0.426290409842,8.88114905891e-05,-0.00161137770184,-1.56424358891
1385566599266622547,0.019936716421,0.0576237142253,-0.425478807694,3.91259918844e-05,-0.00345199304468,-1.5643077662
1385566599276597868,0.0203184636537,0.0573064285666,-0.42466937785,-0.00123506050999,-0.00263969096107,-1.56512316003
1385566599286593849,0.0203430597553,0.0569928993233,-0.423924285288,-0.00148277927031,-0.00290327247674,-1.56504007845
1385566599296604855,0.0205887447842,0.0566320671633,-0.423266031643,-0.00251810263731,-0.002962870302,-1.56504858599
1385566599306618011,0.0208572952824,0.0562281959664,-0.422692006555,-0.00446164644832,-0.00439109637594,-1.56556424073
1385566599316641317,0.0209126578226,0.0558252883737,-0.422118923915,-0.00543597694573,-0.00347050821422,-1.5660121546
1385566599326601107,0.0212211415491,0.0554806983727,-0.421531996845,-0.00616808235524,-0.00155712534461,-1.56670869537
1385566599336584572,0.0217480975597,0.0552041245765,-0.420859760154,-0.00512487589757,-0.00145717235118,-1.56633285907
1385566599346690231,0.0219464272779,0.0548536229333,-0.420341058819,-0.00590729933758,-0.00172557166742,-1.56656321941
1385566599356586769,0.0221147234481,0.0545385216648,-0.419786911405,-0.00537921250676,-0.00169678361711,-1.56674540059
1385566599366572514,0.022377912332,0.0541980966587,-0.419356061425,-0.00542101350324,-0.00100389947931,-1.5668380057
1385566599376565549,0.0227306710222,0.05375620865,-0.418875736935,-0.00510470719222,-0.0010011402295,-1.56721295944
1385566599386689502,0.0228148649909,0.053391320658,-0.418539121187,-0.00463922736709,-0.000849123871358,-1.56765804423
1385566599396593746,0.0231533116307,0.0529865978356,-0.41827485712,-0.00445737984368,-0.000832160783954,-1.56798736255
1385566599406572452,0.0234461952779,0.0526368315733,-0.417821986839,-0.00453901722101,-0.00106573812307,-1.56839110775
1385566599416585781,0.0236392663982,0.0522334649367,-0.417523271035,-0.00487264985672,-0.000792705344016,-1.56831578735
1385566599426581546,0.0238909569737,0.0518280455837,-0.417213798193,-0.00451663101448,-0.000845956692988,-1.56797660843
1385566599436570893,0.0240552730899,0.0514621945484,-0.417051728903,-0.00428014297719,-0.000324480574344,-1.5678623563
1385566599446570960,0.024131687847,0.0509578623309,-0.417050375388,-0.00427851321017,1.64143970185e-05,-1.56831805422
1385566599456609930,0.0245005653187,0.0505202129883,-0.41680322266,-0.00493947303217,0.000709266390346,-1.56913584334
1385566599466586679,0.024613650694,0.0500870638781,-0.41675655114,-0.00440064400055,0.00103191001439,-1.56951705313
1385566599476571773,0.0247270940341,0.0496375424475,-0.416744838038,-0.00449034290293,0.0021595826855,-1.56966318064
1385566599486569922,0.0250106420559,0.049293114391,-0.416711082069,-0.00473338866102,0.00203818135968,-1.5698645717
1385566599496563360,0.0252203300692,0.0489313388488,-0.416797277099,-0.00445786580529,0.0022607650536,-1.56912805231
1385566599506569495,0.0256918313903,0.0485688439805,-0.416879216267,-0.0039703291063,0.00294308521148,-1.56863873328
1385566599516679021,0.0258045384659,0.0481645738104,-0.416985432078,-0.00397782224307,0.00400776504849,-1.56894861671
1385566599526727247,0.02584253464,0.0477166725891,-0.417275773356,-0.00440526761012,0.00439410637731,-1.56975611371
1385566599536610872,0.026162498455,0.0473428707045,-0.417379986363,-0.00530770813009,0.0051900147378,-1.57054224497
1385566599546579431,0.0262875623738,0.0469378738438,-0.417833736793,-0.00453124057804,0.0059210163302,-1.56980529581
1385566599556577035,0.0263685302539,0.0464889030968,-0.418016684465,-0.00522742702269,0.00633407231792,-1.57028310868
1385566599566571169,0.026406028545,0.0461657302781,-0.418273505501,-0.00571510008145,0.0072863046096,-1.57024128756
1385566599576561234,0.026687798454,0.0457920590392,-0.418745651564,-0.00620908675159,0.00756402364622,-1.57036422827
1385566599586568816,0.0268550846712,0.0453930931057,-0.419089130387,-0.00565735317682,0.00821115826808,-1.57051546749
1385566599596577450,0.0270151402335,0.0450178927354,-0.41953082148,-0.00631869366576,0.0098488773507,-1.57050120898
1385566599606901883,0.0272303420454,0.044630285543,-0.419907376171,-0.00608719725656,0.0105531927602,-1.57069221921
1385566599616665294,0.0273790363726,0.0443628189629,-0.420316982757,-0.00583871126709,0.0113033055536,-1.57101507112
1385566599626633521,0.0275917798177,0.0439943492441,-0.420867858271,-0.00722210344568,0.01108236739,-1.5711047356
1385566599636619407,0.0277222374906,0.0436245687866,-0.421348816201,-0.00730915972345,0.0109973800504,-1.57141819915
1385566599646654121,0.0278326157122,0.0432172374583,-0.421908424806,-0.00799263465302,0.0121816650163,-1.57136517333
1385566599656582508,0.0278904285724,0.0429010159615,-0.422543035639,-0.00755449905828,0.011709071487,-1.57110085978
1385566599666569088,0.0279608581196,0.0425135629053,-0.42314682839,-0.00786315286557,0.0114049845963,-1.57128814899
