%time,field.header.seq,field.header.stamp,field.header.frame_id,field.child_frame_id,field.transform.translation.x,field.transform.translation.y,field.transform.translation.z,field.transform.rotation.x,field.transform.rotation.y,field.transform.rotation.z,field.transform.rotation.w
1385566591330614378,382089,1385566591330614378,/world,vicon/Archie/Archie,-0.0235237124353,-0.0820095781865,0.112520889987,0.0016647761429,-0.00276410727957,0.633182091289,0.773996141788
1385566591340512935,382090,1385566591340512935,/world,vicon/Archie/Archie,-0.0235635122745,-0.0819603818624,0.11246557618,0.00158751016805,-0.00272519304063,0.633167944175,0.774008015206
1385566591350644056,382091,1385566591350644056,/world,vicon/Archie/Archie,-0.0235679802292,-0.081966233476,0.11246782139,0.00160058464887,-0.00272259517989,0.63316473282,0.774010624421
1385566591360578358,382092,1385566591360578358,/world,vicon/Archie/Archie,-0.0235178625257,-0.0819874842773,0.112544237322,0.00156354213627,-0.00262580175419,0.633164218813,0.774011455029
1385566591370514497,382093,1385566591370514497,/world,vicon/Archie/Archie,-0.0234449306486,-0.0820029402198,0.112536962287,0.0017035432968,-0.00275622893051,0.633081572477,0.774078305944
1385566591380578274,382094,1385566591380578274,/world,vicon/Archie/Archie,-0.0235953960882,-0.082021164323,0.112522584215,0.0018647940039,-0.00301635966222,0.633239422719,0.77394783909
1385566591390486279,382095,1385566591390486279,/world,vicon/Archie/Archie,-0.0235527417939,-0.0819646277952,0.112463479584,0.00163204129296,-0.00273332512468,0.633164327204,0.774010852722
1385566591400563043,382096,1385566591400563043,/world,vicon/Archie/Archie,-0.0235642100496,-0.0819734810337,0.112467546281,0.00159869516115,-0.00272810675958,0.633172272976,0.774004440776
1385566591410513613,382097,1385566591410513613,/world,vicon/Archie/Archie,-0.0235619636667,-0.0819654797755,0.112465875579,0.00162121294404,-0.00277090157735,0.63317228481,0.774004232237
1385566591420587852,382098,1385566591420587852,/world,vicon/Archie/Archie,-0.0235276104111,-0.0820048207073,0.112514353707,0.00165153745797,-0.0027646013186,0.63316877385,0.774007062775
1385566591430646973,382099,1385566591430646973,/world,vicon/Archie/Archie,-0.0235654309245,-0.0819662341233,0.112471050477,0.00160152076538,-0.00270276306258,0.633179571344,0.773998553381
1385566591440509756,382100,1385566591440509756,/world,vicon/Archie/Archie,-0.023589782152,-0.0820056063379,0.112532056924,0.00186419276565,-0.00296816512686,0.633245672849,0.773942913011
1385566591450677232,382101,1385566591450677232,/world,vicon/Archie/Archie,-0.0235548334652,-0.0819621269903,0.112474055668,0.00160011797422,-0.0027258698959,0.633169070956,0.77400706511
1385566591460548801,382102,1385566591460548801,/world,vicon/Archie/Archie,-0.0235593889493,-0.0819662734968,0.112469708945,0.00159872622099,-0.0027354586362,0.63317215807,0.774004508763
1385566591470592760,382103,1385566591470592760,/world,vicon/Archie/Archie,-0.0235094461379,-0.0820158481205,0.112518822787,0.00163444319765,-0.00273877599255,0.633157312789,0.774016566336
1385566591480599766,382104,1385566591480599766,/world,vicon/Archie/Archie,-0.0235175078688,-0.0820068452598,0.112524078908,0.00164679520958,-0.00273787822651,0.633172738578,0.774003924545
1385566591490524660,382105,1385566591490524660,/world,vicon/Archie/Archie,-0.023569927092,-0.08197145863,0.112468709474,0.00158647334153,-0.00270003099403,0.633153598305,0.774019840759
1385566591500635591,382106,1385566591500635591,/world,vicon/Archie/Archie,-0.0235157031986,-0.0820032392341,0.112521594122,0.00164259612535,-0.00272081620201,0.633156656308,0.774017149429
1385566591510658875,382107,1385566591510658875,/world,vicon/Archie/Archie,-0.0234446177084,-0.0820004662437,0.112541446575,0.00170765625286,-0.0027583533154,0.633070668095,0.774087207357
1385566591520534739,382108,1385566591520534739,/world,vicon/Archie/Archie,-0.0234788547272,-0.0819484418058,0.112493299355,0.00167182606547,-0.00274093750433,0.633073711927,0.774084858091
1385566591530588785,382109,1385566591530588785,/world,vicon/Archie/Archie,-0.023637624204,-0.0819337320159,0.112408200794,0.00143117637624,-0.00280406212161,0.633179400781,0.773998666275
1385566591540596472,382110,1385566591540596472,/world,vicon/Archie/Archie,-0.0235204878105,-0.0820015799792,0.112517689786,0.0016314962884,-0.00273272204008,0.633152357247,0.774020647633
1385566591550645738,382111,1385566591550645738,/world,vicon/Archie/Archie,-0.0235525810575,-0.0819600705365,0.112467565122,0.00159462750058,-0.00271787198194,0.63316727761,0.774008571593
1385566591560513771,382112,1385566591560513771,/world,vicon/Archie/Archie,-0.0235806507884,-0.081955843121,0.112480489372,0.00161979007172,-0.00271457094915,0.633169238915,0.774006926504
1385566591570506336,382113,1385566591570506336,/world,vicon/Archie/Archie,-0.023557984435,-0.0819634714709,0.11247039316,0.00159971503883,-0.00271596427973,0.633152502235,0.774020654352
1385566591580663246,382114,1385566591580663246,/world,vicon/Archie/Archie,-0.0235213888451,-0.0820064871973,0.11251775083,0.00163584891972,-0.00274945401296,0.633161286512,0.774013274927
1385566591590622773,382115,1385566591590622773,/world,vicon/Archie/Archie,-0.0235645770568,-0.0819559375096,0.112469498605,0.00161085731781,-0.00271595689099,0.633167327484,0.774008503909
1385566591600596016,382116,1385566591600596016,/world,vicon/Archie/Archie,-0.023521806871,-0.0819931416759,0.112512875882,0.00163706328773,-0.00272446297168,0.633156319705,0.774017423668
1385566591610464906,382117,1385566591610464906,/world,vicon/Archie/Archie,-0.0235197024896,-0.0819880269018,0.112508746576,0.00162607860907,-0.00273751297179,0.633160581671,0.774013914415
1385566591620615131,382118,1385566591620615131,/world,vicon/Archie/Archie,-0.0235300844992,-0.0819983987239,0.112522454943,0.00165031518368,-0.0027255068569,0.633172420217,0.774004221144
1385566591630648674,382119,1385566591630648674,/world,vicon/Archie/Archie,-0.0235955409399,-0.081977394815,0.112458664316,0.00146838277768,-0.00282380684406,0.633170312753,0.774005959289
1385566591640662516,382120,1385566591640662516,/world,vicon/Archie/Archie,-0.0235284340855,-0.0819939086786,0.112509809865,0.00161640794575,-0.00275996469925,0.633161822974,0.774012839525
1385566591650616758,382121,1385566591650616758,/world,vicon/Archie/Archie,-0.0235354220486,-0.081999668179,0.112510729288,0.00164224920666,-0.00274055937038,0.633152131329,0.774020781986
1385566591660516205,382122,1385566591660516205,/world,vicon/Archie/Archie,-0.0235304394338,-0.0820038129155,0.11251132258,0.00162916172297,-0.00274445822843,0.633158546951,0.774015547779
1385566591670522649,382123,1385566591670522649,/world,vicon/Archie/Archie,-0.0235253137534,-0.081999605652,0.112516253461,0.00164503353629,-0.00274387748275,0.633160049331,0.774014287292
1385566591680622066,382124,1385566591680622066,/world,vicon/Archie/Archie,-0.0236287128009,-0.0819272524675,0.112402772406,0.00142518267917,-0.0027725052318,0.63316651907,0.774009328883
1385566591690562625,382125,1385566591690562625,/world,vicon/Archie/Archie,-0.0235286952254,-0.0820009630011,0.112517252997,0.00165883494796,-0.00275183954311,0.633166181986,0.774009212887
1385566591700739627,382126,1385566591700739627,/world,vicon/Archie/Archie,-0.023617615982,-0.0820237783172,0.112507184623,0.00170944874657,-0.00308041717208,0.633237356835,0.77394963578
1385566591710679623,382127,1385566591710679623,/world,vicon/Archie/Archie,-0.0236287185695,-0.0819309413451,0.112398554001,0.0014116932002,-0.00278784944167,0.63317156916,0.774005167311
1385566591720640780,382128,1385566591720640780,/world,vicon/Archie/Archie,-0.0235666211365,-0.0820461340188,0.112581792595,0.0019202607136,-0.00303591397272,0.633243363931,0.773944402307
1385566591730525040,382129,1385566591730525040,/world,vicon/Archie/Archie,-0.023555514906,-0.0820541234738,0.112570716956,0.00190118972688,-0.00302340924492,0.633235035142,0.773951312902
1385566591740523685,382130,1385566591740523685,/world,vicon/Archie/Archie,-0.0235145601812,-0.0820015202558,0.112516631257,0.00164225189135,-0.00274835949884,0.633158296944,0.774015710784
1385566591750563786,382131,1385566591750563786,/world,vicon/Archie/Archie,-0.0234747675986,-0.0819536581918,0.112490385701,0.00167244339921,-0.00277648994873,0.633079378552,0.774080095655
1385566591760553390,382132,1385566591760553390,/world,vicon/Archie/Archie,-0.0235506855037,-0.0819640764311,0.112473902251,0.00160713234665,-0.00274800881058,0.633153857014,0.774019417664
1385566591770575185,382133,1385566591770575185,/world,vicon/Archie/Archie,-0.0235182961579,-0.0820002481166,0.112522796947,0.00165792344665,-0.00275968812784,0.633160530293,0.774013810142
1385566591780569327,382134,1385566591780569327,/world,vicon/Archie/Archie,-0.0235672517338,-0.0819570415297,0.11246207609,0.00159015050998,-0.00274008617353,0.633170399245,0.774005948859
1385566591790549741,382135,1385566591790549741,/world,vicon/Archie/Archie,-0.0235601193147,-0.0819637014109,0.112470775087,0.00160801345055,-0.00273808386454,0.633176279477,0.774001108718
1385566591800586671,382136,1385566591800586671,/world,vicon/Archie/Archie,-0.0235223689331,-0.0820081525223,0.112515298093,0.00164884837593,-0.00277326493789,0.633170463466,0.774005655338
1385566591810475230,382137,1385566591810475230,/world,vicon/Archie/Archie,-0.0234323950303,-0.0820059750261,0.11253771721,0.00172621487218,-0.00280387601818,0.633084744498,0.77407549034
1385566591820469862,382138,1385566591820469862,/world,vicon/Archie/Archie,-0.023479906512,-0.0819532765161,0.112491661899,0.00165920817895,-0.0027840682682,0.633092851312,0.774069078061
1385566591830645675,382139,1385566591830645675,/world,vicon/Archie/Archie,-0.0235602499817,-0.0819596840309,0.11246372498,0.00159994733992,-0.0027400573632,0.633159770059,0.774014623785
1385566591840465793,382140,1385566591840465793,/world,vicon/Archie/Archie,-0.0235628706264,-0.0819574407475,0.11245598511,0.0016000001559,-0.00275419394346,0.633169372155,0.774006718692
1385566591850759030,382141,1385566591850759030,/world,vicon/Archie/Archie,-0.0235175401911,-0.0819904895602,0.112494425952,0.00163026483724,-0.00276699104156,0.633165081392,0.774010119897
1385566591860517498,382142,1385566591860517498,/world,vicon/Archie/Archie,-0.023526935219,-0.0820067952887,0.112523273462,0.00166107144101,-0.00275022654816,0.633173684098,0.774003076778
1385566591870482474,382143,1385566591870482474,/world,vicon/Archie/Archie,-0.0235247216863,-0.0820011930011,0.112547495593,0.00192873284702,-0.00302162298416,0.633165043729,0.774008512346
1385566591880671149,382144,1385566591880671149,/world,vicon/Archie/Archie,-0.0235664702014,-0.0819622779489,0.112467322876,0.00159432153075,-0.0027418745957,0.633182174948,0.77399630076
1385566591890399856,382145,1385566591890399856,/world,vicon/Archie/Archie,-0.023480214749,-0.0819550895723,0.11248892439,0.00166103697087,-0.00274653367991,0.633091915661,0.774069973474
1385566591900639580,382146,1385566591900639580,/world,vicon/Archie/Archie,-0.0235288785395,-0.0820083742682,0.112527783039,0.00167863905225,-0.00276460136686,0.63317706193,0.774000224416
1385566591910728773,382147,1385566591910728773,/world,vicon/Archie/Archie,-0.0234828710166,-0.0819538707561,0.112486142193,0.00165910711439,-0.00275212228998,0.633085258859,0.774075402142
1385566591920588161,382148,1385566591920588161,/world,vicon/Archie/Archie,-0.0235664292384,-0.0819404676937,0.112493327283,0.00152117223744,-0.00262939589555,0.633172949915,0.774004384877
1385566591930615312,382149,1385566591930615312,/world,vicon/Archie/Archie,-0.023567577028,-0.0819623136232,0.112465138128,0.0016128695214,-0.00275104114465,0.633167238401,0.774008448688
1385566591940453849,382150,1385566591940453849,/world,vicon/Archie/Archie,-0.0235277958716,-0.0820075056337,0.112511570313,0.00162880579517,-0.00277707053946,0.633174783734,0.774002149942
1385566591950615046,382151,1385566591950615046,/world,vicon/Archie/Archie,-0.023445514582,-0.0819924945177,0.112542263151,0.00171728605654,-0.00279114719918,0.633075083114,0.774083457753
1385566591960610350,382152,1385566591960610350,/world,vicon/Archie/Archie,-0.0235635016548,-0.081964032253,0.112451488146,0.00160048167727,-0.00274430661703,0.633181824452,0.773996566158
1385566591970463175,382153,1385566591970463175,/world,vicon/Archie/Archie,-0.0235188068799,-0.0820119502661,0.112510508531,0.00168103050869,-0.00280959733657,0.633188626481,0.77399059658
1385566591980607014,382154,1385566591980607014,/world,vicon/Archie/Archie,-0.0235509994396,-0.0820519223341,0.11256603064,0.00190345079443,-0.0030628165899,0.633254552512,0.773935183172
1385566591990529374,382155,1385566591990529374,/world,vicon/Archie/Archie,-0.0235737544632,-0.0819662164113,0.112466044562,0.0016095698266,-0.00275062300377,0.633180489342,0.773997617099
1385566592000630333,382156,1385566592000630333,/world,vicon/Archie/Archie,-0.0235724116296,-0.0819898494381,0.112449797951,0.00151007324284,-0.0028167416071,0.633175567307,0.774001606336
1385566592010648706,382157,1385566592010648706,/world,vicon/Archie/Archie,-0.0235842741072,-0.0819681891664,0.112465692255,0.00160962905428,-0.0027436800087,0.63318808008,0.773991431838
1385566592020607377,382158,1385566592020607377,/world,vicon/Archie/Archie,-0.0235334988509,-0.0820050497517,0.112510379395,0.00164271234611,-0.00275726843392,0.633171154634,0.774005160129
1385566592030513366,382159,1385566592030513366,/world,vicon/Archie/Archie,-0.023582942707,-0.0819624330903,0.112456045802,0.00159137265188,-0.0027423943723,0.633187999055,0.773991540431
1385566592040901941,382160,1385566592040901941,/world,vicon/Archie/Archie,-0.0235464911684,-0.0820080636199,0.112504071832,0.00166662274474,-0.00274988140659,0.633184488135,0.773994227695
1385566592050562982,382161,1385566592050562982,/world,vicon/Archie/Archie,-0.0235966473807,-0.0819664597344,0.112452180963,0.0016107960422,-0.00274831423095,0.63319599821,0.773984935225
1385566592060527222,382162,1385566592060527222,/world,vicon/Archie/Archie,-0.0236564590964,-0.0820183152364,0.112501251255,0.00171612219525,-0.00308233385924,0.633243778983,0.773944358803
1385566592070522379,382163,1385566592070522379,/world,vicon/Archie/Archie,-0.0235368019938,-0.0820056564901,0.112503813413,0.00164686946482,-0.00273737858907,0.633176836246,0.774000574045
1385566592080706200,382164,1385566592080706200,/world,vicon/Archie/Archie,-0.0235867693984,-0.0819612960622,0.112462143938,0.00159939694167,-0.00272064434572,0.633170387144,0.774006008289
1385566592090495646,382165,1385566592090495646,/world,vicon/Archie/Archie,-0.0235371364547,-0.0820080480746,0.112509362838,0.00164579641311,-0.00276243485982,0.63317246452,0.774004063608
1385566592100764807,382166,1385566592100764807,/world,vicon/Archie/Archie,-0.0236247211388,-0.081916655842,0.112432394884,0.00133930902475,-0.00265704682422,0.633174615857,0.77400326368
1385566592110505218,382167,1385566592110505218,/world,vicon/Archie/Archie,-0.0235670500459,-0.0819650365662,0.112461413144,0.00159125022337,-0.00274638089979,0.6331722631,0.774004399571
1385566592120545573,382168,1385566592120545573,/world,vicon/Archie/Archie,-0.0235217319589,-0.0820126783762,0.112513631233,0.00163553060987,-0.00275253736008,0.633175666357,0.774001501362
1385566592130677385,382169,1385566592130677385,/world,vicon/Archie/Archie,-0.0235692119654,-0.0819706685567,0.112457809182,0.00160560778081,-0.00276516945145,0.633187526001,0.773991816997
1385566592140538144,382170,1385566592140538144,/world,vicon/Archie/Archie,-0.0235249131265,-0.0820072144356,0.112505813697,0.00162576392902,-0.00275962289557,0.633167780525,0.774007947684
1385566592150620515,382171,1385566592150620515,/world,vicon/Archie/Archie,-0.0235220859681,-0.0820122957425,0.112520834924,0.00164790405703,-0.00273890845615,0.633170590544,0.77400567573
1385566592160585879,382172,1385566592160585879,/world,vicon/Archie/Archie,-0.0235746017969,-0.0819712632342,0.112463646621,0.0015709971335,-0.00273421015314,0.633180034933,0.773998126242
1385566592170618374,382173,1385566592170618374,/world,vicon/Archie/Archie,-0.0235269574603,-0.0820168353459,0.112520722957,0.00164678970493,-0.0027355012398,0.633183070751,0.773995480627
1385566592180553172,382174,1385566592180553172,/world,vicon/Archie/Archie,-0.0235291399443,-0.0820086711207,0.11251755492,0.00163153885084,-0.00273021926213,0.63317597997,0.774001332281
1385566592190387678,382175,1385566592190387678,/world,vicon/Archie/Archie,-0.0235800730808,-0.0819665349066,0.112459602937,0.00156901565407,-0.00270347184167,0.633171860602,0.774004925289
1385566592200716388,382176,1385566592200716388,/world,vicon/Archie/Archie,-0.0235797480621,-0.0819663415202,0.112466319539,0.00159403109228,-0.00272679308773,0.63318442572,0.773994513346
1385566592210524350,382177,1385566592210524350,/world,vicon/Archie/Archie,-0.0234865570714,-0.0819644950425,0.112495027991,0.00168015041506,-0.00274530769522,0.633083522265,0.774076801239
1385566592220550283,382178,1385566592220550283,/world,vicon/Archie/Archie,-0.0235260955734,-0.082024483064,0.11251100954,0.00164420065287,-0.00274300363113,0.63317146857,0.77400495084
1385566592232006425,382179,1385566592232006425,/world,vicon/Archie/Archie,-0.0236384260219,-0.0819449569281,0.112399362443,0.00141514580156,-0.00275585117766,0.633170657733,0.774006021186
1385566592240477601,382180,1385566592240477601,/world,vicon/Archie/Archie,-0.023577641297,-0.0819697821671,0.112459402972,0.00159910685215,-0.00273108435792,0.633187769865,0.773991751977
1385566592250494201,382181,1385566592250494201,/world,vicon/Archie/Archie,-0.0235304783643,-0.0820128717674,0.11251156872,0.00164789549063,-0.00277231099547,0.633177175803,0.774000169751
1385566592260516188,382182,1385566592260516188,/world,vicon/Archie/Archie,-0.0235782344722,-0.0819651175154,0.112469027734,0.00160725306208,-0.00272763605916,0.633180280724,0.773997873925
1385566592270593170,382183,1385566592270593170,/world,vicon/Archie/Archie,-0.0236147896953,-0.0820169719036,0.112531299421,0.00188015427805,-0.00300957861585,0.633245039465,0.773943232705
1385566592280628747,382184,1385566592280628747,/world,vicon/Archie/Archie,-0.0235785928704,-0.0819647457593,0.112466760075,0.00160133410351,-0.00273929152216,0.633173909674,0.774003056918
1385566592290465698,382185,1385566592290465698,/world,vicon/Archie/Archie,-0.0235215000561,-0.082011290027,0.112517592477,0.00165323317676,-0.00276148193543,0.633168392279,0.77400738243
1385566592300597424,382186,1385566592300597424,/world,vicon/Archie/Archie,-0.0235714426628,-0.0819718635898,0.112467188624,0.00159496438865,-0.00273345930488,0.633172108979,0.774004563746
1385566592310570016,382187,1385566592310570016,/world,vicon/Archie/Archie,-0.0235726392007,-0.0819658659197,0.112471795053,0.00158807135527,-0.00272598523023,0.633166788835,0.774008956376
1385566592320670395,382188,1385566592320670395,/world,vicon/Archie/Archie,-0.0235355206495,-0.08201422314,0.112521513896,0.00165646515452,-0.00275848987623,0.633176685865,0.774000601637
1385566592330588150,382189,1385566592330588150,/world,vicon/Archie/Archie,-0.0236407475017,-0.0819497755206,0.112409139256,0.0014558566186,-0.0028316797173,0.633196081027,0.773984873912
1385566592340497427,382190,1385566592340497427,/world,vicon/Archie/Archie,-0.0234880476951,-0.0819424222888,0.112473361187,0.00164990354215,-0.00273255283906,0.633079492524,0.774080207161
1385566592350620900,382191,1385566592350620900,/world,vicon/Archie/Archie,-0.0235777571692,-0.0819668902011,0.112471996132,0.00159149776659,-0.00273784718892,0.633163818468,0.774011337327
1385566592360627424,382192,1385566592360627424,/world,vicon/Archie/Archie,-0.0236311738866,-0.0820237282648,0.112514373501,0.00172559204807,-0.00307572958249,0.633235301236,0.773951300463
1385566592370555864,382193,1385566592370555864,/world,vicon/Archie/Archie,-0.0236414391369,-0.0819361403187,0.112403443501,0.00140996324977,-0.00281539309563,0.633187594558,0.773991960981
1385566592380568705,382194,1385566592380568705,/world,vicon/Archie/Archie,-0.0235738779862,-0.081963770509,0.112474337276,0.00162466571823,-0.00274832236812,0.633187269191,0.773992047324
1385566592390484586,382195,1385566592390484586,/world,vicon/Archie/Archie,-0.0236426606412,-0.0819411252533,0.112412034664,0.00141502628731,-0.00279582427477,0.633171446239,0.774005233015
1385566592400664433,382196,1385566592400664433,/world,vicon/Archie/Archie,-0.0235426818662,-0.082015144601,0.112523025366,0.00164928295779,-0.002738131039,0.633171791022,0.774004693499
1385566592410668343,382197,1385566592410668343,/world,vicon/Archie/Archie,-0.0235717419148,-0.081963750247,0.112477277332,0.00161588157865,-0.00270926360139,0.63316881693,0.77400729847
1385566592420616457,382198,1385566592420616457,/world,vicon/Archie/Archie,-0.0236182724346,-0.0820132297308,0.112541350832,0.00186219404292,-0.00298810028444,0.63324100776,0.773946658098
1385566592430721966,382199,1385566592430721966,/world,vicon/Archie/Archie,-0.0235692352676,-0.0819681396463,0.112478700458,0.00159098994648,-0.00271983995785,0.633174030646,0.774003047886
1385566592440506301,382200,1385566592440506301,/world,vicon/Archie/Archie,-0.0235729497736,-0.081969135745,0.112482258233,0.00161455509206,-0.00273849809909,0.633168249748,0.774007662334
1385566592450567299,382201,1385566592450567299,/world,vicon/Archie/Archie,-0.0235822893236,-0.081974543223,0.112483905977,0.00163304593454,-0.00272833150791,0.633180391619,0.773997726765
1385566592460697172,382202,1385566592460697172,/world,vicon/Archie/Archie,-0.0235342875184,-0.0820032138337,0.112538177683,0.00166656604696,-0.00276300661678,0.633182703698,0.773995640873
1385566592470534607,382203,1385566592470534607,/world,vicon/Archie/Archie,-0.0235399857456,-0.0820074799566,0.112535639297,0.00163151898769,-0.00274119544478,0.633162225646,0.774012545123
1385566592480647641,382204,1385566592480647641,/world,vicon/Archie/Archie,-0.0235696941367,-0.0819667084222,0.11249101196,0.00160520924125,-0.00270894187931,0.63317880073,0.773999154549
1385566592490533871,382205,1385566592490533871,/world,vicon/Archie/Archie,-0.02349350404,-0.0819595833837,0.11250760011,0.00165446034294,-0.00272851938649,0.633076674584,0.7740825163
1385566592500657553,382206,1385566592500657553,/world,vicon/Archie/Archie,-0.0235258435148,-0.0820178900992,0.112541870502,0.00164240817107,-0.00272697818225,0.633178864073,0.773998961354
1385566592510633398,382207,1385566592510633398,/world,vicon/Archie/Archie,-0.0235758963976,-0.081971558036,0.1124959285,0.00160660496811,-0.00272404037157,0.633168111552,0.774007842943
1385566592520573418,382208,1385566592520573418,/world,vicon/Archie/Archie,-0.0235689436176,-0.081970399254,0.112485480845,0.00162399996025,-0.00272717244458,0.633172589286,0.774004132632
1385566592530622596,382209,1385566592530622596,/world,vicon/Archie/Archie,-0.0235570103084,-0.0819714881361,0.112482318783,0.0015920533943,-0.00271633232116,0.633165743275,0.774009837436
1385566592540589507,382210,1385566592540589507,/world,vicon/Archie/Archie,-0.0236326204886,-0.081947203231,0.1124208559,0.00141483717208,-0.00275918683374,0.633184880821,0.773994374543
1385566592550704823,382211,1385566592550704823,/world,vicon/Archie/Archie,-0.023571455268,-0.0819519340724,0.112510597298,0.00152980699756,-0.0025875197155,0.633171336657,0.774005828704
1385566592560732805,382212,1385566592560732805,/world,vicon/Archie/Archie,-0.0235257576227,-0.0820131491657,0.112543612524,0.0016640728023,-0.00272208851347,0.633172092325,0.774004471949
1385566592570568769,382213,1385566592570568769,/world,vicon/Archie/Archie,-0.0235626322517,-0.0819764631029,0.112487549848,0.00158199943125,-0.00270810836095,0.633170604532,0.774005910173
1385566592580663906,382214,1385566592580663906,/world,vicon/Archie/Archie,-0.0235692695732,-0.0819735283599,0.11248003061,0.00158287685137,-0.00271212620666,0.633177847302,0.773999969353
1385566592590584519,382215,1385566592590584519,/world,vicon/Archie/Archie,-0.0235665027209,-0.0819691062567,0.112483744606,0.00159829246616,-0.00270757540253,0.633178950132,0.773999051424
1385566592600696852,382216,1385566592600696852,/world,vicon/Archie/Archie,-0.0235628377766,-0.0819829552108,0.112481319999,0.00158300204467,-0.0026995555558,0.633170227403,0.774006246509
1385566592610613158,382217,1385566592610613158,/world,vicon/Archie/Archie,-0.0235666374709,-0.0820542160311,0.112585217886,0.00189890617796,-0.0029663262308,0.633239551631,0.773947844053
1385566592620625277,382218,1385566592620625277,/world,vicon/Archie/Archie,-0.0235603734936,-0.0819747525359,0.112489021273,0.00160904014597,-0.00271524560415,0.633170909653,0.774005579825
1385566592630559785,382219,1385566592630559785,/world,vicon/Archie/Archie,-0.0235709846417,-0.0819699676526,0.112479187715,0.00161369245313,-0.002706602274,0.633179033248,0.77399895488
1385566592640526487,382220,1385566592640526487,/world,vicon/Archie/Archie,-0.0234824146668,-0.0819650021922,0.112508820583,0.00168695202793,-0.00272971749092,0.633090182009,0.774071394821
1385566592650617134,382221,1385566592650617134,/world,vicon/Archie/Archie,-0.0235206324336,-0.0820115572473,0.112540338932,0.00165488307886,-0.00270905080481,0.633166814856,0.774008854581
1385566592660692851,382222,1385566592660692851,/world,vicon/Archie/Archie,-0.0235095692876,-0.0820167805057,0.112528847858,0.00165612530434,-0.00276108030788,0.633158560336,0.774015420491
1385566592670563895,382223,1385566592670563895,/world,vicon/Archie/Archie,-0.0235517669708,-0.0819846669506,0.112486903973,0.00162336613956,-0.0027309063078,0.633179855479,0.773998176644
1385566592680590664,382224,1385566592680590664,/world,vicon/Archie/Archie,-0.0236232575117,-0.0819481390696,0.112423126334,0.00143148051146,-0.00276273863654,0.633173425946,0.774003702068
1385566592690629717,382225,1385566592690629717,/world,vicon/Archie/Archie,-0.0235681888934,-0.0819805174363,0.11248731667,0.00161601017441,-0.00271667355154,0.633180337158,0.77399784808
1385566592700651282,382226,1385566592700651282,/world,vicon/Archie/Archie,-0.0235634793138,-0.0819730393435,0.112484420904,0.00162536374348,-0.00273092769475,0.633159999554,0.774014415364
1385566592710621052,382227,1385566592710621052,/world,vicon/Archie/Archie,-0.0234309813027,-0.0820028592611,0.112562303373,0.00171981208333,-0.00276435484741,0.633063018851,0.774093414745
1385566592720692666,382228,1385566592720692666,/world,vicon/Archie/Archie,-0.0235602096509,-0.0819672601867,0.112487041542,0.00159426408896,-0.00272351324408,0.633177995009,0.773999785164
1385566592730666672,382229,1385566592730666672,/world,vicon/Archie/Archie,-0.0235117749781,-0.0820178097542,0.112531224007,0.00164012981107,-0.00271950438127,0.633155814567,0.774017847824
1385566592740615860,382230,1385566592740615860,/world,vicon/Archie/Archie,-0.0235625363947,-0.081969879693,0.112480022136,0.00161401110413,-0.00270941356699,0.633166372253,0.774009301685
1385566592750647876,382231,1385566592750647876,/world,vicon/Archie/Archie,-0.0234806745996,-0.081959102442,0.112503282494,0.0016527741265,-0.00272141335194,0.633089520682,0.774072038669
1385566592760575898,382232,1385566592760575898,/world,vicon/Archie/Archie,-0.0235177070216,-0.0820098229206,0.112532583302,0.0016497949791,-0.00274085918518,0.633167837583,0.774007916832
1385566592770524495,382233,1385566592770524495,/world,vicon/Archie/Archie,-0.0235609097139,-0.0819590796418,0.11247499614,0.00161295878878,-0.00269217773358,0.633159428886,0.774015043882
1385566592780630280,382234,1385566592780630280,/world,vicon/Archie/Archie,-0.0235282092502,-0.0819975443451,0.112532300047,0.00164432742328,-0.00272851928655,0.633166946919,0.774008700661
1385566592790609485,382235,1385566592790609485,/world,vicon/Archie/Archie,-0.0236347317568,-0.0819360534774,0.112410507356,0.00141501274939,-0.00275208610483,0.633165192477,0.774010505611
1385566592800636332,382236,1385566592800636332,/world,vicon/Archie/Archie,-0.0235733716686,-0.0819604040083,0.112471386323,0.00158457513417,-0.00269883952779,0.633156640247,0.774017360463
1385566592810563605,382237,1385566592810563605,/world,vicon/Archie/Archie,-0.0234831419109,-0.0819463898679,0.112498247185,0.00167327307676,-0.00275053016402,0.633079711758,0.774079914028
1385566592820610379,382238,1385566592820610379,/world,vicon/Archie/Archie,-0.0235201469549,-0.0820022373736,0.112534770208,0.00164671637976,-0.00269909446042,0.63315439242,0.774019068611
1385566592830730444,382239,1385566592830730444,/world,vicon/Archie/Archie,-0.023519855616,-0.0820067257188,0.11252475439,0.00162885312207,-0.00274403716696,0.633155601167,0.774017959616
1385566592840534959,382240,1385566592840534959,/world,vicon/Archie/Archie,-0.023474990354,-0.0819426035735,0.112477187598,0.00165760464472,-0.00274197944763,0.633087680272,0.774073460974
1385566592850719770,382241,1385566592850719770,/world,vicon/Archie/Archie,-0.0235709052921,-0.0819342262567,0.112508707638,0.00152787716495,-0.00258555296677,0.633144184218,0.774028050201
1385566592860681160,382242,1385566592860681160,/world,vicon/Archie/Archie,-0.023637593386,-0.0819348003966,0.112415756499,0.00142023568432,-0.00274663224192,0.633170755913,0.774005964317
1385566592870491474,382243,1385566592870491474,/world,vicon/Archie/Archie,-0.0235607821921,-0.0819639827379,0.11248050807,0.00158127644572,-0.00270038332589,0.63316360713,0.774011662768
1385566592880694270,382244,1385566592880694270,/world,vicon/Archie/Archie,-0.0235308885255,-0.0820027128128,0.112530398144,0.00164001377738,-0.00270219419031,0.633166337682,0.774009300544
1385566592890639540,382245,1385566592890639540,/world,vicon/Archie/Archie,-0.0235624345882,-0.0819683019981,0.112479670834,0.00159240137163,-0.00268005192407,0.633159023673,0.774015460001
1385566592900712722,382246,1385566592900712722,/world,vicon/Archie/Archie,-0.0235257746574,-0.0820012766386,0.11252605967,0.00162994345556,-0.00272370315367,0.633165554623,0.774009886994
1385566592910540798,382247,1385566592910540798,/world,vicon/Archie/Archie,-0.0235738489524,-0.0819611616999,0.112480850943,0.00160966023933,-0.00270079070767,0.633171340809,0.774005276405
1385566592920581320,382248,1385566592920581320,/world,vicon/Archie/Archie,-0.0235650099774,-0.0819668588367,0.112473803642,0.00161206246905,-0.00274063648627,0.633169746879,0.774006435247
1385566592930560377,382249,1385566592930560377,/world,vicon/Archie/Archie,-0.0234826670398,-0.0819532660455,0.112507799411,0.00168027428002,-0.00271645279453,0.63308019417,0.774079624659
1385566592940595666,382250,1385566592940595666,/world,vicon/Archie/Archie,-0.0235195356445,-0.082009480709,0.112531842139,0.00165603502252,-0.00272535724038,0.633171665162,0.774004827124
1385566592950689395,382251,1385566592950689395,/world,vicon/Archie/Archie,-0.0235197493428,-0.0820034421379,0.112533109081,0.00166193017224,-0.00272421925429,0.633161066398,0.774013488652
1385566592960517191,382252,1385566592960517191,/world,vicon/Archie/Archie,-0.0235216859944,-0.0820059851503,0.112528679746,0.00165026629988,-0.00273603567962,0.633166185755,0.774009284147
1385566592970450505,382253,1385566592970450505,/world,vicon/Archie/Archie,-0.0235084216362,-0.0819932236234,0.112505960288,0.00162567055339,-0.00271987340904,0.633162290345,0.774012579723
1385566592980669776,382254,1385566592980669776,/world,vicon/Archie/Archie,-0.0235248222266,-0.0820047391309,0.112538236167,0.00165466136515,-0.00269980360342,0.633168885916,0.77400719316
1385566592990628664,382255,1385566592990628664,/world,vicon/Archie/Archie,-0.0235295237499,-0.0819965024055,0.112531541941,0.00166406027359,-0.00271866669167,0.633161283965,0.774013325624
1385566593000767527,382256,1385566593000767527,/world,vicon/Archie/Archie,-0.0236322615387,-0.0819315527007,0.112422861426,0.00143952076415,-0.00275564100962,0.633173568796,0.7740035956
1385566593010507002,382257,1385566593010507002,/world,vicon/Archie/Archie,-0.0235692004884,-0.0819636940483,0.11247579697,0.00159733149004,-0.00270424489115,0.633169973629,0.774006408298
1385566593020676053,382258,1385566593020676053,/world,vicon/Archie/Archie,-0.0235627457788,-0.082046985189,0.112586386663,0.00189499671704,-0.00295676181333,0.633235352716,0.773951325742
1385566593030594329,382259,1385566593030594329,/world,vicon/Archie/Archie,-0.023614220967,-0.0819984796627,0.112540063239,0.00187183749954,-0.0029694680106,0.633241959601,0.773945927752
1385566593040536053,382260,1385566593040536053,/world,vicon/Archie/Archie,-0.0235183270725,-0.0820071710278,0.112534806944,0.00168096115166,-0.00271472308106,0.633157822035,0.774016134873
1385566593050702313,382261,1385566593050702313,/world,vicon/Archie/Archie,-0.023525684177,-0.0820061624284,0.112534348759,0.00166466273872,-0.00272503256838,0.633160578764,0.774013878812
1385566593060548422,382262,1385566593060548422,/world,vicon/Archie/Archie,-0.0235143552718,-0.0820036595207,0.11251752382,0.00163754205964,-0.0027395363097,0.633162044465,0.774012686488
1385566593070546492,382263,1385566593070546492,/world,vicon/Archie/Archie,-0.0235175818672,-0.0820048078363,0.11252867052,0.00163843652006,-0.00273163789091,0.633165711195,0.774009713019
1385566593080779383,382264,1385566593080779383,/world,vicon/Archie/Archie,-0.0235708474649,-0.0819669592508,0.112472796365,0.00159430471838,-0.00271880688708,0.633179281578,0.773998749134
1385566593090502603,382265,1385566593090502603,/world,vicon/Archie/Archie,-0.0235713213607,-0.0819672925422,0.112480418003,0.00162426854356,-0.00272435955604,0.633178345466,0.773999433107
1385566593100655794,382266,1385566593100655794,/world,vicon/Archie/Archie,-0.0235639412409,-0.0819351639745,0.112498918079,0.00151745843206,-0.00258130894119,0.633161624195,0.774013818876
1385566593110771397,382267,1385566593110771397,/world,vicon/Archie/Archie,-0.023519414559,-0.0820016545805,0.112516590045,0.00162716198724,-0.00273143023357,0.633163489339,0.774011555083
1385566593120525440,382268,1385566593120525440,/world,vicon/Archie/Archie,-0.0235158703686,-0.0820090714486,0.112525776124,0.00163710802139,-0.00270442812311,0.633173425725,0.774003500574
1385566593130614257,382269,1385566593130614257,/world,vicon/Archie/Archie,-0.0235184623205,-0.0820066711858,0.112532464915,0.00167113120631,-0.00273613463578,0.633177198608,0.774000230007
1385566593140608941,382270,1385566593140608941,/world,vicon/Archie/Archie,-0.0236295111528,-0.0819389738491,0.112421253158,0.00142958483106,-0.0027513029638,0.633179282522,0.773998955299
1385566593150749000,382271,1385566593150749000,/world,vicon/Archie/Archie,-0.0235134264849,-0.0820064536673,0.112529705062,0.0016496888264,-0.00273938785174,0.63316111799,0.774013419099
1385566593160503481,382272,1385566593160503481,/world,vicon/Archie/Archie,-0.0235689716923,-0.0819639673489,0.1124774994,0.00160486927797,-0.00271273631867,0.633176542592,0.774000989255
1385566593170462947,382273,1385566593170462947,/world,vicon/Archie/Archie,-0.0235632806231,-0.0819661630789,0.112474023318,0.00160883303815,-0.00271173823192,0.633165502552,0.774010015769
1385566593180625507,382274,1385566593180625507,/world,vicon/Archie/Archie,-0.0235653513973,-0.0819619370026,0.112468883256,0.001561325702,-0.00270334984501,0.633171804458,0.774004987194
1385566593190676278,382275,1385566593190676278,/world,vicon/Archie/Archie,-0.0235196005316,-0.082008491465,0.112536416741,0.00166867867929,-0.00273116183552,0.633171207247,0.774005154105
1385566593200588409,382276,1385566593200588409,/world,vicon/Archie/Archie,-0.0235207393514,-0.0820117001075,0.112533306249,0.00164085494211,-0.00270365476535,0.633175108022,0.774002119136
1385566593210574605,382277,1385566593210574605,/world,vicon/Archie/Archie,-0.0236185560796,-0.0819335231906,0.112412522468,0.00140093244749,-0.00276378502654,0.63318030206,0.773998129174
1385566593220652072,382278,1385566593220652072,/world,vicon/Archie/Archie,-0.0235257153072,-0.0820027844718,0.112530453504,0.00164547865618,-0.00272954341863,0.633174031783,0.774002898876
1385566593230576174,382279,1385566593230576174,/world,vicon/Archie/Archie,-0.0235549332012,-0.0819697464197,0.112462290699,0.00158429639483,-0.00271423600882,0.633173579012,0.774003450747
1385566593240549170,382280,1385566593240549170,/world,vicon/Archie/Archie,-0.023567733618,-0.0819617765271,0.112478829571,0.00159569676699,-0.00270810775989,0.633174798351,0.774002451312
1385566593250715730,382281,1385566593250715730,/world,vicon/Archie/Archie,-0.0235139341765,-0.0820028849299,0.112520341551,0.00163947232007,-0.00273314113998,0.633156124524,0.774017547636
1385566593260570588,382282,1385566593260570588,/world,vicon/Archie/Archie,-0.023554963291,-0.0819431675913,0.112456943256,0.0015797401004,-0.00270920097342,0.633159769399,0.77401477445
1385566593270612327,382283,1385566593270612327,/world,vicon/Archie/Archie,-0.023573841652,-0.081960317417,0.112450213665,0.00144346196955,-0.00278070671817,0.633167142023,0.77400875599
1385566593280643800,382284,1385566593280643800,/world,vicon/Archie/Archie,-0.0235618098145,-0.0819685821613,0.112470129503,0.00158085542069,-0.00270421897149,0.633177408836,0.774000359842
1385566593290551848,382285,1385566593290551848,/world,vicon/Archie/Archie,-0.0235204383773,-0.0820150905873,0.112524285099,0.00162113908553,-0.00273903636586,0.633168459937,0.774007474724
1385566593300605126,382286,1385566593300605126,/world,vicon/Archie/Archie,-0.0235589364416,-0.0819614431003,0.11247480118,0.00159667583427,-0.00272692183143,0.633163532515,0.774011599149
1385566593310497768,382287,1385566593310497768,/world,vicon/Archie/Archie,-0.023508840697,-0.082005573868,0.112523384289,0.00165753522547,-0.00271283916149,0.633166198336,0.774009339973
1385566593320561279,382288,1385566593320561279,/world,vicon/Archie/Archie,-0.0235485084929,-0.0819619404948,0.112458767555,0.00158803843904,-0.00267317706777,0.63315119572,0.774021896084
1385566593330714324,382289,1385566593330714324,/world,vicon/Archie/Archie,-0.0236553716782,-0.0819932160213,0.112464359047,0.00166338888577,-0.00302344934233,0.633242948296,0.77394538588
1385566593340645217,382290,1385566593340645217,/world,vicon/Archie/Archie,-0.023614122446,-0.0819434555237,0.112407707194,0.00143575338978,-0.00277630808208,0.633166485304,0.774009323338
1385566593350697401,382291,1385566593350697401,/world,vicon/Archie/Archie,-0.0234999575307,-0.0820030530808,0.112502782076,0.00162210026746,-0.00273780409399,0.633154085864,0.774019235402
1385566593360512873,382292,1385566593360512873,/world,vicon/Archie/Archie,-0.0234631277032,-0.0819643809625,0.112486777206,0.00166914370052,-0.00275607604739,0.633084674001,0.77407584483
1385566593371483770,382293,1385566593371483770,/world,vicon/Archie/Archie,-0.0235565064264,-0.0819637872078,0.11245629571,0.00157983427941,-0.00275044990802,0.633168587885,0.774007414993
1385566593380640670,382294,1385566593380640670,/world,vicon/Archie/Archie,-0.0234616789517,-0.0819486363835,0.11246024274,0.00166463116437,-0.00276595719907,0.63307953835,0.774080019511
1385566593390650884,382295,1385566593390650884,/world,vicon/Archie/Archie,-0.02347982939,-0.0819335321569,0.112508608557,0.0015999059984,-0.0026350743249,0.633080507277,0.774079820167
1385566593400684922,382296,1385566593400684922,/world,vicon/Archie/Archie,-0.0235583913306,-0.0819812284268,0.112450912761,0.0016015216275,-0.00277832695233,0.633185550576,0.773993394397
1385566593411318722,382297,1385566593411318722,/world,vicon/Archie/Archie,-0.0235603605246,-0.0819556499746,0.112475025744,0.00152325905504,-0.00264274499372,0.633167106532,0.774009115442
1385566593420501292,382298,1385566593420501292,/world,vicon/Archie/Archie,-0.0235591608561,-0.0819782951491,0.112443568258,0.00160414871309,-0.00276739712355,0.633169583753,0.774006489915
1385566593430647275,382299,1385566593430647275,/world,vicon/Archie/Archie,-0.0235256922844,-0.0820247023308,0.112503390586,0.00166418057124,-0.00280165103657,0.63317305431,0.774003400865
1385566593441347657,382300,1385566593441347657,/world,vicon/Archie/Archie,-0.0235636343137,-0.0819744492815,0.112443788712,0.00161005727911,-0.00274995317744,0.633173812452,0.774003080548
1385566593450619041,382301,1385566593450619041,/world,vicon/Archie/Archie,-0.0235216040622,-0.0820050011188,0.112501597199,0.00165993420573,-0.00278533696549,0.633157673632,0.774016050762
1385566593460533920,382302,1385566593460533920,/world,vicon/Archie/Archie,-0.023567965029,-0.0819689149573,0.112445827205,0.00159682655866,-0.00275507951263,0.633163707163,0.774011356256
1385566593470545786,382303,1385566593470545786,/world,vicon/Archie/Archie,-0.0235730066495,-0.0819724091423,0.112456849721,0.00159580017395,-0.00272327994882,0.633165662628,0.774009871279
1385566593480600764,382304,1385566593480600764,/world,vicon/Archie/Archie,-0.0235647699751,-0.081965384176,0.112450100759,0.00161880820716,-0.00272236565395,0.633173289685,0.774003587469
1385566593490493683,382305,1385566593490493683,/world,vicon/Archie/Archie,-0.0235230237989,-0.0820068553352,0.112502840421,0.00162655276082,-0.00274271212987,0.633156257744,0.774017432062
1385566593500587165,382306,1385566593500587165,/world,vicon/Archie/Archie,-0.0235702950001,-0.0819672459294,0.112456386252,0.00158945401917,-0.00275159934477,0.633176925603,0.774000570556
1385566593510664659,382307,1385566593510664659,/world,vicon/Archie/Archie,-0.0235143526876,-0.0820061292557,0.112514223952,0.00163845824255,-0.00271598597663,0.633168515954,0.774007473659
1385566593520561321,382308,1385566593520561321,/world,vicon/Archie/Archie,-0.0235573924911,-0.0819577642406,0.112475079858,0.00158355677055,-0.00269860090596,0.633161641587,0.774013272188
1385566593530631052,382309,1385566593530631052,/world,vicon/Archie/Archie,-0.0235172659723,-0.0819993121911,0.112523585833,0.00165409799026,-0.00272403925486,0.633154304804,0.774019037155
1385566593540544707,382310,1385566593540544707,/world,vicon/Archie/Archie,-0.0235619087046,-0.0819548412219,0.112464010535,0.00160917024716,-0.00271216543245,0.633163741206,0.774011454406
1385566593550731980,382311,1385566593550731980,/world,vicon/Archie/Archie,-0.0235128088,-0.08199446508,0.112520415407,0.00162942957711,-0.00270563196291,0.633153137499,0.774020108906
1385566593560487205,382312,1385566593560487205,/world,vicon/Archie/Archie,-0.0235052070106,-0.0819874504558,0.112514230837,0.00162529501856,-0.00271125670897,0.633157023811,0.774016918873
1385566593570567514,382313,1385566593570567514,/world,vicon/Archie/Archie,-0.0235185818714,-0.0819990420281,0.112517731718,0.00165199513178,-0.00272232433612,0.633152635438,0.774020413233
1385566593580698327,382314,1385566593580698327,/world,vicon/Archie/Archie,-0.0235572123311,-0.0819544703998,0.112474118464,0.00160857629281,-0.00270692650352,0.633165182211,0.774010295194
1385566593590592003,382315,1385566593590592003,/world,vicon/Archie/Archie,-0.0235453458113,-0.081951701588,0.112450555275,0.00158359415058,-0.002692856999,0.63316878264,0.774007450507
1385566593600668293,382316,1385566593600668293,/world,vicon/Archie/Archie,-0.0235624293391,-0.0819545230101,0.11246622024,0.001603762075,-0.00270073489187,0.633166025683,0.774009636826
1385566593610707506,382317,1385566593610707506,/world,vicon/Archie/Archie,-0.0235094589184,-0.0819806574035,0.112549601888,0.00158453995067,-0.00260670986234,0.633158248385,0.774016360809
1385566593620539283,382318,1385566593620539283,/world,vicon/Archie/Archie,-0.0235583368463,-0.081959665439,0.112468719193,0.00161720896326,-0.00270614080056,0.633167114302,0.774008699437
1385566593630641351,382319,1385566593630641351,/world,vicon/Archie/Archie,-0.0235139331382,-0.0819965543442,0.112515917929,0.00164084694731,-0.00271749306966,0.633158377049,0.77401575722
1385566593640799091,382320,1385566593640799091,/world,vicon/Archie/Archie,-0.0235546072926,-0.0819615125351,0.112467864036,0.00159903659677,-0.00273107413515,0.633176963999,0.774000592104
1385566593650592237,382321,1385566593650592237,/world,vicon/Archie/Archie,-0.0235186965491,-0.0819927541973,0.112518830833,0.00163734533927,-0.00271396920483,0.633159563705,0.774014806293
1385566593660509990,382322,1385566593660509990,/world,vicon/Archie/Archie,-0.0235637640138,-0.0819504127365,0.11246927375,0.00158978417038,-0.00269915575142,0.633156307606,0.774017620783
1385566593670600905,382323,1385566593670600905,/world,vicon/Archie/Archie,-0.0236294988058,-0.081928887285,0.112397990373,0.00140146307888,-0.00274401232301,0.633172110811,0.774004899461
1385566593680581344,382324,1385566593680581344,/world,vicon/Archie/Archie,-0.0235206544755,-0.0819939222765,0.112512161245,0.00164114908295,-0.00271875912193,0.633153619561,0.774019643817
1385566593690679824,382325,1385566593690679824,/world,vicon/Archie/Archie,-0.0235168618066,-0.0819943589901,0.112510458257,0.00163707878658,-0.00273153295875,0.633154500687,0.774018886695
1385566593700741481,382326,1385566593700741481,/world,vicon/Archie/Archie,-0.0234722809916,-0.0819511477708,0.112487729967,0.00167248164145,-0.00272926978584,0.633076942672,0.774082255674
1385566593710595657,382327,1385566593710595657,/world,vicon/Archie/Archie,-0.0235591543617,-0.0819551224632,0.112460705992,0.00158962143931,-0.00270101598844,0.633152290017,0.77402090105
1385566593720563040,382328,1385566593720563040,/world,vicon/Archie/Archie,-0.0235224142845,-0.0819995330723,0.112512008009,0.00163731326244,-0.00272602088255,0.633160620835,0.774013899255
1385566593730593535,382329,1385566593730593535,/world,vicon/Archie/Archie,-0.0235876225534,-0.0819987918343,0.112533334058,0.00188342879234,-0.00299357111442,0.633219945596,0.7739638181
1385566593740589885,382330,1385566593740589885,/world,vicon/Archie/Archie,-0.0235631118992,-0.0819508076786,0.112468750627,0.00159798615242,-0.0027013439795,0.633149810937,0.774022910573
1385566593750663203,382331,1385566593750663203,/world,vicon/Archie/Archie,-0.0235218120961,-0.0819964075476,0.112518362024,0.00163744669848,-0.00272295819682,0.633156274479,0.774017465149
1385566593760554924,382332,1385566593760554924,/world,vicon/Archie/Archie,-0.0235511994605,-0.0819543699941,0.112465247978,0.00160602811282,-0.00272120498259,0.633158956524,0.774015343188
1385566593770592329,382333,1385566593770592329,/world,vicon/Archie/Archie,-0.023519897458,-0.0819915052603,0.112518749392,0.00164600373549,-0.00272101257896,0.633143283251,0.774028080651
1385566593780636319,382334,1385566593780636319,/world,vicon/Archie/Archie,-0.0235814908492,-0.0819690473076,0.112457548802,0.0014625344047,-0.00279658744436,0.633157144149,0.774016841486
1385566593790480650,382335,1385566593790480650,/world,vicon/Archie/Archie,-0.0236322853863,-0.0819261621476,0.11240576838,0.00143115090248,-0.00277900182886,0.63316470225,0.774010780791
1385566593800591970,382336,1385566593800591970,/world,vicon/Archie/Archie,-0.0235686598705,-0.0819426868442,0.112467893666,0.00159766470546,-0.00272126941998,0.63316214676,0.774012750586
1385566593810681366,382337,1385566593810681366,/world,vicon/Archie/Archie,-0.0235190812595,-0.081994730401,0.112509216336,0.00164625737922,-0.00274176178343,0.633146120141,0.77402568635
1385566593820523372,382338,1385566593820523372,/world,vicon/Archie/Archie,-0.0234841082581,-0.0819403246019,0.112489825758,0.00168383385383,-0.00275454231722,0.633082004645,0.774078001622
1385566593830776781,382339,1385566593830776781,/world,vicon/Archie/Archie,-0.0235643227504,-0.0819551951081,0.112467857451,0.00159898511832,-0.0027035351477,0.63315370224,0.774019717762
1385566593840665370,382340,1385566593840665370,/world,vicon/Archie/Archie,-0.0235305868565,-0.0819892866909,0.112516821085,0.00164164426513,-0.00274713930913,0.633158800906,0.774015304154
1385566593850584383,382341,1385566593850584383,/world,vicon/Archie/Archie,-0.0235683453463,-0.0819497989612,0.112468231149,0.00159834584024,-0.00271792685002,0.633145611358,0.77402628701
1385566593860511634,382342,1385566593860511634,/world,vicon/Archie/Archie,-0.0235714149339,-0.0819488154426,0.112468582143,0.00159608662286,-0.00271459603602,0.633154966176,0.77401865112
1385566593870501559,382343,1385566593870501559,/world,vicon/Archie/Archie,-0.0235617817244,-0.0819549015724,0.112475170168,0.0016108897755,-0.00274262571872,0.633156625763,0.77401716408
1385566593880678766,382344,1385566593880678766,/world,vicon/Archie/Archie,-0.0235186209766,-0.0819975638355,0.112521159986,0.00166200084041,-0.00274831144714,0.633156565864,0.774017084851
1385566593890534275,382345,1385566593890534275,/world,vicon/Archie/Archie,-0.0235664228025,-0.0819547446283,0.112472006353,0.00159387906313,-0.00271426716954,0.633160357891,0.774014246315
1385566593900856228,382346,1385566593900856228,/world,vicon/Archie/Archie,-0.0235931354483,-0.082003786755,0.112524747955,0.00184450821585,-0.00297547399827,0.633228887404,0.773956665777
1385566593910599139,382347,1385566593910599139,/world,vicon/Archie/Archie,-0.0235632725618,-0.08195402971,0.11246673586,0.00158075932362,-0.00271661917686,0.633157335722,0.774016737158
1385566593920552466,382348,1385566593920552466,/world,vicon/Archie/Archie,-0.0235670997422,-0.081958174771,0.112471604651,0.00160571308019,-0.0027192603163,0.63317330185,0.774003615711
1385566593930764421,382349,1385566593930764421,/world,vicon/Archie/Archie,-0.0235537037362,-0.0819413785964,0.11249765761,0.00151578772717,-0.00258138527233,0.633158814029,0.774016120669
1385566593940570243,382350,1385566593940570243,/world,vicon/Archie/Archie,-0.0235131621835,-0.0820010226773,0.112522639883,0.00166553530816,-0.00273808019929,0.633154915187,0.774018463788
1385566593950657340,382351,1385566593950657340,/world,vicon/Archie/Archie,-0.0235704699292,-0.0819509436975,0.112472201819,0.00159207275337,-0.00269858295747,0.633164041432,0.774011291644
1385566593960465346,382352,1385566593960465346,/world,vicon/Archie/Archie,-0.0235699640652,-0.0819540594216,0.112473106492,0.00160608590396,-0.00270688635923,0.633149672565,0.774022987633
1385566593970685172,382353,1385566593970685172,/world,vicon/Archie/Archie,-0.0236222796725,-0.0820161071382,0.112516827404,0.00170668695336,-0.0030454227204,0.633227504724,0.773957841152
1385566593980748781,382354,1385566593980748781,/world,vicon/Archie/Archie,-0.0235671395919,-0.0819555274917,0.112472385742,0.00161333341816,-0.00273151642063,0.633170581533,0.774005782055
1385566593990587381,382355,1385566593990587381,/world,vicon/Archie/Archie,-0.0235652980072,-0.0819588270209,0.112475277497,0.00160850654309,-0.00271605594353,0.63316181245,0.774013019918
1385566594000780164,382356,1385566594000780164,/world,vicon/Archie/Archie,-0.0235184290532,-0.082004361581,0.112533095317,0.00166507822149,-0.00273505887555,0.633159156727,0.77401500581
1385566594010535535,382357,1385566594010535535,/world,vicon/Archie/Archie,-0.0236079493794,-0.0820073817911,0.112531549196,0.00185165428452,-0.00296305274836,0.633223005823,0.773961508469
1385566594020568889,382358,1385566594020568889,/world,vicon/Archie/Archie,-0.0236326182199,-0.0819303609941,0.11241385247,0.00143121702809,-0.00279426663146,0.633170408198,0.774006058034
1385566594030625527,382359,1385566594030625527,/world,vicon/Archie/Archie,-0.0235662240926,-0.0819624290743,0.112478978531,0.00161264672012,-0.00270966520431,0.633167288526,0.774008554103
1385566594040520936,382360,1385566594040520936,/world,vicon/Archie/Archie,-0.0235678631923,-0.0819539815432,0.112477696197,0.00160636133306,-0.00271100394678,0.633168115038,0.774007886368
1385566594050657882,382361,1385566594050657882,/world,vicon/Archie/Archie,-0.0235625769557,-0.0819591999388,0.112477540563,0.00160497512632,-0.00270671105775,0.633164506861,0.774010855881
1385566594060655604,382362,1385566594060655604,/world,vicon/Archie/Archie,-0.0235189405501,-0.0820068030445,0.112531308786,0.0016524989806,-0.00275446782369,0.633175395449,0.774001680071
1385566594070615032,382363,1385566594070615032,/world,vicon/Archie/Archie,-0.0235784608634,-0.0819489800884,0.112493234844,0.00139091638601,-0.00267527317221,0.633173145738,0.774004312508
1385566594080588601,382364,1385566594080588601,/world,vicon/Archie/Archie,-0.0235584757261,-0.0819622429901,0.112483290927,0.00160960614874,-0.00272188684602,0.633168083246,0.77400786744
1385566594090585966,382365,1385566594090585966,/world,vicon/Archie/Archie,-0.0235682852882,-0.0819590356796,0.1124802761,0.00161370145506,-0.00274357971097,0.633168279336,0.774007621914
1385566594100667463,382366,1385566594100667463,/world,vicon/Archie/Archie,-0.0236220565965,-0.0819411704278,0.112419113058,0.00146470782427,-0.00280524317778,0.633173600276,0.774003344409
1385566594110540366,382367,1385566594110540366,/world,vicon/Archie/Archie,-0.0235554914538,-0.0819645791198,0.112476859181,0.00160935962491,-0.00269504363661,0.633173828285,0.774003262187
1385566594120592560,382368,1385566594120592560,/world,vicon/Archie/Archie,-0.0235435565439,-0.0819260995137,0.11243219187,0.00148496329608,-0.0027918778695,0.633095318617,0.774067385857
1385566594130881860,382369,1385566594130881860,/world,vicon/Archie/Archie,-0.0235138362632,-0.081997999844,0.112507831599,0.00165872394123,-0.00274789278844,0.633178479797,0.773999166952
1385566594140582476,382370,1385566594140582476,/world,vicon/Archie/Archie,-0.023523802715,-0.0820125809664,0.112530791109,0.00166835320285,-0.00273600688638,0.633176097403,0.7740011373
1385566594150619450,382371,1385566594150619450,/world,vicon/Archie/Archie,-0.0235537078387,-0.0819415825705,0.112507609715,0.00151547969252,-0.00258836301051,0.633167989214,0.774008592415
1385566594161317001,382372,1385566594161317001,/world,vicon/Archie/Archie,-0.0235121866293,-0.0820052808713,0.112533041983,0.00165889578647,-0.00272690144967,0.633168401349,0.774007485497
1385566594170526908,382373,1385566594170526908,/world,vicon/Archie/Archie,-0.0235155849457,-0.0820088296165,0.112532779525,0.00165359579687,-0.00276236854261,0.633167032891,0.774008490522
1385566594180609878,382374,1385566594180609878,/world,vicon/Archie/Archie,-0.0235602564635,-0.0819693081296,0.112477958034,0.00160978465356,-0.00274280798946,0.633179926721,0.773998104646
1385566594191057233,382375,1385566594191057233,/world,vicon/Archie/Archie,-0.0235843720612,-0.0819789197123,0.11246462303,0.001478094119,-0.00280819008593,0.633170099669,0.774006171933
1385566594200698689,382376,1385566594200698689,/world,vicon/Archie/Archie,-0.0235572476565,-0.0819504937842,0.112504443441,0.00152468989558,-0.00261113364431,0.633170692077,0.774006286794
1385566594210532658,382377,1385566594210532658,/world,vicon/Archie/Archie,-0.0235536784969,-0.0819740157581,0.112482581192,0.00161515964289,-0.00271038154575,0.63316400854,0.774011229493
1385566594220489744,382378,1385566594220489744,/world,vicon/Archie/Archie,-0.0234813357631,-0.0819537816112,0.112509157387,0.00168443962794,-0.0027440776053,0.633087544933,0.774073506298
1385566594230725824,382379,1385566594230725824,/world,vicon/Archie/Archie,-0.0235548220474,-0.0819716507659,0.112477329206,0.00165010117894,-0.00273143140683,0.633181729727,0.773996584998
1385566594240657222,382380,1385566594240657222,/world,vicon/Archie/Archie,-0.0235126640482,-0.0820047875083,0.112520780026,0.00165018427233,-0.00270686767762,0.633176828015,0.774000681023
1385566594250618231,382381,1385566594250618231,/world,vicon/Archie/Archie,-0.0235588602513,-0.0819757103626,0.112478857079,0.0016130451228,-0.00270608050356,0.63317008244,0.774006280283
1385566594260597553,382382,1385566594260597553,/world,vicon/Archie/Archie,-0.0235089491099,-0.082009102566,0.112527263188,0.00166811127071,-0.00274504946811,0.633168639767,0.774007206507
1385566594270508375,382383,1385566594270508375,/world,vicon/Archie/Archie,-0.0235579648076,-0.081973150147,0.112477907144,0.00161301441804,-0.0027213432538,0.633179079865,0.77399886647
1385566594280630578,382384,1385566594280630578,/world,vicon/Archie/Archie,-0.0235547532934,-0.0819646050933,0.112480078339,0.00161252291124,-0.00271734408967,0.633169418224,0.774006785265
1385566594290563166,382385,1385566594290563166,/world,vicon/Archie/Archie,-0.023557026437,-0.0819724107879,0.112486818513,0.00161341100076,-0.00270438474205,0.633167231254,0.77400861783
1385566594300668333,382386,1385566594300668333,/world,vicon/Archie/Archie,-0.0235528533253,-0.0819518490984,0.112464439708,0.00159713178225,-0.00272528312845,0.633164759036,0.774010600649
1385566594310773297,382387,1385566594310773297,/world,vicon/Archie/Archie,-0.0235189538996,-0.082009451574,0.112530111665,0.00164853189712,-0.00273473430186,0.63318094208,0.773997221027
1385566594320598805,382388,1385566594320598805,/world,vicon/Archie/Archie,-0.0235695309015,-0.0819645017009,0.112481861593,0.00160752518853,-0.00268032725476,0.633178150276,0.773999781474
1385566594330628858,382389,1385566594330628858,/world,vicon/Archie/Archie,-0.0235969473834,-0.082010477942,0.112542361431,0.00187731985582,-0.00299462564041,0.633228529806,0.773956805595
1385566594340600116,382390,1385566594340600116,/world,vicon/Archie/Archie,-0.0236177569818,-0.0819442528135,0.112423617564,0.00144087894066,-0.00278072078302,0.63317454899,0.774002701527
1385566594350728802,382391,1385566594350728802,/world,vicon/Archie/Archie,-0.0235120240514,-0.0820121981114,0.112534512808,0.00165062371605,-0.00271915453173,0.633163050243,0.77401190782
1385566594360576778,382392,1385566594360576778,/world,vicon/Archie/Archie,-0.0235641523672,-0.0819694064563,0.112481377223,0.0016185481263,-0.00269263699206,0.633176318156,0.774001214556
1385566594370601094,382393,1385566594370601094,/world,vicon/Archie/Archie,-0.0235775920696,-0.0819853004441,0.112469891657,0.00147691269339,-0.00280637758436,0.633171847996,0.774004750553
1385566594380627762,382394,1385566594380627762,/world,vicon/Archie/Archie,-0.0235211821432,-0.0820110949559,0.112530221863,0.00164133659413,-0.00269938370573,0.633170178744,0.774006165409
1385566594390530567,382395,1385566594390530567,/world,vicon/Archie/Archie,-0.0235167277229,-0.0820098735551,0.112536046246,0.00164324050469,-0.00271540723176,0.633168718363,0.774007299973
1385566594400670345,382396,1385566594400670345,/world,vicon/Archie/Archie,-0.0235232347473,-0.0819994128341,0.112531590695,0.00163863539606,-0.0027026489017,0.633159044029,0.774015268278
1385566594410655578,382397,1385566594410655578,/world,vicon/Archie/Archie,-0.0235287951018,-0.0820087121102,0.112538442389,0.00167101808408,-0.00272314607068,0.633171290965,0.774005108815
1385566594420585244,382398,1385566594420585244,/world,vicon/Archie/Archie,-0.023419594547,-0.0819996484751,0.112556563879,0.00171797731231,-0.00274070391107,0.633072259438,0.774085945762
1385566594430716654,382399,1385566594430716654,/world,vicon/Archie/Archie,-0.0235714480272,-0.0819665585593,0.112480125273,0.00159711685157,-0.00266745406937,0.633172114113,0.774004785396
1385566594440539527,382400,1385566594440539527,/world,vicon/Archie/Archie,-0.0235934760764,-0.0820089578234,0.11254144817,0.00186294323957,-0.00295897270628,0.633226152823,0.773958922233
1385566594450709832,382401,1385566594450709832,/world,vicon/Archie/Archie,-0.023566027471,-0.0819615093196,0.112473566852,0.00156993865201,-0.00265502306386,0.633173590894,0.774003675663
1385566594460532726,382402,1385566594460532726,/world,vicon/Archie/Archie,-0.023562766322,-0.0819540613071,0.112476768545,0.00159330791048,-0.0026950010678,0.633166067351,0.774009644316
1385566594470553730,382403,1385566594470553730,/world,vicon/Archie/Archie,-0.0235508837336,-0.0819565311968,0.112473404226,0.00159043081426,-0.00267762226101,0.633163010148,0.774012211434
1385566594481219047,382404,1385566594481219047,/world,vicon/Archie/Archie,-0.023463925496,-0.081946153866,0.112500319187,0.00169023631997,-0.00272090787429,0.633066965969,0.774090405806
1385566594490575027,382405,1385566594490575027,/world,vicon/Archie/Archie,-0.0235640377437,-0.0819560521815,0.112465719874,0.00161143087928,-0.00271834929163,0.633164571407,0.77401074888
1385566594500700072,382406,1385566594500700072,/world,vicon/Archie/Archie,-0.0235075068798,-0.0819859154751,0.112503896054,0.00163911423727,-0.00271160684148,0.633164879729,0.774010462184
1385566594510557191,382407,1385566594510557191,/world,vicon/Archie/Archie,-0.0234738413274,-0.0819411419506,0.112494133772,0.00167190462608,-0.00272075710398,0.633075268863,0.774083655795
