%time,field.linear.x,field.linear.y,field.linear.z,field.angular.x,field.angular.y,field.angular.z
1385566408545423027,-0.0,0.0,0.0,1.0,0.0,0.0
1385566408635270256,-0.0,0.0,7.08799107082e-08,1.0,0.0,0.118003145458
1385566408735236890,-0.0178912337184,0.0219033815255,-0.0128201937889,1.0,0.0,0.049093543556
1385566408834433653,-0.0156953256207,0.0191412235477,-0.0109308946549,1.0,0.0,0.0504666454259
1385566408934354785,-0.0181213742863,0.022014966237,-0.0100344145852,1.0,0.0,0.0381024043499
1385566409034294959,-0.0171099946715,0.0206807655605,-0.00824834964275,1.0,0.0,0.0307683375318
1385566409134640075,-0.0158956175018,0.0190973195576,-0.00589872123404,1.0,0.0,0.0245821233213
1385566409235279066,-0.0138450698104,0.0165065763039,-0.00307972434866,1.0,0.0,0.0196924307164
1385566409335469471,-0.0116210618575,0.0136932114963,0.000147981030887,1.0,0.0,0.0157827661843
1385566409434278145,-0.00931460544014,0.0108184705835,0.00374022489392,1.0,0.0,0.012652569457
1385566409534436578,-0.00718097883163,0.00817436990985,0.0076378574992,1.0,0.0,0.0101517089579
1385566409635232670,-0.00531285284813,0.00582387150519,0.0118147922356,1.0,0.0,0.00818752361127
1385566409734513298,-0.00380712496017,0.00399117747286,0.0161963564498,1.0,0.0,0.00657475034196
1385566409834264371,-0.002670114434,0.00254227962805,0.0207903404913,1.0,0.0,0.00534021976969
1385566409935226657,-0.00185406303893,0.00162312447659,0.0255381815256,1.0,0.0,0.00434432589726
1385566410034661473,-0.00143123190804,0.000948452000978,0.0304582985032,1.0,0.0,0.00363714161517
1385566410134369095,-0.00114088534015,0.000720674117126,0.0354935805104,1.0,0.0,0.00297087201801
1385566410235441330,-0.00121194743562,0.000680558578187,0.040637103292,1.0,0.0,0.00251815172426
1385566410334576612,-0.0012799114657,0.000892977840838,0.0459025457789,1.0,0.0,0.00212355564607
1385566410434328620,-0.00159103066681,0.00120752843184,0.0512152690886,1.0,0.0,0.00176516875818
1385566410535317109,-0.00188625948442,0.0015110373372,0.0566284237412,1.0,0.0,0.00158591469819
1385566410635285457,-0.00214665370994,0.00201602166815,0.0620917298286,1.0,0.0,0.00142751281268
1385566410734445047,-0.00245194470692,0.00229420460214,0.0676232994566,1.0,0.0,0.00130550480297
1385566410835229979,-0.0027284270689,0.00267082853207,0.0731765892393,1.0,0.0,0.00124248796881
1385566410934317273,-0.00280192338544,0.00290938330014,0.0787838275044,1.0,0.0,0.00104906431554
1385566411035296490,-0.00285527449555,0.00311314498253,0.0844145035127,1.0,0.0,0.000528428055379
1385566411135229402,-0.00270763992805,0.00316716667986,0.090077204778,1.0,0.0,-4.96947790736e-05
1385566411234268617,-0.00206729646626,0.00320879430083,0.095723182914,1.0,0.0,-0.000848258991
1385566411335289893,-0.00146020126827,0.0028439502309,0.10144434157,1.0,0.0,-0.00138604607366
1385566411434381780,-6.55504704819e-05,0.00338902419758,0.107077411287,1.0,0.0,-0.00202930588346
1385566411534415456,2.01542937534e-06,0.00208844295984,0.112674716644,1.0,0.0,-0.0026318830694
1385566411634565897,-0.00155558229002,0.00249324081372,0.117484667267,1.0,0.0,-0.00343821816268
1385566411735283065,-0.00151918869184,0.000808801432892,0.121352139402,1.0,0.0,-0.00469051252116
1385566411834277638,2.78367115903e-05,-0.0005815658939,0.123631790325,1.0,0.0,-0.00555605696309
1385566411934301440,-0.00214531936962,-0.00238622611257,0.124063806969,1.0,0.0,-0.00608442981948
1385566412035308877,-0.00158421937508,-0.00522517826933,0.123201917939,1.0,0.0,-0.00640408228331
1385566412134486295,-0.00215420443078,-0.00676830943645,0.121164780519,1.0,0.0,-0.00652340477121
1385566412234309422,-0.00389548470069,-0.0103518581808,0.118130653053,1.0,0.0,-0.00629234517344
1385566412335316704,-0.00792441775205,-0.0119627206026,0.11405872125,1.0,0.0,-0.00597676995632
1385566412435321173,-0.0115402804715,-0.0134246189957,0.109334222918,1.0,0.0,-0.00556560505603
1385566412534473406,-0.0160308934319,-0.0154176750612,0.105788546855,1.0,0.0,-0.00510423472381
1385566412634267065,-0.0200208301203,-0.0170272994494,0.103837083706,1.0,0.0,-0.00466059185891
1385566412735289246,-0.0227164102105,-0.0178009895185,0.103779734312,1.0,0.0,-0.00423808236466
1385566412834354292,-0.0240470548661,-0.0186997772992,0.105444668198,1.0,0.0,-0.0039653754966
1385566412934414291,-0.0248655556469,-0.0196955253512,0.108552500399,1.0,0.0,-0.00373905296063
1385566413035297306,-0.0247894305413,-0.0207947034905,0.112929229009,1.0,0.0,-0.00353986901402
1385566413134224665,-0.0237234009084,-0.0216424957169,0.118446833107,1.0,0.0,-0.00347337400131
1385566413234504886,-0.0224677481864,-0.0222768785486,0.124789100101,1.0,0.0,-0.0033580266421
1385566413334277276,-0.0203881124963,-0.0221718796245,0.131740891445,1.0,0.0,-0.0032566659809
1385566413435291259,-0.0170612347687,-0.0216539013354,0.138855548547,1.0,0.0,-0.00315897982226
1385566413535298811,-0.0151184392577,-0.0211609110773,0.145758563751,1.0,0.0,-0.00312960951862
1385566413634415704,-0.0103827520649,-0.0236391673882,0.152491659167,1.0,0.0,-0.0030687606678
1385566413734468320,-0.00539400396481,-0.0234361754548,0.156527796565,1.0,0.0,-0.00295935814346
1385566413834471575,-0.00184401725889,-0.0237584516172,0.159560940265,1.0,0.0,-0.0029411004827
1385566413934246705,-0.000940148862343,-0.0229919297866,0.16167846681,1.0,0.0,-0.00284016012549
1385566414035289516,0.000865540079251,-0.023520373375,0.162927586284,1.0,0.0,-0.00290933512666
1385566414134256112,0.00212096833337,-0.0235923495246,0.163388085919,1.0,0.0,-0.00293726569684
1385566414234367959,0.00283097800251,-0.024380248895,0.163002406937,1.0,0.0,-0.00303401198289
1385566414335303242,0.00359875779535,-0.0255708273003,0.16159343315,1.0,0.0,-0.00308974537923
1385566414434279690,0.00382392224763,-0.0268629153924,0.159458696048,1.0,0.0,-0.00305314309643
1385566414535349648,0.00379192812291,-0.0265569605737,0.156732110235,1.0,0.0,-0.00309922705554
1385566414634291936,0.00202507553449,-0.027015516277,0.15323885532,1.0,0.0,-0.00317159897235
1385566414734368001,0.000776281670287,-0.0272372972341,0.149295590566,1.0,0.0,-0.00316584299425
1385566414835428281,-0.00114916744686,-0.0276880049038,0.145047290518,1.0,0.0,-0.00322653096274
1385566414935372120,-0.0032486013933,-0.0283476766405,0.140496985228,1.0,0.0,-0.00327293345185
1385566415034260034,-0.0057327782001,-0.0285998784798,0.135872736765,1.0,0.0,-0.00337593236834
1385566415134329888,-0.0079092411155,-0.0283210068603,0.131431664657,1.0,0.0,-0.00351094242257
1385566415234440875,-0.00999117218096,-0.0279822249862,0.127161220333,1.0,0.0,-0.00362362134464
1385566415334366242,-0.0122073554821,-0.027654769666,0.123002763608,1.0,0.0,-0.00373377074988
1385566415434463945,-0.0141463013185,-0.0270370401904,0.119025192272,1.0,0.0,-0.00387394048273
1385566415535235924,-0.0160273380437,-0.0265596463383,0.115153322599,1.0,0.0,-0.00402237946004
1385566415635233374,-0.0170566907905,-0.025831979148,0.111393566901,1.0,0.0,-0.00414155368718
1385566415734282421,-0.0175769736309,-0.0249838916466,0.107753639048,1.0,0.0,-0.00422390145571
1385566415835248336,-0.0178419169366,-0.0242044330623,0.10417060021,1.0,0.0,-0.00433568556161
1385566415935287060,-0.0178339692511,-0.0231990910957,0.100632117183,1.0,0.0,-0.00443154558718
1385566416034362588,-0.0174202274653,-0.022175627254,0.0971556366458,1.0,0.0,-0.0045465928291
1385566416135335091,-0.0162800235824,-0.0215187685057,0.093704749513,1.0,0.0,-0.00451981058822
1385566416235287934,-0.0148683218484,-0.0206147339426,0.0903611072306,1.0,0.0,-0.00450077741077
1385566416334274720,-0.0133852677751,-0.0200466909479,0.086929749269,1.0,0.0,-0.00448201947902
1385566416434348667,-0.0117881735015,-0.0193437637789,0.0836329530948,1.0,0.0,-0.00444349777227
1385566416535292369,-0.0102330194132,-0.018997602347,0.0803677852992,1.0,0.0,-0.00437112631425
1385566416634486950,-0.00864163460655,-0.0187513808564,0.077218577035,1.0,0.0,-0.00430739863443
1385566416735438239,-0.00695357774896,-0.0186842194193,0.0742236814737,1.0,0.0,-0.00428077715269
1385566416834245176,-0.00551209225372,-0.0187628759094,0.0714417895689,1.0,0.0,-0.00420449589409
1385566416934263309,-0.00414223873879,-0.0188829118472,0.0687755033566,1.0,0.0,-0.00411005387323
1385566417034628027,-0.00315759080676,-0.0190780354769,0.0661311742773,1.0,0.0,-0.00400103725555
1385566417134630298,-0.00223554807603,-0.0193290563897,0.0635599121727,1.0,0.0,-0.00393671437088
1385566417234736202,-0.00168219343602,-0.0196631250949,0.061037103595,1.0,0.0,-0.00388032707257
1385566417334744398,-0.00129355714053,-0.0199281336489,0.0587171109839,1.0,0.0,-0.00373377287031
1385566417435612553,-0.00127525409744,-0.0200243613394,0.0565305853609,1.0,0.0,-0.00369076857855
1385566417534702703,-0.00132683783734,-0.0202839797136,0.0543708505415,1.0,0.0,-0.00358517590279
1385566417634653307,-0.00166350494974,-0.020309409874,0.0522883512002,1.0,0.0,-0.00351396897883
1385566417734636447,-0.00234530627012,-0.0202433109148,0.0503675787027,1.0,0.0,-0.00348711992455
1385566417835676304,-0.00305437829302,-0.0203085572037,0.0484320209798,1.0,0.0,-0.00347513247511
1385566417935660450,-0.00383633484855,-0.0202760826494,0.0466635929711,1.0,0.0,-0.00345739295094
1385566418034802595,-0.00471605051397,-0.0200876891574,0.0450627577447,1.0,0.0,-0.00346702636961
1385566418134790859,-0.00561894759845,-0.0199029034856,0.0435202626091,1.0,0.0,-0.00349713447855
1385566418234670669,-0.00649489794566,-0.0196669036865,0.0420949616663,1.0,0.0,-0.00352302040893
1385566418334666428,-0.00733302465556,-0.0192943111924,0.0407242964373,1.0,0.0,-0.00347479619323
1385566418434679836,-0.00803937547953,-0.0188910014256,0.0394953006209,1.0,0.0,-0.0034676962989
1385566418534698444,-0.00869563645654,-0.0184392870354,0.0382489847763,1.0,0.0,-0.00345281025094
1385566418635604937,-0.00926636470889,-0.0180020243342,0.0370103382075,1.0,0.0,-0.00341487339254
1385566418735783608,-0.00969051334552,-0.0175286810231,0.035923567762,1.0,0.0,-0.00340564114874
1385566418834806843,-0.00998506559359,-0.0171289881274,0.0349080192691,1.0,0.0,-0.00340090063488
1385566418934814990,-0.0101195238933,-0.0165835414889,0.0340333492492,1.0,0.0,-0.00342072060094
1385566419034790460,-0.0101041575119,-0.0162838788615,0.033170557797,1.0,0.0,-0.00340944570597
1385566419134691240,-0.00983947752483,-0.0159426518433,0.03234864373,1.0,0.0,-0.00339964604263
1385566419234838718,-0.00957454712578,-0.0155717696036,0.0315214476685,1.0,0.0,-0.00342437212873
1385566419335897415,-0.00901194016266,-0.0153591634335,0.0307127905178,1.0,0.0,-0.00346930311352
1385566419434830114,-0.00842276006267,-0.015045099727,0.0299406113681,1.0,0.0,-0.00354284318859
1385566419534857517,-0.00763086880479,-0.0147895002983,0.0293425107298,1.0,0.0,-0.00359125781292
1385566419634837426,-0.00694131289565,-0.0144959005546,0.0287388383172,1.0,0.0,-0.00371926639169
1385566419734721966,-0.00614001234991,-0.0142203503057,0.02808015042,1.0,0.0,-0.00384316068872
1385566419834847158,-0.00519370938659,-0.0140906497371,0.027519970521,1.0,0.0,-0.00397883931306
1385566419934829288,-0.00446217658887,-0.0138415651072,0.026889219358,1.0,0.0,-0.00414166072601
1385566420034703622,-0.00361234816618,-0.0136780466997,0.0262838776937,1.0,0.0,-0.00423741467039
1385566420134958071,-0.0029288843623,-0.0134612143845,0.0257242997909,1.0,0.0,-0.0043813019641
1385566420234683746,-0.00226990180239,-0.0133288033997,0.0251828019235,1.0,0.0,-0.00449810251687
1385566420334707246,-0.00184842493879,-0.0131078169068,0.0247694934947,1.0,0.0,-0.00466868669902
1385566420434587969,-0.00145407716523,-0.0129963950946,0.0242560137955,1.0,0.0,-0.00480952602051
1385566420534860150,-0.00129496012217,-0.0127534381284,0.0237314614893,1.0,0.0,-0.00495823283076
1385566420634932375,-0.00114249011563,-0.0126459884216,0.0231552198349,1.0,0.0,-0.00505783854033
1385566420734633142,-0.0012303273386,-0.0125171485732,0.0225395093447,1.0,0.0,-0.00518743670414
1385566420834635654,-0.00141525089503,-0.0123069137252,0.0219942829428,1.0,0.0,-0.00528934415262
1385566420935738473,-0.00165949605143,-0.0121416829901,0.0214186651128,1.0,0.0,-0.00531506506002
1385566421035739908,-0.00210778837953,-0.0119755425408,0.0208215421976,1.0,0.0,-0.00541310898415
1385566421134636442,-0.00254289228217,-0.0118197779867,0.0202702993709,1.0,0.0,-0.00548738473462
1385566421234693583,-0.00296276702219,-0.0116527610192,0.019816169221,1.0,0.0,-0.00549370003744
1385566421334669928,-0.00345099035391,-0.0113317365704,0.0193437825089,1.0,0.0,-0.00554647796353
1385566421434751111,-0.00369895460163,-0.0110097772208,0.0188784591566,1.0,0.0,-0.00549612946373
1385566421534716580,-0.00394843764346,-0.0105582280774,0.0185074910286,1.0,0.0,-0.00546237700968
1385566421634808956,-0.00408318868571,-0.0100864814546,0.0181632553834,1.0,0.0,-0.00538661398178
1385566421734835100,-0.00408200773005,-0.00967836932705,0.017907138605,1.0,0.0,-0.00530558678819
1385566421834693495,-0.0039843043129,-0.00927666632711,0.0176390282509,1.0,0.0,-0.00517871551991
1385566421934688749,-0.00379013726161,-0.00889969585875,0.0173321644954,1.0,0.0,-0.00502280366784
1385566422034681623,-0.00358533969979,-0.00857347531759,0.0169637959162,1.0,0.0,-0.00494189580074
1385566422134687305,-0.00324693429435,-0.00827938231083,0.0165749942174,1.0,0.0,-0.0048300758631
1385566422234627512,-0.00282043105078,-0.00801874915628,0.0162723808674,1.0,0.0,-0.00469971721988
1385566422334628727,-0.002393773285,-0.00777893155684,0.0159871390267,1.0,0.0,-0.00460651394772
1385566422435666322,-0.00190607628727,-0.00749821672047,0.0157695626673,1.0,0.0,-0.00444816390271
1385566422535708460,-0.00146387453478,-0.00741761991179,0.0156900932489,1.0,0.0,-0.00433152069914
1385566422634692490,-0.00113748727379,-0.00739232516639,0.0155288723294,1.0,0.0,-0.00421455660579
1385566422735168962,-0.000827680532737,-0.00746999133891,0.015435228892,1.0,0.0,-0.00410075734328
1385566422834671647,-0.000687024808085,-0.00758431145753,0.0153305969733,1.0,0.0,-0.00404642525073
1385566422935763405,-0.000561870053301,-0.00779979317035,0.015205052306,1.0,0.0,-0.00388439722707
1385566423034798383,-0.000565961265027,-0.00797649466677,0.015096521429,1.0,0.0,-0.00381408026344
1385566423134759754,-0.000644070475476,-0.00819720851793,0.0150268731551,1.0,0.0,-0.00369376162609
1385566423234800562,-0.000774209648813,-0.00839427703594,0.0149573785237,1.0,0.0,-0.00362448907758
1385566423334633420,-0.000933106758298,-0.00858587202117,0.0148953229437,1.0,0.0,-0.00350972314421
1385566423434689747,-0.00109674266603,-0.00874057911736,0.0148138299621,1.0,0.0,-0.00342642716519
1385566423535737065,-0.00127775160654,-0.00884883455784,0.0146853007541,1.0,0.0,-0.00333224924606
1385566423635566799,-0.0014474829379,-0.00889323559345,0.0145500088246,1.0,0.0,-0.00328110213109
1385566423734637373,-0.00160894546584,-0.00882163196813,0.0143663665917,1.0,0.0,-0.00315513283683
1385566423834712309,-0.00182358175668,-0.00861315743012,0.0140748373332,1.0,0.0,-0.00308088595999
1385566423934628371,-0.00206718380363,-0.00844477636646,0.0137443976175,1.0,0.0,-0.00301413147015
1385566424034727641,-0.00226279563196,-0.00821707717236,0.0133429836257,1.0,0.0,-0.00293327385772
1385566424134687996,-0.0024669112553,-0.00793086999187,0.0129450902863,1.0,0.0,-0.00288894073943
1385566424235897702,-0.00266635867652,-0.00764170107963,0.0125714360746,1.0,0.0,-0.00285232872006
1385566424334854975,-0.00281433086459,-0.00739987296945,0.0121614787491,1.0,0.0,-0.00281238228898
1385566424434685869,-0.00296011436373,-0.00716245934188,0.0118513953501,1.0,0.0,-0.00281811695624
1385566424534611252,-0.00304276499402,-0.00701057596085,0.0115521920098,1.0,0.0,-0.00283839522622
1385566424634760828,-0.00304819350803,-0.0069751576291,0.0112079638675,1.0,0.0,-0.00281568136049
1385566424734802412,-0.00306077279314,-0.00693498624997,0.0108137947253,1.0,0.0,-0.00278353394892
1385566424834694522,-0.00293270107158,-0.00691157560533,0.0104073655142,1.0,0.0,-0.00272036870029
1385566424934634216,-0.00274315279641,-0.00691537919866,0.0100123078919,1.0,0.0,-0.00259470831049
1385566425034694531,-0.00258664848323,-0.00678738049121,0.00950441775198,1.0,0.0,-0.00253328292706
1385566425135662626,-0.00238912405267,-0.00658279954143,0.00900291359073,1.0,0.0,-0.00245313311951
1385566425234772744,-0.00223918571735,-0.00632684482995,0.00849241857453,1.0,0.0,-0.00240171987156
1385566425334783800,-0.00205025157618,-0.00602889328433,0.00804115526164,1.0,0.0,-0.00229007715201
1385566425434623784,-0.00195696529206,-0.00567477696645,0.00762230449488,1.0,0.0,-0.00224354302091
1385566425535839790,-0.00188023387715,-0.00534894058365,0.0073007370522,1.0,0.0,-0.00221924193534
1385566425635755920,-0.00175972856276,-0.00503617439376,0.00706704744229,1.0,0.0,-0.0022155958905
1385566425734657477,-0.0015780549012,-0.00476093793976,0.00678478451893,1.0,0.0,-0.00224920528966
1385566425834741972,-0.00138131897877,-0.00437804166682,0.00651697312118,1.0,0.0,-0.00226047267373
1385566425934887042,-0.0010837074617,-0.00400332969836,0.00626466396943,1.0,0.0,-0.00225340999497
1385566426034763535,-0.000839160675676,-0.00360692348055,0.0059789874831,1.0,0.0,-0.00228796940794
1385566426134669041,-0.000517016055946,-0.0031955329691,0.00570644287866,1.0,0.0,-0.00225657345932
1385566426234772182,-0.000263013470179,-0.00289117731798,0.00543761451433,1.0,0.0,-0.00226176696715
1385566426334802433,-1.85850870358e-05,-0.00265569511122,0.00523183786021,1.0,0.0,-0.00223649542183
1385566426434637092,0.000163458747269,-0.00246351559967,0.00503965684951,1.0,0.0,-0.00221353858056
1385566426534820878,0.000250938472777,-0.00240571353358,0.00482157150711,1.0,0.0,-0.00218720892239
1385566426635664480,0.000301784710888,-0.00230986690479,0.00466321300308,1.0,0.0,-0.0021631442016
1385566426734766984,0.0003054970662,-0.00237152310824,0.00453026934435,1.0,0.0,-0.00213815353978
1385566426834796633,0.00021808163052,-0.00249468954747,0.00435624319213,1.0,0.0,-0.0021276976314
1385566426934700439,3.22310823199e-05,-0.00269150342204,0.00430523242614,1.0,0.0,-0.00212837497862
1385566427034701740,-0.000175073828457,-0.00287990329569,0.00431654765447,1.0,0.0,-0.00214014938858
1385566427134888139,-0.000494367794147,-0.00301496452395,0.00435348609319,1.0,0.0,-0.00216524457442
1385566427234634149,-0.000858747432282,-0.00301487573246,0.00442344656367,1.0,0.0,-0.0022198796698
1385566427334675374,-0.00124042377088,-0.00302638490457,0.00448428853934,1.0,0.0,-0.00224320294451
1385566427435688367,-0.00168164368357,-0.00281507608312,0.00462241297367,1.0,0.0,-0.00225364568377
1385566427534778426,-0.0020339180974,-0.00254250353303,0.00467936054837,1.0,0.0,-0.00219822487587
1385566427634649217,-0.00238578685901,-0.00203670964498,0.00469355748927,1.0,0.0,-0.00220319846056
1385566427735621664,-0.00272542601082,-0.00156550331098,0.00474248619933,1.0,0.0,-0.00209738074444
1385566427834573448,-0.0030703476569,-0.000954177631392,0.00477851674556,1.0,0.0,-0.00203195704833
1385566427934681014,-0.0033723034914,-0.000342256403416,0.00473319632957,1.0,0.0,-0.00195268772247
1385566428034677729,-0.00360120242076,0.000356411545301,0.00465044967621,1.0,0.0,-0.00189200429257
1385566428134638950,-0.00384067748823,0.000977224070668,0.00452408582674,1.0,0.0,-0.00179281527491
1385566428234717725,-0.00390199028735,0.00169691845639,0.00443636967231,1.0,0.0,-0.00165934157259
1385566428334571625,-0.00404635689656,0.00229824673631,0.00435888552865,1.0,0.0,-0.00152461263756
1385566428434592394,-0.00420097400809,0.00278248925655,0.00425627492757,1.0,0.0,-0.00145143637665
1385566428534749689,-0.00434239555526,0.00323859490615,0.00409604745872,1.0,0.0,-0.00130603681078
1385566428634651569,-0.00449690870067,0.00357320668983,0.00391041181303,1.0,0.0,-0.00117663462545
1385566428734657258,-0.00460918027418,0.00385197967501,0.00371791333151,1.0,0.0,-0.00103470527671
1385566428834629348,-0.00473386612873,0.0041858136537,0.0034851728466,1.0,0.0,-0.000866789660305
1385566428935680934,-0.00485630181463,0.00444409623212,0.00337422831273,1.0,0.0,-0.000692159915009
1385566429035659118,-0.00508514896077,0.00478574452317,0.00328057417638,1.0,0.0,-0.000492383825156
1385566429134916111,-0.00524028653121,0.00516748827327,0.00325571638392,1.0,0.0,-0.000399211743807
1385566429234752462,-0.00540704522535,0.00552443367896,0.0032080509899,1.0,0.0,-0.000215790714518
1385566429334677513,-0.0055829898416,0.00570410704959,0.00308940750218,1.0,0.0,-8.4484888292e-05
1385566429434594553,-0.00577151464118,0.00586532112993,0.00289378685783,1.0,0.0,0.00010439105568
1385566429534805852,-0.00595649989808,0.00590094856747,0.00271362584843,1.0,0.0,0.000266305769331
1385566429635669553,-0.0062291312094,0.00587895932996,0.00258459111904,1.0,0.0,0.000368832697283
1385566429735825683,-0.00653990365453,0.00587176860438,0.00247963252639,1.0,0.0,0.000439158176201
1385566429834683548,-0.00689465036388,0.00586279174523,0.00244704643212,1.0,0.0,0.000551704336104
1385566429934619118,-0.00717863441336,0.00584930557941,0.00246830177141,1.0,0.0,0.000633116062908
1385566430034615039,-0.00749247369444,0.00591639388373,0.00254230663863,1.0,0.0,0.000722263040941
1385566430134687919,-0.00779599791633,0.00600187731147,0.00266538521815,1.0,0.0,0.000836711869739
1385566430234806831,-0.00792337662465,0.00615174670678,0.00281965866715,1.0,0.0,0.00088878512579
1385566430335790371,-0.00808103418539,0.00637930367959,0.00298563277996,1.0,0.0,0.000992614236197
1385566430434838713,-0.00817393519305,0.00663880108325,0.00320664707073,1.0,0.0,0.00114061191174
1385566430534832169,-0.00820106952109,0.00698503247406,0.00335149769974,1.0,0.0,0.00118156181125
1385566430634810456,-0.00834314530457,0.00734827852215,0.00346938309889,1.0,0.0,0.00123858080728
1385566430735604407,-0.00847735740368,0.00766332348696,0.00348311731007,1.0,0.0,0.00129374279877
1385566430834888087,-0.00852090251961,0.00806312269498,0.00346659061127,1.0,0.0,0.00127356162086
1385566430934683022,-0.00883562061791,0.00820750374817,0.00341174076985,1.0,0.0,0.00138404286327
1385566431034665538,-0.00896952807205,0.0084179986537,0.00325586251085,1.0,0.0,0.00140333776273
1385566431135803102,-0.00935275167948,0.00844261732276,0.00301886165737,1.0,0.0,0.00149837011612
1385566431234669175,-0.00971806622663,0.00851521814919,0.00274906376538,1.0,0.0,0.0015662765427
1385566431334649319,-0.0101137068987,0.00853150260101,0.00242961342753,1.0,0.0,0.001649642562
1385566431434672534,-0.0105647123476,0.0084186389109,0.00204613571408,1.0,0.0,0.0017315689309
1385566431534670957,-0.0110866305071,0.00829782839702,0.00164191140566,1.0,0.0,0.0018262376528
1385566431634688021,-0.0116759956314,0.00797433790924,0.00112234535035,1.0,0.0,0.00193538118604
1385566431734661378,-0.0123529023182,0.00758930827516,0.0006179493281,1.0,0.0,0.00210483538005
1385566431834744687,-0.01304842811,0.00711132694572,8.78773377771e-05,1.0,0.0,0.00226389914066
1385566431934671671,-0.0138395104647,0.00641227021704,-0.000479453696293,1.0,0.0,0.0024765973438
1385566432034686662,-0.0144429741793,0.00585485836125,-0.000972735439827,1.0,0.0,0.00264430120081
1385566432134668810,-0.0149094567171,0.00523647568121,-0.0014994020205,1.0,0.0,0.00279262910014
1385566432234581662,-0.0151744764718,0.00474397805785,-0.0019476266531,1.0,0.0,0.00290261938885
1385566432335635694,-0.0153777141442,0.00420357877441,-0.00231844544045,1.0,0.0,0.00299038994883
1385566432434642510,-0.0152996595223,0.00376973777305,-0.00248695034553,1.0,0.0,0.00305337832822
1385566432534702158,-0.0152015763928,0.00338042223459,-0.00257129577622,1.0,0.0,0.0031069476409
1385566432634660888,-0.0150137695951,0.00307849233931,-0.00256695563589,1.0,0.0,0.00318452872195
1385566432735624897,-0.0146165276599,0.00296760239106,-0.00250881593499,1.0,0.0,0.00325128034249
1385566432834640131,-0.0141869036704,0.00295763367822,-0.00239538879068,1.0,0.0,0.00328640337602
1385566432934780891,-0.0136391882437,0.00306528841006,-0.00227212367839,1.0,0.0,0.00337498717146
1385566433034691780,-0.0130207615291,0.00326953930908,-0.00212790286974,1.0,0.0,0.00338744985699
1385566433135740007,-0.0124465395387,0.00348742170112,-0.00198015121403,1.0,0.0,0.00342971893543
1385566433234773688,-0.0117706512883,0.0039437299134,-0.00175188413294,1.0,0.0,0.00340502740004
1385566433334933916,-0.0112008637957,0.00429639666913,-0.00154687144227,1.0,0.0,0.00335471843692
1385566433435677971,-0.0106366154954,0.00483849636771,-0.0013377161283,1.0,0.0,0.00324001414519
1385566433535781617,-0.0101153419117,0.00514210311316,-0.00113404040608,1.0,0.0,0.00317286139116
1385566433634698977,-0.00956025119012,0.00541161297063,-0.000870601513092,1.0,0.0,0.00309602146772
1385566433735683555,-0.00907478502783,0.00557475533805,-0.000741743753829,1.0,0.0,0.00304376362601
1385566433834689426,-0.00858224556853,0.00571388307639,-0.000575773558499,1.0,0.0,0.00290856829854
1385566433934651481,-0.00822157832689,0.00579824781229,-0.000491999634035,1.0,0.0,0.00272464383857
1385566434034682874,-0.00805004052096,0.00572031303056,-0.000370184567209,1.0,0.0,0.00258996550013
1385566434134632024,-0.00786985532695,0.00562975019407,-0.000231041722135,1.0,0.0,0.00246598499906
1385566434234673889,-0.00806440823577,0.00543753751315,-8.20585753551e-05,1.0,0.0,0.00238107778045
1385566434334743675,-0.0082281953691,0.00518797425121,2.83145799524e-05,1.0,0.0,0.00224210408971
1385566434434777289,-0.00863300573813,0.0047455639326,8.05894300262e-05,1.0,0.0,0.00216504768157
1385566434535860450,-0.00895956574608,0.00442335835251,0.000142241764728,1.0,0.0,0.00207847917852
1385566434634775315,-0.00943687511351,0.00395322065022,0.000194375364901,1.0,0.0,0.00201633928217
1385566434734576778,-0.00985628107998,0.00353009447465,0.000235517406287,1.0,0.0,0.00193615100056
1385566434834827076,-0.0103472407855,0.00311145345314,0.000291678131309,1.0,0.0,0.00195523623409
1385566434934603922,-0.0108166725322,0.00278346648919,0.000356645247343,1.0,0.0,0.00193062983693
1385566435034660924,-0.011387441194,0.00252064959374,0.000316731785837,1.0,0.0,0.00196179626806
1385566435134667408,-0.0119593532239,0.00222908406566,0.000302753849908,1.0,0.0,0.00203206428755
1385566435234752218,-0.0126523621291,0.002095957983,0.000214576653033,1.0,0.0,0.00213182915744
1385566435335664378,-0.0133465642553,0.0020190743956,0.000152021547389,1.0,0.0,0.00222111407957
1385566435434697920,-0.0140439786291,0.002068677482,0.000161502229709,1.0,0.0,0.00228824269667
1385566435534672246,-0.0147050964399,0.00217553991436,0.000259651633112,1.0,0.0,0.00234510802354
1385566435634673763,-0.0153489141773,0.00229781939383,0.000441749796624,1.0,0.0,0.00242007088988
1385566435734624069,-0.0158719359913,0.00270773265696,0.000642986889307,1.0,0.0,0.00247298695533
1385566435834626838,-0.0163272274096,0.00313629617403,0.000810373709589,1.0,0.0,0.00254849094377
1385566435934641602,-0.016639082775,0.00370837439927,0.000888018607548,1.0,0.0,0.00260380823728
1385566436034733259,-0.0168958984782,0.00417164612227,0.00099250563962,1.0,0.0,0.00276057609951
1385566436134841899,-0.0170102819557,0.00490077730905,0.00104787933587,1.0,0.0,0.00285955776748
1385566436234577154,-0.0171082974211,0.0057226966507,0.00109482771989,1.0,0.0,0.00296286253898
1385566436335030918,-0.0171723642233,0.0064477421945,0.00110679227338,1.0,0.0,0.00313728476565
1385566436434639073,-0.0169970426989,0.00717656401927,0.00117112315506,1.0,0.0,0.00330032404059
1385566436535712254,-0.0167693575434,0.00772543514857,0.00127961295403,1.0,0.0,0.00353627587615
1385566436634577050,-0.0164136685476,0.00822313698083,0.00136024696403,1.0,0.0,0.0037574817015
1385566436734793478,-0.0160533272019,0.00856249658117,0.00144028068129,1.0,0.0,0.00404680489592
1385566436834899977,-0.0155801724999,0.0087749324299,0.00159866614644,1.0,0.0,0.004291481014
1385566436934757968,-0.0151676683949,0.00901324013444,0.00169046589606,1.0,0.0,0.0044707362848
1385566437034604518,-0.0148575046474,0.00909585399412,0.00171376711606,1.0,0.0,0.00474992246608
1385566437134691311,-0.0145927177169,0.00922087339564,0.00167047079116,1.0,0.0,0.00493822399501
1385566437235573079,-0.0144859345475,0.00922006817344,0.00161696861655,1.0,0.0,0.00516291497519
1385566437334697997,-0.0145245879698,0.00911916342432,0.00159016402384,1.0,0.0,0.00544406898427
1385566437434686724,-0.0147248863495,0.00891557690888,0.00150314470165,1.0,0.0,0.00573949859645
1385566437534688682,-0.0148517480328,0.00862583507168,0.00144068421235,1.0,0.0,0.0060129474999
1385566437634667099,-0.0152080132037,0.00814157987537,0.00130222075757,1.0,0.0,0.006335475503
1385566437734866252,-0.0155423007119,0.00764484012247,0.00111482035042,1.0,0.0,0.0065740771218
1385566437834678226,-0.0159602991398,0.00698093099545,0.00100488558103,1.0,0.0,0.00685721177848
1385566437934807699,-0.0163943514897,0.00638407336183,0.000905665600832,1.0,0.0,0.00711864903171
1385566438034835319,-0.0169191347253,0.00569160569453,0.000903550182165,1.0,0.0,0.00743257985993
1385566438134788787,-0.0173369010028,0.00521651064874,0.00108071740638,1.0,0.0,0.00765398702776
1385566438235665013,-0.0177482675263,0.00470393128984,0.00133963537483,1.0,0.0,0.00793494999711
1385566438334701163,-0.0180964686521,0.00441976439613,0.00153893841411,1.0,0.0,0.00812101776881
1385566438434757524,-0.0184731544829,0.00402742950283,0.00179125508818,1.0,0.0,0.00840325049811
1385566438534656537,-0.0185733711756,0.00401537597922,0.00212140329013,1.0,0.0,0.0086347002006
1385566438634676709,-0.0186122256956,0.00405306363907,0.00242563741679,1.0,0.0,0.00886390184253
1385566438734639524,-0.0183858636372,0.00422429045303,0.0028597393275,1.0,0.0,0.00908058567412
1385566438834725098,-0.0181208146743,0.00444007204707,0.00306820513855,1.0,0.0,0.00932612696205
1385566438935613172,-0.0176333282343,0.00468748861749,0.00323790617736,1.0,0.0,0.00958298993401
1385566439035714817,-0.0171339298497,0.00506177298143,0.00325171589891,1.0,0.0,0.00981118276973
1385566439134590814,-0.0166833694803,0.00530839697723,0.00321251495253,1.0,0.0,0.0100589183215
1385566439234646707,-0.0161089988411,0.00581718071257,0.00327724981459,1.0,0.0,0.0102891518578
1385566439334627109,-0.0156596842902,0.0062811785233,0.00337014405037,1.0,0.0,0.0104802063756
1385566439434698112,-0.0152801899887,0.00683297519912,0.00326224807504,1.0,0.0,0.0106930495214
1385566439534694927,-0.0149789873188,0.00746211126809,0.00298433064468,1.0,0.0,0.010924861462
1385566439634668182,-0.0146844571348,0.00798366922895,0.00276674931266,1.0,0.0,0.0111333892756
1385566439734729347,-0.0143514678326,0.00870318536759,0.00250734784026,1.0,0.0,0.0113080272752
1385566439834813138,-0.0139695616837,0.00926729406894,0.00216075736216,1.0,0.0,0.0114316593417
1385566439934625237,-0.0136853706662,0.00977458272517,0.00182723749404,1.0,0.0,0.0115437462396
1385566440035608648,-0.0134929885013,0.0102264851104,0.00143171428885,1.0,0.0,0.0116139266051
1385566440135690763,-0.0134260144114,0.0106027352795,0.00115420302507,1.0,0.0,0.0116621312626
1385566440235681870,-0.0132766241526,0.0109973372002,0.000876379520475,1.0,0.0,0.0116254192207
1385566440334716369,-0.0134537682779,0.0112846054743,0.000582810475455,1.0,0.0,0.0116217720384
1385566440435666509,-0.013587745841,0.0114010145455,0.000483365709619,1.0,0.0,0.0116064328243
1385566440534685990,-0.0138259235109,0.0115662446064,0.000268980498745,1.0,0.0,0.0115274645749
1385566440634654817,-0.0139692583086,0.0115768059839,0.000190934937671,1.0,0.0,0.0115335833844
1385566440734691984,-0.0140510741928,0.0116963192806,4.73989987074e-05,1.0,0.0,0.0114850624455
1385566440834699870,-0.0139508665551,0.0116712308188,1.99324477778e-05,1.0,0.0,0.0114263563535
1385566440934622916,-0.0138364789964,0.0117383641985,-6.77150025371e-05,1.0,0.0,0.0113343948102
1385566441035571484,-0.0136416541883,0.0116581230046,-0.000103515529089,1.0,0.0,0.0111925940851
1385566441135626959,-0.0132448687081,0.0117765004574,4.6415277322e-05,1.0,0.0,0.0110397570936
1385566441234647839,-0.0128535036032,0.0118326698415,0.000129093414789,1.0,0.0,0.010860523188
1385566441334686256,-0.0122722456029,0.0118964816433,0.000213842816343,1.0,0.0,0.0106927085571
1385566441435613277,-0.0115878216515,0.0119256438589,0.000295874287604,1.0,0.0,0.0105491267709
1385566441534695959,-0.0106279786009,0.0122770155998,0.000271550226239,1.0,0.0,0.010254590223
1385566441635615909,-0.00980172453819,0.0122442258888,0.000282920956857,1.0,0.0,0.0100636086089
1385566441734685512,-0.00892800713279,0.0124215737307,0.000156007391821,1.0,0.0,0.00981693573261
1385566441834693558,-0.00815323863141,0.0124769916811,5.05596548322e-05,1.0,0.0,0.00956806308216
1385566441934686557,-0.00759849268738,0.0125328070487,-0.000171664162973,1.0,0.0,0.00928014187282
1385566442034686134,-0.00731217494139,0.0125016074462,-0.000344781388193,1.0,0.0,0.00902834291276
1385566442134580513,-0.00715303441493,0.0125176524874,-0.000572603229956,1.0,0.0,0.00878617715205
1385566442234661569,-0.0072648382816,0.0123436977725,-0.000838225810104,1.0,0.0,0.00855864214098
1385566442334711259,-0.00743546313837,0.0122654918559,-0.00110230861865,1.0,0.0,0.00828369380742
1385566442434719872,-0.00785978970197,0.012105890306,-0.00134969656933,1.0,0.0,0.00804963749456
1385566442535612778,-0.00843432515892,0.0121390815744,-0.00141952515741,1.0,0.0,0.00783570503062
1385566442634815225,-0.00918591372375,0.012234670261,-0.00137308094522,1.0,0.0,0.00761396067078
1385566442734629468,-0.0100665777659,0.0124550552604,-0.00127545080541,1.0,0.0,0.00745269395217
1385566442835318243,-0.0110107972857,0.0125906324977,-0.0012439365332,1.0,0.0,0.00723636068792
1385566442934818485,-0.0119462887733,0.0127636260632,-0.00119174381704,1.0,0.0,0.00716638550323
1385566443035756798,-0.0126876512178,0.0129722203518,-0.00110796467686,1.0,0.0,0.00694542367082
1385566443134900025,-0.0136083497101,0.012910383543,-0.000919467065133,1.0,0.0,0.00689824464635
1385566443234649466,-0.0144317728665,0.0128193811497,-0.000740612301807,1.0,0.0,0.00683927345301
1385566443334707196,-0.0150669616105,0.0127283213596,-0.000438573442637,1.0,0.0,0.0068095237669
1385566443435697248,-0.0155310320963,0.0126705569138,-0.000264330076121,1.0,0.0,0.00672611629267
1385566443534674559,-0.0159752570222,0.0125816190132,-8.08666178252e-05,1.0,0.0,0.0067133109649
1385566443634642755,-0.0162973205188,0.0126192896496,0.000125569153226,1.0,0.0,0.00665866960489
1385566443734699373,-0.0165137420041,0.0127232880011,0.000277897561489,1.0,0.0,0.00666086019825
1385566443834630119,-0.0166340598275,0.0130333273933,0.000520786852235,1.0,0.0,0.00663528466846
1385566443935667361,-0.0165778424907,0.0134968809398,0.00077841971591,1.0,0.0,0.00658651754797
1385566444035804090,-0.0165304090681,0.0138789825525,0.00107140152127,1.0,0.0,0.00658311183144
1385566444134722788,-0.0164271233722,0.0142746898932,0.00139533369496,1.0,0.0,0.00663016860585
1385566444234631671,-0.0160506369891,0.0148617160423,0.00166108459451,1.0,0.0,0.00658292891691
1385566444334701034,-0.0157567438127,0.0150912646244,0.00189527978924,1.0,0.0,0.00652738825433
1385566444434750717,-0.0153304257582,0.0153806023083,0.00203184819369,1.0,0.0,0.00643929558911
1385566444534698966,-0.0148723648983,0.0153560747278,0.00214538962225,1.0,0.0,0.0063955991096
1385566444634671113,-0.0143257811966,0.0153920782906,0.00215502925921,1.0,0.0,0.00631556357105
1385566444734627233,-0.0139027518311,0.015228532146,0.00223600454612,1.0,0.0,0.00626073764998
1385566444834584802,-0.0133798100635,0.0149563182605,0.00235281625389,1.0,0.0,0.00616255588408
1385566444935636139,-0.0129435095283,0.014570940439,0.00247329008297,1.0,0.0,0.00608556698972
1385566445034681139,-0.012501858716,0.0140592347739,0.00253531418915,1.0,0.0,0.00588392488299
1385566445134643205,-0.0122705942643,0.0133475954701,0.00266068031973,1.0,0.0,0.00574249646841
1385566445234604271,-0.0121760380865,0.0126195139595,0.00278376131479,1.0,0.0,0.00553156942454
1385566445334820303,-0.0122480785581,0.0117102178282,0.00294466632796,1.0,0.0,0.00533653654842
1385566445434627905,-0.0125062701158,0.0107337262193,0.0029459686072,1.0,0.0,0.00515256765298
1385566445534815951,-0.0130312739042,0.00964468353956,0.00275547024021,1.0,0.0,0.00496705122606
1385566445635678182,-0.0137428223053,0.00865386926676,0.00252458541577,1.0,0.0,0.00485142855628
1385566445734625591,-0.0146932614878,0.00766281120896,0.00221787259135,1.0,0.0,0.00465108106641
1385566445834664720,-0.0159785527939,0.00677870646231,0.00190942529816,1.0,0.0,0.00449698444333
1385566445934635819,-0.0174372672648,0.00584367674176,0.00166246127553,1.0,0.0,0.00429822771545
1385566446034757054,-0.0190430906711,0.00502695955359,0.00142961302528,1.0,0.0,0.00407022687614
1385566446134645816,-0.0207086596662,0.00415995837087,0.00113076543977,1.0,0.0,0.00390284376228
1385566446234682922,-0.0222210425145,0.00338755272564,0.000760127370761,1.0,0.0,0.00374799028812
1385566446334604434,-0.0234804740906,0.00262226492506,0.000447079026652,1.0,0.0,0.00356167150053
1385566446434697170,-0.0243922432496,0.00197623453842,0.000102565300251,1.0,0.0,0.00336885479938
1385566446534617468,-0.0250811658992,0.0014227942772,-0.000160413074591,1.0,0.0,0.00319324364558
1385566446635021947,-0.0253372260114,0.00111082940823,-0.000317987320826,1.0,0.0,0.00301160796268
1385566446734650624,-0.0252952856267,0.000916829563199,-0.000491992903654,1.0,0.0,0.00284217204863
1385566446835696164,-0.0249379134706,0.000946876088104,-0.000658866910991,1.0,0.0,0.00268116127107
1385566446935681630,-0.0242153099562,0.00112445905015,-0.000805668531456,1.0,0.0,0.00249891691567
1385566447035753078,-0.0233811818752,0.0014386139697,-0.00103735231207,1.0,0.0,0.00236166038972
1385566447134702513,-0.022364323322,0.00177844942062,-0.00112038443905,1.0,0.0,0.00215205018989
1385566447234707457,-0.0212501182877,0.00210550552057,-0.00135227523542,1.0,0.0,0.00195114368816
1385566447334788075,-0.0201836341238,0.00234248577831,-0.00158115741192,1.0,0.0,0.00180138674739
1385566447434834462,-0.0190839332544,0.00247752220287,-0.00180706097264,1.0,0.0,0.00165131494126
1385566447535811543,-0.0180807348379,0.00258392993267,-0.00201228154068,1.0,0.0,0.0014434903475
1385566447634621578,-0.0172422334175,0.00249860329497,-0.00213252871894,1.0,0.0,0.00129036679089
1385566447734637376,-0.0165620345081,0.00236504957547,-0.00231465851203,1.0,0.0,0.00107262655562
1385566447835751344,-0.0159277092562,0.00231026442605,-0.00238445051793,1.0,0.0,0.000757689727477
1385566447934617835,-0.0155213354283,0.00185322072211,-0.0025426475517,1.0,0.0,0.000479687799903
1385566448034670232,-0.0152506243376,0.00137563775484,-0.00264748610557,1.0,0.0,0.000199905769808
1385566448134615023,-0.0151284235525,0.000725150728196,-0.00285643793643,1.0,0.0,-8.70593537424e-05
1385566448234870234,-0.0151930641725,-0.000156647359889,-0.00309437482782,1.0,0.0,-0.000351346613628
1385566448334841001,-0.0153973816182,-0.000987135174492,-0.00327536155555,1.0,0.0,-0.000628039269623
1385566448434818654,-0.0157876508343,-0.00180677177424,-0.00338377129332,1.0,0.0,-0.000943597361322
1385566448534781835,-0.016336706741,-0.00269844360426,-0.00350253122086,1.0,0.0,-0.0012053386663
1385566448634921473,-0.0168818944656,-0.00348915795545,-0.00363038724267,1.0,0.0,-0.00151480664617
1385566448735980739,-0.0174659899374,-0.00419268554127,-0.00366134319083,1.0,0.0,-0.0017906233869
1385566448834997106,-0.017862722207,-0.00455575660084,-0.00360241359136,1.0,0.0,-0.00209503861504
1385566448934986346,-0.0181084778645,-0.00481194671694,-0.0033696273414,1.0,0.0,-0.00241221858692
1385566449034831750,-0.0180447400699,-0.00491832618448,-0.00312985597206,1.0,0.0,-0.00267286166072
1385566449134943298,-0.0178076649798,-0.00481692653269,-0.00277858694423,1.0,0.0,-0.00299817499195
1385566449234976206,-0.0173197464287,-0.0047113415824,-0.00235945140051,1.0,0.0,-0.00323848840123
1385566449335004278,-0.0166121534085,-0.00441369100646,-0.00198840944237,1.0,0.0,-0.00352939570375
1385566449435972456,-0.0157111923531,-0.00409427667226,-0.00152352646137,1.0,0.0,-0.0037790873619
1385566449534967119,-0.0146785697575,-0.0036040626218,-0.000934531036801,1.0,0.0,-0.00403997042559
1385566449634849092,-0.0134996542793,-0.00306697558673,-0.000440043489303,1.0,0.0,-0.00428669336105
1385566449734875164,-0.012316591395,-0.00239121205388,-3.90861946465e-05,1.0,0.0,-0.00451925564663
1385566449834832449,-0.0110906720885,-0.0017536544406,0.000494003107164,1.0,0.0,-0.00468811554249
1385566449934795083,-0.0099567903826,-0.000950827207511,0.000988021709183,1.0,0.0,-0.00482944325544
1385566450034850236,-0.00883998298195,-0.000200015925823,0.00146835943988,1.0,0.0,-0.00499494664474
1385566450134844796,-0.00793549621167,0.000556497819333,0.00185181164342,1.0,0.0,-0.00517866115474
1385566450234788031,-0.0071156835197,0.00115971740512,0.00218615082274,1.0,0.0,-0.00528143749026
1385566450334776384,-0.00643342363475,0.00166500860013,0.00238500108523,1.0,0.0,-0.0053781220719
1385566450435737083,-0.00606253949282,0.00193412211216,0.00245447687708,1.0,0.0,-0.00550894502652
1385566450534888267,-0.00583736927724,0.00197915140927,0.00258655507539,1.0,0.0,-0.00558411368075
1385566450634931253,-0.00585944370083,0.00188306505868,0.00265114290222,1.0,0.0,-0.00570312095242
1385566450734856858,-0.00616473607969,0.00143964823183,0.00271330553773,1.0,0.0,-0.00575792867475
1385566450835859870,-0.00666177949386,0.000941596617719,0.00278212439442,1.0,0.0,-0.00585751363571
1385566450936006435,-0.00736747661747,0.000299784070304,0.00281346937063,1.0,0.0,-0.00590191201211
1385566451034837730,-0.00816558889603,-0.000378969975154,0.00286929396687,1.0,0.0,-0.00595830315208
1385566451134817807,-0.00899035961819,-0.00106298015539,0.00290680349118,1.0,0.0,-0.00601666284925
1385566451234785469,-0.00991086954323,-0.00182392405418,0.00290191736965,1.0,0.0,-0.00601959753623
1385566451334749704,-0.0107259808756,-0.00251658259256,0.00298560136513,1.0,0.0,-0.00603126965099
1385566451434948321,-0.0115887981047,-0.00313967786783,0.00302592003547,1.0,0.0,-0.00608749916295
1385566451534829597,-0.0122879768394,-0.0037933648493,0.00303172843277,1.0,0.0,-0.00612218935947
1385566451634787109,-0.0129163742424,-0.00436523330567,0.00304335944019,1.0,0.0,-0.00617558527479
1385566451734831803,-0.0133936312014,-0.00486780678552,0.00306734743489,1.0,0.0,-0.00621963549664
1385566451836020585,-0.0137516220801,-0.00521804295403,0.00301910437319,1.0,0.0,-0.00625758910201
1385566451934832074,-0.0139037517731,-0.00541228381661,0.00295643741186,1.0,0.0,-0.00628365833339
1385566452034817242,-0.013801079372,-0.00548852821324,0.00289117762198,1.0,0.0,-0.00628478482171
1385566452134731552,-0.0134732359008,-0.00524922777699,0.00278601468061,1.0,0.0,-0.0062983204991
1385566452234952899,-0.0129822295558,-0.00476269078233,0.00275508836726,1.0,0.0,-0.00637022731146
1385566452334753216,-0.0122820980301,-0.00417456336371,0.00266457263637,1.0,0.0,-0.00640087352685
1385566452434830028,-0.0115215645316,-0.00335615416824,0.00252916351674,1.0,0.0,-0.00648280569788
1385566452534881144,-0.0106797657586,-0.00230205191972,0.00223699822968,1.0,0.0,-0.00663302601163
1385566452634961919,-0.00988747290324,-0.00117628725536,0.00191223201448,1.0,0.0,-0.00681109728901
1385566452735026557,-0.00925502687805,-2.14701806965e-05,0.00163043962588,1.0,0.0,-0.00697811217272
1385566452834924371,-0.00874514335587,0.00122686008574,0.001326957208,1.0,0.0,-0.00708629575499
1385566452934995642,-0.00843781752243,0.00244684729861,0.00101097451166,1.0,0.0,-0.00723597748787
1385566453034825960,-0.00824140231463,0.00353240566956,0.000751441544902,1.0,0.0,-0.00736230820621
1385566453135840068,-0.00813232292305,0.00442373028637,0.00049399821582,1.0,0.0,-0.0074015528714
1385566453234920230,-0.00806704329415,0.00516061429096,0.000232514697727,1.0,0.0,-0.00737836643967
1385566453334730098,-0.00814571574405,0.00568053605196,-3.54156957836e-05,1.0,0.0,-0.00734748180126
1385566453434859207,-0.00825595329575,0.0060054851927,-0.000240791346699,1.0,0.0,-0.00734244820612
1385566453534765994,-0.00840111919035,0.00599090755928,-0.000396490863156,1.0,0.0,-0.00720670630128
1385566453634782119,-0.00863798819396,0.00585842162462,-0.000498276052843,1.0,0.0,-0.00713555957745
1385566453734772481,-0.0089941001857,0.00550066892844,-0.000526893778468,1.0,0.0,-0.00701863750998
1385566453834817826,-0.00935477997258,0.0049490868763,-0.000513955305639,1.0,0.0,-0.00684717669914
1385566453934891954,-0.00984864371343,0.00424504227291,-0.000496418237229,1.0,0.0,-0.00667412800497
1385566454035846602,-0.0103605009776,0.00347383859086,-0.000349793407736,1.0,0.0,-0.00652082530417
1385566454134825051,-0.0108637476424,0.00265509982003,-0.00030540331276,1.0,0.0,-0.00635799912584
1385566454234847673,-0.0114530594374,0.00182350815069,-0.000219760732492,1.0,0.0,-0.00617923699255
1385566454334848082,-0.0119579388788,0.00108764214901,-0.000139513785864,1.0,0.0,-0.00596497478466
1385566454435783742,-0.0124364237344,0.000385433432422,-0.000135372980951,1.0,0.0,-0.00578047829569
1385566454534850242,-0.0128646968504,-0.000226714578781,-0.000180663221254,1.0,0.0,-0.00558038808064
1385566454634979234,-0.0131711270411,-0.000758451096047,-0.000215122215093,1.0,0.0,-0.00537472169837
1385566454734763804,-0.0133427516264,-0.00122632701664,-0.000312160644795,1.0,0.0,-0.00514605486992
1385566454834749929,-0.0134464910593,-0.0016243481578,-0.000463910894164,1.0,0.0,-0.00486968452181
1385566454934916568,-0.0134818619829,-0.00193645939343,-0.000709913435401,1.0,0.0,-0.00456117869735
1385566455034972082,-0.0135578404267,-0.00210555063613,-0.000932884508994,1.0,0.0,-0.00423687405543
1385566455134896504,-0.0136909638753,-0.00218047812966,-0.00109382104074,1.0,0.0,-0.00388502400572
1385566455235057184,-0.0139082979901,-0.00194322167749,-0.00123015002972,1.0,0.0,-0.00358726553546
1385566455334735604,-0.0141744092681,-0.00157623603837,-0.0012369884602,1.0,0.0,-0.00328281179873
1385566455434750384,-0.0143860574781,-0.000975717883157,-0.00131407081148,1.0,0.0,-0.00300162796605
1385566455535961264,-0.0144905175909,-0.000235225864926,-0.00149774234095,1.0,0.0,-0.00272131994052
1385566455634913293,-0.0145149378667,0.000692716261817,-0.00168465879762,1.0,0.0,-0.00246000868757
1385566455734953238,-0.0144646388163,0.00168711638065,-0.00189034589661,1.0,0.0,-0.0022363362893
1385566455834847286,-0.0142578243205,0.00272415247295,-0.00206985426334,1.0,0.0,-0.00198645561529
1385566455934904356,-0.0138837502354,0.0038365310773,-0.0022043849433,1.0,0.0,-0.00173498076664
1385566456035019426,-0.0134164477592,0.00498092699015,-0.00229243940212,1.0,0.0,-0.00150221906789
1385566456134806564,-0.0128482440268,0.0058659375762,-0.00229574642058,1.0,0.0,-0.00120500878129
1385566456234898884,-0.0122094756634,0.00664144272816,-0.00216714024755,1.0,0.0,-0.000923488725606
1385566456334880178,-0.0114769963557,0.00722701791189,-0.00192842458898,1.0,0.0,-0.000655307004127
1385566456434838507,-0.0106604951492,0.00752125175303,-0.00165370539621,1.0,0.0,-0.000423665630378
1385566456534962904,-0.00987441029847,0.00766250224826,-0.00142012104144,1.0,0.0,-0.000206903814315
1385566456634823029,-0.00909347478606,0.00758359099908,-0.00121049749295,1.0,0.0,1.90853912632e-05
1385566456734829408,-0.00841754819432,0.00723745296733,-0.00109089127594,1.0,0.0,0.00028745400847
1385566456835850900,-0.00784345603903,0.00681001812202,-0.000947685734844,1.0,0.0,0.000492417180737
1385566456935007703,-0.00737852663086,0.00619239573334,-0.000851810963506,1.0,0.0,0.000700438508746
1385566457034745339,-0.00702983340506,0.00534728146185,-0.000672097884069,1.0,0.0,0.000947547392795
1385566457135021784,-0.00679370541242,0.00441606062528,-0.000511801362603,1.0,0.0,0.00118184961879
1385566457234830438,-0.00662047556109,0.00334817816369,-0.00034335234949,1.0,0.0,0.00143517749055
1385566457334925818,-0.00656668964039,0.00238428108568,-0.000257271450383,1.0,0.0,0.0016625690086
1385566457434819871,-0.00672791235649,0.00133038264534,-0.00023792512652,1.0,0.0,0.00186272230481
1385566457535115626,-0.00697773537171,0.000543917338068,-0.000192596537377,1.0,0.0,0.00204236026224
1385566457634740123,-0.00750639191307,-0.000159886472473,-0.000181457701684,1.0,0.0,0.00216728140176
1385566457735730996,-0.00821953540727,-0.0006778825537,-0.000204222079127,1.0,0.0,0.00228437332698
1385566457835090920,-0.00905395348528,-0.000998932381644,-0.000302363946012,1.0,0.0,0.0023984665003
1385566457934907368,-0.00992703234057,-0.000998665067352,-0.000465802585905,1.0,0.0,0.00239532427915
1385566458034826001,-0.0108862625244,-0.000824005289083,-0.000552769622082,1.0,0.0,0.00243006597196
1385566458135892436,-0.0118183394393,-0.000390688415959,-0.000659289468038,1.0,0.0,0.00238005759307
1385566458235734384,-0.0127031343327,0.000209162236002,-0.000681175952925,1.0,0.0,0.00232646670558
1385566458334772113,-0.0135360459774,0.000826045816245,-0.000665318175481,1.0,0.0,0.00223861509092
1385566458434856767,-0.0142149405769,0.00147370284847,-0.000680265159877,1.0,0.0,0.00215659114951
1385566458535880600,-0.0147715268174,0.0020874605447,-0.000637661993858,1.0,0.0,0.00212323216556
1385566458634873691,-0.0151320331459,0.00267197005244,-0.000597089678268,1.0,0.0,0.00205196360744
1385566458734979721,-0.0153589043348,0.00320933434811,-0.000514266753015,1.0,0.0,0.00203547619581
1385566458834918152,-0.0154421384128,0.00362541219664,-0.000389556230586,1.0,0.0,0.00200667457063
1385566458934960501,-0.0154605452313,0.00405718095649,-0.000230153952723,1.0,0.0,0.00198842160641
1385566459034822801,-0.0153743991994,0.00456270829663,6.16977403787e-05,1.0,0.0,0.00194145874919
1385566459134938541,-0.0151432831001,0.00487069842312,0.000244385266157,1.0,0.0,0.00192220922864
1385566459234824173,-0.0148080300839,0.00528393352099,0.000320731986152,1.0,0.0,0.00189472118918
1385566459335832496,-0.0143395544558,0.00557341249445,0.000378321545644,1.0,0.0,0.00184448638126
1385566459434960686,-0.0138518328979,0.00588099642128,0.000360744873316,1.0,0.0,0.00189324470215
1385566459535031565,-0.013293269332,0.00609080752261,0.000328594255965,1.0,0.0,0.00190777328477
1385566459634891061,-0.0126728950808,0.0063117093451,0.000313081032542,1.0,0.0,0.00194773888631
1385566459734912867,-0.0120989684723,0.00646123974983,0.00028161365421,1.0,0.0,0.00198730125157
1385566459834837506,-0.0114203080366,0.00649889373612,0.000292715102405,1.0,0.0,0.00207814506443
1385566459936027947,-0.0107459293017,0.00639078904018,0.000314650265115,1.0,0.0,0.00213410375963
1385566460034879152,-0.0100823926384,0.00626724758231,0.000189501491589,1.0,0.0,0.00219997881616
1385566460134915957,-0.00947195022058,0.00599704855242,4.49302492212e-05,1.0,0.0,0.00228658139235
1385566460234841499,-0.00889667154773,0.00572291109045,-1.65844460499e-05,1.0,0.0,0.00243198726794
1385566460334935093,-0.00845616709925,0.00539895913952,-3.93987486016e-05,1.0,0.0,0.00258381938546
1385566460434874288,-0.00812757763581,0.0050532021478,-7.49032733334e-05,1.0,0.0,0.00282565045006
1385566460535763188,-0.0080171083604,0.00464288734215,-9.30629874375e-05,1.0,0.0,0.00314574142483
1385566460635003791,-0.00774995122904,0.00445574244898,-0.000101347940138,1.0,0.0,0.00338341487242
1385566460734817175,-0.00782160218055,0.00401761732533,-9.77076756501e-05,1.0,0.0,0.00372337510287
1385566460834822337,-0.0077577817945,0.00385919345813,-1.26121763612e-05,1.0,0.0,0.00401222642401
1385566460934862409,-0.0078997661318,0.00358170803227,0.000113565147958,1.0,0.0,0.00430659776193
1385566461034777503,-0.00796389761543,0.00348829303328,0.000165150177747,1.0,0.0,0.00466503394274
1385566461134803778,-0.00818203671724,0.00343286786898,0.000259278954941,1.0,0.0,0.00494993358891
1385566461235817984,-0.00835672173749,0.00344286532415,0.000393879408276,1.0,0.0,0.00524783700081
1385566461334945318,-0.00855938389826,0.00347373813887,0.000580055311923,1.0,0.0,0.00548596935787
1385566461434983672,-0.00884045956447,0.00345605925638,0.000675386158668,1.0,0.0,0.00573284466847
1385566461534949897,-0.00893905056778,0.0036542011968,0.00081919638055,1.0,0.0,0.0059086928261
1385566461635172597,-0.00918401380054,0.00376795865337,0.000891317847501,1.0,0.0,0.00610975911606
1385566461734733367,-0.00951146959409,0.00392451946213,0.000903847827918,1.0,0.0,0.00631654800403
1385566461835829874,-0.00985369705735,0.00412931628997,0.000974296362763,1.0,0.0,0.00654434764185
1385566461934867502,-0.0101465394245,0.0044181728441,0.000987599291435,1.0,0.0,0.00676452546292
1385566462034929964,-0.0106302405187,0.00451804675748,0.00103759389809,1.0,0.0,0.00700929476289
1385566462134788894,-0.0108660947289,0.00479183011639,0.00115816458376,1.0,0.0,0.00725648326757
1385566462235884866,-0.0110269604234,0.0050177187658,0.00124793085828,1.0,0.0,0.00746860547047
1385566462334803081,-0.0110126721417,0.00507634708276,0.00135151607996,1.0,0.0,0.00768727598555
1385566462434882961,-0.010910861835,0.00509474155143,0.00139577079427,1.0,0.0,0.00792785023483
1385566462534774453,-0.0106564578551,0.00499639323764,0.00143651203893,1.0,0.0,0.00816988163719
1385566462634910247,-0.0102789741054,0.00479429767045,0.00143881133468,1.0,0.0,0.00840166820912
1385566462735814916,-0.00986033707669,0.00448413058727,0.00142606612401,1.0,0.0,0.00861858203895
1385566462835895512,-0.00942986137368,0.00411326459585,0.00142105052034,1.0,0.0,0.00881534910583
1385566462934939389,-0.00906450570531,0.00383866354574,0.00138406119452,1.0,0.0,0.00896158637024
1385566463034868096,-0.00891758270477,0.00361742271377,0.00125623422861,1.0,0.0,0.0091867117431
1385566463134951328,-0.00882400140004,0.00368187750877,0.00112119042714,1.0,0.0,0.0093677067959
1385566463235890308,-0.00894751996868,0.00392443893824,0.00101656331599,1.0,0.0,0.0094761508327
1385566463334812816,-0.009289476671,0.00414441158967,0.0009199386702,1.0,0.0,0.00964530759246
1385566463434977487,-0.00964219528861,0.00466607988812,0.000860807886138,1.0,0.0,0.00977213970639
1385566463534830621,-0.010183973188,0.00510397720757,0.000826393373025,1.0,0.0,0.00989539726869
1385566463635925466,-0.0105804774067,0.00577953104974,0.000868638356569,1.0,0.0,0.00999967955817
1385566463734825014,-0.0110796341316,0.00634384100081,0.000882040211586,1.0,0.0,0.0100884392099
1385566463835012161,-0.0113811696646,0.00694779606248,0.000992857274203,1.0,0.0,0.010218670691
1385566463934961933,-0.011548577282,0.00750783769229,0.00105396661552,1.0,0.0,0.0102653271571
1385566464034961352,-0.011612606039,0.00801314179549,0.0010380035105,1.0,0.0,0.0103439516326
1385566464134918389,-0.0115250620865,0.00834602728483,0.00114567647504,1.0,0.0,0.0103670315325
1385566464234833807,-0.0113188438084,0.00851504106142,0.00128635019668,1.0,0.0,0.0104169861592
1385566464335024177,-0.0110450728155,0.00846941820837,0.00133658328842,1.0,0.0,0.0104756358973
1385566464435018853,-0.010640479839,0.00824238488852,0.00141968747649,1.0,0.0,0.0106127508268
1385566464534944670,-0.0101356894583,0.00781632618406,0.00146760154523,1.0,0.0,0.0107210630819
1385566464635840271,-0.00960041764633,0.00726643040982,0.00140102184522,1.0,0.0,0.0108266107724
1385566464735968503,-0.0089733006574,0.00654092152536,0.00131917528483,1.0,0.0,0.0110207370575
1385566464835036617,-0.00830229855731,0.0058852272424,0.00116981046947,1.0,0.0,0.0111931970933
1385566464934957530,-0.00754900606148,0.00513626235987,0.0010709519507,1.0,0.0,0.0113932648072
1385566465034947537,-0.00681926508273,0.00448194998658,0.000927598781618,1.0,0.0,0.0115801748356
1385566465135837866,-0.00602611072322,0.00380993534919,0.000764868781189,1.0,0.0,0.0117632801901
1385566465234821521,-0.00519672593094,0.00322626942078,0.000625094513604,1.0,0.0,0.0119457157853
1385566465334815218,-0.00443242236946,0.00264947754269,0.00040344409976,1.0,0.0,0.0121487550271
1385566465434826711,-0.00362649978486,0.00214336048047,0.00022993131895,1.0,0.0,0.0123122565192
1385566465534905040,-0.0030462617034,0.00159066907518,1.17338506255e-05,1.0,0.0,0.0125000012013
1385566465634990667,-0.0024766399168,0.00110189601742,-0.000276330467368,1.0,0.0,0.0126369380309
1385566465734824581,-0.00208574430049,0.000546326831968,-0.000572572328296,1.0,0.0,0.0128142467344
1385566465834841200,-0.00188583279959,8.27425519292e-05,-0.000742835519752,1.0,0.0,0.0129550386217
1385566465934810176,-0.0018441533912,-0.000311228151302,-0.000869203496874,1.0,0.0,0.0130896164718
1385566466034811339,-0.00194653650287,-0.000660324150654,-0.000917523681802,1.0,0.0,0.0131785897102
1385566466134891188,-0.00217084440516,-0.000886238457002,-0.0009602121919,1.0,0.0,0.0132666753507
1385566466235757987,-0.00251041743015,-0.00108335824925,-0.00102675040923,1.0,0.0,0.0132992786482
1385566466334791685,-0.00292972140585,-0.00103859162447,-0.00112822901433,1.0,0.0,0.0133493918652
1385566466434847447,-0.00332005535022,-0.000741765907183,-0.00129747378474,1.0,0.0,0.0133452911921
1385566466535730753,-0.00385720233046,-0.000423414510388,-0.00146705557543,1.0,0.0,0.0133676365543
1385566466635728543,-0.00442304169876,0.000114520196274,-0.001650508309,1.0,0.0,0.013370596514
1385566466734793913,-0.00504875577745,0.000717687835125,-0.00189287624724,1.0,0.0,0.0133192348262
1385566466835499922,-0.0054925900969,0.00149655089286,-0.00204278153165,1.0,0.0,0.0132499366071
1385566466935393790,-0.00608628790222,0.00216478544264,-0.0022839548018,1.0,0.0,0.0131449997917
1385566467034665869,-0.00659094686548,0.00290829198399,-0.00255100846412,1.0,0.0,0.0130167214432
1385566467134492715,-0.00708473830203,0.00352095972902,-0.00279696129372,1.0,0.0,0.01290832783
1385566467234552721,-0.00762538212447,0.00394142041329,-0.00293354040135,1.0,0.0,0.0129224780862
1385566467335402614,-0.00807279259992,0.00420178015165,-0.00308473652603,1.0,0.0,0.0129094843049
1385566467435502725,-0.00838997768607,0.00421237361683,-0.00316669297264,1.0,0.0,0.0129507046887
1385566467534510518,-0.00850787556981,0.00406422865978,-0.00320943211281,1.0,0.0,0.0129901962859
1385566467634407284,-0.00827368918897,0.00375406482526,-0.00322177787435,1.0,0.0,0.0130169997849
1385566467735539322,-0.00784586173608,0.00311746729377,-0.00322009330289,1.0,0.0,0.0131172399336
1385566467834522939,-0.00695560503247,0.00244149279417,-0.00321442901488,1.0,0.0,0.0130956890329
1385566467934567259,-0.00603436605794,0.00143159519252,-0.00326263420817,1.0,0.0,0.0130826952311
1385566468034452798,-0.00473565397378,0.000266485607019,-0.00325520486938,1.0,0.0,0.0130358469372
1385566468134575479,-0.00347456874374,-0.00114812986621,-0.00324547442853,1.0,0.0,0.0130559513966
1385566468234501876,-0.00203197530496,-0.00247679602783,-0.00307396806678,1.0,0.0,0.0130722278561
1385566468334685281,-0.000739524308618,-0.00399002378623,-0.00287124919117,1.0,0.0,0.0131465494169
1385566468434568450,0.000514397097149,-0.00542461678601,-0.00264648626925,1.0,0.0,0.013231019192
1385566468535130398,0.00168673082431,-0.00674029594431,-0.00239707741087,1.0,0.0,0.0133089939545
1385566468634521664,0.0028311780732,-0.00789366603944,-0.00206162360909,1.0,0.0,0.0134327318515
1385566468735397728,0.00377805148666,-0.00896893039032,-0.0018422222494,1.0,0.0,0.0134735727462
1385566468834647929,0.0046365051473,-0.00994843995473,-0.00155452525672,1.0,0.0,0.0135366498496
1385566468935490833,0.00527107703352,-0.0107014691557,-0.00135201896357,1.0,0.0,0.0135234623061
1385566469035433903,0.00569010691905,-0.0113812905161,-0.00123620611788,1.0,0.0,0.0134729885486
1385566469134433666,0.00566098220221,-0.0119447185689,-0.00111519206417,1.0,0.0,0.013444301238
1385566469235434608,0.0053907308602,-0.0125062729055,-0.00103932768877,1.0,0.0,0.0134139697591
1385566469334439767,0.00475547792591,-0.0129508437831,-0.000981383694119,1.0,0.0,0.0133232237838
1385566469434500516,0.00388321397561,-0.0133591652535,-0.000894059397218,1.0,0.0,0.0132506521935
1385566469534535511,0.0028300422743,-0.0137585597781,-0.000769605668349,1.0,0.0,0.0131924884405
1385566469634481040,0.00167384417663,-0.0141387221008,-0.000584462836994,1.0,0.0,0.0132107563942
1385566469736356164,0.000419875055699,-0.0144220407189,-0.000415181941597,1.0,0.0,0.0131960337169
1385566469834471117,-0.000873928356225,-0.0146892304258,-0.000250306030226,1.0,0.0,0.0131983978683
1385566469935468020,-0.00206845010366,-0.0151232587809,-8.78743261741e-05,1.0,0.0,0.013228177678
1385566470034472894,-0.00321138134755,-0.0156307012844,9.05409078298e-05,1.0,0.0,0.0132738464112
1385566470134535918,-0.00421265796099,-0.0162213973491,0.000271497572147,1.0,0.0,0.0133971130499
1385566470234463815,-0.00511106324332,-0.016948673828,0.000496400894263,1.0,0.0,0.0134338544032
