%time,field.header.seq,field.header.stamp,field.header.frame_id,field.child_frame_id,field.transform.translation.x,field.transform.translation.y,field.transform.translation.z,field.transform.rotation.x,field.transform.rotation.y,field.transform.rotation.z,field.transform.rotation.w
1385566405256716097,363482,1385566405256716097,/world,vicon/Archie/Archie,0.060694319752,0.0502746539484,0.113152449694,-0.00561453472752,-0.0105884504139,0.705935648565,0.708174570146
1385566405266169591,363483,1385566405266169591,/world,vicon/Archie/Archie,0.0606863203525,0.0502769341045,0.113141164188,-0.00553943581104,-0.0106483299582,0.70593070002,0.708179196594
1385566405275923997,363484,1385566405275923997,/world,vicon/Archie/Archie,0.0606933757378,0.0502628587096,0.113108459801,-0.00543830413192,-0.0107898392815,0.705939681391,0.708168885545
1385566405286109766,363485,1385566405286109766,/world,vicon/Archie/Archie,0.0606841046466,0.0502790428758,0.113137454375,-0.00555890831542,-0.0105990324422,0.705938050692,0.70817245614
1385566405295991670,363486,1385566405295991670,/world,vicon/Archie/Archie,0.0606857223464,0.0502787618144,0.11313771596,-0.00554277540786,-0.0106213159723,0.705940024233,0.708170281411
1385566405306028204,363487,1385566405306028204,/world,vicon/Archie/Archie,0.0606871156785,0.0502745596417,0.113146788843,-0.00561137005739,-0.0106029934594,0.705930776632,0.708179234135
1385566405316124384,363488,1385566405316124384,/world,vicon/Archie/Archie,0.0606318512041,0.0503040063486,0.11309030128,-0.005567191499,-0.0106274178589,0.705949491523,0.70816056074
1385566405326122153,363489,1385566405326122153,/world,vicon/Archie/Archie,0.0606814021139,0.050283110803,0.113135879597,-0.0055426746566,-0.0106561663183,0.705934650849,0.708175115073
1385566405336009249,363490,1385566405336009249,/world,vicon/Archie/Archie,0.0606933806763,0.0502672048801,0.113105542915,-0.00544349102173,-0.0107758305584,0.705935375889,0.708173350917
1385566405345935911,363491,1385566405345935911,/world,vicon/Archie/Archie,0.0606855322454,0.0502776671458,0.113075242507,-0.00543806577675,-0.0107428050038,0.705957658032,0.708151681949
1385566405356225779,363492,1385566405356225779,/world,vicon/Archie/Archie,0.0606831518297,0.0502825014847,0.113140132535,-0.00553725069417,-0.0106098021393,0.705956184642,0.708154387347
1385566405366077169,363493,1385566405366077169,/world,vicon/Archie/Archie,0.0606931079373,0.0502793998223,0.113147526816,-0.00562573154965,-0.0105753830174,0.705929799281,0.70818050729
1385566405376084741,363494,1385566405376084741,/world,vicon/Archie/Archie,0.0606942717626,0.0502710878826,0.113107969506,-0.00544365187797,-0.0107677885517,0.705947734062,0.708161152674
1385566405385990541,363495,1385566405385990541,/world,vicon/Archie/Archie,0.0606887823843,0.0502671799824,0.113110386031,-0.00543332928645,-0.0107654642818,0.705941476512,0.708167505221
1385566405395958133,363496,1385566405395958133,/world,vicon/Archie/Archie,0.0606951473804,0.0502754571261,0.113083579254,-0.00545903132857,-0.0107683946154,0.705946705096,0.708162050818
1385566405406084615,363497,1385566405406084615,/world,vicon/Archie/Archie,0.060696455185,0.0502648348962,0.11310432745,-0.00542680971527,-0.0107822997688,0.705942586219,0.70816619286
1385566405416758081,363498,1385566405416758081,/world,vicon/Archie/Archie,0.0606875797571,0.0502644748338,0.113109814519,-0.00544709417264,-0.0107596065242,0.705944874397,0.708164101283
1385566405426774331,363499,1385566405426774331,/world,vicon/Archie/Archie,0.0606909283009,0.0502624208517,0.113105818889,-0.00543513062444,-0.010761500034,0.705942712404,0.708166319642
1385566405436749366,363500,1385566405436749366,/world,vicon/Archie/Archie,0.0606942579011,0.0502646779341,0.113103339973,-0.0054467332579,-0.0107519880881,0.705942999303,0.708166088982
1385566405446231936,363501,1385566405446231936,/world,vicon/Archie/Archie,0.0606978953435,0.0502652132072,0.113111662675,-0.00542842630923,-0.0107771072466,0.705932401225,0.708176412377
1385566405456449531,363502,1385566405456449531,/world,vicon/Archie/Archie,0.0606814495112,0.0502845273908,0.113139842402,-0.00553719580004,-0.0106215872221,0.705937422702,0.70817291432
1385566405466447868,363503,1385566405466447868,/world,vicon/Archie/Archie,0.060676275991,0.0502173655264,0.113155734317,-0.00549043643211,-0.0106700444627,0.705984545874,0.708125572372
1385566405476120404,363504,1385566405476120404,/world,vicon/Archie/Archie,0.0606990636985,0.0502566362599,0.113119302354,-0.00551642360099,-0.0107323153838,0.705943230705,0.708165617281
1385566405486154218,363505,1385566405486154218,/world,vicon/Archie/Archie,0.0606876593188,0.0502559811332,0.113116665013,-0.00551458690705,-0.010739741332,0.705940307811,0.708168432716
1385566405496091191,363506,1385566405496091191,/world,vicon/Archie/Archie,0.0606930362382,0.0502766717799,0.113139747999,-0.00552776893225,-0.010625016864,0.705936060399,0.708174294518
1385566405506272724,363507,1385566405506272724,/world,vicon/Archie/Archie,0.0606935645531,0.050279844003,0.113148870958,-0.00561962069162,-0.010594080983,0.705927764521,0.708182304629
1385566405516285522,363508,1385566405516285522,/world,vicon/Archie/Archie,0.0606847839576,0.0502814583359,0.11313821487,-0.00552834066164,-0.0106237859075,0.705945011523,0.708165385576
1385566405526116534,363509,1385566405526116534,/world,vicon/Archie/Archie,0.0606903334432,0.0502613057361,0.11311098603,-0.00543759958281,-0.0107717261938,0.705944391194,0.708164471692
1385566405536417974,363510,1385566405536417974,/world,vicon/Archie/Archie,0.0606818953016,0.0502890365533,0.113134461739,-0.00553614178644,-0.0106192405066,0.705934920295,0.708175452252
1385566405546090547,363511,1385566405546090547,/world,vicon/Archie/Archie,0.0606915140134,0.0502829207381,0.113150453942,-0.00562496788817,-0.0105937486806,0.705920974055,0.708189035932
1385566405556349097,363512,1385566405556349097,/world,vicon/Archie/Archie,0.0606872795256,0.0502886653327,0.113132631887,-0.00552756669269,-0.0106501984126,0.705933312477,0.708176657068
1385566405566705505,363513,1385566405566705505,/world,vicon/Archie/Archie,0.0607025542078,0.0502651878987,0.113116095792,-0.00552245637546,-0.0107405768575,0.705937011182,0.708171644962
1385566405576795349,363514,1385566405576795349,/world,vicon/Archie/Archie,0.06068135853,0.0502882505262,0.113153170459,-0.00561207984598,-0.010600114627,0.705921298449,0.70818871957
1385566405587201798,363515,1385566405587201798,/world,vicon/Archie/Archie,0.0606922129469,0.0502920000042,0.113133041091,-0.00555493138408,-0.0106074425564,0.705941092511,0.708169329189
1385566405596764572,363516,1385566405596764572,/world,vicon/Archie/Archie,0.0606942020468,0.0502818093765,0.113147277349,-0.00561743706378,-0.0105977655167,0.70592441513,0.708185605537
1385566405606878957,363517,1385566405606878957,/world,vicon/Archie/Archie,0.0606933833813,0.0502834817953,0.113152760738,-0.00560563953876,-0.0105953929631,0.705919427854,0.708190705835
1385566405618248407,363518,1385566405618248407,/world,vicon/Archie/Archie,0.0606996713358,0.0502705215354,0.113111318595,-0.00553131424829,-0.0107421014558,0.705927529975,0.70818100387
1385566405626571795,363519,1385566405626571795,/world,vicon/Archie/Archie,0.060693486916,0.050295293767,0.113134457439,-0.00556094455587,-0.0106072038308,0.705944721066,0.708165668415
1385566405636479396,363520,1385566405636479396,/world,vicon/Archie/Archie,0.0606726635657,0.0502937027854,0.113137236118,-0.00555530716213,-0.0105969521327,0.705945559853,0.708165029984
1385566405646402396,363521,1385566405646402396,/world,vicon/Archie/Archie,0.0606753282476,0.0502893322732,0.113119500553,-0.00552371483952,-0.0105833102716,0.705932504191,0.708178495611
1385566405656650976,363522,1385566405656650976,/world,vicon/Archie/Archie,0.0606837700086,0.0502819454502,0.113138694156,-0.00553981029051,-0.0106310499778,0.705951446289,0.708158772283
1385566405666340178,363523,1385566405666340178,/world,vicon/Archie/Archie,0.0606954304874,0.0502712321246,0.113103512751,-0.00544430510002,-0.0107569355295,0.705942780414,0.708166250722
1385566405676568418,363524,1385566405676568418,/world,vicon/Archie/Archie,0.0606862469997,0.0502921509423,0.113129653501,-0.00556470241858,-0.0106161615738,0.705945382739,0.708164845067
1385566405686508630,363525,1385566405686508630,/world,vicon/Archie/Archie,0.0606829678275,0.0502817459231,0.113131451273,-0.0055408841416,-0.0106279637894,0.705947216149,0.708163027134
1385566405696299529,363526,1385566405696299529,/world,vicon/Archie/Archie,0.0606918821226,0.0502755104798,0.113101109432,-0.00544919422717,-0.0107623018037,0.705947216131,0.708161709766
1385566405706544199,363527,1385566405706544199,/world,vicon/Archie/Archie,0.0606759923452,0.0502944268361,0.113130836756,-0.00554498862768,-0.0106250141881,0.705942562506,0.70816767832
1385566405716847254,363528,1385566405716847254,/world,vicon/Archie/Archie,0.0606984258164,0.0502894127218,0.113137968748,-0.00555764994807,-0.0106219555129,0.705924505108,0.708185625155
1385566405726713642,363529,1385566405726713642,/world,vicon/Archie/Archie,0.0606767033835,0.050275126969,0.113089850519,-0.00541846186712,-0.010737435242,0.705932696472,0.708176796999
1385566405736865524,363530,1385566405736865524,/world,vicon/Archie/Archie,0.0606847896447,0.0502932256516,0.113132024934,-0.00553247784467,-0.0106390089814,0.70593452368,0.708175579538
1385566405747092892,363531,1385566405747092892,/world,vicon/Archie/Archie,0.0606406049239,0.0503036952307,0.113048040792,-0.0054787689638,-0.0107798653346,0.705940908041,0.708167502748
1385566405756939144,363532,1385566405756939144,/world,vicon/Archie/Archie,0.0606935580857,0.0502735998293,0.113099996008,-0.00547334731921,-0.010779377468,0.705942991202,0.708165475481
1385566405767062936,363533,1385566405767062936,/world,vicon/Archie/Archie,0.0606902550793,0.0502774143768,0.113103956151,-0.00544101055082,-0.0107576282952,0.705941103167,0.708167937496
1385566405776806363,363534,1385566405776806363,/world,vicon/Archie/Archie,0.0607023918487,0.0502745886402,0.113117768439,-0.00550861467552,-0.0107391480997,0.705930469468,0.708178295445
1385566405786928172,363535,1385566405786928172,/world,vicon/Archie/Archie,0.0606924777374,0.0502836227685,0.113141019006,-0.00562916183739,-0.0105986564993,0.705922098033,0.708187808795
1385566405796558112,363536,1385566405796558112,/world,vicon/Archie/Archie,0.0607060606023,0.0502756026122,0.113111527419,-0.00554394947485,-0.0107334932371,0.70592241048,0.708186138759
1385566405807034562,363537,1385566405807034562,/world,vicon/Archie/Archie,0.0606861991783,0.050295218332,0.11313137729,-0.00552572837848,-0.0106448593459,0.705942956407,0.708167138177
1385566405816816933,363538,1385566405816816933,/world,vicon/Archie/Archie,0.0606904578199,0.0502673564426,0.113120172893,-0.00551954695894,-0.0107228715184,0.705936664715,0.708172281326
1385566405826746825,363539,1385566405826746825,/world,vicon/Archie/Archie,0.0606989176965,0.0502752207615,0.113115265003,-0.00551550721762,-0.0107414419352,0.705935300802,0.708173390976
1385566405836937130,363540,1385566405836937130,/world,vicon/Archie/Archie,0.0606999068355,0.0502888850556,0.113144921302,-0.00562634781836,-0.0105865374567,0.705927112122,0.708183014345
1385566405846722790,363541,1385566405846722790,/world,vicon/Archie/Archie,0.0606863528652,0.0502886867622,0.113146479277,-0.00562279136416,-0.0105980775212,0.705935719895,0.708174289527
1385566405856820691,363542,1385566405856820691,/world,vicon/Archie/Archie,0.060692511436,0.0502721587143,0.113116314356,-0.00553431029727,-0.0107206051839,0.705936672513,0.708172192645
1385566405866787665,363543,1385566405866787665,/world,vicon/Archie/Archie,0.0606773444941,0.0502991895069,0.113116040803,-0.00554149541168,-0.010569541051,0.705934955431,0.708176118865
1385566405876867820,363544,1385566405876867820,/world,vicon/Archie/Archie,0.0606871126927,0.0502791301916,0.113102584212,-0.00543758581631,-0.0107671743793,0.705946294983,0.708162643194
1385566405886770788,363545,1385566405886770788,/world,vicon/Archie/Archie,0.0606964352787,0.0502762419975,0.113106541683,-0.005458938015,-0.0107564776219,0.705949809806,0.708159137638
1385566405896892248,363546,1385566405896892248,/world,vicon/Archie/Archie,0.0606782955651,0.0502990807874,0.113121257739,-0.00555164065156,-0.0106294020419,0.705941498443,0.708168621074
1385566405906776387,363547,1385566405906776387,/world,vicon/Archie/Archie,0.0606330040905,0.0502977224977,0.113047249909,-0.00547551231079,-0.010761827351,0.705948811595,0.708159923495
1385566405916928195,363548,1385566405916928195,/world,vicon/Archie/Archie,0.0606850279046,0.05028541126,0.113135098248,-0.00552510042083,-0.0106165756579,0.705940311902,0.708170203848
1385566405926711513,363549,1385566405926711513,/world,vicon/Archie/Archie,0.0606750830188,0.0502762654582,0.113108317262,-0.00548602977599,-0.0107146375602,0.705937361534,0.708171971776
1385566405936709133,363550,1385566405936709133,/world,vicon/Archie/Archie,0.0606968916896,0.0502766416786,0.113109362716,-0.00552647488207,-0.0107549960725,0.705945368058,0.708163064169
1385566405946809705,363551,1385566405946809705,/world,vicon/Archie/Archie,0.0606908572378,0.0502938129839,0.113136196853,-0.00553501533399,-0.0106261870599,0.705936169807,0.708174111297
1385566405956893259,363552,1385566405956893259,/world,vicon/Archie/Archie,0.0606821980809,0.0502945337657,0.113132766645,-0.00553531854809,-0.0106409698956,0.705938192162,0.708171870986
1385566405966795654,363553,1385566405966795654,/world,vicon/Archie/Archie,0.0606869708038,0.050290142327,0.113128220117,-0.00554078770318,-0.0106073071224,0.705948172468,0.708162384271
1385566405976804965,363554,1385566405976804965,/world,vicon/Archie/Archie,0.0606912410911,0.0502921382079,0.113147172955,-0.00561832349375,-0.0106026681826,0.705931120464,0.708178841133
1385566405986802350,363555,1385566405986802350,/world,vicon/Archie/Archie,0.0606772748276,0.0502952498074,0.113133063554,-0.00559376514772,-0.0105645645721,0.705932711454,0.708178019051
1385566405996766966,363556,1385566405996766966,/world,vicon/Archie/Archie,0.0606862887578,0.0502751908409,0.113099206695,-0.00544820091032,-0.0107469062531,0.7059483779,0.708160793078
1385566406006901847,363557,1385566406006901847,/world,vicon/Archie/Archie,0.0606841157401,0.0503001964263,0.113132125754,-0.00555539190964,-0.0106102937902,0.705944561178,0.708165825093
1385566406016752542,363558,1385566406016752542,/world,vicon/Archie/Archie,0.0606950127222,0.0502735865728,0.113098505622,-0.00543667076235,-0.0107547409801,0.705952981523,0.708156173479
1385566406026892849,363559,1385566406026892849,/world,vicon/Archie/Archie,0.0606901119514,0.0502915809341,0.113144483051,-0.00560951640306,-0.0106122852831,0.70593467708,0.708175221554
1385566406036883686,363560,1385566406036883686,/world,vicon/Archie/Archie,0.0607038551991,0.0502728441239,0.113100139468,-0.00543906313661,-0.0107569231947,0.705954382525,0.708154725318
1385566406046882155,363561,1385566406046882155,/world,vicon/Archie/Archie,0.0606908092684,0.0502990390053,0.11314065671,-0.00553022744468,-0.0106220817344,0.705949752983,0.708160669783
1385566406056736918,363562,1385566406056736918,/world,vicon/Archie/Archie,0.0606939278169,0.0502716461785,0.113115880869,-0.0055129469844,-0.0107269646691,0.70594887987,0.708160093944
1385566406067279832,363563,1385566406067279832,/world,vicon/Archie/Archie,0.0606846760038,0.0502920401846,0.113135228183,-0.00554217412355,-0.0106321141062,0.705934115729,0.70817601393
1385566406076835111,363564,1385566406076835111,/world,vicon/Archie/Archie,0.0606848046867,0.0502982370102,0.113138601072,-0.00553340971226,-0.0106434741355,0.705945491854,0.708164571527
1385566406086785196,363565,1385566406086785196,/world,vicon/Archie/Archie,0.0606873833086,0.0502833650001,0.113102867356,-0.00545454711879,-0.0107331456963,0.70594931491,0.708160018836
1385566406096925329,363566,1385566406096925329,/world,vicon/Archie/Archie,0.0606716242645,0.0502961264901,0.113117708779,-0.00552385618223,-0.0105972197615,0.705935225179,0.708175574132
1385566406106896553,363567,1385566406106896553,/world,vicon/Archie/Archie,0.0606964458719,0.0502866590245,0.113139827858,-0.0056372369564,-0.0105896869896,0.705926695993,0.708183295464
1385566406117482834,363568,1385566406117482834,/world,vicon/Archie/Archie,0.0606996005375,0.0502734726729,0.113098917741,-0.00542125164792,-0.0107885705918,0.705952929726,0.708155828746
1385566406126955436,363569,1385566406126955436,/world,vicon/Archie/Archie,0.060683283881,0.0503034797052,0.113136182278,-0.00553330795009,-0.0106460233234,0.705934158546,0.708175831618
1385566406136793678,363570,1385566406136793678,/world,vicon/Archie/Archie,0.0606976132734,0.0502961675508,0.113134024298,-0.00553112137905,-0.0106238088436,0.705945650583,0.708164726462
1385566406146698577,363571,1385566406146698577,/world,vicon/Archie/Archie,0.0606846721459,0.0503005129167,0.113131479728,-0.00553863999412,-0.0106437542739,0.705948859368,0.708161169452
1385566406156765640,363572,1385566406156765640,/world,vicon/Archie/Archie,0.0606991678117,0.0502690784221,0.113116440653,-0.00551370950066,-0.0107502191502,0.705939467408,0.708169118327
1385566406166863750,363573,1385566406166863750,/world,vicon/Archie/Archie,0.0606882015077,0.0502924573707,0.11313494069,-0.00554980910939,-0.0106263883918,0.705941859077,0.708168321157
1385566406176788866,363574,1385566406176788866,/world,vicon/Archie/Archie,0.0606901983141,0.0502751624344,0.113103997778,-0.00544446705434,-0.0107651249925,0.705946791548,0.708162126469
1385566406186987008,363575,1385566406186987008,/world,vicon/Archie/Archie,0.0606892135312,0.0502964715997,0.113150170331,-0.00561076571675,-0.0106134439035,0.705923539801,0.708186296162
1385566406196826542,363576,1385566406196826542,/world,vicon/Archie/Archie,0.0606946075223,0.0502884897239,0.113136401717,-0.00554780520315,-0.0106326623921,0.70593917292,0.708170920389
1385566406206881981,363577,1385566406206881981,/world,vicon/Archie/Archie,0.060686442626,0.050290109506,0.113143431856,-0.00561959077871,-0.0106213403969,0.70594267462,0.7081670336
1385566406216797532,363578,1385566406216797532,/world,vicon/Archie/Archie,0.0606906193676,0.0502902558265,0.113135013835,-0.00553961490922,-0.0106272963537,0.705929743324,0.708180464803
1385566406226762737,363579,1385566406226762737,/world,vicon/Archie/Archie,0.0606872980145,0.05029610089,0.113133537628,-0.00555996667893,-0.0106238288732,0.705936052756,0.708174067903
1385566406236864809,363580,1385566406236864809,/world,vicon/Archie/Archie,0.0606887224182,0.0502897739861,0.113151921068,-0.00563283063702,-0.0105889349168,0.705932017836,0.708178036845
1385566406246881986,363581,1385566406246881986,/world,vicon/Archie/Archie,0.0606875304486,0.0502709010461,0.113104817339,-0.0054460039875,-0.0107526195144,0.705943829922,0.708165256991
1385566406256813721,363582,1385566406256813721,/world,vicon/Archie/Archie,0.0607004212847,0.050269486422,0.113119992108,-0.00551956154191,-0.0107343726994,0.705944732831,0.708164064233
1385566406266825313,363583,1385566406266825313,/world,vicon/Archie/Archie,0.0606915567679,0.0502665542173,0.11310275736,-0.00545521520645,-0.0107732706496,0.705953241735,0.708155489812
1385566406276954343,363584,1385566406276954343,/world,vicon/Archie/Archie,0.0606717084286,0.0502960734621,0.113130979003,-0.00550950183833,-0.0105718869682,0.705938267274,0.7081730321
1385566406286919601,363585,1385566406286919601,/world,vicon/Archie/Archie,0.0606880889486,0.0502720196534,0.113105029503,-0.00543672021175,-0.0107744717136,0.705957841358,0.708151028424
1385566406296818359,363586,1385566406296818359,/world,vicon/Archie/Archie,0.0606968821898,0.0502875857425,0.113148908494,-0.00563226430742,-0.0105940291186,0.705924969916,0.70818499066
1385566406306888854,363587,1385566406306888854,/world,vicon/Archie/Archie,0.0606797896342,0.0502723056454,0.11310956214,-0.00544742590477,-0.0107370707878,0.705946683389,0.708162637445
1385566406316720017,363588,1385566406316720017,/world,vicon/Archie/Archie,0.0606885064105,0.0502759571479,0.113103436506,-0.0054312095169,-0.0107833437553,0.705950922671,0.70815783286
1385566406327002714,363589,1385566406327002714,/world,vicon/Archie/Archie,0.0606854479348,0.0502956959961,0.113136106873,-0.00554882383281,-0.0106334090345,0.705942703244,0.708167381981
1385566406337086694,363590,1385566406337086694,/world,vicon/Archie/Archie,0.0606920318598,0.0502919332848,0.11314903405,-0.00560865316355,-0.0105971747054,0.70593776766,0.708172373854
1385566406346783536,363591,1385566406346783536,/world,vicon/Archie/Archie,0.0606943867504,0.0502876413329,0.113152624264,-0.00561963493169,-0.0105902556961,0.705938877701,0.708171283757
1385566406356836084,363592,1385566406356836084,/world,vicon/Archie/Archie,0.0606980000604,0.0502756763266,0.113113645031,-0.00551911393586,-0.0107421423981,0.705935275302,0.708173377671
1385566406366788181,363593,1385566406366788181,/world,vicon/Archie/Archie,0.0606939221867,0.0502825753461,0.113083935376,-0.00545308292317,-0.0107586904049,0.705935888836,0.7081730264
1385566406376884584,363594,1385566406376884584,/world,vicon/Archie/Archie,0.0606817805041,0.0502850024862,0.113133761775,-0.00553119383621,-0.01063367152,0.70593845425,0.70817175158
1385566406386839828,363595,1385566406386839828,/world,vicon/Archie/Archie,0.0606665688631,0.0503023296727,0.113125382134,-0.00550427738499,-0.010590636237,0.705941831772,0.708169239313
1385566406396947007,363596,1385566406396947007,/world,vicon/Archie/Archie,0.060681806806,0.0502985396958,0.1131364622,-0.00552240288932,-0.0106462074061,0.705940725565,0.708169367682
1385566406406194480,363597,1385566406406194480,/world,vicon/Archie/Archie,0.0606945669819,0.0502935559,0.113130594987,-0.00556471594686,-0.0106094556361,0.705944716491,0.708165609618
1385566406416095487,363598,1385566406416095487,/world,vicon/Archie/Archie,0.0606982259433,0.0502646145332,0.113117588715,-0.00550889714335,-0.0107376696757,0.705941269903,0.708167549349
1385566406426156086,363599,1385566406426156086,/world,vicon/Archie/Archie,0.0606986690596,0.0502655890688,0.113097675245,-0.0054261862861,-0.0107829018553,0.705946828786,0.708161959199
1385566406436250310,363600,1385566406436250310,/world,vicon/Archie/Archie,0.0606877454973,0.0502888758982,0.113146550181,-0.00561309097771,-0.0106010226198,0.705927092908,0.70818292201
1385566406446251074,363601,1385566406446251074,/world,vicon/Archie/Archie,0.0606917942401,0.0502903568392,0.113147121176,-0.00561887381436,-0.0106041221762,0.705929893136,0.708180038427
1385566406456138759,363602,1385566406456138759,/world,vicon/Archie/Archie,0.0606748454424,0.0502808875037,0.113094068089,-0.00543499415654,-0.0107150123652,0.705940819536,0.708168912521
1385566406466860613,363603,1385566406466860613,/world,vicon/Archie/Archie,0.0606818625591,0.0502927082675,0.113131945791,-0.00554166624883,-0.0106368925655,0.705939244303,0.708170833772
1385566406476952384,363604,1385566406476952384,/world,vicon/Archie/Archie,0.0606919499189,0.0502850626291,0.113135166331,-0.0055269163427,-0.0106310878556,0.705941469189,0.708168818324
1385566406486912667,363605,1385566406486912667,/world,vicon/Archie/Archie,0.0606798498999,0.0502870721676,0.113135170384,-0.00553776663311,-0.010616648415,0.705935524522,0.708174876097
1385566406496672489,363606,1385566406496672489,/world,vicon/Archie/Archie,0.0606862302069,0.050284458716,0.113140438354,-0.00552842401223,-0.0106216349301,0.705949698842,0.708160744538
1385566406506864158,363607,1385566406506864158,/world,vicon/Archie/Archie,0.0606389716745,0.0502894038304,0.113056507697,-0.00547049056514,-0.0107610183983,0.705955095333,0.708153710425
1385566406516762021,363608,1385566406516762021,/world,vicon/Archie/Archie,0.060702643062,0.0502669231694,0.113123844769,-0.00550404365198,-0.0107505357891,0.705923488544,0.708185116905
1385566406526668728,363609,1385566406526668728,/world,vicon/Archie/Archie,0.0606776059166,0.0502712428115,0.113095431069,-0.0054046973261,-0.0107513180218,0.705958809126,0.708150660682
1385566406536970769,363610,1385566406536970769,/world,vicon/Archie/Archie,0.0606845959903,0.0502958151857,0.113133489005,-0.00553966097893,-0.0106208489689,0.705939384262,0.708170950739
1385566406546560420,363611,1385566406546560420,/world,vicon/Archie/Archie,0.060698698558,0.0502580206651,0.113121981595,-0.00550561394954,-0.010733366794,0.705942762882,0.708166151822
1385566406556661214,363612,1385566406556661214,/world,vicon/Archie/Archie,0.0606906918291,0.0502606313472,0.11310313511,-0.00544477286205,-0.0107521626906,0.70595452857,0.708154608146
1385566406566789478,363613,1385566406566789478,/world,vicon/Archie/Archie,0.0606897644923,0.0502834650018,0.113133247609,-0.00552698456018,-0.0106350659895,0.705943559301,0.708166674516
1385566406576552975,363614,1385566406576552975,/world,vicon/Archie/Archie,0.0606924812741,0.0502648106865,0.113108779886,-0.00542566432746,-0.0107568681757,0.705962197885,0.708147037776
1385566406586613453,363615,1385566406586613453,/world,vicon/Archie/Archie,0.0606969435124,0.050268187152,0.113105789841,-0.00543076034835,-0.0107574064954,0.705926696016,0.708182381099
1385566406597129155,363616,1385566406597129155,/world,vicon/Archie/Archie,0.0606319430758,0.0503074608655,0.113089165521,-0.00555153444001,-0.0106501375846,0.705942616967,0.708167195361
1385566406606709452,363617,1385566406606709452,/world,vicon/Archie/Archie,0.0606477281405,0.050289832627,0.113046367706,-0.00548590793907,-0.0107633059069,0.705937455836,0.708171140692
1385566406616578963,363618,1385566406616578963,/world,vicon/Archie/Archie,0.0606946718115,0.0502610022497,0.113107350211,-0.00542913332924,-0.0107570030883,0.705958705315,0.708150490917
1385566406626433383,363619,1385566406626433383,/world,vicon/Archie/Archie,0.0606998448782,0.0502600650266,0.113113350431,-0.00551307019641,-0.0107439942753,0.70593963118,0.708169054515
1385566406636768494,363620,1385566406636768494,/world,vicon/Archie/Archie,0.0606849997322,0.0502881098549,0.113140689331,-0.00552750801085,-0.0106271457081,0.705944693214,0.708165658976
1385566406646407196,363621,1385566406646407196,/world,vicon/Archie/Archie,0.0606893178652,0.0502699288346,0.113107922348,-0.00543706874354,-0.0107726758993,0.705943577668,0.708165272296
1385566406656826424,363622,1385566406656826424,/world,vicon/Archie/Archie,0.0606763609346,0.0502840938969,0.113137206888,-0.00551784560073,-0.0106369437503,0.705946840411,0.708163446756
1385566406666650365,363623,1385566406666650365,/world,vicon/Archie/Archie,0.0606908698712,0.0502827978025,0.113134396742,-0.00552787852754,-0.0106296124938,0.705938226183,0.708172065751
1385566406676823091,363624,1385566406676823091,/world,vicon/Archie/Archie,0.0606838675662,0.0502880811415,0.113131528824,-0.0055442129342,-0.0106419691306,0.70595069656,0.708159321214
1385566406686590518,363625,1385566406686590518,/world,vicon/Archie/Archie,0.0606947751564,0.0502657547415,0.113115242926,-0.00551668154099,-0.0107491809349,0.705936744226,0.708171825538
1385566406696417731,363626,1385566406696417731,/world,vicon/Archie/Archie,0.0606896428601,0.0502685409638,0.113111388118,-0.00543604793917,-0.0107566770248,0.705958020159,0.708151125859
1385566406706561711,363627,1385566406706561711,/world,vicon/Archie/Archie,0.0607033050989,0.0502666079619,0.113112581771,-0.00543355425722,-0.0107605166127,0.705944975173,0.708164091012
1385566406716721805,363628,1385566406716721805,/world,vicon/Archie/Archie,0.0606907083275,0.0502802586385,0.113151221389,-0.00561151214994,-0.0105976969489,0.705936947006,0.708173161453
1385566406726669794,363629,1385566406726669794,/world,vicon/Archie/Archie,0.0606799540146,0.0502912196939,0.113138379106,-0.00552581414917,-0.0106074140784,0.705937793389,0.70817284614
1385566406736060549,363630,1385566406736060549,/world,vicon/Archie/Archie,0.0606325551175,0.050290298718,0.113062603226,-0.00554783522781,-0.0107528280735,0.705934042814,0.708174219673
1385566406745987507,363631,1385566406745987507,/world,vicon/Archie/Archie,0.060692607943,0.0502761571605,0.113106619724,-0.00544934113893,-0.0107394748813,0.705945783513,0.708163483315
1385566406756017940,363632,1385566406756017940,/world,vicon/Archie/Archie,0.0606412222487,0.0503027014386,0.11306046351,-0.00546270557009,-0.0107677772633,0.705944572166,0.708164158123
1385566406766146315,363633,1385566406766146315,/world,vicon/Archie/Archie,0.0606902542663,0.050291153268,0.113154843649,-0.00560565755538,-0.0106042262402,0.705936908978,0.708173147988
1385566406776055401,363634,1385566406776055401,/world,vicon/Archie/Archie,0.0606831970585,0.0502928585048,0.113136778858,-0.00554771481963,-0.0106294121205,0.705951507763,0.708158673706
1385566406786051655,363635,1385566406786051655,/world,vicon/Archie/Archie,0.0606907398536,0.050280156255,0.113107712978,-0.00543405293429,-0.0107719350737,0.705942183139,0.708166696865
1385566406795973115,363636,1385566406795973115,/world,vicon/Archie/Archie,0.0606247140655,0.0503170134106,0.113088652594,-0.00557048193219,-0.0106164463069,0.70594999469,0.708160197834
1385566406806204161,363637,1385566406806204161,/world,vicon/Archie/Archie,0.0606990881258,0.0502783528234,0.113102804544,-0.00543743283829,-0.0107784431257,0.705933471279,0.708175256286
1385566406816147178,363638,1385566406816147178,/world,vicon/Archie/Archie,0.0606885200014,0.0502792027216,0.113121892958,-0.00551376168418,-0.0107284007717,0.705947688111,0.708161253882
1385566406826081803,363639,1385566406826081803,/world,vicon/Archie/Archie,0.0606782929151,0.0502804925389,0.113098016828,-0.00542714866728,-0.0107158302086,0.705948511678,0.708161292291
1385566406836242777,363640,1385566406836242777,/world,vicon/Archie/Archie,0.0606630255637,0.0503032787371,0.113124987365,-0.00551114887148,-0.0105996374193,0.705943757956,0.70816713107
1385566406846040353,363641,1385566406846040353,/world,vicon/Archie/Archie,0.060685000952,0.0502808971699,0.11310763395,-0.00544933992188,-0.0107511292689,0.705946175241,0.708162915985
1385566406856225395,363642,1385566406856225395,/world,vicon/Archie/Archie,0.060679098442,0.0502972124108,0.113139745559,-0.00552989705715,-0.0106374676747,0.705947554548,0.708162632979
1385566406866323457,363643,1385566406866323457,/world,vicon/Archie/Archie,0.060677567522,0.0502980217205,0.113124188385,-0.0055250216898,-0.0106021135381,0.705951541555,0.708159226658
1385566406876179278,363644,1385566406876179278,/world,vicon/Archie/Archie,0.0606845870406,0.0502951254713,0.113139754053,-0.00551948367391,-0.010638949589,0.705943234255,0.708166998709
1385566406886227195,363645,1385566406886227195,/world,vicon/Archie/Archie,0.0606893741589,0.0502997505764,0.113140909416,-0.00552094692941,-0.0106393999779,0.70594687507,0.708163351136
1385566406896148738,363646,1385566406896148738,/world,vicon/Archie/Archie,0.0606768367294,0.0502987206444,0.113144067595,-0.0056028852854,-0.0105733209124,0.705935363475,0.708175172649
1385566406906234385,363647,1385566406906234385,/world,vicon/Archie/Archie,0.0606716694085,0.0503067540919,0.113128260645,-0.00552166543899,-0.0105824259704,0.705941020315,0.708170035591
1385566406916017280,363648,1385566406916017280,/world,vicon/Archie/Archie,0.0606728849551,0.0502761742101,0.113099868905,-0.00542442546178,-0.0107262909878,0.705945150668,0.70816450528
1385566406926008796,363649,1385566406926008796,/world,vicon/Archie/Archie,0.0606763626984,0.0502814790014,0.113101992463,-0.00540623058589,-0.0107263088608,0.705961511598,0.708148334116
1385566406936025505,363650,1385566406936025505,/world,vicon/Archie/Archie,0.0606783791222,0.0502823367427,0.113098940763,-0.00540530660744,-0.0107470346541,0.705945539872,0.708163948985
1385566406946208175,363651,1385566406946208175,/world,vicon/Archie/Archie,0.0606783063909,0.0502957986947,0.113141394738,-0.00553070965726,-0.0106421731964,0.705938694566,0.708171388094
1385566406956292761,363652,1385566406956292761,/world,vicon/Archie/Archie,0.0606751822193,0.0502937640939,0.113135771617,-0.00554212603088,-0.0106515033932,0.705955027386,0.708154876862
1385566406966156789,363653,1385566406966156789,/world,vicon/Archie/Archie,0.0606666800465,0.0502990183753,0.113141035653,-0.00560384042638,-0.0105672493633,0.705931723425,0.708178884234
1385566406976192845,363654,1385566406976192845,/world,vicon/Archie/Archie,0.0606861774704,0.0502770232363,0.113112484187,-0.00542264377265,-0.0107757141309,0.705956737893,0.708152217495
1385566406986508169,363655,1385566406986508169,/world,vicon/Archie/Archie,0.0606880550273,0.0502979944271,0.113136295935,-0.00553154239373,-0.0106279317645,0.705950506416,0.708159820659
1385566406995925583,363656,1385566406995925583,/world,vicon/Archie/Archie,0.0606600544139,0.0502795729154,0.113117416416,-0.00547990389924,-0.0107246931494,0.705938130922,0.708171100032
1385566407006067066,363657,1385566407006067066,/world,vicon/Archie/Archie,0.060688021266,0.0502830649018,0.113109748698,-0.00543236381187,-0.0107863622362,0.70596559784,0.708143148296
1385566407016053538,363658,1385566407016053538,/world,vicon/Archie/Archie,0.060667649715,0.0502801998032,0.113112016496,-0.00549890576917,-0.0107068572426,0.705935845523,0.70817350081
1385566407026203806,363659,1385566407026203806,/world,vicon/Archie/Archie,0.0606748312833,0.0503015890899,0.113145056909,-0.00551593143627,-0.0106465705036,0.705949182356,0.708160982382
1385566407036140054,363660,1385566407036140054,/world,vicon/Archie/Archie,0.06067549945,0.0502859273638,0.113095332529,-0.00542247469468,-0.0107228466684,0.705957280363,0.708152480494
1385566407045969884,363661,1385566407045969884,/world,vicon/Archie/Archie,0.0606694776928,0.0502814956715,0.113112968842,-0.00549569207132,-0.0106986905196,0.70593805179,0.70817144988
1385566407056148654,363662,1385566407056148654,/world,vicon/Archie/Archie,0.0606239980029,0.0503186953874,0.113091366719,-0.0055735845236,-0.0106349077327,0.705949343964,0.70816054511
1385566407066893838,363663,1385566407066893838,/world,vicon/Archie/Archie,0.0606844638969,0.0502810953113,0.113113070474,-0.00543286443613,-0.0107853158127,0.705949375573,0.708159332407
1385566407076692697,363664,1385566407076692697,/world,vicon/Archie/Archie,0.0606802900259,0.0502801690729,0.113125924235,-0.00550730949948,-0.0107532550055,0.705948101205,0.708160515317
1385566407086904292,363665,1385566407086904292,/world,vicon/Archie/Archie,0.0606810292309,0.0502948514687,0.113140584024,-0.00553339870976,-0.010620208705,0.705954077685,0.708156361877
1385566407097187677,363666,1385566407097187677,/world,vicon/Archie/Archie,0.0606890375211,0.0502703333298,0.113123567369,-0.00551292730216,-0.0107553521158,0.70593623439,0.708172269302
1385566407106939349,363667,1385566407106939349,/world,vicon/Archie/Archie,0.060662681169,0.0502985858951,0.113126229138,-0.00550903955274,-0.0106007513921,0.70594700414,0.7081638948
1385566407116773635,363668,1385566407116773635,/world,vicon/Archie/Archie,0.0606794130879,0.0502800344752,0.113110703337,-0.00542358452296,-0.0107900715313,0.705951888089,0.708156826409
1385566407126106805,363669,1385566407126106805,/world,vicon/Archie/Archie,0.0606787128042,0.0503034878265,0.11314077422,-0.00553438089493,-0.0106449244933,0.705948437815,0.708161605396
1385566407136174444,363670,1385566407136174444,/world,vicon/Archie/Archie,0.0606769254764,0.0502990060048,0.113147400453,-0.00551963161321,-0.0106434154484,0.705954740319,0.708155460331
1385566407146034329,363671,1385566407146034329,/world,vicon/Archie/Archie,0.0606723212509,0.0502780528878,0.113105223461,-0.00550682243081,-0.0107154190506,0.705943169568,0.708166008816
1385566407156164953,363672,1385566407156164953,/world,vicon/Archie/Archie,0.0606777632555,0.0502955766266,0.113149824508,-0.00559921378308,-0.0106062879744,0.705922477347,0.708187553856
1385566407166188904,363673,1385566407166188904,/world,vicon/Archie/Archie,0.0606826670885,0.0502959317453,0.113139600202,-0.00552844185657,-0.0106383600788,0.70594810204,0.708162085156
1385566407175936251,363674,1385566407175936251,/world,vicon/Archie/Archie,0.0606796839256,0.0502972227377,0.113144063358,-0.0055110054482,-0.0106625756745,0.705945658774,0.708164292489
1385566407186884628,363675,1385566407186884628,/world,vicon/Archie/Archie,0.0606637096301,0.0502982347388,0.113132235522,-0.00551382864884,-0.0105913788,0.705947380755,0.708163622331
1385566407196664497,363676,1385566407196664497,/world,vicon/Archie/Archie,0.0606796223009,0.050285568112,0.113098457457,-0.00541472897992,-0.0107211784705,0.70595179765,0.708158030694
1385566407206841032,363677,1385566407206841032,/world,vicon/Archie/Archie,0.0606792228384,0.050292929969,0.1131410104,-0.00555879971833,-0.0106146115848,0.705948572786,0.708161734597
1385566407216585067,363678,1385566407216585067,/world,vicon/Archie/Archie,0.060670322989,0.0503108895724,0.113145067129,-0.00553073456674,-0.0106212786875,0.705941095488,0.708169308228
1385566407226609258,363679,1385566407226609258,/world,vicon/Archie/Archie,0.0606874731375,0.0502794414347,0.113118012694,-0.0055184457024,-0.0107317148159,0.705937433515,0.708171389578
1385566407236639655,363680,1385566407236639655,/world,vicon/Archie/Archie,0.0606744679517,0.0503006937135,0.113138445123,-0.005521573494,-0.0106354010909,0.705941917463,0.708168348373
1385566407246073150,363681,1385566407246073150,/world,vicon/Archie/Archie,0.0606599825934,0.0502995359247,0.113127558038,-0.00550883314351,-0.0105767100042,0.705943312694,0.708167935751
1385566407256194175,363682,1385566407256194175,/world,vicon/Archie/Archie,0.0606872715726,0.05028152291,0.113110826267,-0.0054425573296,-0.01075150324,0.705959723763,0.708149456098
1385566407266195935,363683,1385566407266195935,/world,vicon/Archie/Archie,0.0606775473137,0.0502933015835,0.113153215194,-0.00559789369217,-0.0106260191337,0.705948612512,0.708161215964
1385566407276090592,363684,1385566407276090592,/world,vicon/Archie/Archie,0.0606709857622,0.05030417998,0.113128797847,-0.00551905727777,-0.0105840518319,0.705947223101,0.708163848308
1385566407286112849,363685,1385566407286112849,/world,vicon/Archie/Archie,0.0606284578836,0.050305058396,0.113058851635,-0.0054606400492,-0.0107858916971,0.705949784113,0.708158702736
1385566407296044279,363686,1385566407296044279,/world,vicon/Archie/Archie,0.0606867285713,0.0502744601958,0.113108555775,-0.00544243646726,-0.0107810513325,0.705956564991,0.708152156788
1385566407306216914,363687,1385566407306216914,/world,vicon/Archie/Archie,0.0606815810804,0.0502892490056,0.113155710317,-0.00561785823233,-0.0106090285108,0.705941001528,0.70816889973
1385566407316204989,363688,1385566407316204989,/world,vicon/Archie/Archie,0.0606848114517,0.0502878546171,0.113138616196,-0.00554393305966,-0.0106268603416,0.705938671793,0.70817153735
1385566407326198329,363689,1385566407326198329,/world,vicon/Archie/Archie,0.060681892572,0.0502992037326,0.113139098509,-0.00553096781969,-0.0106310603538,0.705943051308,0.708167209959
1385566407336196832,363690,1385566407336196832,/world,vicon/Archie/Archie,0.0606681074881,0.0503005705572,0.113126224024,-0.00551633063602,-0.0105800052283,0.705944016861,0.708167126209
1385566407346128683,363691,1385566407346128683,/world,vicon/Archie/Archie,0.0606913376214,0.0502971055785,0.113154239688,-0.00561333785201,-0.0105929458527,0.705929091102,0.708181049077
1385566407356223148,363692,1385566407356223148,/world,vicon/Archie/Archie,0.0606640522063,0.0502834251959,0.113097392261,-0.00540130407386,-0.0107429826663,0.705954560587,0.708155048435
1385566407366107618,363693,1385566407366107618,/world,vicon/Archie/Archie,0.0606910430212,0.0502791034049,0.113108366422,-0.00543167565436,-0.0107664129169,0.705935925266,0.708173037238
1385566407376200862,363694,1385566407376200862,/world,vicon/Archie/Archie,0.0606877604976,0.0502925509774,0.113140320229,-0.00554240553476,-0.0106125617756,0.705952863774,0.708157616214
1385566407386123653,363695,1385566407386123653,/world,vicon/Archie/Archie,0.0606906139023,0.0502843490515,0.113108809546,-0.00542052727427,-0.0107772595436,0.705948686509,0.708160236512
1385566407396138592,363696,1385566407396138592,/world,vicon/Archie/Archie,0.0606790056131,0.0502965223271,0.113140051256,-0.00553409454626,-0.0106196893243,0.70594710254,0.708163317612
1385566407406307048,363697,1385566407406307048,/world,vicon/Archie/Archie,0.0606672754913,0.050310387758,0.113128099952,-0.00550662959815,-0.0106211780436,0.705933855972,0.708176714246
1385566407416146547,363698,1385566407416146547,/world,vicon/Archie/Archie,0.0606925901995,0.050278471632,0.113107952945,-0.00542256609985,-0.0107891323004,0.705945682377,0.708163034855
1385566407426152653,363699,1385566407426152653,/world,vicon/Archie/Archie,0.0606749370674,0.0502995843253,0.113128005053,-0.00553712471218,-0.0105756640653,0.70595864663,0.708152444625
1385566407436110584,363700,1385566407436110584,/world,vicon/Archie/Archie,0.0606785362679,0.0502918915845,0.113138950509,-0.00552981111168,-0.0106315551511,0.70594925341,0.708161028887
1385566407446358559,363701,1385566407446358559,/world,vicon/Archie/Archie,0.0606928599758,0.0502797050363,0.113107386657,-0.00543370868822,-0.0107853668731,0.705944318681,0.708164366226
1385566407456970607,363702,1385566407456970607,/world,vicon/Archie/Archie,0.0606888115959,0.0503040316921,0.11313320992,-0.00554892310316,-0.0106275413314,0.705937244555,0.708172910784
1385566407466789570,363703,1385566407466789570,/world,vicon/Archie/Archie,0.0606870659847,0.0502958747085,0.11313647856,-0.00555431651745,-0.0106191527322,0.705958167617,0.708152136718
1385566407476704405,363704,1385566407476704405,/world,vicon/Archie/Archie,0.0606679999396,0.050300571465,0.11313622785,-0.00558677125867,-0.0105833690886,0.705916064266,0.708194387507
1385566407486859492,363705,1385566407486859492,/world,vicon/Archie/Archie,0.0606807473687,0.0502742036971,0.113113372902,-0.00541967293931,-0.0107706548807,0.705956443887,0.708152610299
1385566407496552675,363706,1385566407496552675,/world,vicon/Archie/Archie,0.0606922115311,0.0502726512637,0.113116915899,-0.00552425051097,-0.0107379274475,0.705942522234,0.708166177442
1385566407506985763,363707,1385566407506985763,/world,vicon/Archie/Archie,0.0606836856876,0.0502900385609,0.113150150219,-0.00562404219097,-0.0106044974616,0.705929162361,0.708180720234
1385566407517034309,363708,1385566407517034309,/world,vicon/Archie/Archie,0.0606869087239,0.0503019615087,0.113139682473,-0.00553270260016,-0.0106336715688,0.705946124139,0.70816409401
1385566407526742528,363709,1385566407526742528,/world,vicon/Archie/Archie,0.0606793956143,0.050281395449,0.113090110994,-0.00543236698343,-0.0107283428572,0.705956870912,0.708152729615
1385566407536937712,363710,1385566407536937712,/world,vicon/Archie/Archie,0.060685446262,0.0502954179877,0.11315266163,-0.00561518883766,-0.0105945183499,0.705935711668,0.708174411304
1385566407546610146,363711,1385566407546610146,/world,vicon/Archie/Archie,0.0606854754868,0.0502745317065,0.113117845213,-0.00551841780992,-0.0107448189562,0.705920313969,0.708188256226
1385566407557092355,363712,1385566407557092355,/world,vicon/Archie/Archie,0.0606765746791,0.0502964710246,0.113136118136,-0.00552840439091,-0.0106270167448,0.705946097058,0.70816425447
1385566407566790628,363713,1385566407566790628,/world,vicon/Archie/Archie,0.0606960158799,0.0502758331098,0.113111363945,-0.00553209798221,-0.0107309682406,0.705950289765,0.708158478445
1385566407577007773,363714,1385566407577007773,/world,vicon/Archie/Archie,0.0606851975041,0.050294383802,0.113140529256,-0.00551998492037,-0.0106214354597,0.705948661066,0.708161847896
1385566407586881754,363715,1385566407586881754,/world,vicon/Archie/Archie,0.060694251547,0.0502784961492,0.113119802061,-0.00551938286288,-0.0107321903454,0.705938216203,0.708170594848
1385566407596944515,363716,1385566407596944515,/world,vicon/Archie/Archie,0.0606885884536,0.0502952861473,0.113139827708,-0.00552913863713,-0.0106288540397,0.705940948821,0.708169353238
1385566407606149719,363717,1385566407606149719,/world,vicon/Archie/Archie,0.0606965390289,0.050274102517,0.113122526381,-0.00550255704239,-0.0107563919961,0.705936856551,0.708171713965
1385566407616204531,363718,1385566407616204531,/world,vicon/Archie/Archie,0.0606919452898,0.050293310553,0.113147901125,-0.0056264013773,-0.0106005269337,0.705936241307,0.708173704429
1385566407626019154,363719,1385566407626019154,/world,vicon/Archie/Archie,0.0606913456472,0.050276408601,0.11310946136,-0.00543631268823,-0.0107696205792,0.705963467291,0.708145496792
1385566407636205416,363720,1385566407636205416,/world,vicon/Archie/Archie,0.060686138576,0.0502887397942,0.113149017275,-0.0056184334053,-0.0105938479267,0.705931648525,0.708178445876
1385566407646049193,363721,1385566407646049193,/world,vicon/Archie/Archie,0.060685610378,0.0502953965995,0.113135209993,-0.00554274391858,-0.0106218612181,0.705943545335,0.708166763449
1385566407656177326,363722,1385566407656177326,/world,vicon/Archie/Archie,0.0606827274433,0.0502989685652,0.113140607312,-0.00551653276026,-0.0106561231606,0.705942837385,0.708167159116
1385566407666222680,363723,1385566407666222680,/world,vicon/Archie/Archie,0.0606899423807,0.0502997012411,0.113134662453,-0.00552575072311,-0.0106468419381,0.705940206314,0.708169849645
1385566407676281485,363724,1385566407676281485,/world,vicon/Archie/Archie,0.0606786375648,0.0502961811071,0.113135741989,-0.00552617739867,-0.0106243998276,0.705946701843,0.708163708227
1385566407686204445,363725,1385566407686204445,/world,vicon/Archie/Archie,0.0606812113142,0.0502991306092,0.113140397826,-0.00553307833681,-0.0106171253071,0.705946966821,0.708163499293
1385566407696045083,363726,1385566407696045083,/world,vicon/Archie/Archie,0.0606760054554,0.0502823530828,0.113099043945,-0.00540238785789,-0.0107394576196,0.705946673573,0.708162956054
1385566407706261463,363727,1385566407706261463,/world,vicon/Archie/Archie,0.0606743066627,0.05029689174,0.113144706788,-0.00560090241165,-0.0105729790252,0.705934282769,0.708176270725
1385566407716175827,363728,1385566407716175827,/world,vicon/Archie/Archie,0.0606719998926,0.0502978857395,0.113128828424,-0.00551653181232,-0.010586332315,0.70594551232,0.70816553932
1385566407726867745,363729,1385566407726867745,/world,vicon/Archie/Archie,0.0606963490784,0.0502895631651,0.11315218882,-0.00561370877689,-0.010611344517,0.705938385375,0.708171505848
1385566407736699741,363730,1385566407736699741,/world,vicon/Archie/Archie,0.0606986521389,0.0502779033807,0.113118198107,-0.00551148920051,-0.0107593605981,0.705933294652,0.70817515005
1385566407746728858,363731,1385566407746728858,/world,vicon/Archie/Archie,0.0606876882695,0.050278878131,0.113111935862,-0.00541984513047,-0.0107691466064,0.705953499797,0.708155566866
1385566407756737048,363732,1385566407756737048,/world,vicon/Archie/Archie,0.0607072286034,0.0502748686488,0.113122420108,-0.0054957581252,-0.0107656463155,0.705944439512,0.708164067024
1385566407766699253,363733,1385566407766699253,/world,vicon/Archie/Archie,0.0606963076831,0.0502759362227,0.113120219226,-0.0055095969914,-0.0107590988327,0.705935900245,0.708172571397
1385566407776974461,363734,1385566407776974461,/world,vicon/Archie/Archie,0.0606883372391,0.0502997375914,0.113144647895,-0.00552502198124,-0.010630364296,0.705947670268,0.708162662338
1385566407786475047,363735,1385566407786475047,/world,vicon/Archie/Archie,0.0606845972507,0.0502790339954,0.113108782974,-0.00543800657896,-0.01076582121,0.705946114595,0.708162840359
1385566407796596893,363736,1385566407796596893,/world,vicon/Archie/Archie,0.060688420809,0.0502962657178,0.113136373073,-0.00553590081318,-0.0106246118609,0.705938668239,0.708171637465
1385566407806417521,363737,1385566407806417521,/world,vicon/Archie/Archie,0.0606919047571,0.0502712537473,0.113116610567,-0.00552184529601,-0.0107323464273,0.70593798987,0.708170798906
1385566407816328140,363738,1385566407816328140,/world,vicon/Archie/Archie,0.0607009089464,0.0502771638385,0.113117660371,-0.00550457077328,-0.0107420213913,0.70593525247,0.708173515458
1385566407826388026,363739,1385566407826388026,/world,vicon/Archie/Archie,0.0606910407418,0.0502917905264,0.113152080847,-0.00561875671365,-0.0105939687987,0.705929069773,0.708181012064
1385566407836467910,363740,1385566407836467910,/world,vicon/Archie/Archie,0.0606792107086,0.0502812719358,0.113097940614,-0.00541542386572,-0.0107187601105,0.705940375528,0.708169448343
1385566407846244327,363741,1385566407846244327,/world,vicon/Archie/Archie,0.060687995911,0.0502748102938,0.113119151836,-0.00549990256452,-0.0107455389145,0.70593573233,0.70817302002
1385566407856412522,363742,1385566407856412522,/world,vicon/Archie/Archie,0.0606876928165,0.0502816845621,0.113103832686,-0.00545047415166,-0.0107693641431,0.705949381872,0.708159433575
1385566407866303029,363743,1385566407866303029,/world,vicon/Archie/Archie,0.0606778388143,0.0502826541399,0.11309895441,-0.00542119387797,-0.0107179647778,0.705954982336,0.7081548551
1385566407876297359,363744,1385566407876297359,/world,vicon/Archie/Archie,0.0606912334906,0.0502866801634,0.113112666077,-0.00544027547494,-0.0107473200509,0.70594659348,0.708162626569
1385566407886489824,363745,1385566407886489824,/world,vicon/Archie/Archie,0.0606835174366,0.0502975846689,0.11313959508,-0.0055394108533,-0.0106199049058,0.705953029995,0.708157363859
1385566407896187712,363746,1385566407896187712,/world,vicon/Archie/Archie,0.0606872017974,0.0502802904403,0.113113122724,-0.00544753050187,-0.0107501587311,0.705951299786,0.708157836099
1385566407906229143,363747,1385566407906229143,/world,vicon/Archie/Archie,0.0606837131172,0.0502915139388,0.113141480125,-0.00554655668597,-0.0106206230825,0.705949402634,0.708160913207
1385566407916132354,363748,1385566407916132354,/world,vicon/Archie/Archie,0.0606766155955,0.0502897287966,0.113073116831,-0.00544077175923,-0.0107044093396,0.705933580101,0.708176245089
1385566407926110701,363749,1385566407926110701,/world,vicon/Archie/Archie,0.0606795777918,0.0502906142906,0.11313935301,-0.00552891454727,-0.0106303752637,0.705951437542,0.708158876282
1385566407936355385,363750,1385566407936355385,/world,vicon/Archie/Archie,0.0606792224321,0.0502966243426,0.113141057038,-0.00554271070954,-0.0106197868586,0.705951690148,0.708158675484
1385566407946031826,363751,1385566407946031826,/world,vicon/Archie/Archie,0.0606838242439,0.0502932131031,0.113136251221,-0.00554985634176,-0.0106228802039,0.70593855001,0.708171672069
1385566407956078299,363752,1385566407956078299,/world,vicon/Archie/Archie,0.0606923516146,0.0502769130252,0.11310326194,-0.00545246897683,-0.0107594598132,0.705964021354,0.708144974677
1385566407966977975,363753,1385566407966977975,/world,vicon/Archie/Archie,0.0606665537026,0.0503062750495,0.113128154478,-0.00552333295245,-0.010583689266,0.70594476373,0.708166272055
1385566407976891516,363754,1385566407976891516,/world,vicon/Archie/Archie,0.0606846523988,0.0503056862066,0.113143598406,-0.00553095887135,-0.0106290342725,0.705944479984,0.70816581625
1385566407986924834,363755,1385566407986924834,/world,vicon/Archie/Archie,0.0606865546673,0.0503023455978,0.113137467496,-0.00554088610808,-0.0106259634424,0.705937584842,0.708172658177
1385566407996829646,363756,1385566407996829646,/world,vicon/Archie/Archie,0.0606740436158,0.0502835322226,0.113095691372,-0.00541864447962,-0.0107175892869,0.705947453473,0.70816238569
1385566408006952002,363757,1385566408006952002,/world,vicon/Archie/Archie,0.0606787233297,0.0503006892739,0.113135913022,-0.00554120443677,-0.0106176649264,0.705944378419,0.708166007955
1385566408016680825,363758,1385566408016680825,/world,vicon/Archie/Archie,0.0606378990724,0.0503028044349,0.113059234501,-0.00545069390214,-0.0107824638567,0.705953776603,0.708154851504
1385566408026765926,363759,1385566408026765926,/world,vicon/Archie/Archie,0.0606770111934,0.0502822689897,0.113096736563,-0.00541483526619,-0.0107397688655,0.705950196349,0.708159344497
1385566408036781429,363760,1385566408036781429,/world,vicon/Archie/Archie,0.0606914861634,0.0502653066262,0.113117390048,-0.00551677395931,-0.0107194841013,0.705934371208,0.708174640475
1385566408046970287,363761,1385566408046970287,/world,vicon/Archie/Archie,0.0606847370329,0.0502980636073,0.11313581309,-0.00554390314345,-0.0106235083035,0.705945341689,0.708164938949
1385566408056838700,363762,1385566408056838700,/world,vicon/Archie/Archie,0.0606676572,0.0502926390658,0.113139424974,-0.00559522252003,-0.0105654168332,0.705940939132,0.708169793135
1385566408066872697,363763,1385566408066872697,/world,vicon/Archie/Archie,0.060687638413,0.0502987683796,0.11313481261,-0.00554102694326,-0.0106123852992,0.70594177415,0.708168684572
1385566408076617362,363764,1385566408076617362,/world,vicon/Archie/Archie,0.0606849752162,0.0502815741048,0.113103442226,-0.00543721744963,-0.0107729719254,0.705949014465,0.708159846869
1385566408087040614,363765,1385566408087040614,/world,vicon/Archie/Archie,0.0606313018766,0.0503200372278,0.113083897068,-0.00557172993597,-0.0106228494785,0.705952286613,0.708157807216
1385566408096757687,363766,1385566408096757687,/world,vicon/Archie/Archie,0.0606991263876,0.0502722281265,0.113120407983,-0.0055184679676,-0.0107316881962,0.705940947742,0.708167886649
1385566408106960993,363767,1385566408106960993,/world,vicon/Archie/Archie,0.0606774950541,0.0502988982131,0.113139381428,-0.0055346405597,-0.0106272544786,0.705953774923,0.708156548291
1385566408116833461,363768,1385566408116833461,/world,vicon/Archie/Archie,0.0606836860681,0.0502973161257,0.113141542963,-0.0055349204615,-0.0106254684796,0.70595030635,0.708160030671
1385566408127515638,363769,1385566408127515638,/world,vicon/Archie/Archie,0.0606978072905,0.0502915331581,0.11314725259,-0.00563132176711,-0.010586495075,0.70593002449,0.708180072341
1385566408136942564,363770,1385566408136942564,/world,vicon/Archie/Archie,0.0606894005527,0.0502909928371,0.113156176087,-0.00559798614714,-0.0106180807698,0.705932805796,0.70817709128
1385566408146006165,363771,1385566408146006165,/world,vicon/Archie/Archie,0.0606710434062,0.050302993651,0.113125902725,-0.00550960999564,-0.0106113775001,0.705949602847,0.708161140635
1385566408156169434,363772,1385566408156169434,/world,vicon/Archie/Archie,0.0606837304522,0.050303589703,0.113138464296,-0.00552929679173,-0.0106231142361,0.705953292347,0.70815713323
1385566408166192058,363773,1385566408166192058,/world,vicon/Archie/Archie,0.0606956240041,0.0502735027496,0.113103603518,-0.00543046996134,-0.0107815629115,0.705950694612,0.708158092995
1385566408176082267,363774,1385566408176082267,/world,vicon/Archie/Archie,0.0606868899104,0.0503002698315,0.113142262075,-0.00552785572633,-0.0106208892043,0.705950833555,0.708159628986
1385566408186159156,363775,1385566408186159156,/world,vicon/Archie/Archie,0.0607002468194,0.0502744111951,0.113104339114,-0.00543152618868,-0.0107730529421,0.705943228435,0.708165657231
1385566408196009146,363776,1385566408196009146,/world,vicon/Archie/Archie,0.0607012331212,0.0502727453557,0.113119375235,-0.00550843107172,-0.0107362587121,0.705934429927,0.708174392774
1385566408206197311,363777,1385566408206197311,/world,vicon/Archie/Archie,0.0606918064017,0.0502878603536,0.113147385976,-0.00562697828018,-0.0106158828749,0.705936428719,0.708173282999
1385566408216076924,363778,1385566408216076924,/world,vicon/Archie/Archie,0.0606806239614,0.0502882143651,0.113087361962,-0.00551281807352,-0.0107014310624,0.705940402656,0.7081689319
1385566408226041135,363779,1385566408226041135,/world,vicon/Archie/Archie,0.0606979540656,0.0502762676591,0.113110096119,-0.00544164308516,-0.0107678604306,0.705960710268,0.708148231135
1385566408236184091,363780,1385566408236184091,/world,vicon/Archie/Archie,0.0606829086089,0.0502977476919,0.113129123475,-0.00550723871884,-0.0105981054861,0.705948115014,0.708162841012
1385566408246043504,363781,1385566408246043504,/world,vicon/Archie/Archie,0.0606908321171,0.0502970667977,0.113138045513,-0.0055405781792,-0.0106297740097,0.705948806223,0.708161417256
1385566408256167518,363782,1385566408256167518,/world,vicon/Archie/Archie,0.0606944860389,0.0502925402982,0.113148147205,-0.00563038229548,-0.0106046814535,0.705937524426,0.708172331522
1385566408266342389,363783,1385566408266342389,/world,vicon/Archie/Archie,0.0606897409289,0.0502928010483,0.113135274837,-0.00553380860281,-0.0106289911408,0.705950366015,0.708159927017
1385566408276019417,363784,1385566408276019417,/world,vicon/Archie/Archie,0.0606918179126,0.0502932748686,0.113154136795,-0.00560502062643,-0.0106012142248,0.705935185269,0.708174916388
1385566408286200487,363785,1385566408286200487,/world,vicon/Archie/Archie,0.0606876018158,0.0502967741427,0.113140907865,-0.00553249847425,-0.010624893693,0.705935882538,0.708174436731
1385566408296058875,363786,1385566408296058875,/world,vicon/Archie/Archie,0.0606980315094,0.0502800564096,0.11310489562,-0.00544804387607,-0.0107724769498,0.705953909486,0.708154891418
1385566408306173772,363787,1385566408306173772,/world,vicon/Archie/Archie,0.0606936966615,0.050268871649,0.113104024446,-0.00543226237414,-0.0107718712383,0.705947317139,0.708161593664
1385566408316129179,363788,1385566408316129179,/world,vicon/Archie/Archie,0.0606932425328,0.0502813534664,0.113107227344,-0.00542670388099,-0.0107748188784,0.705957337893,0.708151601875
1385566408326281065,363789,1385566408326281065,/world,vicon/Archie/Archie,0.0606686214453,0.0502931311046,0.113139552448,-0.00560159068826,-0.0105664721506,0.705930335226,0.708180297422
1385566408336161191,363790,1385566408336161191,/world,vicon/Archie/Archie,0.0606952171584,0.0502818747313,0.113104847788,-0.0054453436886,-0.0107565846088,0.705947935863,0.708161108767
1385566408346035735,363791,1385566408346035735,/world,vicon/Archie/Archie,0.0606918765939,0.0502826363972,0.113110470518,-0.00542938939542,-0.0107693343928,0.705960104149,0.708148907023
1385566408356296626,363792,1385566408356296626,/world,vicon/Archie/Archie,0.0606918004265,0.0502958008417,0.11313629978,-0.00553261048732,-0.0106249598651,0.705949923693,0.708160437816
1385566408366224840,363793,1385566408366224840,/world,vicon/Archie/Archie,0.0606630252134,0.050299168476,0.113123739949,-0.00550900224988,-0.010579565926,0.705947559133,0.70816365865
1385566408376154626,363794,1385566408376154626,/world,vicon/Archie/Archie,0.0606995803146,0.0502885085717,0.113149462799,-0.005622251397,-0.0106038732441,0.70593216445,0.708177751244
1385566408386164425,363795,1385566408386164425,/world,vicon/Archie/Archie,0.0606968214877,0.0502742957414,0.113110173476,-0.00542306946538,-0.0107741988539,0.70595637073,0.708152603315
1385566408396130505,363796,1385566408396130505,/world,vicon/Archie/Archie,0.0606866336611,0.0503018099351,0.113137236273,-0.00553465752245,-0.0106459158467,0.705950011754,0.708160019309
1385566408406180140,363797,1385566408406180140,/world,vicon/Archie/Archie,0.0606386986851,0.0503024386998,0.113060653175,-0.00545995188763,-0.0107750237844,0.705945487339,0.708163156832
1385566408416298922,363798,1385566408416298922,/world,vicon/Archie/Archie,0.0606966370162,0.0502792029002,0.113110334524,-0.00544187140487,-0.0107566004142,0.705961253445,0.708147859008
1385566408426453554,363799,1385566408426453554,/world,vicon/Archie/Archie,0.0606788938507,0.0502873747409,0.113095861584,-0.00541035351886,-0.0107355106556,0.705944873639,0.708164749383
1385566408436103997,363800,1385566408436103997,/world,vicon/Archie/Archie,0.0606976709788,0.0502880269197,0.11310543602,-0.00545072923769,-0.0107638274861,0.705950749612,0.708158152316
1385566408446125531,363801,1385566408446125531,/world,vicon/Archie/Archie,0.0606700748537,0.0502968662246,0.113122432581,-0.00553401322979,-0.0105702031646,0.705949266954,0.708161900973
1385566408456122303,363802,1385566408456122303,/world,vicon/Archie/Archie,0.0606891201584,0.050293476084,0.113142293193,-0.00552773515691,-0.0106254113314,0.705942102203,0.708168266103
1385566408466223698,363803,1385566408466223698,/world,vicon/Archie/Archie,0.0606892831772,0.0502948564662,0.113137849045,-0.00553658435142,-0.0106308827018,0.705951202426,0.708159043125
