%time,field.linear.x,field.linear.y,field.linear.z,field.angular.x,field.angular.y,field.angular.z
1385566408344063902,0.0,0.0,0.0,0.0,0.0,0.0
1385566408344167473,0.0606952171584,-0.0502818747313,-0.113104847788,-0.0229021927658,0.00754660312335,-1.56775261995
1385566408353911874,0.0606918765939,-0.0502826363972,-0.113110470518,-0.0228977329722,0.00758679293483,-1.56778753009
1385566408363853222,0.0606918004265,-0.0502958008417,-0.11313629978,-0.0228399147186,0.00723692372688,-1.56775261146
1385566408373832173,0.0606630252134,-0.050299168476,-0.113123739949,-0.0227423386739,0.00720605720801,-1.56774400973
1385566408383809205,0.0606995803146,-0.0502885085717,-0.113149462799,-0.022936923218,0.00708105719698,-1.56770157013
1385566408393810154,0.0606968214877,-0.0502742957414,-0.113110173476,-0.0228956120948,0.00760272629924,-1.56777719642
1385566408403807689,0.0606866336611,-0.0503018099351,-0.113137236273,-0.0228724127464,0.00726370473078,-1.56775375107
1385566408413951014,0.0606386986851,-0.0503024386998,-0.113060653175,-0.0229489010444,0.00755216471348,-1.56774649956
1385566408423901878,0.0606966370162,-0.0502792029002,-0.113110334524,-0.0228974389007,0.00755109815011,-1.5677902282
1385566408433855741,0.0606788938507,-0.0502873747409,-0.113095861584,-0.0228228352217,0.00756626995612,-1.56774306627
1385566408443802373,0.0606976709788,-0.0502880269197,-0.11310543602,-0.0229200806176,0.00754916329028,-1.56776087736
1385566408453821080,0.0606700748537,-0.0502968662246,-0.113122432581,-0.0227645581993,0.0071574262785,-1.56774843742
1385566408463845740,0.0606891201584,-0.050293476084,-0.113142293193,-0.022833566908,0.00724469965792,-1.5677305436
1385566408473812679,0.0606892831772,-0.0502948564662,-0.113137849045,-0.0228539216564,0.00723965792437,-1.5677564742
1385566408483806136,0.060689162659,-0.0503016098029,-0.113143673141,-0.0228637441386,0.00725344733464,-1.56776173102
1385566408493832208,0.0606931297707,-0.0502865462451,-0.113107246642,-0.0229123348438,0.00761311921095,-1.56776269538
1385566408503824519,0.060688871142,-0.0502759075423,-0.113109852666,-0.0228827165567,0.00754746906114,-1.56775183602
1385566408513823411,0.0606879563001,-0.0502986470072,-0.11313386347,-0.0228489910752,0.00721568644357,-1.56770590493
1385566408523833796,0.0606857252229,-0.0502994758538,-0.113142639281,-0.0228483691654,0.00729222468106,-1.56774636304
1385566408533847252,0.060697026169,-0.0502942005879,-0.113152363752,-0.0229215429264,0.00707403886782,-1.56771616227
1385566408543810014,0.0606943545059,-0.0502936431639,-0.113146818922,-0.0229180914881,0.00707385934603,-1.56769761568
1385566408553842358,0.060692761081,-0.0502927656165,-0.113152269384,-0.0228991918237,0.00708000256921,-1.56772347885
1385566408563875222,0.0606980430298,-0.0502825714349,-0.113110781121,-0.022891276747,0.00757630532584,-1.56773611263
1385566408573848542,0.06067512873,-0.0502764721685,-0.113095090623,-0.0227967349652,0.00755179964261,-1.5677677089
1385566408583809295,0.06069793516,-0.050276952106,-0.113108467213,-0.0228904393666,0.00759060437518,-1.56773930233
1385566408593827221,0.0606974405772,-0.0502952315815,-0.113142462976,-0.0228420979493,0.00725174588734,-1.56776250006
1385566408603835258,0.0606899221855,-0.0502814585344,-0.113104150977,-0.0229262797755,0.00760876724024,-1.56775313953
1385566408613821917,0.0606906099458,-0.0502758769618,-0.113108905043,-0.022911300752,0.00756873097111,-1.56774304563
1385566408623825044,0.060683523187,-0.0503013367157,-0.113138195436,-0.0228222882636,0.00724109519071,-1.56775742415
1385566408633854632,0.0606966686073,-0.0502783197255,-0.113107436857,-0.0229243337849,0.00760894244067,-1.56773306194
1385566408643840899,0.0606872220661,-0.0502859196621,-0.113147463282,-0.0229329989663,0.00711110467545,-1.56771899652
1385566408653838794,0.0606963459147,-0.0502814668962,-0.11310625595,-0.022913225216,0.00757778891065,-1.56772978945
1385566408663856331,0.060693753995,-0.0502931791302,-0.113142236802,-0.0228378737667,0.00722888270189,-1.56775842023
1385566408673813912,0.0606736413431,-0.0502842267154,-0.113102438717,-0.0228029343427,0.00754665449093,-1.56777572154
1385566408683842584,0.0606899650493,-0.0502782649281,-0.113103703123,-0.0229108752642,0.00757396701278,-1.56772663349
1385566408693812807,0.0606837169988,-0.0502934354212,-0.113143390512,-0.0228563938891,0.00708062736055,-1.56772243102
1385566408703804910,0.0606967735843,-0.0502767053444,-0.113120258062,-0.0229889231209,0.00742480512804,-1.56776144388
1385566408713810446,0.0606906716794,-0.0502739731352,-0.113105798121,-0.0229100451825,0.00757011748915,-1.56777677363
1385566408723802524,0.0606947755643,-0.0502786153783,-0.113112586981,-0.022891994346,0.00759016645578,-1.5677657677
1385566408733815186,0.0606919725802,-0.0502977222509,-0.113134425288,-0.0228535234283,0.00719799293047,-1.56775840918
1385566408743896272,0.0606916159964,-0.0502827978967,-0.113105969264,-0.0228886971664,0.00753979079406,-1.56775361188
1385566408753826568,0.0606954501749,-0.0502914971831,-0.113149006977,-0.0229178773365,0.0070879298986,-1.56769720777
1385566408763989693,0.0606793218904,-0.0502717471343,-0.113094371095,-0.0228227644776,0.00751779818769,-1.56775742999
1385566408773845275,0.0606864849068,-0.0503007447255,-0.113134537991,-0.0228523171609,0.00726690127263,-1.56773326682
1385566408783812390,0.0606923825984,-0.0502929504077,-0.113141514012,-0.0228474774329,0.00727550388388,-1.56772010178
1385566408793949185,0.0606890618212,-0.0502905706239,-0.113129377171,-0.0228632419044,0.00717646225782,-1.56774132
1385566408803830691,0.0606788398656,-0.0502823324544,-0.113091301935,-0.0228423480023,0.0075140929942,-1.56774643736
1385566408813830472,0.06069451196,-0.0502791364939,-0.113113128031,-0.0228742924727,0.00756828540196,-1.56776014444
1385566408824019513,0.0606790518122,-0.0502846133884,-0.113095302126,-0.0228670325365,0.00752771110295,-1.56774312369
1385566408833841405,0.0606824972334,-0.0502840612029,-0.113100047455,-0.0228269659446,0.00750302086955,-1.56775775198
1385566408843833240,0.0606870040225,-0.0502937762073,-0.113136678481,-0.0228667723114,0.00723228414174,-1.56773662614
1385566408853961332,0.0606958477389,-0.0502892402367,-0.113145694423,-0.0229203779969,0.00706640627383,-1.56770531043
1385566408863833285,0.0606875915107,-0.0502919431222,-0.113137351389,-0.0228540203736,0.00723669902225,-1.56775829434
1385566408873805663,0.0606954900059,-0.0502769240202,-0.113109974066,-0.022911499559,0.00757863627704,-1.56775824032
1385566408883813833,0.060692110395,-0.0502874075552,-0.113143702701,-0.0228190680661,0.00723015488612,-1.56771764262
1385566408893837553,0.0606848371512,-0.0502920890319,-0.113131805756,-0.0228728779038,0.00721279755928,-1.56774803273
1385566408903821347,0.0606937016465,-0.0502749121164,-0.113109725,-0.0229062597692,0.00755952276585,-1.56777068062
1385566408913967053,0.0606957524514,-0.0502725192057,-0.113109227415,-0.0229117722031,0.00753892296691,-1.56763803109
1385566408923853446,0.0606739667132,-0.0503025079791,-0.113124847715,-0.0228537456681,0.00734509535367,-1.56795551388
1385566408933828958,0.0607005234365,-0.0502869834882,-0.113119509331,-0.0230115014027,0.00765478510875,-1.56779127575
1385566408944031029,0.060771064108,-0.0503180672257,-0.113036081696,-0.0234886388151,0.00747825975129,-1.56734807811
1385566408953860427,0.0606951961138,-0.0502976078433,-0.113117752566,-0.0228587783499,0.00775562406944,-1.56845554479
1385566408963822317,0.0608630692919,-0.0503155991753,-0.113139025575,-0.0229607992211,0.00740224905773,-1.56701343317
1385566408973810654,0.060688631879,-0.0502956134715,-0.113114530558,-0.0229777804969,0.00751774005639,-1.56765259335
1385566408983825580,0.0606709065738,-0.0503184552762,-0.113085441589,-0.022883330292,0.00783601659268,-1.5687268242
1385566408994071898,0.0606692844886,-0.0502926891937,-0.113109250464,-0.0228741311514,0.00781836190634,-1.56812972865
1385566409003843069,0.0607448875399,-0.0503802009942,-0.113051389257,-0.023425997763,0.00748514563706,-1.56746491206
1385566409013817994,0.060601085336,-0.0503313514664,-0.113045215857,-0.0229017672095,0.00814422519836,-1.56815390754
1385566409023883847,0.0606688843356,-0.0503347048628,-0.113084238966,-0.02272531592,0.00781939414689,-1.5685974202
1385566409033858101,0.0606724877271,-0.0503310931488,-0.113127365979,-0.0227383579519,0.00740680621567,-1.5681565874
1385566409043794261,0.0606714976622,-0.0503224508673,-0.113141498768,-0.0228593330125,0.0076088809322,-1.5685256849
1385566409054021683,0.0606553765064,-0.0503186236998,-0.113124293135,-0.0227810798061,0.00763093200617,-1.56873479186
1385566409063842090,0.0606636467419,-0.0503384949713,-0.113100370617,-0.0228005270864,0.00779790407497,-1.56868693394
1385566409073822441,0.0606859493879,-0.0503359605759,-0.113068668427,-0.0225584712053,0.00758186463193,-1.56873233052
1385566409083858367,0.0606780673648,-0.0503636906857,-0.113091356581,-0.0230574265623,0.0076272482427,-1.5685605257
1385566409093833506,0.0606552038679,-0.050317260307,-0.113100942547,-0.0229847595626,0.0076230467454,-1.56873544995
1385566409103816547,0.060638459045,-0.0503232473142,-0.113091104627,-0.0227667583062,0.00775406535845,-1.56852814235
1385566409113855847,0.0606476548711,-0.0503275756509,-0.113102532239,-0.0227761754371,0.00776072501541,-1.5687132656
1385566409123838205,0.0605834969622,-0.0503326342116,-0.113075960294,-0.0228311077985,0.00832063031343,-1.5687892895
1385566409133817392,0.0606424264854,-0.0503295403863,-0.113129542553,-0.0229358712194,0.00774168749107,-1.56857088065
1385566409143855255,0.0606410254715,-0.0503275451536,-0.113105706804,-0.0228048358314,0.00770840006087,-1.56859505653
1385566409153835037,0.0606465766184,-0.0503316571135,-0.113104511096,-0.0227937809742,0.00773169130618,-1.56884843116
1385566409163819588,0.0606031587811,-0.0503266378028,-0.113160614716,-0.022445519098,0.00777178534495,-1.56886360231
1385566409173806864,0.0606533349027,-0.050319846086,-0.113136831129,-0.0228328717259,0.0076935854812,-1.5685458744
1385566409183811609,0.0606351085344,-0.0503360387832,-0.113104193112,-0.0227406492064,0.00775304516614,-1.56859870028
1385566409193840097,0.0605730230784,-0.0503362974382,-0.113055059686,-0.0227762472702,0.00833586836855,-1.56877252775
1385566409203810111,0.0606360194193,-0.0503374389223,-0.113114049641,-0.0228509494562,0.00770329187705,-1.56875197422
1385566409213808369,0.0606359053023,-0.0503273671577,-0.113118448201,-0.0228798026869,0.00773286721679,-1.56851420995
1385566409223826151,0.0606520847233,-0.0503281334274,-0.113105333567,-0.0227958880854,0.00772344573513,-1.56882584489
1385566409233819651,0.060647258432,-0.0503229566613,-0.113109577636,-0.0227176339822,0.0077323785773,-1.56887689741
1385566409243861694,0.0606469494216,-0.0503341987116,-0.113114665788,-0.0227417503541,0.00773718809228,-1.56860791583
1385566409254006977,0.0606478640911,-0.0503256068172,-0.113116079216,-0.0227350586214,0.00772126530383,-1.56862990029
1385566409264009722,0.0606175628296,-0.0503377066694,-0.113142915489,-0.0226095124752,0.00773426606879,-1.56880757026
1385566409273938180,0.0606469579694,-0.0503369871639,-0.113111387275,-0.022805891284,0.00776364656267,-1.56886961936
1385566409283856464,0.0606386505438,-0.0503278494899,-0.113118305999,-0.0227911688089,0.00770790185261,-1.56856226186
1385566409293847373,0.0606437372033,-0.0503379657256,-0.11311884899,-0.0228040620554,0.00764086004741,-1.56870805266
1385566409303834728,0.0606455730135,-0.0503329663664,-0.11311578728,-0.0226812970244,0.00767312878663,-1.56885863362
1385566409313873603,0.060600924086,-0.0503614455857,-0.113063625397,-0.0224020227107,0.0075308175724,-1.56884611553
1385566409323842785,0.0606479050825,-0.0503330126266,-0.113113096275,-0.0227504517218,0.00772396657146,-1.56864625734
1385566409333922959,0.060568819166,-0.0503346369626,-0.11305224458,-0.0228749800369,0.00837123386555,-1.56864753812
1385566409343839783,0.0606177443407,-0.0503223328898,-0.113118222823,-0.0227454914516,0.00771828051236,-1.56861234632
1385566409353894680,0.0606591264186,-0.0503197092256,-0.113131204113,-0.0230235938201,0.00789287386103,-1.56877657383
1385566409363973184,0.0606594336803,-0.0503235514429,-0.113111824038,-0.0228485618631,0.00780037210942,-1.56886504784
1385566409373944195,0.0606364746368,-0.0503339589429,-0.113106509709,-0.0227342439681,0.00766889232309,-1.56840787529
1385566409383850330,0.060680571839,-0.0502913700057,-0.113066968947,-0.0230845959583,0.0075917842985,-1.5688939388
1385566409393867723,0.0606278130615,-0.050338951301,-0.113098977819,-0.0228215121499,0.00785312896977,-1.56901166317
1385566409403936795,0.0606544992172,-0.0503290766372,-0.11310716243,-0.0228587820641,0.0078594641039,-1.56870009524
1385566409413849364,0.060616532228,-0.0503238349723,-0.113182536886,-0.0225581244013,0.00773373296129,-1.56823555417
1385566409423843737,0.0606535648358,-0.0503463446065,-0.113117583063,-0.0227110821138,0.00774649652073,-1.56888229221
1385566409433874444,0.0606433404751,-0.0503391555899,-0.113112357794,-0.022711801813,0.00777719447695,-1.56922649621
1385566409443967746,0.0606845333862,-0.0503698460569,-0.113080233575,-0.0231020980099,0.00776134029455,-1.56812231528
1385566409453913492,0.0606340841649,-0.0503576663878,-0.113062846099,-0.0224997209865,0.00746402719954,-1.56855168147
1385566409463966528,0.0606559821551,-0.0503495217572,-0.113132007802,-0.0227560589138,0.00784086782929,-1.56912032007
1385566409473929754,0.0606345435666,-0.0503417193622,-0.113137928574,-0.0225404038758,0.00780298878859,-1.56878675085
1385566409483861003,0.060644826202,-0.0503357925533,-0.1131561528,-0.0224329923186,0.00770085786257,-1.56818806481
1385566409493851383,0.0606566155173,-0.0503111726191,-0.113197848923,-0.0224368514694,0.00753897898319,-1.56882752347
1385566409503850321,0.0606526045937,-0.0503512332139,-0.113192030092,-0.0224079573491,0.00762751257719,-1.56886348833
1385566409513821770,0.0606468466482,-0.0503423565312,-0.113151580014,-0.0224405691009,0.00746486624979,-1.5681863423
1385566409523819257,0.0606530369611,-0.0503132919481,-0.113145180337,-0.0228717443413,0.00741280399833,-1.56866115874
1385566409533828919,0.060640077893,-0.050341558904,-0.113116395729,-0.022825611532,0.00768298109408,-1.56884481954
1385566409543816625,0.0606163118363,-0.0503704951158,-0.113148575532,-0.0219460585839,0.00772969411616,-1.56855948262
1385566409553929071,0.0606752801994,-0.0503017709289,-0.113198483726,-0.0220073583747,0.00759859814215,-1.568697752
1385566409563992573,0.0606817729198,-0.0503261834113,-0.113229976307,-0.021684469098,0.00743213201661,-1.56862487225
1385566409573845843,0.0606946926706,-0.0503372639414,-0.113208060952,-0.0220280624898,0.00767675591553,-1.56855937452
1385566409583818428,0.0606287505554,-0.0503208339952,-0.113140461702,-0.0220380401454,0.00736328490775,-1.56901839723
1385566409593829568,0.0606700313384,-0.0503757399651,-0.113197361907,-0.0227481141938,0.00793348935547,-1.56857402095
1385566409603830276,0.060629482982,-0.0503330396655,-0.113181171429,-0.0226212430326,0.00751875144409,-1.56862289013
1385566409613810297,0.0605938917004,-0.0503048806793,-0.113209953925,-0.0222079587494,0.00732580272757,-1.56865518838
1385566409623822726,0.0606387184708,-0.0503570461453,-0.113211804028,-0.0219936723746,0.00779800830242,-1.56839657137
1385566409633819866,0.0606932969934,-0.0502995847829,-0.113205490232,-0.0220640540295,0.00787775237726,-1.56883546556
1385566409643829848,0.0607293470734,-0.0504041624754,-0.11299755845,-0.0223734377831,0.0080955084507,-1.56776066352
1385566409653852261,0.0606379359699,-0.050308109735,-0.113221944002,-0.0220440745285,0.00762517249561,-1.56820102431
1385566409663903147,0.0605619556463,-0.0502800398564,-0.113302000798,-0.0223349728215,0.00751831485226,-1.56883755648
1385566409673840478,0.0605984459291,-0.050285378112,-0.113207350437,-0.0226888733867,0.00765771778215,-1.56818983647
1385566409683830848,0.0606912093942,-0.0502693001002,-0.1130702723,-0.0230452295718,0.00772260710384,-1.56806840564
1385566409693814608,0.0605401688236,-0.0502597592517,-0.113131652247,-0.022245882757,0.00754748744668,-1.56853133941
1385566409703807209,0.0607601810345,-0.0503569582331,-0.113122279096,-0.0225176806958,0.00755638507601,-1.56776900364
1385566409713818674,0.0605597166868,-0.0502298087819,-0.11320336462,-0.0219441395801,0.00814118170643,-1.56826627619
1385566409723821571,0.060600560919,-0.0502353772708,-0.113186436991,-0.0221455376313,0.00742545036149,-1.56837743378
1385566409734233416,0.0606208648964,-0.0503162736306,-0.113175394122,-0.0226613584966,0.0075741212999,-1.56775765039
1385566409743834821,0.0605050872822,-0.0502392621972,-0.113151400134,-0.0224542348098,0.00733816184504,-1.56845242887
1385566409753910473,0.0605798865608,-0.050225108265,-0.113225485502,-0.0220349415848,0.00727306992535,-1.56841887294
1385566409763842965,0.0605866322741,-0.0502603418044,-0.113201853794,-0.021697959641,0.00740449347479,-1.56811361826
1385566409773810164,0.0605681288946,-0.050197303335,-0.113260710131,-0.0219294635961,0.00751038756755,-1.56856742443
1385566409783816514,0.0605818311323,-0.0501985252185,-0.1132165898,-0.0220627883166,0.00747167384044,-1.56824836509
1385566409793815712,0.0605600019648,-0.0502406464629,-0.113198587067,-0.0221342376164,0.00759676182677,-1.56839496059
1385566409803804747,0.0605363723047,-0.0501776123779,-0.113209112177,-0.0223440427542,0.00760049008962,-1.56874642691
1385566409813810625,0.0605566438596,-0.0502207151068,-0.113226919563,-0.022294334496,0.00718388486826,-1.5680596982
1385566409823803201,0.0605489907098,-0.0502085320842,-0.113245109166,-0.0221356082329,0.00708947566009,-1.56836868848
1385566409833861869,0.0605360611652,-0.0501689715995,-0.113187739517,-0.0222729404061,0.00768671659506,-1.56872710233
1385566409843819225,0.0605165240862,-0.050223283624,-0.113254707113,-0.0220746827815,0.00783591918902,-1.56816489109
1385566409853861522,0.0605527373218,-0.0502157335228,-0.113125198141,-0.0230296036074,0.00739517933435,-1.56820647441
1385566409863858427,0.0604947351644,-0.0501500022146,-0.113215714785,-0.0226189223846,0.00745628084868,-1.56854271198
1385566409873808621,0.060525906383,-0.0502020967212,-0.113196924624,-0.02257909674,0.00745194164428,-1.56788680987
1385566409883813566,0.0604957979244,-0.0501665632406,-0.113198146747,-0.0222141331592,0.00745562722776,-1.56847849276
1385566409893882930,0.060536529868,-0.0501551490413,-0.113211361049,-0.0223327383799,0.00679986364952,-1.5682630733
1385566409903847307,0.0605414396978,-0.0501710940351,-0.113167109703,-0.0226428664786,0.0076785058537,-1.56805267016
1385566409913852529,0.060560652759,-0.0501403875557,-0.113173738902,-0.0230208570563,0.00820207314844,-1.56864225234
1385566409923885455,0.0604569429583,-0.0501224323384,-0.113148341171,-0.0226601132245,0.00829385627218,-1.56798352087
1385566409933889719,0.0605127064804,-0.0501747347461,-0.113238417136,-0.0224305049159,0.00723298583462,-1.5681781424
1385566409943854556,0.0605166245447,-0.0501616458814,-0.113172299409,-0.0222179314356,0.00723606290361,-1.56871455741
1385566409953989110,0.0606260251872,-0.0501645766942,-0.113146614088,-0.0231098636699,0.00809552774157,-1.56813005032
1385566409963910515,0.0604771553996,-0.0501440205429,-0.113229420453,-0.0226254724779,0.00739322982918,-1.56821729593
1385566409973844744,0.0605031647859,-0.0501208791017,-0.113210044558,-0.0226977148462,0.00720927111298,-1.56864041143
1385566409983860931,0.0605860057269,-0.0501676302932,-0.113037697171,-0.0231420299409,0.00794969433506,-1.56772513906
1385566409993841536,0.0604544223458,-0.0501245045775,-0.11319550105,-0.0221521728285,0.00752936173874,-1.56851910129
1385566410003832502,0.0604339336498,-0.050146780043,-0.113156865465,-0.0224912848296,0.00717863211848,-1.56839575273
1385566410013839650,0.0605064723306,-0.0501420496008,-0.113171183994,-0.0225081786983,0.00752340721014,-1.56803727628
1385566410023837441,0.0604989883783,-0.0501339809486,-0.113177448644,-0.0225360464176,0.00745067495872,-1.56868377905
1385566410033933603,0.0605262108384,-0.0500836012246,-0.113127888341,-0.0222933387948,0.00778688566929,-1.56831960924
1385566410043849360,0.0605106787979,-0.0501246846099,-0.113208872743,-0.0224092747441,0.00752458127876,-1.56825268837
1385566410053931386,0.0604928304314,-0.0501113525609,-0.113255412516,-0.0226166678236,0.00741743792192,-1.56880371088
1385566410063922679,0.0605173667819,-0.0500937349402,-0.11318181903,-0.0225029523686,0.00734466018835,-1.56817261562
1385566410073850987,0.0605227963773,-0.0501036266958,-0.113119578397,-0.0222004839105,0.007503095349,-1.56840266522
1385566410083972898,0.0605309578954,-0.0500820510014,-0.113173560552,-0.0224359162679,0.00739226852179,-1.56878018884
1385566410093877244,0.0605045543927,-0.05012767354,-0.113223454617,-0.0228569484307,0.00788008440289,-1.56819657387
1385566410103849758,0.0603889630254,-0.0500998751178,-0.113200426584,-0.022488285451,0.00803663524669,-1.56867824352
1385566410113874246,0.0605456410277,-0.0500670219525,-0.113134803154,-0.0222999113317,0.00757331331292,-1.56858027057
1385566410123896109,0.0605362320271,-0.0500865522462,-0.113104617995,-0.0219838484377,0.00793473068057,-1.56806889924
1385566410133952558,0.0605522654122,-0.0501655468056,-0.113261731164,-0.0224254503386,0.00756028450474,-1.56904297164
1385566410143854459,0.0604940220854,-0.0500744492873,-0.113260605078,-0.0224469054054,0.00731819025425,-1.56842864072
1385566410153897159,0.0605649658546,-0.0501078341206,-0.113070693568,-0.0234517355444,0.00766890445124,-1.56801991013
1385566410163951242,0.0605529280791,-0.0500914979914,-0.113017695381,-0.0234905905059,0.0074621956562,-1.56845415591
1385566410173864029,0.0604944439962,-0.0500419289016,-0.113135958373,-0.0226956098687,0.00742124727458,-1.56801698498
1385566410183857853,0.060528169767,-0.0500694104468,-0.113256443474,-0.0224286851569,0.00735541689882,-1.56824228714
1385566410193841163,0.0605552911148,-0.050020597705,-0.113174956964,-0.0220995297646,0.00788655749277,-1.56858089147
1385566410203830328,0.0605512992174,-0.0500428762611,-0.113108960699,-0.0217025052256,0.00747459673057,-1.56776794702
1385566410213838098,0.0605445937954,-0.0500267466772,-0.113127848793,-0.0221725471763,0.0075211912384,-1.56829223818
1385566410223851410,0.0605043237607,-0.0500338570941,-0.113255353456,-0.0226362992049,0.00732919624825,-1.56813759941
1385566410233930229,0.0604921619059,-0.0500599999864,-0.113206942025,-0.0227434849812,0.00745214646915,-1.56788636525
1385566410243845251,0.0606044096092,-0.0500419879311,-0.113016558944,-0.0230023579689,0.00705662029565,-1.5682449258
1385566410253901080,0.0605736060524,-0.049974803219,-0.113085667175,-0.0217562364965,0.00762850043843,-1.56771629966
1385566410263903628,0.0605099050682,-0.0500226277138,-0.113280203206,-0.0214793283362,0.00756459270148,-1.56824389591
1385566410273841486,0.0604850317557,-0.0499994656266,-0.113262192956,-0.0221643791665,0.00716598759618,-1.56828772667
1385566410283886604,0.0605105909189,-0.0499952485282,-0.113167607675,-0.0220584180142,0.00741754376315,-1.567664264
1385566410293843348,0.060514932853,-0.0499534918285,-0.113070291577,-0.0221953590838,0.00782649876355,-1.56822795955
1385566410303837830,0.0604848768081,-0.0499425138069,-0.113044947353,-0.0221161252766,0.00834963908948,-1.56763937498
1385566410313867757,0.0605173024227,-0.0499667963039,-0.11324347826,-0.0218633371259,0.00749659245667,-1.56784353722
1385566410323837219,0.0605838590697,-0.0499239349666,-0.113372802478,-0.0215490720456,0.00720377266206,-1.56807615912
1385566410333833399,0.0605302939701,-0.049920168957,-0.113179281711,-0.0217289106786,0.00779548252645,-1.56759333954
1385566410343836747,0.0604923401615,-0.0499170861071,-0.113035065445,-0.0215395495159,0.00799931665981,-1.56829994973
1385566410353825679,0.0603967434483,-0.049898546857,-0.113075651965,-0.0220942644486,0.00815086230927,-1.56778984205
1385566410363861740,0.0604438194257,-0.0498998855451,-0.113326007877,-0.0221769438332,0.0075388384487,-1.56800684513
1385566410373830518,0.0604271154906,-0.0499114515128,-0.113191351389,-0.0227335715182,0.00732420256062,-1.56829002046
1385566410383829707,0.0605272294967,-0.0499269222316,-0.113016743747,-0.0225506663993,0.00725304537695,-1.56733531
1385566410393897840,0.0605071623625,-0.0499113800063,-0.113084163038,-0.0223190881121,0.00787376869086,-1.56823420262
1385566410403847571,0.0605272247375,-0.0498541777398,-0.113261295905,-0.0220457033718,0.00751655144287,-1.5677885254
1385566410413848742,0.0604888885088,-0.0499015731425,-0.113187043085,-0.0222655519,0.0075310658834,-1.56797524812
1385566410423986516,0.0605154670609,-0.0498431217831,-0.113169989537,-0.022067606346,0.00770647232333,-1.56837342678
1385566410433936433,0.060497926819,-0.0498847822579,-0.11312717449,-0.0222746221652,0.00782585762736,-1.56755372534
1385566410443923692,0.0604848523742,-0.0499554638459,-0.113053725321,-0.0229128798435,0.00742776116022,-1.56810919265
1385566410453936998,0.060370340743,-0.0498963728894,-0.113113331705,-0.0224492896694,0.0081049104686,-1.56715317106
1385566410463857702,0.0606192204077,-0.0499656128811,-0.113077327843,-0.0229739059463,0.00861467901222,-1.5675426966
1385566410473936176,0.060428627732,-0.0498609243024,-0.113089213031,-0.0220782065415,0.00783640621057,-1.56754924922
1385566410483913326,0.0605133923142,-0.0498815435202,-0.11324986139,-0.0214452667884,0.00771460877972,-1.56744193325
1385566410493833213,0.0605727956941,-0.0498262163551,-0.113212857616,-0.0218257482306,0.00809351775659,-1.56800238578
1385566410503840149,0.0603825085332,-0.0498580380186,-0.113077764319,-0.0220621917317,0.00851587883214,-1.56695147315
1385566410513871229,0.0603899390691,-0.0498498671686,-0.113123336343,-0.0221999093058,0.00814178312073,-1.56758209716
1385566410523815714,0.0605681099212,-0.0497618171874,-0.113261024187,-0.0223255628266,0.00748948970919,-1.567111387
1385566410533816666,0.0605387340587,-0.0497827944559,-0.113201880713,-0.0220809147777,0.00754040655699,-1.56709154291
1385566410543893807,0.0604933431139,-0.0497143845083,-0.113108135694,-0.0220452879674,0.00814682404805,-1.56757235835
1385566410553938222,0.0604818708618,-0.0497582780499,-0.113083792205,-0.0219947189415,0.0084969061759,-1.56723782327
1385566410563956757,0.0604454375565,-0.0496370845207,-0.113156117733,-0.022228415472,0.00794811015656,-1.56814526889
1385566410573919866,0.0604032389259,-0.0497296743771,-0.113272687912,-0.0224324240434,0.00826920731954,-1.56725722498
1385566410583861024,0.0604513429126,-0.0497285203702,-0.113080949459,-0.0228256764078,0.00838754675939,-1.56770059175
1385566410593848212,0.0605323403452,-0.0497184470842,-0.113126079599,-0.0226335464433,0.00769929666852,-1.56738504142
1385566410603846769,0.0603658003516,-0.0497440949255,-0.113171511575,-0.0216752124813,0.00786950484998,-1.56799919585
1385566410613841620,0.0604088360458,-0.0497012898129,-0.113261183683,-0.0217922976717,0.00801319267119,-1.56802019812
1385566410623887606,0.0605833239585,-0.0497124393841,-0.11333498728,-0.0216425750457,0.00835191606608,-1.56807780387
1385566410633961638,0.0604389156521,-0.0496332176066,-0.113232088382,-0.0221166991678,0.00811621765631,-1.56882551429
1385566410643851865,0.0604461486229,-0.0497312106117,-0.113175455758,-0.0227294917457,0.00710818322505,-1.56861102136
1385566410653880882,0.0603274406589,-0.0494847950808,-0.113436031387,-0.0220737378642,0.00793324872678,-1.57097956757
1385566410663866443,0.0602431235454,-0.0495009386919,-0.113279624788,-0.0225002834361,0.00971928808858,-1.57116573685
1385566410673834926,0.06023456919,-0.0494207541122,-0.113203647159,-0.0221541801924,0.0091526980459,-1.57180914446
1385566410683854408,0.0603097815001,-0.049348224061,-0.11335268302,-0.0221292664372,0.00782551793213,-1.57199924846
1385566410693836222,0.060228514216,-0.0493238773332,-0.113345248287,-0.0224179395399,0.00845535888039,-1.57290466887
1385566410703847974,0.0602547899705,-0.0492907608463,-0.113197448125,-0.0225579467344,0.00812335630026,-1.57289279857
1385566410713859038,0.0603049441498,-0.0493414784172,-0.113198968592,-0.0231187694896,0.00763560614435,-1.57395310412
1385566410723853384,0.060243763112,-0.0493122729936,-0.113256538182,-0.0232090828802,0.00692711554506,-1.57389590938
1385566410733913790,0.0603101671516,-0.049302984271,-0.113292463432,-0.0225201004579,0.00742564099444,-1.57441378272
1385566410743855279,0.0600793564868,-0.0491851079157,-0.113265201639,-0.0227931043734,0.00762696301664,-1.57454447707
1385566410753842719,0.0600044407782,-0.0492298631482,-0.113394054465,-0.0229365215644,0.00712094251783,-1.57467493892
1385566410763875676,0.0598883479179,-0.0491518642412,-0.113531817802,-0.0234295362581,0.00598900092906,-1.57550780604
1385566410773853682,0.0599460156125,-0.0492779692026,-0.113388288754,-0.0242982514307,0.0044900104774,-1.57531253204
1385566410783869726,0.0599817615735,-0.049061679174,-0.11314846179,-0.0241703951261,0.00671823004402,-1.57663858749
1385566410793841832,0.0599487615599,-0.0491364653917,-0.113080236879,-0.0243828988448,0.00731454073462,-1.57659057615
1385566410803803605,0.0598112527475,-0.0488358220396,-0.11334366006,-0.0233785939793,0.00728152909836,-1.57748641022
1385566410813847918,0.0598761412332,-0.0489962982204,-0.113470069071,-0.0235065495689,0.00715820326391,-1.57817659143
1385566410823840139,0.0598086275387,-0.0488415553729,-0.113387037678,-0.023456020146,0.00585376597509,-1.57888275633
1385566410833825089,0.0596482909774,-0.0488574999811,-0.113308483181,-0.0218339683038,0.00768802603937,-1.57855409264
1385566410843844329,0.0595784031359,-0.0486125199155,-0.11327404985,-0.0213279572315,0.00977857046472,-1.57979724768
1385566410853850068,0.0595698154863,-0.0485748033206,-0.11330445117,-0.0224605799871,0.00965613091111,-1.57968516191
1385566410863854203,0.059344522341,-0.0485006116416,-0.113418851878,-0.0219975249438,0.00667958327236,-1.58093471498
1385566410873833247,0.0591540753326,-0.0484032872659,-0.113169018444,-0.0217829210627,0.00699035562902,-1.58074569948
1385566410883849048,0.0590817549702,-0.0482171874063,-0.113220584817,-0.0213127836916,0.00816524359965,-1.58167651409
1385566410893853699,0.0589204450432,-0.0480880811763,-0.113300307198,-0.0212975778104,0.00879901059876,-1.58206215888
1385566410903855304,0.0586570348595,-0.0479338671837,-0.113272862758,-0.0215524574858,0.0080498328915,-1.58267509379
1385566410913848478,0.0586545755939,-0.0478401738428,-0.113363424369,-0.0221331147155,0.0063817425456,-1.5831636508
1385566410923842753,0.0584583451837,-0.047592097449,-0.113572282937,-0.0218545928557,0.00615977394969,-1.5839376634
1385566410933922931,0.0586000695574,-0.0473343404311,-0.11358026258,-0.0201455154547,0.00839722071571,-1.58414185387
1385566410943848872,0.0584892012197,-0.047156220237,-0.113486380559,-0.0190473561926,0.00905134212091,-1.58516407182
1385566410953828000,0.058447629786,-0.0468856996341,-0.113407858828,-0.0201330303762,0.00769364393697,-1.5849876932
1385566410963846542,0.0581799104036,-0.0468076988261,-0.113179771772,-0.0208148747044,0.00793176997405,-1.5848072896
1385566410973821072,0.0582415459405,-0.0464531656698,-0.113329421669,-0.0213052705093,0.00858687458812,-1.58495876786
1385566410983868313,0.0581564368167,-0.0462656012579,-0.113328132602,-0.0223128524053,0.00974416077757,-1.58552794691
1385566410993841943,0.0581063178653,-0.0460641380864,-0.113510459372,-0.0218518723204,0.00905247058047,-1.58505988855
1385566411003860059,0.0579999589061,-0.0458468677415,-0.113427797882,-0.0202529299809,0.00685779691155,-1.58466845269
1385566411013871271,0.0580183024414,-0.0455101350761,-0.113136923674,-0.0201490302478,0.00844710158035,-1.58487904048
1385566411023845186,0.0580718927467,-0.0452093557935,-0.113273011221,-0.0198485757829,0.00921478894116,-1.58474602368
1385566411033829888,0.0578885020981,-0.0450280761528,-0.113513124725,-0.0210653227576,0.00771162568116,-1.58468052638
1385566411043847626,0.0578643275615,-0.0447792727784,-0.113675073673,-0.0198343686265,0.00511629796794,-1.58543725228
1385566411053871751,0.0580833290409,-0.0443200229595,-0.113349138925,-0.0194310036369,0.00649700594701,-1.58519522435
1385566411064077608,0.0580129601423,-0.044066314067,-0.113187085956,-0.0191280493161,0.00971988597479,-1.58537181165
1385566411073949057,0.0580660351917,-0.0435058614689,-0.11350362499,-0.0197215381721,0.0110547267716,-1.58635746409
1385566411083863364,0.0580992059726,-0.0433607986287,-0.113698164273,-0.0189888331662,0.00722840679445,-1.58615191953
1385566411093905287,0.0578707393968,-0.04292708929,-0.113491881285,-0.0188951194268,0.00510883968213,-1.58587479207
1385566411103880496,0.058049856483,-0.0425857185959,-0.113384487838,-0.0175824213546,0.00597850900013,-1.586304144
1385566411113848607,0.0579502128828,-0.0421595548378,-0.1137842826,-0.0176497947911,0.00558762035621,-1.58630004814
1385566411123840203,0.0579234151842,-0.0417746531431,-0.114051773234,-0.0176735031039,0.00745654695073,-1.58642639277
1385566411133906654,0.057607914904,-0.0413115747196,-0.114011541453,-0.0172372126489,0.00820205587605,-1.58728461992
1385566411143896420,0.0578702311166,-0.0407990486285,-0.113803978846,-0.0182652413133,0.00521960001602,-1.58760484118
1385566411153936438,0.0576614737061,-0.0403131987868,-0.113921815273,-0.0185285514519,0.00483341867234,-1.58841597104
1385566411163929710,0.0573990746542,-0.0396902266713,-0.114049679265,-0.0187344166216,0.00444530450135,-1.58839150329
1385566411173841797,0.0574888180703,-0.0393276505888,-0.11398797619,-0.0189871934211,0.00142835745273,-1.58817225738
1385566411183854683,0.0572809385085,-0.0386946077598,-0.114027288517,-0.017563367015,0.00284721136604,-1.58805181181
1385566411193861360,0.0570752160361,-0.0381502087279,-0.114342237264,-0.0180417944451,0.00119994218035,-1.58865916952
1385566411203990977,0.0566522935905,-0.0375139400497,-0.114602231009,-0.0187815379955,0.00120183264833,-1.58857318665
1385566411213877977,0.0566552611876,-0.0370230590441,-0.114526580241,-0.0199391341487,-0.000102920566496,-1.58878803473
1385566411223838320,0.0562344972366,-0.0363808858605,-0.114593303694,-0.020721245652,-0.0017670113886,-1.58931682043
1385566411233926341,0.056061480893,-0.035707386542,-0.114818751992,-0.0211294130646,-0.00281515980365,-1.58953297209
1385566411243878260,0.0560393143681,-0.0351314934089,-0.115490572833,-0.019218978704,-0.00608784637811,-1.59068949266
1385566411253834034,0.0557516283456,-0.0344358030867,-0.115758530025,-0.0180918719045,-0.00837146121838,-1.58996282191
1385566411263875166,0.0555806475789,-0.0337669017302,-0.115947950119,-0.0172391646315,-0.0108568206035,-1.59053404941
1385566411273839501,0.0552441756536,-0.0330655668782,-0.116277357539,-0.0178596101005,-0.0119934019431,-1.59111956578
1385566411283878598,0.0549352850468,-0.0323220699802,-0.116971613457,-0.0174588059658,-0.0157247230695,-1.59133555615
1385566411293835143,0.0545598083439,-0.031782058887,-0.117538992658,-0.0156035133398,-0.0177367971487,-1.59180986953
1385566411303811319,0.0542157933649,-0.0309640708433,-0.11801327343,-0.0153192524738,-0.0208864484507,-1.59245623683
1385566411313838127,0.0538879968051,-0.0302395272048,-0.118768231546,-0.0146578389157,-0.0234224094889,-1.59312376991
1385566411323834591,0.0536145522605,-0.0294615578238,-0.119758963905,-0.0138895185416,-0.0255414232253,-1.59373115534
1385566411333847770,0.0532353259835,-0.0286794265019,-0.12037956589,-0.0140841259378,-0.0272540616524,-1.59449350218
1385566411343812000,0.0526558425881,-0.0278273004734,-0.121074154842,-0.014774704325,-0.0295897379603,-1.59517528287
1385566411353911406,0.0522420844888,-0.0269843008722,-0.122241695955,-0.0144802246284,-0.0323108916788,-1.59571049073
1385566411363992127,0.0517814310707,-0.0261226855424,-0.123472875596,-0.0149694141374,-0.0328193631678,-1.5975007259
1385566411373891671,0.051260953099,-0.0254496727053,-0.12447080259,-0.0141206343332,-0.0345100539357,-1.59825313185
1385566411383823915,0.0507757139237,-0.0245415824298,-0.125607184027,-0.0139918233217,-0.0374996859585,-1.5998555763
1385566411393880311,0.050073667996,-0.0236629955099,-0.126869372304,-0.0124560862414,-0.0378116686872,-1.60048318536
1385566411403839151,0.0494671120042,-0.0227402283456,-0.128474826408,-0.0121050941278,-0.0395605873104,-1.60180647528
1385566411413813190,0.0489082740279,-0.0218237352843,-0.129690025455,-0.0126419950048,-0.0400331502301,-1.60223485268
1385566411423808332,0.0482181166257,-0.0210070280432,-0.131268558235,-0.0126180579789,-0.043042469808,-1.60350329779
1385566411433833808,0.0476103858572,-0.0202191062538,-0.13301281736,-0.0115320162563,-0.0444555676321,-1.60435361888
1385566411443815029,0.0468515447164,-0.0192293193439,-0.134855108427,-0.0105866400394,-0.0449174595024,-1.60521081539
1385566411453864199,0.0462576221415,-0.0183755409912,-0.136712851764,-0.0102122902713,-0.0446092078704,-1.6059436238
1385566411463844564,0.0454573300864,-0.0175139098878,-0.138583434322,-0.00986836221331,-0.045266333679,-1.60653251879
1385566411473818139,0.0446929868149,-0.0167205673445,-0.140860234498,-0.00964332271964,-0.0446334930371,-1.60701024615
1385566411483821478,0.0441629313725,-0.0159232472109,-0.143200114287,-0.00930590411154,-0.0455651323838,-1.60686108817
1385566411493838185,0.0434265670528,-0.0151332773418,-0.145635303052,-0.00937212754636,-0.0455132383311,-1.60700903212
1385566411503811916,0.0429575653662,-0.014378013111,-0.148121398484,-0.00850528299939,-0.0454119169034,-1.60627878922
1385566411513813253,0.042404568388,-0.0136616922521,-0.15081779635,-0.00784047877578,-0.0461467431837,-1.60628071943
1385566411523812925,0.0417029853123,-0.0130611655088,-0.153597511601,-0.00786207592602,-0.0474196474184,-1.60552148926
1385566411533847276,0.0412418002452,-0.0125258677881,-0.156421339162,-0.00819981598723,-0.0478588708898,-1.60593925744
1385566411543830084,0.0404810156059,-0.012009050558,-0.159372009082,-0.00876183942197,-0.049257512528,-1.60628981779
1385566411553809828,0.03989991249,-0.0115476132353,-0.16251082558,-0.00873339042934,-0.0509344703509,-1.60569023839
1385566411563845188,0.0392559722149,-0.0113209919515,-0.165618115224,-0.00888701510238,-0.0519497969403,-1.60628215865
1385566411573806794,0.0386855939854,-0.0110125927745,-0.168876354705,-0.00827291538783,-0.0544235785287,-1.60526416569
1385566411583810144,0.0381143205685,-0.010975761847,-0.172254879004,-0.00820627522137,-0.0561811235935,-1.6049254713
1385566411593822222,0.0374829102162,-0.01083483215,-0.175659233905,-0.00869698674723,-0.0582260819778,-1.6047741753
1385566411603807468,0.0368382406222,-0.010900578837,-0.179281406498,-0.00871887579377,-0.0582843117483,-1.6037368192
1385566411613807021,0.036246423092,-0.0109587818656,-0.182713193599,-0.00850522261696,-0.0598923350142,-1.60363975814
1385566411623835254,0.0357309640771,-0.0110949408391,-0.18645588412,-0.00818094771124,-0.0614972308636,-1.60382374838
1385566411633807868,0.0352248395303,-0.011312651859,-0.190321527183,-0.00719988021601,-0.0611049507129,-1.60356034795
1385566411643821402,0.0345430834339,-0.0116015878596,-0.194111029272,-0.00794395423127,-0.0607141998825,-1.60414798964
1385566411653816313,0.0339093278124,-0.0119049311221,-0.197933412594,-0.00788464118261,-0.0598689254178,-1.60337332494
1385566411663812375,0.0331638063128,-0.0123702265202,-0.201831374551,-0.00784950729669,-0.0578468856963,-1.60384115012
1385566411673804101,0.0326390595754,-0.0128373895669,-0.205768269153,-0.00792817536457,-0.0575999564056,-1.60343923659
1385566411683848008,0.0320216835049,-0.0134552539765,-0.209984542928,-0.00768583839218,-0.0572045359628,-1.60285664057
1385566411693817124,0.031314077473,-0.0139778365924,-0.214019689739,-0.00781525262121,-0.0560936500831,-1.60266779734
1385566411703815939,0.0306651875831,-0.014844859622,-0.218021618956,-0.00967439646746,-0.05461138617,-1.60287412038
1385566411713806413,0.0299256046935,-0.0155393439162,-0.222250708501,-0.011381556879,-0.0523967725619,-1.60251977141
1385566411723811803,0.0293176180112,-0.0163585985824,-0.226389119317,-0.0132075398171,-0.0512043539207,-1.60200503584
1385566411733844089,0.0285990558096,-0.0171094834496,-0.230655843941,-0.0127850934682,-0.0477050410004,-1.60133628104
1385566411743855064,0.0279079530224,-0.0180105890425,-0.234811701988,-0.0132374908573,-0.0450538934871,-1.6014565165
1385566411753914068,0.0274543035341,-0.0188549312976,-0.239168221735,-0.0119772776324,-0.0424127123797,-1.60169762589
1385566411763909843,0.0266286259055,-0.0199381940311,-0.243515737453,-0.011872313887,-0.0398708424124,-1.60146555458
1385566411773903842,0.026111251806,-0.020925233706,-0.247999275889,-0.0104732333056,-0.0382363598322,-1.60128907937
1385566411783828352,0.0255203555376,-0.0221290591905,-0.252410693752,-0.0100573928052,-0.034655299439,-1.60051633891
1385566411793813219,0.0245836848202,-0.0230888602708,-0.256892618142,-0.0104768083711,-0.0331853298928,-1.5996306146
1385566411803843320,0.0240532826148,-0.0244141958436,-0.261496448704,-0.0112245117604,-0.0303929033522,-1.59897291037
1385566411813842853,0.0233266462389,-0.0255856395473,-0.26593382945,-0.0112708229718,-0.028636144166,-1.59831376767
1385566411823813809,0.022662792511,-0.026821191218,-0.270580432851,-0.0111448313121,-0.0261873790187,-1.59876781663
1385566411833817175,0.0218735468071,-0.0281858007994,-0.275053163525,-0.011793478141,-0.0233354350954,-1.59892729306
1385566411843815440,0.0211231495306,-0.0293686187292,-0.27993421244,-0.0110111527151,-0.0218207018279,-1.59835652685
1385566411853811199,0.0204965307636,-0.0306472420789,-0.284577532962,-0.012888195406,-0.0196828096294,-1.59781970623
1385566411863829448,0.0197653361221,-0.0318791922804,-0.28900562385,-0.0145248720116,-0.0162157953492,-1.59710453209
1385566411873827932,0.0188843694777,-0.0332745923325,-0.294057365368,-0.0148113576487,-0.0130686377491,-1.59607405209
1385566411883825924,0.0179895030888,-0.0345952513811,-0.298643953599,-0.0158372962076,-0.011143996242,-1.59512444074
1385566411893812249,0.0171969699928,-0.0360094446681,-0.303312522848,-0.0166295546371,-0.00764038150928,-1.59438923618
1385566411903809090,0.0164384886483,-0.0373241298375,-0.308098499785,-0.0176105108212,-0.00715031704994,-1.59456767343
1385566411913807650,0.0155439606482,-0.0387678915511,-0.312611032826,-0.0188289378268,-0.0045321750975,-1.59414835577
1385566411923808050,0.014762106344,-0.0401490620505,-0.31750218336,-0.0206500690321,-0.00290153295515,-1.59431545072
1385566411933858988,0.0139395873757,-0.0416313734042,-0.322304062146,-0.0214581983906,-0.00154424866005,-1.59383973978
1385566411943823056,0.0130627480772,-0.0430426365776,-0.327067461795,-0.023121706294,0.000386183505595,-1.59346287359
1385566411953811770,0.0120764860567,-0.0445282048541,-0.331881260072,-0.023677417992,0.00145349681757,-1.59229374591
1385566411963825230,0.0113806326155,-0.0459618954427,-0.336819665319,-0.0234879070951,0.00203311079472,-1.59179739627
1385566411973807556,0.0104308747628,-0.0474595957382,-0.341775493144,-0.0239589715839,0.00359234916007,-1.59180988017
1385566411983820386,0.0094488634765,-0.0488363296091,-0.346868866295,-0.0234297524926,0.00475890240902,-1.59162324923
1385566411993811897,0.0084572045473,-0.0503528165534,-0.351682806073,-0.0235450341594,0.00626709629896,-1.59132806657
1385566412003820546,0.00765824914496,-0.0518518279466,-0.356748377132,-0.0228320523898,0.00654821411652,-1.59062281835
1385566412013813886,0.00681086079425,-0.0533158841031,-0.361856186889,-0.0219375151061,0.00606765926227,-1.59098876264
1385566412023809638,0.00600199828069,-0.0547493498476,-0.36684555656,-0.0217328700871,0.00758359381623,-1.59050911139
1385566412033810934,0.00513476798128,-0.0560825130101,-0.372192112937,-0.0199297063255,0.00743802659906,-1.59034376838
1385566412043850940,0.00412992356798,-0.0575876945848,-0.377392021971,-0.0192648139193,0.00981810538543,-1.58970346073
1385566412053920456,0.00326472331326,-0.0588954085663,-0.382772222735,-0.0186864387103,0.00990917654322,-1.58960118597
1385566412063935459,0.00228458991114,-0.0603121542048,-0.388417596529,-0.0173628063903,0.0105979441212,-1.58931131482
1385566412073925637,0.00145548014558,-0.0617598401522,-0.393712725745,-0.0170911649452,0.011627858765,-1.58912457843
1385566412083823658,0.000486914708818,-0.0630474817246,-0.399047109784,-0.016065586896,0.015393638542,-1.58925566215
1385566412093811746,-0.000356294866966,-0.0643916305843,-0.403976884661,-0.0147964365191,0.0133776950092,-1.58851231128
1385566412103818724,-0.00131508596023,-0.065833777581,-0.408887938329,-0.0148111650824,0.015348405315,-1.58840991005
1385566412113862469,-0.00219213975485,-0.067198959378,-0.413798252181,-0.014285692512,0.0164034878257,-1.58801630753
1385566412123831134,-0.00319578352747,-0.068503340923,-0.418560749871,-0.0134362504103,0.0166339732728,-1.58761499758
1385566412133887338,-0.00415805913102,-0.0699721491993,-0.422920372915,-0.013565962573,0.0183478450409,-1.58732693422
1385566412143843449,-0.00501674186065,-0.0712296458347,-0.427447667156,-0.0132981716969,0.0181145083543,-1.58731641864
1385566412153847927,-0.00608036460378,-0.0725638336173,-0.431825653711,-0.013885003497,0.0177550312254,-1.58689281249
1385566412163822580,-0.00692670622314,-0.0738313923901,-0.435886672037,-0.0128223760752,0.019346185637,-1.58685097596
1385566412174000330,-0.00821454106708,-0.075238522226,-0.439640177854,-0.0126004869777,0.0201168859046,-1.58617774972
1385566412183934857,-0.00881915452055,-0.0764396377735,-0.443573570402,-0.0132240653865,0.020091706772,-1.58641194987
1385566412193843816,-0.00988366958998,-0.0776866789737,-0.447341570499,-0.0127727583903,0.0200400459883,-1.58576829478
1385566412203836350,-0.01079406647,-0.0789571752924,-0.450859948241,-0.0133232647674,0.020858946022,-1.58565937956
1385566412213889403,-0.011758071225,-0.0801729358196,-0.45431823045,-0.0130940721521,0.0202668285696,-1.58526960527
1385566412223821191,-0.0127777474753,-0.0814785176565,-0.457566091461,-0.0130954036475,0.0206441785316,-1.58472496381
1385566412233839480,-0.0137040808088,-0.0826638550085,-0.460616949904,-0.0140075410055,0.0205545147902,-1.58463435005
1385566412243881441,-0.0148431835916,-0.0839618353282,-0.463617448563,-0.0137198670142,0.0213497688108,-1.58427354863
1385566412253841778,-0.015648662452,-0.0850771164665,-0.466413130075,-0.014439947183,0.0199601694159,-1.58465904887
1385566412263839587,-0.0165458240862,-0.0863058363686,-0.469126669822,-0.0143875460512,0.0200260385302,-1.5843587082
1385566412273828507,-0.0175064726341,-0.0874703755467,-0.471587548948,-0.0153932973962,0.0199866374868,-1.58427992237
1385566412283941941,-0.0184369735113,-0.0886758983757,-0.473974272619,-0.0149211123899,0.0197240073531,-1.58343478175
1385566412293845680,-0.019580927676,-0.0898656774956,-0.47623365669,-0.0147479913284,0.0199004070239,-1.58369160288
1385566412303911400,-0.0204928286611,-0.0910263554764,-0.47819936371,-0.0154329226761,0.0199552732498,-1.58317060275
1385566412313870098,-0.021455058094,-0.0921196294656,-0.480151425134,-0.0149228060203,0.0190678605208,-1.58298455501
1385566412323859548,-0.0222456343093,-0.0932197782954,-0.482023063023,-0.0156338691915,0.0190908108057,-1.58309931709
1385566412333972055,-0.0232372481568,-0.094300428895,-0.483807264472,-0.0142776246102,0.019518200651,-1.58282308594
1385566412343846348,-0.0240758821659,-0.0952557633119,-0.485241023648,-0.0137860264003,0.0189706005384,-1.58233230735
1385566412353837417,-0.02517736798,-0.0965254609719,-0.486739331335,-0.0143142260608,0.0199555104649,-1.58261298357
1385566412363858747,-0.0260399197115,-0.0973975820799,-0.487926779904,-0.0135065094958,0.0194049212776,-1.58175094974
1385566412373974718,-0.0270694334512,-0.0984334278972,-0.489113658091,-0.0131322519689,0.0198563353398,-1.58166954868
1385566412383927433,-0.0279760514799,-0.0994641471875,-0.49005830035,-0.0123440730588,0.0194352126678,-1.58163885893
1385566412393868729,-0.0287875426418,-0.100376028874,-0.491143650316,-0.0117171815356,0.0207373085919,-1.58147105524
1385566412403888496,-0.0297759440628,-0.101489658508,-0.491978479023,-0.011028901954,0.0211370890406,-1.58159806205
1385566412413842825,-0.0307153557916,-0.102392108836,-0.492620674879,-0.0099119031353,0.0215471544561,-1.58171649532
1385566412423839360,-0.0316075194842,-0.103380508115,-0.493166270508,-0.0092270575162,0.021465176495,-1.58158706639
1385566412433962767,-0.0326002329653,-0.104273514989,-0.493634285456,-0.00827383391757,0.0216497891325,-1.58141368658
1385566412443874757,-0.0333995263143,-0.105378550935,-0.493999981322,-0.00840825626728,0.0227133829999,-1.58206792234
1385566412453929170,-0.0343901982692,-0.106110706904,-0.494282775239,-0.0073358106795,0.0228680306421,-1.58153236722
1385566412463930810,-0.0353776373414,-0.106998695694,-0.494582270135,-0.00706072814841,0.0249033366388,-1.58201383905
1385566412473878757,-0.0362485814227,-0.108028298162,-0.494696570959,-0.00694868842126,0.0249955564117,-1.58178738141
1385566412483893901,-0.0371490740102,-0.108781153653,-0.494668387976,-0.00572925379617,0.0254896810408,-1.58131990402
1385566412493898264,-0.0379474664387,-0.109781024873,-0.49467350913,-0.00594206364635,0.0262770662307,-1.5819781452
1385566412503845568,-0.0390093044915,-0.1106381858,-0.494437799462,-0.00558629836524,0.0264383420036,-1.58175883737
1385566412513846939,-0.0399758754217,-0.111474047462,-0.494175648363,-0.00540284344866,0.0270417737785,-1.58189781458
1385566412523830729,-0.0406817500919,-0.11225853346,-0.493809522533,-0.00571658160187,0.0267597554454,-1.58161247275
1385566412533873877,-0.0416924101131,-0.112955405762,-0.493388608478,-0.00606529617976,0.0273169415882,-1.58184836548
1385566412543903207,-0.0425158494604,-0.113785559284,-0.492931943361,-0.00567763940507,0.0276594784972,-1.58128231627
1385566412553848338,-0.0435615139759,-0.114479332951,-0.492244603528,-0.00593799927401,0.0270950060704,-1.58120879213
1385566412563871023,-0.0443205924409,-0.115302136368,-0.491674491546,-0.00615640227177,0.0273056900049,-1.58146085705
1385566412573841968,-0.0451972948317,-0.11600547156,-0.490913938254,-0.00597802053344,0.0273073848454,-1.58121836308
1385566412583941805,-0.0462080242036,-0.116886062859,-0.490268552481,-0.00610286109917,0.0289863574633,-1.58234192173
1385566412593861026,-0.0469542208094,-0.117514490005,-0.489354049513,-0.00645747700521,0.0267924004833,-1.58174387394
1385566412603901285,-0.0477725558847,-0.11817495112,-0.488508689647,-0.00604619490052,0.0278490960704,-1.5814199937
1385566412613843100,-0.0487777486474,-0.11884340833,-0.487467598659,-0.00686253018126,0.0267213963642,-1.58141668222
1385566412623832427,-0.0497696140361,-0.119508417883,-0.486644263375,-0.00745782405201,0.027797505387,-1.58179100233
1385566412633906721,-0.0506757364455,-0.120156909906,-0.485669938036,-0.00733995334256,0.0274573753171,-1.58199462636
1385566412643843164,-0.0514709627588,-0.120658786252,-0.484478990495,-0.00802981467892,0.0273324012599,-1.58142612167
1385566412653953763,-0.0524873221021,-0.121266541733,-0.483328465554,-0.00833383605335,0.0274527948794,-1.58173608323
1385566412664060752,-0.0533076134952,-0.121844976137,-0.482250462587,-0.00865141784022,0.0268002941651,-1.58138317589
1385566412673908740,-0.0541059029635,-0.122417785847,-0.480945518221,-0.00909730625346,0.0271837757915,-1.58135568233
1385566412683904043,-0.055022281516,-0.122978204781,-0.479761525383,-0.00941216288437,0.0273595673545,-1.58157377695
1385566412693833656,-0.0560598796228,-0.123633157467,-0.478481730103,-0.00940791107136,0.0268972186156,-1.58201782143
1385566412703814423,-0.0567515764723,-0.124017247223,-0.47713999249,-0.00954492610929,0.0265396591271,-1.58148923009
1385566412713817143,-0.0577487870485,-0.124637532785,-0.475635706622,-0.0102129592874,0.0249307441157,-1.58144940474
1385566412723811659,-0.0585489895067,-0.125011264921,-0.474143295592,-0.00968668403343,0.0249366328341,-1.58114752131
1385566412733822331,-0.0594862087712,-0.125539116994,-0.472734841241,-0.0103455020256,0.0246644667634,-1.58172996388
1385566412743817952,-0.0605327900867,-0.126048379691,-0.471210562048,-0.00990735427937,0.0248215588419,-1.5815488583
1385566412753908648,-0.0613565670469,-0.126433106298,-0.469586438994,-0.0103702926367,0.0237448658821,-1.58169979797
1385566412763838005,-0.0621984580917,-0.12692267191,-0.468047092058,-0.010747363255,0.0242345644302,-1.58170526996
1385566412773910543,-0.0630514322216,-0.127258896745,-0.466439575663,-0.0102141847587,0.0232709682479,-1.58108940706
1385566412783914437,-0.0640722167773,-0.127730945146,-0.464881408945,-0.0101322417641,0.023896841056,-1.58110181527
1385566412793837399,-0.0649174635089,-0.128227607639,-0.463200610555,-0.0105429089,0.0227139583674,-1.58155930976
1385566412803811294,-0.0658747400406,-0.128486946329,-0.461425201542,-0.0105268012899,0.0217711809416,-1.58161183263
1385566412813821814,-0.0667158511157,-0.128902471617,-0.45975786645,-0.0111921853177,0.021784977628,-1.58153996099
1385566412823825610,-0.0676968344341,-0.129286611663,-0.45810295846,-0.0112271505357,0.0218327224219,-1.5817798828
1385566412833814574,-0.0686695711202,-0.129510075125,-0.456489678188,-0.011227457418,0.0234249626383,-1.58284872179
1385566412843811947,-0.0693362680623,-0.129902670172,-0.454594133169,-0.0110781866242,0.0212306030577,-1.58152783618
1385566412853905805,-0.0704275915623,-0.13020421489,-0.452877380534,-0.0112478216251,0.0218256383132,-1.5818780866
1385566412863924898,-0.0713360523249,-0.130507631549,-0.451157220321,-0.0109644205083,0.0218049258572,-1.58192750242
1385566412873825106,-0.0722166316464,-0.130798521882,-0.44928096269,-0.0106269215859,0.0208182880921,-1.58133440044
1385566412883825049,-0.0730649016758,-0.131056802889,-0.447547345615,-0.0106749390066,0.0205171206339,-1.58124617312
1385566412893828199,-0.073761386176,-0.131227467707,-0.445928003311,-0.00991922378748,0.0215048816254,-1.58141081285
1385566412903811661,-0.0747905417435,-0.131534088004,-0.44401223136,-0.0104568489934,0.0198225123067,-1.5814773457
1385566412913810556,-0.0758116897385,-0.131884407238,-0.442088672702,-0.0109556594739,0.0205516759098,-1.58143410987
1385566412923818405,-0.0767023900827,-0.132062949751,-0.440398721318,-0.0108285027645,0.0200827149501,-1.58194289155
1385566412933848888,-0.0777337027015,-0.132245597062,-0.438718674916,-0.0105722247181,0.0194867485012,-1.58246908868
1385566412943818371,-0.0785328690092,-0.132459859764,-0.436874311928,-0.0103342735973,0.0195825631485,-1.58219515345
1385566412953805763,-0.0795186741108,-0.132693463495,-0.435079697607,-0.0107354296407,0.018774858734,-1.58194829455
1385566412963823579,-0.0804112984847,-0.132805130926,-0.433391194296,-0.0102384919196,0.018806937487,-1.58159332246
1385566412973840285,-0.0810947117531,-0.132927754935,-0.431589622089,-0.0103715179088,0.0180238492071,-1.58141903757
1385566412983832178,-0.0821025973902,-0.133157156541,-0.429857527226,-0.00937150735913,0.0174008742918,-1.58160165344
1385566412993832852,-0.0831580633549,-0.133468480164,-0.42818691333,-0.0098118844085,0.0184163107921,-1.58186179751
1385566413003817132,-0.0838975381289,-0.133506645423,-0.426342780421,-0.00926860965791,0.016988769187,-1.58121255542
1385566413013817545,-0.0847242296287,-0.133661865483,-0.4247148302,-0.00798010625146,0.0169754297539,-1.58153862936
1385566413023830476,-0.08572142767,-0.133706164644,-0.422995489087,-0.00681168454571,0.0172015375872,-1.58127399066
1385566413033812351,-0.0866905464675,-0.133928732306,-0.421532423213,-0.00643349817055,0.017655417009,-1.58208326809
1385566413043812302,-0.0873351426929,-0.134106985985,-0.419801205179,-0.00627053585458,0.0185098702661,-1.58208808972
1385566413053842504,-0.0882353640018,-0.134067626129,-0.418319548756,-0.00482787654017,0.0178549410108,-1.58203684486
1385566413063832144,-0.0890964129738,-0.134244134466,-0.416876577104,-0.00460772486964,0.0186295335457,-1.58230620063
1385566413073808847,-0.0898225548383,-0.134197056829,-0.415469194335,-0.00322402910355,0.0196212904151,-1.58190475021
1385566413083815443,-0.0907458256433,-0.134316000317,-0.414106368546,-0.00240744268282,0.0195421524475,-1.58163300414
1385566413093809246,-0.0914485966913,-0.134464804216,-0.412762425311,-0.00304684134546,0.0211220671849,-1.58199719319
1385566413103821694,-0.0924480330218,-0.134392576075,-0.411542840878,-0.00147252451552,0.0212324806741,-1.58152317263
1385566413113813730,-0.0932954209428,-0.134495540746,-0.410157298682,-0.00232768194581,0.020668579551,-1.58231214407
1385566413123818603,-0.0939646583277,-0.134531425557,-0.409056298206,-0.0023281467291,0.0210433421431,-1.5821477218
1385566413133810028,-0.0949373912437,-0.134492744633,-0.407860413378,-0.00194434538263,0.0212591277347,-1.58176611583
1385566413143829128,-0.0957399151045,-0.134753292823,-0.406710536003,-0.00134510993354,0.0210838519101,-1.58197503652
1385566413153828291,-0.0966270278876,-0.134692762447,-0.405668299955,-0.000966846255198,0.020889134709,-1.58206709935
1385566413163827713,-0.0973444283466,-0.134671517156,-0.404515070382,-0.00148520137399,0.0200546790207,-1.58271722795
1385566413173841409,-0.0979970851362,-0.134702712464,-0.403416829489,-0.0015333152933,0.0196093964216,-1.58300979995
1385566413183829016,-0.0987926605494,-0.134756992763,-0.402458661774,-0.00102655130021,0.0192534949035,-1.58323955817
1385566413193821950,-0.0994475635537,-0.134706454064,-0.401534966097,-9.801022968e-05,0.0185032550612,-1.58327877431
1385566413203810069,-0.10038076604,-0.134766006115,-0.400532630295,-0.000358515401794,0.0186143123223,-1.58359652443
1385566413213805592,-0.101059802843,-0.134622053324,-0.399523506411,-0.000159101077016,0.0187150479043,-1.58271518181
1385566413223833300,-0.101727294229,-0.134726712045,-0.39867359734,-0.000240716748746,0.0176809392019,-1.58280395376
1385566413233818533,-0.102381866944,-0.134529141459,-0.397886326127,-6.59679911999e-06,0.0181217684607,-1.58231467439
1385566413243839264,-0.103271300878,-0.134480915742,-0.397003919378,-0.000865386728432,0.0188316689787,-1.58266910547
1385566413253907793,-0.103796795288,-0.13435062247,-0.396126027895,-0.00191153490503,0.019348840485,-1.58271889693
1385566413263842331,-0.104661469664,-0.134211905278,-0.395417063928,-0.00245608385132,0.0197278002035,-1.58247605335
1385566413273817400,-0.10546150795,-0.134234876543,-0.394722348623,-0.00383449503049,0.0204861142112,-1.58377894314
1385566413283820478,-0.106163938284,-0.134050458874,-0.393991849472,-0.00439974160984,0.0214874418086,-1.58314828374
1385566413294062917,-0.107054961528,-0.133913632089,-0.39329679034,-0.00591585280543,0.0218471577022,-1.58252059461
1385566413303829598,-0.107728696881,-0.133785536805,-0.392736642113,-0.00753094395079,0.0225823165296,-1.58234380653
1385566413313826175,-0.108390474178,-0.133637425108,-0.392225511559,-0.00933790511181,0.0238266629868,-1.5819314894
1385566413323840775,-0.10917863659,-0.133488622592,-0.391626873584,-0.0105216600719,0.0248518083497,-1.58224038642
1385566413333815792,-0.109860866237,-0.133247915467,-0.391085241784,-0.0121392818673,0.0258868132809,-1.58204885186
1385566413343952113,-0.110737726919,-0.133034568334,-0.390703973939,-0.012861642331,0.027541173505,-1.58155397192
1385566413353821881,-0.111473211013,-0.132695835351,-0.390372475272,-0.0132385582721,0.0291316087104,-1.58204374212
1385566413363852592,-0.112062036189,-0.132472308139,-0.389896031921,-0.0143278321318,0.029379469084,-1.58125240047
1385566413373830378,-0.1129252416,-0.132285758009,-0.389552597637,-0.0148085934686,0.0302023828374,-1.58110423022
1385566413383876204,-0.113576631079,-0.131993584437,-0.389215021518,-0.0153211380876,0.0319644689424,-1.5814857646
1385566413393816010,-0.114238184217,-0.131539694802,-0.389102511872,-0.0148056286513,0.0331677225661,-1.58137406784
1385566413403816191,-0.115010512886,-0.131246883404,-0.388798756695,-0.0143091535449,0.033757225252,-1.58141904406
1385566413413848647,-0.115874189232,-0.130841298223,-0.388596721237,-0.0135591779584,0.0355230547804,-1.58129018475
1385566413423808222,-0.116430782452,-0.130477765765,-0.388537872673,-0.0135421827561,0.0356082390467,-1.58099614464
1385566413433820588,-0.117281712111,-0.130047666065,-0.388405702979,-0.0127491552272,0.0361165720399,-1.58107769395
